Time,RobotMode,AutoToRun,ErrorStatus, ErrorCode,ErrorSource,ActualRPM1,ActualRPM2,DesiredRPM1,DesiredRPM2,ControlMode1,ControlMode2,NavXYaw,NavXRoll,NavXPitch,ShooterState,LoopTime,IsLevel,IsAutoTargeting,LeftMotorOutput,RightMotorOutput,IsHaloDrive,NavXVelocityX,NavXVelocityY,NavXVelocityZ,NavXDisplacementX,NavXDisplacementY,NavXDisplacementZ,NavXAccelerationX,NavXAccelerationY,NavXAccelerationZ,AutoDefendState,AngeMotorState,Photoeye
08:22:40.953 PM 02/17/2016,Teleop Enabled,0,TRUE,91,Variant To Data in WPI_DigitalInputRefNum Registry Get.vi->Periodic Tasks.vi->Robot Main.vi,0.000000,0.000000,0.000000,0.000000,Speed,Speed,0.000000,1.010000,1.550000,0.000000,105.000000,1,0,-0.000000,0.000000,1,0.000000,0.000000,0.000000,6.106079,-20.694183,0.000000,0.000000,-0.002000,0.003000,FlatInitial,ResetBack,0
08:22:41.053 PM 02/17/2016,Teleop Enabled,0,TRUE,-44007,<LOCATION>WPI_DigitalInputRefNum Registry Get.vi<CALLSTACK>WPI_DigitalInputRefNum Registry Get.vi< <Periodic Tasks.vi< <Robot Main.vi,0.000000,0.000000,0.000000,0.000000,Speed,Speed,0.000000,1.000000,1.550000,0.000000,100.000000,1,0,-0.000000,0.000000,1,0.000000,0.000000,0.000000,6.106079,-20.694183,0.000000,0.007000,0.001000,0.014000,FlatInitial,ResetBack,0
08:22:41.154 PM 02/17/2016,Teleop Enabled,0,FALSE,0,NO ERROR,0.000000,0.000000,0.000000,0.000000,Speed,Speed,-0.030000,1.040000,1.530000,0.000000,103.000000,1,0,-0.000000,0.000000,1,0.000885,0.000000,0.000000,6.106171,-20.694183,0.000000,-0.001000,0.009000,-0.008000,FlatInitial,ResetBack,0
08:22:41.254 PM 02/17/2016,Teleop Enabled,0,FALSE,0,NO ERROR,0.000000,0.000000,0.000000,0.000000,Speed,Speed,-0.030000,1.030000,1.590000,0.000000,104.000000,1,0,-0.000000,0.000000,1,0.000000,-0.011948,0.000000,6.106171,-20.694336,0.000000,0.008000,-0.057000,0.067000,FlatInitial,ResetBack,0
08:22:41.355 PM 02/17/2016,Teleop Enabled,0,FALSE,0,NO ERROR,0.000000,0.000000,0.000000,0.000000,Speed,Speed,-0.010000,1.010000,1.490000,0.000000,101.000000,1,0,-0.000000,0.000000,1,0.000000,-0.018021,0.000000,6.106171,-20.695450,0.000000,-0.009000,0.006000,0.001000,FlatInitial,ResetBack,0
08:22:41.455 PM 02/17/2016,Teleop Enabled,0,FALSE,0,NO ERROR,0.000000,0.000000,0.000000,0.000000,Speed,Speed,-0.020000,1.040000,1.640000,0.000000,101.000000,1,0,-0.000000,0.000000,1,0.008682,0.000000,0.000000,6.106354,-20.695618,0.000000,-0.016000,0.007000,0.024000,FlatInitial,ResetBack,0
08:22:41.555 PM 02/17/2016,Teleop Enabled,0,FALSE,0,NO ERROR,0.000000,0.000000,0.000000,0.000000,Speed,Speed,-0.010000,0.990000,1.620000,0.000000,101.000000,1,0,-0.000000,0.000000,1,-0.003296,0.001389,0.000000,6.106216,-20.695465,0.000000,0.026000,0.027000,0.040000,FlatInitial,ResetBack,0
08:22:41.654 PM 02/17/2016,Teleop Enabled,0,FALSE,0,NO ERROR,0.000000,0.000000,0.000000,0.000000,Speed,Speed,-0.010000,0.990000,1.580000,0.000000,100.000000,1,0,-0.000000,0.000000,1,0.000000,0.000000,0.000000,6.106277,-20.695343,0.000000,-0.015000,0.001000,0.020000,FlatInitial,ResetBack,0
08:22:41.754 PM 02/17/2016,Teleop Enabled,0,FALSE,0,NO ERROR,0.000000,0.000000,0.000000,0.000000,Speed,Speed,0.000000,1.020000,1.620000,0.000000,104.000000,1,0,-0.000000,0.000000,1,0.009247,0.000000,0.000000,6.106461,-20.695343,0.000000,-0.018000,-0.002000,0.007000,FlatInitial,ResetBack,0
08:22:41.855 PM 02/17/2016,Teleop Enabled,0,FALSE,0,NO ERROR,0.000000,0.000000,0.000000,0.000000,Speed,Speed,0.000000,1.020000,1.640000,0.000000,101.000000,1,0,-0.000000,0.000000,1,0.000000,0.000000,0.000000,6.106461,-20.695343,0.000000,0.010000,0.000000,0.001000,FlatInitial,ResetBack,0
08:22:41.955 PM 02/17/2016,Teleop Enabled,0,FALSE,0,NO ERROR,0.000000,0.000000,0.000000,0.000000,Speed,Speed,-0.020000,1.010000,1.670000,0.000000,101.000000,1,0,-0.000000,0.000000,1,0.000000,0.000000,0.000000,6.106461,-20.695343,0.000000,0.000000,0.000000,0.008000,FlatInitial,ResetBack,0
08:22:42.056 PM 02/17/2016,Teleop Enabled,0,FALSE,0,NO ERROR,0.000000,0.000000,0.000000,0.000000,Speed,Speed,-0.030000,1.000000,1.710000,0.000000,101.000000,1,0,-0.000000,0.000000,1,0.000000,0.000000,0.000000,6.106461,-20.695343,0.000000,0.004000,0.007000,-0.009000,FlatInitial,ResetBack,0
08:22:42.156 PM 02/17/2016,Teleop Enabled,0,FALSE,0,NO ERROR,0.000000,0.000000,0.000000,0.000000,Speed,Speed,-0.010000,1.000000,1.730000,0.000000,102.000000,1,0,-0.000000,0.000000,1,0.000000,0.000000,0.000000,6.106461,-20.695343,0.000000,0.002000,0.001000,0.005000,FlatInitial,ResetBack,0
08:22:42.256 PM 02/17/2016,Teleop Enabled,0,FALSE,0,NO ERROR,0.000000,0.000000,0.000000,0.000000,Speed,Speed,-0.010000,1.000000,1.740000,0.000000,102.000000,1,0,-0.000000,0.000000,1,0.000000,0.000000,0.000000,6.106461,-20.695343,0.000000,0.000000,0.001000,-0.002000,FlatInitial,ResetBack,1
08:22:42.356 PM 02/17/2016,Teleop Enabled,0,FALSE,0,NO ERROR,0.000000,0.000000,0.000000,0.000000,Speed,Speed,-0.020000,1.010000,1.780000,0.000000,107.000000,1,0,-0.000000,0.000000,1,0.000000,0.000000,0.000000,6.106461,-20.695343,0.000000,0.000000,0.003000,0.002000,FlatInitial,ResetForward,1
08:22:42.457 PM 02/17/2016,Teleop Enabled,0,FALSE,0,NO ERROR,0.000000,0.000000,0.000000,0.000000,Speed,Speed,-0.010000,1.000000,1.810000,0.000000,101.000000,1,0,-0.000000,0.000000,1,0.000000,-0.006531,0.000000,6.106461,-20.695435,0.000000,0.002000,-0.017000,-0.007000,FlatInitial,ResetForward,1
08:22:42.558 PM 02/17/2016,Teleop Enabled,0,FALSE,0,NO ERROR,0.000000,0.000000,0.000000,0.000000,Speed,Speed,-0.050000,1.000000,1.880000,0.000000,102.000000,1,0,-0.000000,0.000000,1,0.000000,0.000000,0.000000,6.106461,-20.695541,0.000000,-0.001000,-0.001000,0.006000,FlatInitial,ResetForward,1
08:22:42.658 PM 02/17/2016,Teleop Enabled,0,FALSE,0,NO ERROR,0.000000,0.000000,0.000000,0.000000,Speed,Speed,-0.160000,1.000000,1.900000,0.000000,104.000000,1,0,-0.000000,0.000000,1,0.000000,0.000000,0.000000,6.106461,-20.695541,0.000000,0.004000,0.016000,0.002000,FlatInitial,ResetForward,1
08:22:42.758 PM 02/17/2016,Teleop Enabled,0,FALSE,0,NO ERROR,0.000000,0.000000,0.000000,0.000000,Speed,Speed,-0.060000,0.990000,1.890000,0.000000,101.000000,1,0,-0.000000,0.000000,1,0.000000,0.009079,0.000000,6.106461,-20.695404,0.000000,0.002000,0.008000,0.000000,FlatInitial,ResetForward,1
08:22:42.858 PM 02/17/2016,Teleop Enabled,0,FALSE,0,NO ERROR,0.000000,0.000000,0.000000,0.000000,Speed,Speed,0.000000,0.990000,1.740000,0.000000,101.000000,1,0,-0.000000,0.000000,1,0.003647,-0.011993,0.000000,6.106506,-20.695419,0.000000,0.023000,-0.061000,-0.008000,FlatInitial,ResetForward,1
08:22:42.958 PM 02/17/2016,Teleop Enabled,0,FALSE,0,NO ERROR,0.000000,0.000000,0.000000,0.000000,Speed,Speed,-0.060000,1.010000,1.660000,0.000000,101.000000,1,0,-0.000000,0.000000,1,-0.002914,0.000000,0.000000,6.106644,-20.696442,0.000000,0.023000,-0.061000,-0.008000,FlatInitial,ResetForward,1
08:22:43.058 PM 02/17/2016,Teleop Enabled,0,FALSE,0,NO ERROR,0.000000,0.000000,0.000000,0.000000,Speed,Speed,-0.040000,1.010000,1.670000,0.000000,101.000000,1,0,-0.000000,0.000000,1,0.000000,0.000000,0.000000,6.106644,-20.696442,0.000000,-0.007000,0.007000,-0.009000,FlatInitial,ResetForward,0
08:22:43.161 PM 02/17/2016,Teleop Enabled,0,FALSE,0,NO ERROR,0.000000,0.000000,0.000000,0.000000,Speed,Speed,-0.040000,1.000000,1.800000,0.000000,101.000000,1,0,-0.000000,0.000000,1,0.000000,0.000000,0.000000,6.106644,-20.696442,0.000000,0.001000,0.001000,0.016000,FlatInitial,Reset,0
08:22:43.261 PM 02/17/2016,Teleop Enabled,0,FALSE,0,NO ERROR,0.000000,0.000000,0.000000,0.000000,Speed,Speed,-0.100000,0.990000,1.760000,0.000000,102.000000,1,0,-0.000000,0.000000,1,0.000000,0.014450,0.000000,6.106644,-20.696198,0.000000,-0.004000,0.038000,0.019000,FlatInitial,Hold,0
08:22:43.361 PM 02/17/2016,Teleop Enabled,0,FALSE,0,NO ERROR,0.000000,0.000000,0.000000,0.000000,Speed,Speed,-0.010000,0.990000,1.760000,0.000000,105.000000,1,0,-0.000000,0.000000,1,0.000000,-0.010849,0.000000,6.106644,-20.695816,0.000000,0.005000,-0.070000,0.033000,FlatInitial,Hold,0
08:22:43.461 PM 02/17/2016,Teleop Enabled,0,FALSE,0,NO ERROR,0.000000,0.000000,0.000000,0.000000,Speed,Speed,-0.030000,0.990000,1.770000,0.000000,102.000000,1,0,-0.000000,0.000000,1,0.000000,-0.036697,0.000000,6.106644,-20.696762,0.000000,-0.016000,-0.007000,0.001000,FlatInitial,Hold,0
08:22:43.564 PM 02/17/2016,Teleop Enabled,0,FALSE,0,NO ERROR,0.000000,0.000000,0.000000,0.000000,Speed,Speed,-0.080000,1.020000,1.600000,0.000000,101.000000,1,0,-0.000000,0.000000,1,0.000000,0.009781,0.000000,6.106644,-20.696625,0.000000,0.000000,0.031000,-0.033000,FlatInitial,Hold,0
08:22:43.665 PM 02/17/2016,Teleop Enabled,0,FALSE,0,NO ERROR,0.000000,0.000000,0.000000,0.000000,Speed,Speed,-0.060000,0.980000,1.820000,0.000000,100.000000,1,0,-0.000000,0.000000,1,0.000000,0.000000,0.000000,6.106644,-20.696472,0.000000,0.017000,-0.002000,-0.010000,FlatInitial,Hold,0
08:22:43.766 PM 02/17/2016,Teleop Enabled,0,FALSE,0,NO ERROR,0.000000,0.000000,0.000000,0.000000,Speed,Speed,-0.090000,0.980000,1.780000,0.000000,103.000000,1,0,-0.000000,0.000000,1,0.000000,0.000000,0.000000,6.106644,-20.696472,0.000000,0.003000,0.008000,0.000000,FlatInitial,Hold,0
08:22:43.866 PM 02/17/2016,Teleop Enabled,0,FALSE,0,NO ERROR,0.000000,0.000000,0.000000,0.000000,Speed,Speed,-0.050000,0.990000,1.750000,0.000000,101.000000,1,0,-0.000000,0.000000,1,0.000000,0.000000,0.000000,6.106644,-20.696472,0.000000,-0.007000,-0.013000,0.017000,FlatInitial,Hold,0
08:22:43.967 PM 02/17/2016,Teleop Enabled,0,FALSE,0,NO ERROR,0.000000,0.000000,0.000000,0.000000,Speed,Speed,-0.010000,0.990000,1.770000,0.000000,105.000000,1,0,-0.000000,0.000000,1,0.000000,0.000000,0.000000,6.106644,-20.696472,0.000000,0.008000,-0.008000,0.013000,FlatInitial,Hold,0
08:22:44.069 PM 02/17/2016,Teleop Enabled,0,FALSE,0,NO ERROR,0.000000,0.000000,0.000000,0.000000,Speed,Speed,-0.080000,0.980000,1.750000,1.000000,109.000000,1,0,-0.000000,0.000000,1,0.000000,0.000000,0.000000,6.106644,-20.696472,0.000000,0.008000,-0.008000,0.013000,FlatInitial,Hold,0
08:22:44.169 PM 02/17/2016,Teleop Enabled,0,FALSE,0,NO ERROR,-113.818359,0.000000,-6000.000000,-6000.000000,Speed,Speed,-0.070000,1.010000,1.760000,2.000000,101.000000,1,0,-0.000000,0.000000,1,0.000000,0.000000,0.000000,6.106644,-20.696472,0.000000,-0.004000,0.006000,0.025000,FlatInitial,Hold,0
08:22:44.271 PM 02/17/2016,Teleop Enabled,0,FALSE,0,NO ERROR,-1475.830078,1579.101562,0.000000,0.000000,Speed,Speed,-0.060000,1.010000,1.770000,2.000000,100.000000,1,0,-0.000000,0.000000,1,0.000000,0.006714,0.000000,6.106644,-20.696533,0.000000,-0.004000,0.006000,0.025000,FlatInitial,Hold,0
08:22:44.371 PM 02/17/2016,Teleop Enabled,0,FALSE,0,NO ERROR,-1798.388672,2023.681641,0.000000,0.000000,Speed,Speed,-0.060000,1.000000,1.790000,2.000000,101.000000,1,0,-0.000000,0.000000,1,-0.002792,-0.000763,0.000000,6.106613,-20.696503,0.000000,0.013000,-0.007000,-0.015000,FlatInitial,Hold,0
08:22:44.475 PM 02/17/2016,Teleop Enabled,0,FALSE,0,NO ERROR,-1468.212891,1666.699219,0.000000,0.000000,Speed,Speed,-0.060000,1.030000,1.800000,2.000000,101.000000,1,0,-0.000000,0.000000,1,0.000000,0.000000,0.000000,6.106537,-20.696457,0.000000,0.007000,0.008000,-0.009000,FlatInitial,Hold,0
08:22:44.574 PM 02/17/2016,Teleop Enabled,0,FALSE,0,NO ERROR,-1258.740234,1666.699219,0.000000,0.000000,Speed,Speed,-0.070000,1.020000,1.790000,2.000000,102.000000,1,0,-0.000000,0.000000,1,0.000000,0.005737,0.000000,6.106537,-20.696381,0.000000,-0.015000,0.011000,0.075000,FlatInitial,Hold,0
08:22:44.675 PM 02/17/2016,Teleop Enabled,0,FALSE,0,NO ERROR,-1012.646484,871.435547,0.000000,0.000000,Speed,Speed,-0.060000,1.030000,1.800000,2.000000,101.000000,1,0,-0.000000,0.000000,1,0.000000,0.000000,0.000000,6.106537,-20.695938,0.000000,-0.006000,0.038000,-0.016000,FlatInitial,Hold,0
08:22:44.775 PM 02/17/2016,Teleop Enabled,0,FALSE,0,NO ERROR,-783.984375,871.435547,0.000000,0.000000,Speed,Speed,-0.060000,1.020000,1.790000,2.000000,101.000000,1,0,-0.000000,0.000000,1,0.000000,0.000000,0.000000,6.106537,-20.695602,0.000000,-0.006000,0.038000,-0.016000,FlatInitial,Hold,0
08:22:44.876 PM 02/17/2016,Teleop Enabled,0,FALSE,0,NO ERROR,-554.296875,161.718750,0.000000,0.000000,Speed,Speed,-0.070000,1.020000,1.800000,2.000000,101.000000,1,0,-0.000000,0.000000,1,0.000000,0.000000,0.000000,6.106537,-20.695602,0.000000,-0.006000,-0.005000,0.050000,FlatInitial,Hold,0
08:22:44.977 PM 02/17/2016,Teleop Enabled,0,FALSE,0,NO ERROR,-413.964844,161.718750,0.000000,0.000000,Speed,Speed,-0.070000,1.020000,1.800000,2.000000,101.000000,1,0,-0.000000,0.000000,1,0.000000,0.000000,0.000000,6.106537,-20.695602,0.000000,0.001000,-0.004000,0.033000,FlatInitial,Hold,0
08:22:45.077 PM 02/17/2016,Teleop Enabled,0,FALSE,0,NO ERROR,-238.769531,0.000000,0.000000,0.000000,Speed,Speed,-0.060000,1.010000,1.790000,2.000000,102.000000,1,0,-0.000000,0.000000,1,0.000000,0.000000,0.000000,6.106537,-20.695602,0.000000,0.004000,-0.008000,0.020000,FlatInitial,Hold,0
08:22:45.177 PM 02/17/2016,Teleop Enabled,0,FALSE,0,NO ERROR,-165.380859,0.000000,0.000000,0.000000,Speed,Speed,-0.060000,1.010000,1.780000,2.000000,101.000000,1,0,-0.000000,0.000000,1,0.000000,0.000000,0.000000,6.106537,-20.695602,0.000000,0.002000,0.000000,0.022000,FlatInitial,Hold,0
08:22:45.278 PM 02/17/2016,Teleop Enabled,0,FALSE,0,NO ERROR,-165.380859,0.000000,0.000000,0.000000,Speed,Speed,-0.070000,1.020000,1.780000,2.000000,103.000000,1,0,-0.000000,0.000000,1,0.000000,0.000000,0.000000,6.106537,-20.695602,0.000000,-0.001000,0.000000,-0.004000,FlatInitial,Hold,0
08:22:45.379 PM 02/17/2016,Teleop Enabled,0,FALSE,0,NO ERROR,1.464844,0.000000,0.000000,0.000000,Speed,Speed,-0.070000,1.010000,1.780000,3.000000,101.000000,1,0,-0.000000,0.000000,1,0.000000,0.000000,0.000000,6.106537,-20.695602,0.000000,0.000000,-0.002000,0.003000,FlatInitial,Hold,0
08:22:45.482 PM 02/17/2016,Teleop Enabled,0,FALSE,0,NO ERROR,130.517578,0.000000,4000.000000,4000.000000,Speed,Speed,-0.070000,1.010000,1.780000,3.000000,104.000000,1,0,-0.000000,0.000000,1,0.000000,0.000000,0.000000,6.106537,-20.695602,0.000000,0.000000,-0.002000,0.003000,FlatInitial,Hold,0
08:22:45.582 PM 02/17/2016,Teleop Enabled,0,FALSE,0,NO ERROR,1697.900391,-85.546875,4000.000000,4000.000000,Speed,Speed,-0.070000,1.010000,1.780000,3.000000,102.000000,1,0,-0.000000,0.000000,1,0.000000,-0.002167,0.000000,6.106750,-20.695877,0.000000,0.006000,0.029000,0.005000,FlatInitial,Hold,0
08:22:45.682 PM 02/17/2016,Teleop Enabled,0,FALSE,0,NO ERROR,3057.275391,-1490.771484,4000.000000,4000.000000,Speed,Speed,-0.070000,1.030000,1.770000,3.000000,102.000000,1,0,-0.000000,0.000000,1,-0.006836,-0.010590,0.000000,6.106506,-20.696045,0.000000,-0.033000,-0.042000,-0.037000,FlatInitial,Hold,0
08:22:45.783 PM 02/17/2016,Teleop Enabled,0,FALSE,0,NO ERROR,3922.998047,-3083.935547,4000.000000,4000.000000,Speed,Speed,-0.070000,1.020000,1.770000,4.000000,101.000000,1,0,-0.000000,0.000000,1,-0.004471,-0.017746,0.000000,6.106369,-20.696564,0.000000,0.010000,0.016000,-0.073000,FlatInitial,HighGoal,0
08:22:45.884 PM 02/17/2016,Teleop Enabled,0,FALSE,0,NO ERROR,4054.541016,-3793.652344,9000.000000,9000.000000,Speed,Speed,-0.070000,1.010000,1.800000,4.000000,101.000000,1,0,-0.000000,0.000000,1,-0.004471,-0.017746,0.000000,6.106369,-20.696564,0.000000,0.010000,0.016000,-0.073000,FlatInitial,Hold,0
08:22:45.985 PM 02/17/2016,Teleop Enabled,0,FALSE,0,NO ERROR,4054.541016,-4017.333984,9000.000000,9000.000000,Speed,Speed,-0.160000,1.010000,1.780000,4.000000,101.000000,1,0,-0.000000,0.000000,1,0.000000,-0.021149,0.000000,6.106186,-20.697311,0.000000,0.067000,-0.047000,0.243000,FlatInitial,HighGoal,0
08:22:46.085 PM 02/17/2016,Teleop Enabled,0,FALSE,0,NO ERROR,4826.953125,-4774.218750,9000.000000,9000.000000,Speed,Speed,-0.160000,1.010000,1.780000,4.000000,100.000000,1,0,-0.000000,0.000000,1,0.008530,-0.024689,0.000000,6.106567,-20.698822,0.000000,0.050000,0.043000,-0.173000,FlatInitial,Hold,0
08:22:46.186 PM 02/17/2016,Teleop Enabled,0,FALSE,0,NO ERROR,6139.453125,-5992.382812,9000.000000,9000.000000,Speed,Speed,-0.140000,0.970000,1.490000,4.000000,103.000000,1,0,-0.000000,0.000000,1,0.052216,0.008102,0.000000,6.108643,-20.699921,0.000000,0.116000,-0.116000,0.162000,FlatInitial,Hold,0
08:22:46.288 PM 02/17/2016,Teleop Enabled,0,FALSE,0,NO ERROR,7027.734375,-7013.671875,9000.000000,9000.000000,Speed,Speed,-0.180000,0.970000,1.400000,4.000000,100.000000,1,0,-0.000000,0.000000,1,0.052216,0.008102,0.000000,6.108643,-20.699921,0.000000,0.116000,-0.116000,0.162000,FlatInitial,Hold,0
08:22:46.387 PM 02/17/2016,Teleop Enabled,0,FALSE,0,NO ERROR,8615.039062,-7884.960937,9000.000000,9000.000000,Speed,Speed,-0.180000,0.970000,1.400000,4.000000,102.000000,1,0,-0.000000,0.000000,1,0.040939,-0.152115,0.000000,6.111603,-20.706039,0.000000,-0.082000,0.257000,-0.076000,FlatInitial,Hold,0
08:22:46.487 PM 02/17/2016,Teleop Enabled,0,FALSE,0,NO ERROR,8615.039062,-8530.078125,9000.000000,9000.000000,Speed,Speed,-0.240000,1.060000,0.940000,4.000000,100.000000,1,0,-0.000000,0.000000,1,0.042313,-0.086212,0.000000,6.114258,-20.713730,0.000000,0.014000,-0.029000,-0.149000,FlatInitial,Hold,0
08:22:46.591 PM 02/17/2016,Teleop Enabled,0,FALSE,0,NO ERROR,9080.859375,-8783.789062,9000.000000,9000.000000,Speed,Speed,-0.240000,1.060000,0.940000,4.000000,101.000000,1,0,-0.000000,0.000000,1,0.000198,-0.137543,0.000000,6.114700,-20.717346,0.000000,0.021000,-0.012000,-0.053000,FlatInitial,Hold,0
08:22:46.690 PM 02/17/2016,Teleop Enabled,0,FALSE,0,NO ERROR,9080.859375,-8966.601562,9000.000000,9000.000000,Speed,Speed,-0.340000,1.030000,0.900000,4.000000,101.000000,1,0,-0.000000,0.000000,1,-0.030640,-0.203217,0.000000,6.111145,-20.735458,0.000000,0.021000,-0.012000,-0.053000,FlatInitial,Hold,0
08:22:46.790 PM 02/17/2016,Teleop Enabled,0,FALSE,0,NO ERROR,9171.093750,-9048.632812,9000.000000,9000.000000,Speed,Speed,-0.280000,1.030000,1.150000,4.000000,108.000000,1,0,-0.000000,0.000000,1,0.000000,-0.161301,0.000000,6.110367,-20.740585,0.000000,0.023000,0.057000,0.027000,FlatInitial,Hold,0
08:22:46.891 PM 02/17/2016,Teleop Enabled,0,FALSE,0,NO ERROR,9186.914062,-9099.023438,9000.000000,9000.000000,Speed,Speed,-0.230000,1.050000,1.520000,4.000000,102.000000,1,0,-0.362205,0.362205,1,-0.016113,-0.159805,0.000000,6.110229,-20.745300,0.000000,-0.069000,0.072000,-0.066000,FlatInitial,Hold,0
08:22:46.997 PM 02/17/2016,Teleop Enabled,0,FALSE,0,NO ERROR,9168.750000,-9099.023438,9000.000000,9000.000000,Speed,Speed,0.280000,0.760000,1.510000,4.000000,101.000000,1,0,-0.000000,0.000000,1,-0.131317,-0.065201,0.000000,6.105515,-20.754333,0.000000,-0.018000,0.047000,-0.272000,FlatInitial,Hold,0
08:22:47.098 PM 02/17/2016,Teleop Enabled,0,FALSE,0,NO ERROR,9103.710938,-9042.773438,9000.000000,9000.000000,Speed,Speed,4.160000,0.570000,1.560000,4.000000,101.000000,1,0,-0.000000,0.000000,1,-0.076233,-0.031281,0.000000,6.098419,-20.755966,0.000000,-0.053000,0.053000,0.029000,FlatInitial,Hold,0
08:22:47.199 PM 02/17/2016,Teleop Enabled,0,FALSE,0,NO ERROR,9049.804688,-9005.273438,9000.000000,9000.000000,Speed,Speed,6.820000,0.700000,1.850000,4.000000,100.000000,1,0,-0.000000,0.000000,1,-0.009567,-0.070206,0.000000,6.097443,-20.757675,0.000000,0.165000,-0.084000,-0.054000,FlatInitial,Hold,0
08:22:47.300 PM 02/17/2016,Teleop Enabled,0,FALSE,0,NO ERROR,9044.531250,-9039.257812,9000.000000,9000.000000,Speed,Speed,8.250000,0.990000,1.420000,4.000000,101.000000,1,0,-0.000000,0.000000,1,0.163544,-0.110947,0.000000,6.104538,-20.765808,0.000000,0.165000,-0.084000,-0.054000,FlatInitial,Hold,0
08:22:47.400 PM 02/17/2016,Teleop Enabled,0,FALSE,0,NO ERROR,9049.218750,-9065.039062,9000.000000,9000.000000,Speed,Speed,7.790000,1.110000,1.230000,4.000000,101.000000,1,0,-0.000000,0.000000,1,0.239151,-0.132782,0.000000,6.113113,-20.770844,0.000000,0.083000,0.146000,-0.060000,FlatInitial,Hold,0
08:22:47.501 PM 02/17/2016,Teleop Enabled,0,FALSE,0,NO ERROR,9049.218750,-9068.554688,9000.000000,9000.000000,Speed,Speed,7.020000,1.040000,1.560000,4.000000,102.000000,1,0,-0.000000,0.000000,1,0.253952,-0.133347,0.000000,6.128067,-20.778748,0.000000,0.042000,0.020000,-0.053000,FlatInitial,Hold,0
08:22:47.602 PM 02/17/2016,Teleop Enabled,0,FALSE,0,NO ERROR,9048.046875,-9060.351562,9000.000000,9000.000000,Speed,Speed,6.850000,1.040000,1.530000,4.000000,102.000000,1,0,-0.000000,0.000000,1,0.215302,-0.122650,0.000000,6.137527,-20.783997,0.000000,-0.043000,0.000000,-0.007000,FlatInitial,Hold,0
08:22:47.702 PM 02/17/2016,Teleop Enabled,0,FALSE,0,NO ERROR,9041.601562,-9046.875000,9000.000000,9000.000000,Speed,Speed,6.900000,1.020000,1.340000,4.000000,101.000000,1,0,-0.000000,0.000000,1,0.150925,0.004059,0.000000,6.146362,-20.786362,0.000000,-0.051000,-0.006000,-0.034000,FlatInitial,Hold,0
08:22:47.802 PM 02/17/2016,Teleop Enabled,0,FALSE,0,NO ERROR,9032.226562,-9039.257812,9000.000000,9000.000000,Speed,Speed,6.880000,1.080000,1.330000,4.000000,102.000000,1,0,-0.000000,0.000000,1,0.087540,-0.000992,0.000000,6.152130,-20.786301,0.000000,-0.123000,-0.023000,0.031000,FlatInitial,Hold,0
08:22:47.902 PM 02/17/2016,Teleop Enabled,0,FALSE,0,NO ERROR,9022.265625,-9033.398438,9000.000000,9000.000000,Speed,Speed,6.850000,1.050000,1.470000,4.000000,107.000000,1,0,-0.000000,0.000000,1,-0.020142,-0.019958,0.000000,6.153336,-20.787155,0.000000,-0.093000,-0.086000,0.115000,FlatInitial,Hold,0
08:22:48.002 PM 02/17/2016,Teleop Enabled,0,FALSE,0,NO ERROR,9016.406250,-9023.437500,9000.000000,9000.000000,Speed,Speed,6.880000,1.050000,1.490000,4.000000,102.000000,1,0,-0.000000,0.000000,1,-0.076675,-0.032593,0.000000,6.151199,-20.788116,0.000000,-0.067000,0.142000,-0.010000,FlatInitial,Hold,0
08:22:48.104 PM 02/17/2016,Teleop Enabled,0,FALSE,0,NO ERROR,9015.820312,-9016.992188,9000.000000,9000.000000,Speed,Speed,6.870000,1.050000,1.420000,4.000000,101.000000,1,1,-0.000000,0.000000,1,-0.142136,-0.023651,0.000000,6.145309,-20.789520,0.000000,-0.090000,-0.124000,0.051000,FlatInitial,Hold,0
08:22:48.205 PM 02/17/2016,Teleop Enabled,0,FALSE,0,NO ERROR,9011.718750,-9010.546875,9000.000000,9000.000000,Speed,Speed,6.840000,1.020000,1.460000,4.000000,101.000000,1,1,-0.090000,-0.090000,1,-0.247406,-0.026093,0.000000,6.131470,-20.791260,0.000000,-0.136000,-0.091000,0.085000,FlatInitial,Hold,0
08:22:48.305 PM 02/17/2016,Teleop Enabled,0,FALSE,0,NO ERROR,9011.132812,-9005.859375,9000.000000,9000.000000,Speed,Speed,7.090000,1.000000,1.440000,4.000000,102.000000,1,1,-0.090000,-0.090000,1,-0.295807,-0.010056,0.000000,6.120331,-20.791702,0.000000,-0.016000,0.150000,-0.006000,FlatInitial,Hold,0
08:22:48.406 PM 02/17/2016,Teleop Enabled,0,FALSE,0,NO ERROR,9006.445312,-9002.343750,9000.000000,9000.000000,Speed,Speed,7.620000,0.970000,1.420000,4.000000,101.000000,1,1,-0.090000,-0.090000,1,-0.359390,-0.000504,0.000000,6.100479,-20.791809,0.000000,-0.050000,-0.040000,0.068000,FlatInitial,Hold,0
08:22:48.506 PM 02/17/2016,Teleop Enabled,0,FALSE,0,NO ERROR,9005.273438,-8998.828125,9000.000000,9000.000000,Speed,Speed,8.200000,0.960000,1.450000,4.000000,101.000000,1,1,-0.090000,-0.090000,1,-0.359390,-0.000504,0.000000,6.100479,-20.791809,0.000000,-0.050000,-0.040000,0.068000,FlatInitial,Hold,0
08:22:48.608 PM 02/17/2016,Teleop Enabled,0,FALSE,0,NO ERROR,9003.515625,-8997.656250,9000.000000,9000.000000,Speed,Speed,8.200000,0.960000,1.450000,4.000000,102.000000,1,1,0.090000,0.090000,1,-0.006271,0.000137,0.000000,6.085205,-20.791763,0.000000,0.009000,0.036000,-0.063000,FlatInitial,Hold,0
08:22:48.709 PM 02/17/2016,Teleop Enabled,0,FALSE,0,NO ERROR,9001.757812,-9001.757812,9000.000000,9000.000000,Speed,Speed,8.760000,1.000000,1.470000,4.000000,101.000000,1,1,0.090000,0.090000,1,-0.000305,-0.009674,0.000000,6.084305,-20.791733,0.000000,-0.042000,-0.084000,0.066000,FlatInitial,Hold,0
08:22:48.811 PM 02/17/2016,Teleop Enabled,0,FALSE,0,NO ERROR,8998.828125,-9015.820312,9000.000000,9000.000000,Speed,Speed,8.390000,1.100000,1.550000,4.000000,101.000000,1,1,0.090000,0.090000,1,-0.000305,-0.009674,0.000000,6.084305,-20.791733,0.000000,-0.042000,-0.084000,0.066000,FlatInitial,Hold,0
08:22:48.916 PM 02/17/2016,Teleop Enabled,0,FALSE,0,NO ERROR,8998.242188,-9022.851562,9000.000000,9000.000000,Speed,Speed,6.760000,1.140000,1.530000,4.000000,102.000000,1,1,0.090000,0.090000,1,0.000000,0.024094,0.000000,6.083679,-20.791000,0.000000,0.018000,0.110000,-0.118000,FlatInitial,Hold,0
08:22:49.016 PM 02/17/2016,Teleop Enabled,0,FALSE,0,NO ERROR,9004.101562,-9015.820312,9000.000000,9000.000000,Speed,Speed,6.760000,1.140000,1.530000,4.000000,110.000000,1,1,0.090000,0.090000,1,-0.005325,0.088684,0.000000,6.083176,-20.787155,0.000000,0.068000,0.100000,-0.076000,FlatInitial,Hold,0
08:22:49.116 PM 02/17/2016,Teleop Enabled,0,FALSE,0,NO ERROR,9005.859375,-9007.031250,9000.000000,9000.000000,Speed,Speed,5.330000,1.200000,1.530000,4.000000,106.000000,1,1,0.090000,0.090000,1,-0.004883,0.110840,0.000000,6.082886,-20.780945,0.000000,-0.042000,-0.045000,0.139000,FlatInitial,Hold,0
08:22:49.217 PM 02/17/2016,Teleop Enabled,0,FALSE,0,NO ERROR,9007.617188,-9005.859375,9000.000000,9000.000000,Speed,Speed,4.420000,1.150000,1.730000,4.000000,102.000000,1,1,0.090000,0.090000,1,-0.033356,0.167419,0.000000,6.081680,-20.772110,0.000000,-0.042000,-0.045000,0.139000,FlatInitial,Hold,0
08:22:49.317 PM 02/17/2016,Teleop Enabled,0,FALSE,0,NO ERROR,9008.789062,-8999.414062,9000.000000,9000.000000,Speed,Speed,3.810000,1.150000,1.710000,4.000000,101.000000,1,1,0.090000,0.090000,1,-0.023193,0.187408,0.000000,6.080612,-20.764709,0.000000,0.030000,0.053000,-0.072000,FlatInitial,Hold,0
08:22:49.418 PM 02/17/2016,Teleop Enabled,0,FALSE,0,NO ERROR,9012.304688,-8996.484375,9000.000000,9000.000000,Speed,Speed,3.190000,1.140000,1.560000,4.000000,102.000000,1,1,0.090000,0.090000,1,-0.018005,0.213730,0.000000,6.079102,-20.752609,0.000000,0.030000,0.053000,-0.072000,FlatInitial,Hold,0
08:22:49.518 PM 02/17/2016,Teleop Enabled,0,FALSE,0,NO ERROR,9008.789062,-8994.140625,9000.000000,9000.000000,Speed,Speed,2.430000,1.140000,1.570000,4.000000,104.000000,1,1,0.090000,0.090000,1,-0.018005,0.213730,0.000000,6.079102,-20.752609,0.000000,-0.056000,0.065000,0.130000,FlatInitial,Hold,0
08:22:49.619 PM 02/17/2016,Teleop Enabled,0,FALSE,0,NO ERROR,9004.687500,-8991.796875,9000.000000,9000.000000,Speed,Speed,2.430000,1.140000,1.570000,4.000000,103.000000,1,1,0.090000,0.090000,1,0.020844,0.263657,0.000000,6.079254,-20.731003,0.000000,-0.056000,0.065000,0.130000,FlatInitial,Hold,0
08:22:49.719 PM 02/17/2016,Teleop Enabled,0,FALSE,0,NO ERROR,9001.171875,-8992.968750,9000.000000,9000.000000,Speed,Speed,2.430000,1.140000,1.570000,4.000000,100.000000,1,1,0.090000,0.090000,1,0.020844,0.263657,0.000000,6.079254,-20.731003,0.000000,0.044000,-0.002000,-0.028000,FlatInitial,Hold,0
08:22:49.819 PM 02/17/2016,Teleop Enabled,0,FALSE,0,NO ERROR,9000.000000,-8996.484375,9000.000000,9000.000000,Speed,Speed,0.980000,1.120000,1.500000,4.000000,101.000000,1,1,0.090000,0.090000,1,0.063889,0.024918,0.000000,6.083893,-20.710175,0.000000,0.017000,-0.030000,-0.014000,FlatInitial,Hold,0
08:22:49.919 PM 02/17/2016,Teleop Enabled,0,FALSE,0,NO ERROR,9000.000000,-9003.515625,9000.000000,9000.000000,Speed,Speed,0.340000,1.090000,1.510000,4.000000,104.000000,1,1,0.090000,0.090000,1,0.015884,0.052597,0.000000,6.084808,-20.708649,0.000000,0.020000,-0.032000,-0.047000,FlatInitial,Hold,0
08:22:50.020 PM 02/17/2016,Teleop Enabled,0,FALSE,0,NO ERROR,9000.000000,-9009.375000,9000.000000,9000.000000,Speed,Speed,0.340000,1.090000,1.510000,4.000000,102.000000,1,1,0.080514,0.080514,1,0.015884,0.052597,0.000000,6.084808,-20.708649,0.000000,0.020000,-0.032000,-0.047000,FlatInitial,Hold,0
08:22:50.120 PM 02/17/2016,Teleop Enabled,0,FALSE,0,NO ERROR,9002.343750,-9017.578125,9000.000000,9000.000000,Speed,Speed,-0.340000,1.080000,1.510000,4.000000,101.000000,1,1,-0.090000,-0.090000,1,0.015884,0.052597,0.000000,6.084808,-20.708649,0.000000,0.020000,-0.032000,-0.047000,FlatInitial,Hold,0
08:22:50.221 PM 02/17/2016,Teleop Enabled,0,FALSE,0,NO ERROR,9004.101562,-9016.992188,9000.000000,9000.000000,Speed,Speed,-0.340000,1.080000,1.510000,4.000000,100.000000,1,1,-0.090000,-0.090000,1,0.015884,0.052597,0.000000,6.084808,-20.708649,0.000000,0.020000,-0.032000,-0.047000,FlatInitial,Hold,0
08:22:50.321 PM 02/17/2016,Teleop Enabled,0,FALSE,0,NO ERROR,9005.859375,-9015.234375,9000.000000,9000.000000,Speed,Speed,-0.340000,1.080000,1.510000,4.000000,116.000000,1,1,-0.090000,-0.090000,1,0.076996,0.134598,0.000000,6.093704,-20.691376,0.000000,0.020000,-0.032000,-0.047000,FlatInitial,Hold,0
08:22:50.421 PM 02/17/2016,Teleop Enabled,0,FALSE,0,NO ERROR,9008.203125,-9014.062500,9000.000000,9000.000000,Speed,Speed,-0.340000,1.080000,1.510000,4.000000,101.000000,1,1,-0.090000,-0.090000,1,0.076996,0.134598,0.000000,6.093704,-20.691376,0.000000,-0.045000,0.079000,-0.004000,FlatInitial,Hold,0
08:22:50.522 PM 02/17/2016,Teleop Enabled,0,FALSE,0,NO ERROR,9008.203125,-9009.960938,9000.000000,9000.000000,Speed,Speed,1.900000,0.890000,1.430000,4.000000,104.000000,1,1,-0.090000,-0.090000,1,0.193604,0.201614,0.000000,6.114136,-20.667770,0.000000,-0.064000,0.030000,0.049000,FlatInitial,Hold,0
08:22:50.622 PM 02/17/2016,Teleop Enabled,0,FALSE,0,NO ERROR,9007.031250,-9008.789062,9000.000000,9000.000000,Speed,Speed,2.780000,0.940000,1.380000,4.000000,102.000000,1,1,-0.090000,-0.090000,1,0.193604,0.201614,0.000000,6.114136,-20.667770,0.000000,-0.064000,0.030000,0.049000,FlatInitial,Hold,0
08:22:50.722 PM 02/17/2016,Teleop Enabled,0,FALSE,0,NO ERROR,9002.929688,-9010.546875,9000.000000,9000.000000,Speed,Speed,2.780000,0.940000,1.380000,4.000000,103.000000,1,1,0.090000,0.090000,1,0.264633,0.225906,0.000000,6.130615,-20.652817,0.000000,-0.064000,0.030000,0.049000,FlatInitial,Hold,0
08:22:50.822 PM 02/17/2016,Teleop Enabled,0,FALSE,0,NO ERROR,9000.585938,-9007.617188,9000.000000,9000.000000,Speed,Speed,4.120000,0.980000,1.460000,4.000000,103.000000,1,1,0.090000,0.090000,1,0.375000,0.248123,0.000000,6.156403,-20.634171,0.000000,0.165000,-0.008000,-0.093000,FlatInitial,Hold,0
08:22:50.923 PM 02/17/2016,Teleop Enabled,0,FALSE,0,NO ERROR,8998.242188,-9001.757812,9000.000000,9000.000000,Speed,Speed,4.120000,0.980000,1.460000,4.000000,102.000000,1,1,0.090000,0.090000,1,0.375000,0.248123,0.000000,6.156403,-20.634171,0.000000,0.150000,-0.020000,-0.098000,FlatInitial,Hold,0
08:22:51.025 PM 02/17/2016,Teleop Enabled,0,FALSE,0,NO ERROR,8998.242188,-9001.757812,9000.000000,9000.000000,Speed,Speed,3.090000,1.160000,1.570000,4.000000,108.000000,1,1,0.090000,0.090000,1,0.375000,0.248123,0.000000,6.156403,-20.634171,0.000000,0.150000,-0.020000,-0.098000,FlatInitial,Hold,0
08:22:51.126 PM 02/17/2016,Teleop Enabled,0,FALSE,0,NO ERROR,9001.171875,-8991.210938,9000.000000,9000.000000,Speed,Speed,3.090000,1.160000,1.570000,4.000000,101.000000,1,1,0.090000,0.090000,1,0.514053,0.046143,0.000000,6.215805,-20.629517,0.000000,-0.003000,0.018000,0.108000,FlatInitial,Hold,0
08:22:51.226 PM 02/17/2016,Teleop Enabled,0,FALSE,0,NO ERROR,9004.101562,-8988.867188,9000.000000,9000.000000,Speed,Speed,1.560000,1.100000,1.870000,4.000000,103.000000,1,1,0.090000,0.090000,1,0.514053,0.046143,0.000000,6.215805,-20.629517,0.000000,-0.003000,0.018000,0.108000,FlatInitial,Hold,0
08:22:51.326 PM 02/17/2016,Teleop Enabled,0,FALSE,0,NO ERROR,9005.859375,-8992.382812,9000.000000,9000.000000,Speed,Speed,1.560000,1.100000,1.870000,4.000000,101.000000,1,1,0.090000,0.090000,1,0.617554,0.000000,0.000000,6.272430,-20.624176,0.000000,-0.003000,0.018000,0.108000,FlatInitial,Hold,0
08:22:51.432 PM 02/17/2016,Teleop Enabled,0,FALSE,0,NO ERROR,9004.687500,-8998.828125,9000.000000,9000.000000,Speed,Speed,1.560000,1.100000,1.870000,4.000000,101.000000,1,1,0.090000,0.090000,1,0.617554,0.000000,0.000000,6.272430,-20.624176,0.000000,0.138000,0.005000,0.000000,FlatInitial,Hold,0
08:22:51.530 PM 02/17/2016,Teleop Enabled,0,FALSE,0,NO ERROR,9002.343750,-9005.273438,9000.000000,9000.000000,Speed,Speed,0.040000,1.120000,1.690000,4.000000,103.000000,1,1,0.090000,0.090000,1,0.698715,0.002045,0.000000,6.331955,-20.623810,0.000000,-0.027000,0.038000,0.018000,FlatInitial,Hold,0
08:22:51.630 PM 02/17/2016,Teleop Enabled,0,FALSE,0,NO ERROR,9001.171875,-9009.375000,9000.000000,9000.000000,Speed,Speed,0.040000,1.120000,1.690000,4.000000,101.000000,1,1,0.080514,0.090000,1,0.758057,-0.007584,0.000000,6.368683,-20.623688,0.000000,-0.111000,0.013000,-0.046000,FlatInitial,Hold,0
08:22:51.733 PM 02/17/2016,Teleop Enabled,0,FALSE,0,NO ERROR,9000.585938,-9013.476562,9000.000000,9000.000000,Speed,Speed,-0.490000,1.090000,1.610000,4.000000,103.000000,1,1,-0.090000,-0.090000,1,0.758057,-0.007584,0.000000,6.368683,-20.623688,0.000000,-0.111000,0.013000,-0.046000,FlatInitial,Hold,0
08:22:51.832 PM 02/17/2016,Teleop Enabled,0,FALSE,0,NO ERROR,9000.585938,-9011.718750,9000.000000,9000.000000,Speed,Speed,-0.490000,1.090000,1.610000,4.000000,101.000000,1,1,-0.090000,-0.090000,1,0.758057,-0.007584,0.000000,6.368683,-20.623688,0.000000,-0.111000,0.013000,-0.046000,FlatInitial,Hold,0
08:22:51.934 PM 02/17/2016,Teleop Enabled,0,FALSE,0,NO ERROR,9003.515625,-9007.617188,9000.000000,9000.000000,Speed,Speed,0.380000,0.900000,1.510000,4.000000,101.000000,1,1,-0.090000,-0.090000,1,0.921890,-0.009781,0.000000,6.512222,-20.625397,0.000000,0.193000,-0.027000,-0.057000,FlatInitial,Hold,0
08:22:52.033 PM 02/17/2016,Teleop Enabled,0,FALSE,0,NO ERROR,9003.515625,-9005.273438,9000.000000,9000.000000,Speed,Speed,0.380000,0.900000,1.510000,4.000000,102.000000,1,1,-0.090000,-0.090000,1,0.921890,-0.009781,0.000000,6.512222,-20.625397,0.000000,0.193000,-0.027000,-0.057000,FlatInitial,Hold,0
08:22:52.141 PM 02/17/2016,Teleop Enabled,0,FALSE,0,NO ERROR,9004.687500,-9003.515625,9000.000000,9000.000000,Speed,Speed,1.800000,0.880000,1.550000,4.000000,100.000000,1,1,-0.090000,-0.090000,1,0.921890,-0.009781,0.000000,6.512222,-20.625397,0.000000,0.193000,-0.027000,-0.057000,FlatInitial,Hold,0
08:22:52.238 PM 02/17/2016,Teleop Enabled,0,FALSE,0,NO ERROR,9002.343750,-8999.414062,9000.000000,9000.000000,Speed,Speed,3.190000,0.930000,1.510000,4.000000,102.000000,1,1,-0.090000,-0.090000,1,1.086243,-0.023453,0.000000,6.643448,-20.628159,0.000000,0.005000,-0.069000,0.017000,FlatInitial,Hold,0
08:22:52.339 PM 02/17/2016,Teleop Enabled,0,FALSE,0,NO ERROR,9001.171875,-8998.242188,9000.000000,9000.000000,Speed,Speed,3.670000,0.930000,1.610000,4.000000,102.000000,1,1,0.090000,0.090000,1,1.167068,-0.041901,0.000000,6.723007,-20.630951,0.000000,0.122000,0.085000,-0.065000,FlatInitial,Hold,0
08:22:52.439 PM 02/17/2016,Teleop Enabled,0,FALSE,0,NO ERROR,8999.414062,-8998.242188,9000.000000,9000.000000,Speed,Speed,3.670000,0.930000,1.610000,4.000000,107.000000,1,1,0.090000,0.090000,1,1.214493,-0.050980,0.000000,6.758865,-20.632339,0.000000,0.012000,-0.066000,0.015000,FlatInitial,Hold,0
08:22:52.541 PM 02/17/2016,Teleop Enabled,0,FALSE,0,NO ERROR,8997.070312,-8998.242188,9000.000000,9000.000000,Speed,Speed,3.320000,1.100000,1.600000,4.000000,104.000000,1,1,0.090000,0.090000,1,1.214493,-0.050980,0.000000,6.758865,-20.632339,0.000000,0.012000,-0.066000,0.015000,FlatInitial,Hold,0
08:22:52.641 PM 02/17/2016,Teleop Enabled,0,FALSE,0,NO ERROR,8997.070312,-9004.101562,9000.000000,9000.000000,Speed,Speed,3.320000,1.100000,1.600000,4.000000,101.000000,1,1,0.090000,0.090000,1,1.362000,-0.064331,0.000000,6.928207,-20.640213,0.000000,0.012000,-0.066000,0.015000,FlatInitial,Hold,0
08:22:52.742 PM 02/17/2016,Teleop Enabled,0,FALSE,0,NO ERROR,8997.070312,-9008.789062,9000.000000,9000.000000,Speed,Speed,3.320000,1.100000,1.600000,4.000000,101.000000,1,1,0.090000,0.090000,1,1.362000,-0.064331,0.000000,6.928207,-20.640213,0.000000,0.092000,0.098000,-0.052000,FlatInitial,Hold,0
08:22:52.843 PM 02/17/2016,Teleop Enabled,0,FALSE,0,NO ERROR,8998.828125,-9004.687500,9000.000000,9000.000000,Speed,Speed,1.350000,1.070000,1.760000,4.000000,101.000000,1,1,0.090000,0.090000,1,1.430084,-0.032440,0.000000,7.068192,-20.645325,0.000000,-0.007000,-0.025000,0.008000,FlatInitial,Hold,0
08:22:52.944 PM 02/17/2016,Teleop Enabled,0,FALSE,0,NO ERROR,9005.859375,-9002.343750,9000.000000,9000.000000,Speed,Speed,0.930000,1.090000,1.610000,4.000000,100.000000,1,1,0.090000,0.090000,1,1.465469,-0.035736,0.000000,7.126144,-20.646469,0.000000,0.133000,-0.007000,-0.018000,FlatInitial,Hold,0
08:22:53.045 PM 02/17/2016,Teleop Enabled,0,FALSE,0,NO ERROR,9005.859375,-8997.656250,9000.000000,9000.000000,Speed,Speed,0.290000,1.080000,1.550000,4.000000,101.000000,1,1,0.090000,0.090000,1,1.465469,-0.035736,0.000000,7.126144,-20.646469,0.000000,0.133000,-0.007000,-0.018000,FlatInitial,Hold,0
08:22:53.145 PM 02/17/2016,Teleop Enabled,0,FALSE,0,NO ERROR,9008.789062,-8994.726562,9000.000000,9000.000000,Speed,Speed,0.290000,1.080000,1.550000,4.000000,100.000000,1,1,0.090000,0.090000,1,1.537613,-0.097122,0.000000,7.276428,-20.654480,0.000000,0.133000,-0.007000,-0.018000,FlatInitial,Hold,0
08:22:53.245 PM 02/17/2016,Teleop Enabled,0,FALSE,0,NO ERROR,9010.546875,-8995.898438,9000.000000,9000.000000,Speed,Speed,0.290000,1.080000,1.550000,4.000000,104.000000,1,1,-0.090000,-0.090000,1,1.537613,-0.097122,0.000000,7.276428,-20.654480,0.000000,0.133000,-0.007000,-0.018000,FlatInitial,Hold,0
08:22:53.346 PM 02/17/2016,Teleop Enabled,0,FALSE,0,NO ERROR,9010.546875,-8998.828125,9000.000000,9000.000000,Speed,Speed,-0.350000,0.970000,1.520000,4.000000,102.000000,1,1,-0.090000,-0.090000,1,1.537613,-0.097122,0.000000,7.276428,-20.654480,0.000000,0.070000,0.142000,-0.033000,FlatInitial,Hold,0
08:22:53.446 PM 02/17/2016,Teleop Enabled,0,FALSE,0,NO ERROR,9007.031250,-9003.515625,9000.000000,9000.000000,Speed,Speed,-0.350000,0.970000,1.520000,4.000000,102.000000,1,1,-0.090000,-0.090000,1,1.635605,-0.151566,0.000000,7.548203,-20.675400,0.000000,0.070000,0.142000,-0.033000,FlatInitial,Hold,0
08:22:53.548 PM 02/17/2016,Teleop Enabled,0,FALSE,0,NO ERROR,9005.859375,-9004.101562,9000.000000,9000.000000,Speed,Speed,0.720000,0.900000,1.520000,4.000000,101.000000,1,1,-0.090000,-0.090000,1,1.631241,-0.159882,0.000000,7.580826,-20.678543,0.000000,-0.035000,-0.113000,-0.002000,FlatInitial,Hold,0
08:22:53.649 PM 02/17/2016,Teleop Enabled,0,FALSE,0,NO ERROR,9004.687500,-9008.789062,9000.000000,9000.000000,Speed,Speed,0.720000,0.900000,1.520000,4.000000,102.000000,1,1,-0.090000,-0.090000,1,1.631241,-0.159882,0.000000,7.580826,-20.678543,0.000000,-0.035000,-0.113000,-0.002000,FlatInitial,Hold,0
08:22:53.749 PM 02/17/2016,Teleop Enabled,0,FALSE,0,NO ERROR,9002.929688,-9011.132812,9000.000000,9000.000000,Speed,Speed,2.470000,0.910000,1.520000,4.000000,102.000000,1,1,-0.090000,-0.090000,1,1.631241,-0.159882,0.000000,7.580826,-20.678543,0.000000,-0.035000,-0.113000,-0.002000,FlatInitial,Hold,0
08:22:53.851 PM 02/17/2016,Teleop Enabled,0,FALSE,0,NO ERROR,8998.828125,-9008.789062,9000.000000,9000.000000,Speed,Speed,2.470000,0.910000,1.520000,4.000000,101.000000,1,1,0.090000,0.090000,1,1.701050,-0.186325,0.000000,7.814911,-20.703690,0.000000,0.036000,0.080000,0.006000,FlatInitial,Hold,0
08:22:53.951 PM 02/17/2016,Teleop Enabled,0,FALSE,0,NO ERROR,8996.484375,-9005.859375,9000.000000,9000.000000,Speed,Speed,3.760000,0.980000,1.610000,4.000000,100.000000,1,1,0.090000,0.090000,1,1.701050,-0.186325,0.000000,7.814911,-20.703690,0.000000,0.036000,0.080000,0.006000,FlatInitial,Hold,0
08:22:54.051 PM 02/17/2016,Teleop Enabled,0,FALSE,0,NO ERROR,8992.382812,-9007.031250,9000.000000,9000.000000,Speed,Speed,3.760000,0.980000,1.610000,4.000000,100.000000,1,1,0.090000,0.090000,1,1.764252,-0.219818,0.000000,8.005310,-20.726334,0.000000,0.009000,-0.095000,-0.073000,FlatInitial,Hold,0
08:22:54.153 PM 02/17/2016,Teleop Enabled,0,FALSE,0,NO ERROR,8991.210938,-9006.445312,9000.000000,9000.000000,Speed,Speed,3.240000,1.130000,1.640000,4.000000,102.000000,1,1,0.090000,0.090000,1,1.764252,-0.219818,0.000000,8.005310,-20.726334,0.000000,0.009000,-0.095000,-0.073000,FlatInitial,Hold,0
08:22:54.254 PM 02/17/2016,Teleop Enabled,0,FALSE,0,NO ERROR,8990.039062,-9004.687500,9000.000000,9000.000000,Speed,Speed,3.240000,1.130000,1.640000,4.000000,102.000000,1,1,0.090000,0.090000,1,1.777924,-0.240860,0.000000,8.165634,-20.747757,0.000000,0.009000,-0.095000,-0.073000,FlatInitial,Hold,0
08:22:54.355 PM 02/17/2016,Teleop Enabled,0,FALSE,0,NO ERROR,8992.382812,-9000.000000,9000.000000,9000.000000,Speed,Speed,1.050000,1.120000,1.880000,4.000000,100.000000,1,1,0.090000,0.090000,1,1.777924,-0.240860,0.000000,8.165634,-20.747757,0.000000,-0.024000,-0.049000,-0.024000,FlatInitial,Hold,0
08:22:54.455 PM 02/17/2016,Teleop Enabled,0,FALSE,0,NO ERROR,8996.484375,-8990.625000,9000.000000,9000.000000,Speed,Speed,0.920000,1.130000,1.740000,4.000000,100.000000,1,1,0.090000,0.090000,1,0.000000,-0.242737,0.000000,8.236588,-20.775864,0.000000,-0.007000,-0.090000,-0.037000,FlatInitial,Hold,0
08:22:54.571 PM 02/17/2016,Teleop Enabled,0,FALSE,0,NO ERROR,9000.000000,-8984.765625,9000.000000,9000.000000,Speed,Speed,0.920000,1.130000,1.740000,4.000000,100.000000,1,1,0.090000,0.090000,1,0.011276,-0.323181,0.000000,8.237640,-20.798721,0.000000,-0.007000,-0.090000,-0.037000,FlatInitial,Hold,0
08:22:54.667 PM 02/17/2016,Teleop Enabled,0,FALSE,0,NO ERROR,9007.031250,-8990.625000,9000.000000,9000.000000,Speed,Speed,-0.030000,1.130000,1.780000,4.000000,101.000000,1,1,-0.090000,-0.090000,1,0.011276,-0.323181,0.000000,8.237640,-20.798721,0.000000,-0.011000,0.027000,0.050000,FlatInitial,Hold,0
08:22:54.769 PM 02/17/2016,Teleop Enabled,0,FALSE,0,NO ERROR,9008.789062,-8990.625000,9000.000000,9000.000000,Speed,Speed,-0.340000,1.140000,1.690000,4.000000,101.000000,1,1,-0.090000,-0.090000,1,-0.011597,-0.331863,0.000000,8.237289,-20.821838,0.000000,-0.014000,0.022000,0.035000,FlatInitial,Hold,0
08:22:54.870 PM 02/17/2016,Teleop Enabled,0,FALSE,0,NO ERROR,9007.031250,-8993.554688,9000.000000,9000.000000,Speed,Speed,-0.390000,1.040000,1.630000,4.000000,101.000000,1,1,-0.090000,-0.090000,1,-0.053955,-0.331436,0.000000,8.235474,-20.838486,0.000000,-0.014000,0.022000,0.035000,FlatInitial,Hold,0
08:22:54.970 PM 02/17/2016,Teleop Enabled,0,FALSE,0,NO ERROR,9008.203125,-8993.554688,9000.000000,9000.000000,Speed,Speed,0.980000,0.900000,1.580000,4.000000,103.000000,1,1,-0.090000,-0.090000,1,-0.053955,-0.331436,0.000000,8.235474,-20.838486,0.000000,-0.070000,-0.042000,0.031000,FlatInitial,Hold,0
08:22:55.071 PM 02/17/2016,Teleop Enabled,0,FALSE,0,NO ERROR,9008.203125,-8995.898438,9000.000000,9000.000000,Speed,Speed,0.980000,0.900000,1.580000,4.000000,102.000000,1,0,0.322835,-0.322835,1,-0.121033,-0.374298,0.000000,8.224762,-20.880402,0.000000,-0.070000,-0.042000,0.031000,FlatInitial,Hold,0
08:22:55.170 PM 02/17/2016,Teleop Enabled,0,FALSE,0,NO ERROR,9005.273438,-9000.585938,9000.000000,9000.000000,Speed,Speed,2.080000,1.010000,1.620000,4.000000,101.000000,1,0,-0.000000,0.000000,1,-0.104202,-0.411072,0.000000,8.221115,-20.891861,0.000000,0.419000,-0.453000,-0.259000,FlatInitial,Hold,0
08:22:55.273 PM 02/17/2016,Teleop Enabled,0,FALSE,0,NO ERROR,8954.882812,-8967.773438,9000.000000,9000.000000,Speed,Speed,-0.210000,1.380000,1.520000,4.000000,104.000000,1,0,-0.000000,0.000000,1,-0.049942,-0.390015,0.000000,8.217087,-20.921066,0.000000,-0.022000,-0.020000,-0.032000,FlatInitial,Hold,0
08:22:55.374 PM 02/17/2016,Teleop Enabled,0,FALSE,0,NO ERROR,8946.093750,-8970.703125,9000.000000,9000.000000,Speed,Speed,-1.870000,1.020000,1.440000,4.000000,105.000000,1,0,-0.000000,0.000000,1,-0.049942,-0.390015,0.000000,8.217087,-20.921066,0.000000,-0.022000,-0.020000,-0.032000,FlatInitial,Hold,0
08:22:55.475 PM 02/17/2016,Teleop Enabled,0,FALSE,0,NO ERROR,8987.109375,-8999.414062,9000.000000,9000.000000,Speed,Speed,-1.640000,1.030000,1.740000,4.000000,102.000000,1,0,-0.000000,0.000000,1,-0.095001,-0.331512,0.000000,8.208984,-20.952362,0.000000,0.056000,0.095000,0.041000,FlatInitial,Hold,0
08:22:55.576 PM 02/17/2016,Teleop Enabled,0,FALSE,0,NO ERROR,9018.164062,-9016.406250,9000.000000,9000.000000,Speed,Speed,-1.210000,1.000000,1.730000,4.000000,102.000000,1,0,-0.000000,0.000000,1,-0.075546,-0.361206,0.000000,8.205399,-20.969818,0.000000,-0.069000,-0.099000,0.030000,FlatInitial,Hold,0
08:22:55.676 PM 02/17/2016,Teleop Enabled,0,FALSE,0,NO ERROR,9032.226562,-9032.226562,9000.000000,9000.000000,Speed,Speed,-0.950000,1.080000,1.580000,4.000000,102.000000,1,0,-0.000000,0.000000,1,-0.067398,-0.382919,0.000000,8.200607,-20.992218,0.000000,-0.052000,0.004000,-0.046000,FlatInitial,Hold,0
08:22:55.777 PM 02/17/2016,Teleop Enabled,0,FALSE,0,NO ERROR,9029.882812,-9039.257812,9000.000000,9000.000000,Speed,Speed,-0.820000,1.060000,1.710000,4.000000,101.000000,1,0,-0.000000,0.000000,1,-0.067398,-0.382919,0.000000,8.200607,-20.992218,0.000000,-0.052000,0.004000,-0.046000,FlatInitial,Hold,0
08:22:55.877 PM 02/17/2016,Teleop Enabled,0,FALSE,0,NO ERROR,9024.609375,-9032.812500,9000.000000,9000.000000,Speed,Speed,-0.830000,1.080000,1.720000,4.000000,101.000000,1,0,-0.000000,0.000000,1,-0.133179,-0.039673,0.000000,8.191269,-20.994400,0.000000,-0.132000,0.051000,0.046000,FlatInitial,Hold,0
08:22:55.978 PM 02/17/2016,Teleop Enabled,0,FALSE,0,NO ERROR,9018.164062,-9025.195312,9000.000000,9000.000000,Speed,Speed,-0.830000,1.080000,1.690000,4.000000,102.000000,1,0,-0.000000,0.000000,1,-0.189835,-0.066605,0.000000,8.183090,-20.997040,0.000000,0.060000,-0.128000,0.071000,FlatInitial,Hold,0
08:22:56.077 PM 02/17/2016,Teleop Enabled,0,FALSE,0,NO ERROR,9014.648438,-9016.992188,9000.000000,9000.000000,Speed,Speed,-0.760000,1.080000,1.680000,4.000000,102.000000,1,0,-0.000000,0.000000,1,-0.245651,-0.092590,0.000000,8.169800,-21.002151,0.000000,-0.122000,0.137000,0.025000,FlatInitial,Hold,0
08:22:56.178 PM 02/17/2016,Teleop Enabled,0,FALSE,0,NO ERROR,9009.375000,-9010.546875,9000.000000,9000.000000,Speed,Speed,-0.730000,1.080000,1.760000,4.000000,105.000000,1,0,-0.000000,0.000000,1,-0.282593,-0.101105,0.000000,8.156479,-21.007172,0.000000,0.079000,-0.168000,0.072000,FlatInitial,Hold,0
08:22:56.278 PM 02/17/2016,Teleop Enabled,0,FALSE,0,NO ERROR,9002.343750,-9007.031250,9000.000000,9000.000000,Speed,Speed,-0.740000,1.080000,1.760000,4.000000,102.000000,1,0,-0.000000,0.000000,1,-0.328964,-0.110168,0.000000,8.144058,-21.011627,0.000000,-0.121000,0.122000,-0.002000,FlatInitial,Hold,0
08:22:56.378 PM 02/17/2016,Teleop Enabled,0,FALSE,0,NO ERROR,9000.585938,-9005.859375,9000.000000,9000.000000,Speed,Speed,-0.740000,1.110000,1.700000,4.000000,104.000000,1,0,-0.000000,0.000000,1,-0.373749,-0.125931,0.000000,8.122635,-21.018616,0.000000,0.049000,-0.171000,0.068000,FlatInitial,Hold,0
08:22:56.478 PM 02/17/2016,Teleop Enabled,0,FALSE,0,NO ERROR,8995.898438,-9002.929688,9000.000000,9000.000000,Speed,Speed,-0.740000,1.080000,1.690000,4.000000,102.000000,1,0,-0.000000,0.000000,1,-0.423080,-0.141266,0.000000,8.106445,-21.023941,0.000000,-0.006000,-0.145000,0.089000,FlatInitial,Hold,0
08:22:56.578 PM 02/17/2016,Teleop Enabled,0,FALSE,0,NO ERROR,8994.726562,-9000.585938,9000.000000,9000.000000,Speed,Speed,-0.740000,1.080000,1.690000,4.000000,101.000000,1,0,-0.000000,0.000000,1,-0.423080,-0.141266,0.000000,8.106445,-21.023941,0.000000,-0.006000,-0.145000,0.089000,FlatInitial,Hold,0
08:22:56.678 PM 02/17/2016,Teleop Enabled,0,FALSE,0,NO ERROR,8994.726562,-8998.242188,9000.000000,9000.000000,Speed,Speed,-0.740000,1.090000,1.680000,4.000000,102.000000,1,0,-0.000000,0.000000,1,-0.500244,-0.153290,0.000000,8.068878,-21.035461,0.000000,0.066000,-0.178000,0.075000,FlatInitial,Hold,0
08:22:56.779 PM 02/17/2016,Teleop Enabled,0,FALSE,0,NO ERROR,8996.484375,-8992.968750,9000.000000,9000.000000,Speed,Speed,-0.730000,1.070000,1.690000,4.000000,107.000000,1,0,-0.000000,0.000000,1,-0.540802,-0.165909,0.000000,8.047836,-21.041794,0.000000,-0.165000,0.154000,0.000000,FlatInitial,Hold,0
08:22:56.880 PM 02/17/2016,Teleop Enabled,0,FALSE,0,NO ERROR,8999.414062,-8990.039062,9000.000000,9000.000000,Speed,Speed,-0.740000,1.050000,1.710000,4.000000,103.000000,1,0,-0.000000,0.000000,1,-0.625381,-0.202805,0.000000,7.994919,-21.058243,0.000000,-0.136000,0.189000,0.002000,FlatInitial,Hold,0
08:22:56.980 PM 02/17/2016,Teleop Enabled,0,FALSE,0,NO ERROR,9001.171875,-8991.210938,9000.000000,9000.000000,Speed,Speed,-0.740000,1.050000,1.710000,4.000000,102.000000,1,0,-0.000000,0.000000,1,-0.625381,-0.202805,0.000000,7.994919,-21.058243,0.000000,-0.136000,0.189000,0.002000,FlatInitial,Hold,0
08:22:57.080 PM 02/17/2016,Teleop Enabled,0,FALSE,0,NO ERROR,9001.171875,-8995.898438,9000.000000,9000.000000,Speed,Speed,-0.730000,1.060000,1.640000,4.000000,101.000000,1,0,-0.000000,0.000000,1,-0.706238,-0.216202,0.000000,7.941010,-21.074493,0.000000,-0.159000,0.125000,-0.040000,FlatInitial,Hold,0
08:22:57.180 PM 02/17/2016,Teleop Enabled,0,FALSE,0,NO ERROR,8998.828125,-8998.828125,9000.000000,9000.000000,Speed,Speed,-0.740000,1.060000,1.590000,4.000000,103.000000,1,0,-0.000000,0.000000,1,-0.741196,-0.242142,0.000000,7.911880,-21.083801,0.000000,0.040000,-0.134000,0.102000,FlatInitial,Hold,0
08:22:57.281 PM 02/17/2016,Teleop Enabled,0,FALSE,0,NO ERROR,8998.828125,-9002.343750,9000.000000,9000.000000,Speed,Speed,-0.740000,1.060000,1.590000,4.000000,101.000000,1,0,-0.000000,0.000000,1,-0.789917,-0.243851,0.000000,7.873428,-21.095886,0.000000,0.019000,-0.142000,0.090000,FlatInitial,Hold,0
08:22:57.383 PM 02/17/2016,Teleop Enabled,0,FALSE,0,NO ERROR,9001.757812,-9002.929688,9000.000000,9000.000000,Speed,Speed,-0.740000,1.040000,1.590000,4.000000,103.000000,1,0,-0.000000,0.000000,1,-0.842194,-0.246719,0.000000,7.832352,-21.108093,0.000000,-0.001000,-0.189000,0.079000,FlatInitial,Hold,0
08:22:57.483 PM 02/17/2016,Teleop Enabled,0,FALSE,0,NO ERROR,9002.929688,-9005.273438,9000.000000,9000.000000,Speed,Speed,-0.740000,1.040000,1.590000,4.000000,100.000000,1,0,-0.000000,0.000000,1,-0.888718,-0.252319,0.000000,7.797470,-21.118240,0.000000,-0.127000,0.146000,0.014000,FlatInitial,Hold,0
08:22:57.584 PM 02/17/2016,Teleop Enabled,0,FALSE,0,NO ERROR,9002.343750,-9008.789062,9000.000000,9000.000000,Speed,Speed,-0.730000,1.020000,1.630000,4.000000,102.000000,1,0,-0.000000,0.000000,1,-0.991501,-0.266052,0.000000,7.702927,-21.144287,0.000000,-0.012000,-0.150000,0.098000,FlatInitial,Hold,0
08:22:57.684 PM 02/17/2016,Teleop Enabled,0,FALSE,0,NO ERROR,9002.343750,-9009.960938,9000.000000,9000.000000,Speed,Speed,-0.730000,1.030000,1.610000,4.000000,102.000000,1,0,-0.000000,0.000000,1,-0.991501,-0.266052,0.000000,7.702927,-21.144287,0.000000,0.004000,-0.187000,0.095000,FlatInitial,Hold,0
08:22:57.785 PM 02/17/2016,Teleop Enabled,0,FALSE,0,NO ERROR,9002.343750,-9007.617188,9000.000000,9000.000000,Speed,Speed,-0.730000,1.030000,1.610000,4.000000,102.000000,1,0,-0.000000,0.000000,1,-1.056808,-0.256104,0.000000,7.640900,-21.160019,0.000000,0.006000,-0.191000,0.112000,FlatInitial,Hold,0
08:22:57.886 PM 02/17/2016,Teleop Enabled,0,FALSE,0,NO ERROR,9005.859375,-9003.515625,9000.000000,9000.000000,Speed,Speed,-0.730000,1.020000,1.590000,4.000000,103.000000,1,0,-0.000000,0.000000,1,-1.134903,-0.244461,0.000000,7.563889,-21.177612,0.000000,-0.080000,0.193000,-0.054000,FlatInitial,Hold,0
08:22:57.986 PM 02/17/2016,Teleop Enabled,0,FALSE,0,NO ERROR,9003.515625,-9002.343750,9000.000000,9000.000000,Speed,Speed,-0.730000,1.020000,1.600000,4.000000,102.000000,1,0,-0.000000,0.000000,1,-1.180283,-0.238815,0.000000,7.505814,-21.189514,0.000000,-0.009000,-0.146000,0.077000,FlatInitial,Hold,0
08:22:58.087 PM 02/17/2016,Teleop Enabled,0,FALSE,0,NO ERROR,9003.515625,-9001.757812,9000.000000,9000.000000,Speed,Speed,-0.730000,1.020000,1.600000,4.000000,101.000000,1,0,-0.000000,0.000000,1,-1.205338,-0.235458,0.000000,7.469864,-21.196548,0.000000,0.020000,-0.129000,0.079000,FlatInitial,Hold,0
08:22:58.187 PM 02/17/2016,Teleop Enabled,0,FALSE,0,NO ERROR,9001.757812,-9001.171875,9000.000000,9000.000000,Speed,Speed,-0.730000,1.010000,1.590000,4.000000,101.000000,1,0,-0.000000,0.000000,1,-1.269165,-0.217636,0.000000,7.382919,-21.212402,0.000000,0.010000,-0.142000,0.113000,FlatInitial,Hold,0
08:22:58.289 PM 02/17/2016,Teleop Enabled,0,FALSE,0,NO ERROR,9000.585938,-8999.414062,9000.000000,9000.000000,Speed,Speed,-0.730000,1.040000,1.580000,4.000000,100.000000,1,0,-0.000000,0.000000,1,-1.289291,-0.203415,0.000000,7.344421,-21.218689,0.000000,-0.144000,0.149000,-0.055000,FlatInitial,Hold,0
08:22:58.391 PM 02/17/2016,Teleop Enabled,0,FALSE,0,NO ERROR,9001.757812,-8997.656250,9000.000000,9000.000000,Speed,Speed,-0.730000,1.020000,1.550000,4.000000,102.000000,1,0,-0.000000,0.000000,1,-1.339722,-0.184631,0.000000,7.278183,-21.228424,0.000000,0.019000,-0.185000,0.071000,FlatInitial,Hold,0
08:22:58.490 PM 02/17/2016,Teleop Enabled,0,FALSE,0,NO ERROR,8999.414062,-8999.414062,9000.000000,9000.000000,Speed,Speed,-0.730000,1.030000,1.490000,4.000000,106.000000,1,0,-0.000000,0.000000,1,-1.360794,-0.172043,0.000000,7.210510,-21.237183,0.000000,-0.094000,0.191000,-0.027000,FlatInitial,Hold,0
08:22:58.591 PM 02/17/2016,Teleop Enabled,0,FALSE,0,NO ERROR,8999.414062,-8999.414062,9000.000000,9000.000000,Speed,Speed,-0.730000,1.040000,1.520000,4.000000,103.000000,1,0,-0.000000,0.000000,1,-1.415878,-0.137268,0.000000,7.113144,-21.247879,0.000000,-0.109000,0.173000,-0.033000,FlatInitial,Hold,0
08:22:58.690 PM 02/17/2016,Teleop Enabled,0,FALSE,0,NO ERROR,8998.828125,-9001.757812,9000.000000,9000.000000,Speed,Speed,-0.730000,1.060000,1.510000,4.000000,102.000000,1,0,-0.000000,0.000000,1,-1.441498,-0.113632,0.000000,7.055801,-21.252838,0.000000,0.020000,-0.144000,0.045000,FlatInitial,Hold,0
08:22:58.791 PM 02/17/2016,Teleop Enabled,0,FALSE,0,NO ERROR,8998.828125,-9006.445312,9000.000000,9000.000000,Speed,Speed,-0.740000,1.030000,1.490000,4.000000,102.000000,1,0,-0.000000,0.000000,1,-1.470566,-0.098557,0.000000,6.997482,-21.257080,0.000000,-0.013000,-0.153000,0.080000,FlatInitial,Hold,0
08:22:58.891 PM 02/17/2016,Teleop Enabled,0,FALSE,0,NO ERROR,8998.242188,-9013.476562,9000.000000,9000.000000,Speed,Speed,-0.740000,1.020000,1.490000,4.000000,101.000000,1,0,-0.000000,0.000000,1,-1.514206,-0.034393,0.000000,6.892609,-21.261826,0.000000,0.005000,-0.095000,0.058000,FlatInitial,Hold,0
08:22:58.991 PM 02/17/2016,Teleop Enabled,0,FALSE,0,NO ERROR,8998.828125,-9011.132812,9000.000000,9000.000000,Speed,Speed,-0.730000,1.030000,1.490000,4.000000,101.000000,1,0,-0.000000,0.000000,1,-1.531006,-0.025604,0.000000,6.846802,-21.262665,0.000000,-0.009000,-0.110000,0.057000,FlatInitial,Hold,0
08:22:59.091 PM 02/17/2016,Teleop Enabled,0,FALSE,0,NO ERROR,8999.414062,-9003.515625,9000.000000,9000.000000,Speed,Speed,-0.730000,1.040000,1.510000,4.000000,102.000000,1,0,-0.000000,0.000000,1,-1.582779,0.017456,0.000000,6.768768,-21.262787,0.000000,-0.029000,0.179000,-0.028000,FlatInitial,Hold,0
08:22:59.193 PM 02/17/2016,Teleop Enabled,0,FALSE,0,NO ERROR,8999.414062,-8995.312500,9000.000000,9000.000000,Speed,Speed,-0.730000,1.050000,1.510000,4.000000,100.000000,1,0,-0.000000,0.000000,1,-1.628876,0.059250,0.000000,6.656204,-21.259766,0.000000,-0.045000,0.242000,-0.060000,FlatInitial,Hold,0
08:22:59.293 PM 02/17/2016,Teleop Enabled,0,FALSE,0,NO ERROR,8998.828125,-8991.210938,9000.000000,9000.000000,Speed,Speed,-0.740000,1.040000,1.500000,4.000000,101.000000,1,0,-0.000000,0.000000,1,-1.671005,0.112854,0.000000,6.573532,-21.255127,0.000000,-0.016000,0.182000,-0.035000,FlatInitial,Hold,0
08:22:59.394 PM 02/17/2016,Teleop Enabled,0,FALSE,0,NO ERROR,8998.828125,-8987.695312,9000.000000,9000.000000,Speed,Speed,-0.740000,1.060000,1.510000,4.000000,101.000000,1,0,-0.000000,0.000000,1,-0.013077,0.137573,0.000000,6.556564,-21.249985,0.000000,0.005000,-0.107000,0.063000,FlatInitial,Hold,0
08:22:59.495 PM 02/17/2016,Teleop Enabled,0,FALSE,0,NO ERROR,8998.242188,-8988.867188,9000.000000,9000.000000,Speed,Speed,-0.730000,1.060000,1.530000,4.000000,101.000000,1,0,-0.000000,0.000000,1,-0.038269,0.175598,0.000000,6.555283,-21.242279,0.000000,0.001000,-0.176000,0.083000,FlatInitial,Hold,0
08:22:59.596 PM 02/17/2016,Teleop Enabled,0,FALSE,0,NO ERROR,9000.585938,-8992.968750,9000.000000,9000.000000,Speed,Speed,-0.730000,1.060000,1.570000,4.000000,100.000000,1,0,-0.000000,0.000000,1,-0.069244,0.211899,0.000000,6.553040,-21.234589,0.000000,-0.057000,0.151000,-0.027000,FlatInitial,Hold,0
08:22:59.696 PM 02/17/2016,Teleop Enabled,0,FALSE,0,NO ERROR,9002.343750,-8994.726562,9000.000000,9000.000000,Speed,Speed,-0.730000,1.070000,1.560000,4.000000,101.000000,1,0,-0.000000,0.000000,1,-0.101547,0.251587,0.000000,6.547882,-21.220490,0.000000,-0.017000,-0.081000,0.070000,FlatInitial,Hold,0
08:22:59.796 PM 02/17/2016,Teleop Enabled,0,FALSE,0,NO ERROR,9004.687500,-8995.898438,9000.000000,9000.000000,Speed,Speed,-0.730000,1.050000,1.570000,4.000000,101.000000,1,0,-0.000000,0.000000,1,-0.126907,0.290802,0.000000,6.543015,-21.209473,0.000000,0.007000,-0.055000,0.080000,FlatInitial,Hold,0
08:22:59.896 PM 02/17/2016,Teleop Enabled,0,FALSE,0,NO ERROR,9005.859375,-8996.484375,9000.000000,9000.000000,Speed,Speed,-0.740000,1.050000,1.570000,4.000000,103.000000,1,0,-0.000000,0.000000,1,-0.018158,0.336380,0.000000,6.542450,-21.190475,0.000000,-0.037000,0.147000,-0.074000,FlatInitial,Hold,0
08:22:59.997 PM 02/17/2016,Teleop Enabled,0,FALSE,0,NO ERROR,9006.445312,-8995.312500,9000.000000,9000.000000,Speed,Speed,-0.730000,1.100000,1.520000,4.000000,102.000000,1,0,-0.000000,0.000000,1,-0.014160,0.390976,0.000000,6.541412,-21.164551,0.000000,-0.010000,-0.021000,0.070000,FlatInitial,Hold,0
08:23:00.097 PM 02/17/2016,Teleop Enabled,0,FALSE,0,NO ERROR,9003.515625,-8998.828125,9000.000000,9000.000000,Speed,Speed,-0.730000,1.060000,1.570000,4.000000,102.000000,1,0,-0.000000,0.000000,1,-0.015991,0.415146,0.000000,6.540894,-21.152222,0.000000,-0.007000,0.061000,-0.063000,FlatInitial,Hold,0
08:23:00.198 PM 02/17/2016,Teleop Enabled,0,FALSE,0,NO ERROR,9002.929688,-8999.414062,9000.000000,9000.000000,Speed,Speed,-0.730000,1.050000,1.540000,4.000000,101.000000,1,0,-0.000000,0.000000,1,0.000000,0.452606,0.000000,6.540695,-21.126099,0.000000,0.049000,0.005000,0.039000,FlatInitial,Hold,0
08:23:00.298 PM 02/17/2016,Teleop Enabled,0,FALSE,0,NO ERROR,9000.000000,-9001.757812,9000.000000,9000.000000,Speed,Speed,-0.730000,1.070000,1.540000,4.000000,105.000000,1,0,-0.000000,0.000000,1,0.000000,0.502975,0.000000,6.540985,-21.096970,0.000000,-0.016000,0.004000,-0.069000,FlatInitial,Hold,0
08:23:00.398 PM 02/17/2016,Teleop Enabled,0,FALSE,0,NO ERROR,8999.414062,-8995.898438,9000.000000,9000.000000,Speed,Speed,-0.740000,1.030000,1.540000,4.000000,104.000000,1,0,-0.000000,0.000000,1,0.011230,0.019455,0.000000,6.541275,-21.096558,0.000000,0.036000,0.057000,-0.058000,FlatInitial,Hold,0
08:23:00.498 PM 02/17/2016,Teleop Enabled,0,FALSE,0,NO ERROR,8996.484375,-8990.625000,9000.000000,9000.000000,Speed,Speed,-0.730000,1.050000,1.530000,4.000000,100.000000,1,0,-0.000000,0.000000,1,0.022980,0.069351,0.000000,6.542175,-21.093597,0.000000,0.059000,0.067000,-0.043000,FlatInitial,Hold,0
08:23:00.598 PM 02/17/2016,Teleop Enabled,0,FALSE,0,NO ERROR,8997.070312,-8990.039062,9000.000000,9000.000000,Speed,Speed,-0.730000,1.000000,1.550000,4.000000,102.000000,1,0,-0.000000,0.000000,1,0.032120,0.088425,0.000000,6.543350,-21.090271,0.000000,0.009000,0.102000,-0.010000,FlatInitial,Hold,0
08:23:00.705 PM 02/17/2016,Teleop Enabled,0,FALSE,0,NO ERROR,8998.242188,-8994.140625,9000.000000,9000.000000,Speed,Speed,-0.730000,1.030000,1.520000,4.000000,100.000000,1,0,-0.000000,0.000000,1,0.000000,0.145111,0.000000,6.543808,-21.083008,0.000000,0.013000,0.074000,-0.038000,FlatInitial,Hold,0
08:23:00.806 PM 02/17/2016,Teleop Enabled,0,FALSE,0,NO ERROR,8998.242188,-8999.414062,9000.000000,9000.000000,Speed,Speed,-0.730000,1.000000,1.630000,4.000000,101.000000,1,0,-0.000000,0.000000,1,0.020813,0.177032,0.000000,6.544296,-21.076324,0.000000,0.011000,-0.001000,-0.017000,FlatInitial,Hold,0
08:23:00.907 PM 02/17/2016,Teleop Enabled,0,FALSE,0,NO ERROR,8999.414062,-9002.929688,9000.000000,9000.000000,Speed,Speed,-0.730000,0.980000,1.620000,4.000000,100.000000,1,0,-0.000000,0.000000,1,-0.002441,0.032516,0.000000,6.544495,-21.075760,0.000000,0.030000,-0.045000,0.081000,FlatInitial,Hold,0
