Time,RobotMode,AutoToRun,ErrorStatus, ErrorCode,ErrorSource,ActualRPM1,ActualRPM2,DesiredRPM1,DesiredRPM2,ControlMode1,ControlMode2,NavXYaw,NavXRoll,NavXPitch,ShooterState,LoopTime,IsLevel,IsAutoTargeting,LeftMotorOutput,RightMotorOutput,IsHaloDrive,NavXVelocityX,NavXVelocityY,NavXVelocityZ,NavXDisplacementX,NavXDisplacementY,NavXDisplacementZ,NavXAccelerationX,NavXAccelerationY,NavXAccelerationZ,AutoDefendState,AngeMotorState,Photoeye
07:15:54.937 PM 02/16/2016,Autonomous Disabled,0,TRUE,91,Variant To Data in WPI_DigitalInputRefNum Registry Get.vi->Periodic Tasks.vi->Robot Main.vi,0.000000,0.000000,-6000.000000,-6000.000000,Speed,Speed,0.120000,0.830000,0.950000,1.000000,101.000000,1,0,-0.000000,0.000000,1,0.000000,0.000000,0.000000,-19.112656,40.987000,0.000000,-0.001000,-0.001000,0.004000,FlatInitial,Hold,0
07:15:55.037 PM 02/16/2016,Teleop Enabled,0,TRUE,-44007,<LOCATION>WPI_DigitalInputRefNum Registry Get.vi<CALLSTACK>WPI_DigitalInputRefNum Registry Get.vi< <Periodic Tasks.vi< <Robot Main.vi,0.000000,10.693359,0.000000,0.000000,Speed,Speed,0.150000,0.820000,0.750000,0.000000,23175.000000,1,0,-0.000000,0.000000,1,0.000763,-0.010162,0.000000,-19.112137,40.986938,0.000000,-0.001000,0.042000,-0.006000,FlatInitial,ResetBack,0
07:15:55.138 PM 02/16/2016,Teleop Enabled,0,FALSE,0,NO ERROR,0.000000,-5.859375,0.000000,0.000000,Speed,Speed,0.040000,0.860000,0.820000,0.000000,102.000000,1,0,-0.000000,0.000000,1,0.017746,-0.011810,0.000000,-19.111771,40.986862,0.000000,-0.040000,-0.031000,-0.004000,FlatInitial,ResetBack,0
07:15:55.239 PM 02/16/2016,Teleop Enabled,0,FALSE,0,NO ERROR,0.000000,0.000000,0.000000,0.000000,Speed,Speed,0.010000,0.820000,0.830000,0.000000,102.000000,1,0,-0.000000,0.000000,1,0.010788,-0.015686,0.000000,-19.111343,40.985764,0.000000,0.003000,0.045000,-0.038000,FlatInitial,ResetBack,0
07:15:55.340 PM 02/16/2016,Teleop Enabled,0,FALSE,0,NO ERROR,0.000000,0.000000,0.000000,0.000000,Speed,Speed,0.000000,0.840000,0.910000,0.000000,100.000000,1,0,-0.000000,0.000000,1,0.005066,0.005325,0.000000,-19.111145,40.985886,0.000000,-0.008000,-0.046000,0.002000,FlatInitial,ResetBack,0
07:15:55.440 PM 02/16/2016,Teleop Enabled,0,FALSE,0,NO ERROR,0.000000,0.000000,0.000000,0.000000,Speed,Speed,0.010000,0.830000,0.820000,0.000000,101.000000,1,0,-0.000000,0.000000,1,0.002441,0.000000,0.000000,-19.111069,40.985489,0.000000,0.011000,0.018000,0.021000,FlatInitial,ResetBack,0
07:15:55.540 PM 02/16/2016,Teleop Enabled,0,FALSE,0,NO ERROR,0.000000,0.000000,0.000000,0.000000,Speed,Speed,0.000000,0.830000,0.810000,0.000000,101.000000,1,0,-0.000000,0.000000,1,0.000000,-0.001297,0.000000,-19.110947,40.985657,0.000000,0.013000,-0.008000,0.027000,FlatInitial,ResetBack,0
07:15:55.641 PM 02/16/2016,Teleop Enabled,0,FALSE,0,NO ERROR,0.000000,0.000000,0.000000,0.000000,Speed,Speed,0.000000,0.820000,0.860000,0.000000,101.000000,1,0,-0.000000,0.000000,1,0.000000,0.000000,0.000000,-19.110947,40.985641,0.000000,-0.014000,-0.012000,0.031000,FlatInitial,ResetBack,1
07:15:55.742 PM 02/16/2016,Teleop Enabled,0,FALSE,0,NO ERROR,0.000000,0.000000,0.000000,0.000000,Speed,Speed,0.000000,0.840000,0.850000,0.000000,102.000000,1,0,-0.000000,0.000000,1,0.000000,0.000000,0.000000,-19.110947,40.985641,0.000000,0.004000,-0.011000,0.003000,FlatInitial,ResetForward,1
07:15:55.843 PM 02/16/2016,Teleop Enabled,0,FALSE,0,NO ERROR,0.000000,0.000000,0.000000,0.000000,Speed,Speed,0.000000,0.830000,0.840000,0.000000,102.000000,1,0,-0.000000,0.000000,1,0.000000,0.000000,0.000000,-19.110947,40.985382,0.000000,0.002000,-0.001000,-0.010000,FlatInitial,ResetForward,1
07:15:55.943 PM 02/16/2016,Teleop Enabled,0,FALSE,0,NO ERROR,0.000000,1.904297,0.000000,0.000000,Speed,Speed,0.000000,0.780000,0.970000,0.000000,102.000000,1,0,-0.000000,0.000000,1,0.000000,0.000000,0.000000,-19.110947,40.985382,0.000000,-0.006000,0.006000,0.007000,FlatInitial,ResetForward,1
07:15:56.043 PM 02/16/2016,Teleop Enabled,0,FALSE,0,NO ERROR,0.000000,0.000000,0.000000,0.000000,Speed,Speed,0.010000,0.820000,0.990000,0.000000,103.000000,1,0,-0.000000,0.000000,1,0.000000,0.023636,0.000000,-19.110947,40.986053,0.000000,0.007000,0.017000,0.005000,FlatInitial,ResetForward,1
07:15:56.143 PM 02/16/2016,Teleop Enabled,0,FALSE,0,NO ERROR,0.000000,0.000000,0.000000,0.000000,Speed,Speed,0.000000,0.820000,0.860000,0.000000,102.000000,1,0,-0.000000,0.000000,1,0.000000,-0.010208,0.000000,-19.110947,40.985901,0.000000,-0.002000,-0.028000,0.009000,FlatInitial,ResetForward,0
07:15:56.244 PM 02/16/2016,Teleop Enabled,0,FALSE,0,NO ERROR,0.000000,0.000000,0.000000,0.000000,Speed,Speed,0.000000,0.860000,0.800000,0.000000,103.000000,1,0,-0.000000,0.000000,1,0.008591,0.000000,0.000000,-19.110733,40.985764,0.000000,-0.002000,-0.018000,0.012000,FlatInitial,Reset,0
07:15:56.344 PM 02/16/2016,Teleop Enabled,0,FALSE,0,NO ERROR,0.000000,0.000000,0.000000,0.000000,Speed,Speed,0.010000,0.830000,0.890000,0.000000,103.000000,1,0,-0.000000,0.000000,1,0.000000,0.004196,0.000000,-19.110733,40.985809,0.000000,0.008000,0.003000,0.020000,FlatInitial,Hold,0
07:15:56.446 PM 02/16/2016,Teleop Enabled,0,FALSE,0,NO ERROR,0.000000,0.000000,0.000000,0.000000,Speed,Speed,0.000000,0.850000,0.790000,0.000000,101.000000,1,0,-0.000000,0.000000,1,0.000000,-0.006378,0.000000,-19.110733,40.985886,0.000000,0.000000,-0.007000,-0.007000,FlatInitial,Hold,0
07:15:56.546 PM 02/16/2016,Teleop Enabled,0,FALSE,0,NO ERROR,0.000000,0.000000,0.000000,0.000000,Speed,Speed,0.000000,0.840000,0.850000,0.000000,102.000000,1,0,-0.000000,0.000000,1,0.000000,0.000000,0.000000,-19.110733,40.985886,0.000000,0.003000,0.000000,0.009000,FlatInitial,Hold,0
07:15:56.646 PM 02/16/2016,Teleop Enabled,0,FALSE,0,NO ERROR,0.000000,0.292969,0.000000,0.000000,Speed,Speed,0.000000,0.830000,0.850000,0.000000,102.000000,1,0,-0.000000,0.000000,1,0.000000,0.000000,0.000000,-19.110733,40.985886,0.000000,0.010000,0.002000,0.002000,FlatInitial,Hold,0
07:15:56.748 PM 02/16/2016,Teleop Enabled,0,FALSE,0,NO ERROR,0.000000,0.000000,0.000000,0.000000,Speed,Speed,0.000000,0.830000,0.840000,0.000000,103.000000,1,0,-0.000000,0.000000,1,0.000000,0.000000,0.000000,-19.110733,40.985886,0.000000,0.000000,-0.004000,-0.002000,FlatInitial,Hold,0
07:15:56.848 PM 02/16/2016,Teleop Enabled,0,FALSE,0,NO ERROR,0.000000,0.000000,0.000000,0.000000,Speed,Speed,0.000000,0.830000,0.860000,0.000000,100.000000,1,0,-0.000000,0.000000,1,0.000000,0.000000,0.000000,-19.110733,40.985886,0.000000,-0.008000,0.006000,0.008000,FlatInitial,Hold,0
07:15:56.948 PM 02/16/2016,Teleop Enabled,0,FALSE,0,NO ERROR,0.000000,0.000000,0.000000,0.000000,Speed,Speed,0.000000,0.840000,0.870000,0.000000,102.000000,1,0,-0.000000,0.000000,1,0.000000,0.000000,0.000000,-19.110733,40.985886,0.000000,0.003000,-0.003000,0.000000,FlatInitial,Hold,0
07:15:57.049 PM 02/16/2016,Teleop Enabled,0,FALSE,0,NO ERROR,0.000000,0.000000,0.000000,0.000000,Speed,Speed,0.000000,0.830000,0.880000,0.000000,103.000000,1,0,-0.000000,0.000000,1,0.000000,0.000000,0.000000,-19.110733,40.985886,0.000000,0.005000,0.000000,0.003000,FlatInitial,Hold,0
07:15:57.150 PM 02/16/2016,Teleop Enabled,0,FALSE,0,NO ERROR,0.000000,0.000000,0.000000,0.000000,Speed,Speed,0.000000,0.820000,0.870000,0.000000,102.000000,1,0,-0.000000,0.000000,1,0.000000,0.000000,0.000000,-19.110733,40.985886,0.000000,0.002000,0.000000,0.000000,FlatInitial,Hold,0
07:15:57.250 PM 02/16/2016,Teleop Enabled,0,FALSE,0,NO ERROR,0.000000,0.000000,0.000000,0.000000,Speed,Speed,0.000000,0.830000,0.880000,0.000000,102.000000,1,0,-0.000000,0.000000,1,0.000000,0.000000,0.000000,-19.110733,40.985886,0.000000,-0.001000,0.000000,0.002000,FlatInitial,Hold,0
07:15:57.351 PM 02/16/2016,Teleop Enabled,0,FALSE,0,NO ERROR,0.000000,0.000000,0.000000,0.000000,Speed,Speed,0.000000,0.840000,0.870000,0.000000,102.000000,1,0,-0.000000,0.000000,1,0.000000,0.000000,0.000000,-19.110733,40.985886,0.000000,-0.001000,-0.002000,0.001000,FlatInitial,Hold,0
07:15:57.452 PM 02/16/2016,Teleop Enabled,0,FALSE,0,NO ERROR,0.000000,0.000000,0.000000,0.000000,Speed,Speed,0.000000,0.830000,0.880000,0.000000,101.000000,1,0,-0.000000,0.000000,1,0.000000,0.000000,0.000000,-19.110733,40.985886,0.000000,0.004000,0.000000,0.004000,FlatInitial,Hold,0
07:15:57.552 PM 02/16/2016,Teleop Enabled,0,FALSE,0,NO ERROR,0.000000,0.000000,0.000000,0.000000,Speed,Speed,0.000000,0.830000,0.880000,0.000000,100.000000,1,0,-0.000000,0.000000,1,0.000000,0.000000,0.000000,-19.110733,40.985886,0.000000,0.001000,0.003000,-0.001000,FlatInitial,Hold,0
07:15:57.652 PM 02/16/2016,Teleop Enabled,0,FALSE,0,NO ERROR,0.000000,0.000000,0.000000,0.000000,Speed,Speed,0.000000,0.830000,0.880000,0.000000,101.000000,1,0,-0.000000,0.000000,1,0.000000,0.000000,0.000000,-19.110733,40.985886,0.000000,-0.001000,0.009000,0.003000,FlatInitial,Hold,0
07:15:57.753 PM 02/16/2016,Teleop Enabled,0,FALSE,0,NO ERROR,0.000000,0.000000,0.000000,0.000000,Speed,Speed,0.000000,0.830000,0.880000,0.000000,101.000000,1,0,-0.000000,0.000000,1,0.000000,0.000000,0.000000,-19.110733,40.985886,0.000000,0.002000,-0.014000,0.000000,FlatInitial,Hold,0
07:15:57.853 PM 02/16/2016,Teleop Enabled,0,FALSE,0,NO ERROR,0.000000,0.000000,0.000000,0.000000,Speed,Speed,0.000000,0.820000,0.890000,0.000000,101.000000,1,0,-0.000000,0.000000,1,0.000000,0.000000,0.000000,-19.110733,40.985886,0.000000,0.002000,0.009000,0.009000,FlatInitial,LowGoal,0
07:15:57.954 PM 02/16/2016,Teleop Enabled,0,FALSE,0,NO ERROR,0.000000,0.000000,0.000000,0.000000,Speed,Speed,0.000000,0.830000,0.860000,0.000000,102.000000,1,0,-0.000000,0.000000,1,0.000000,-0.011810,0.000000,-19.110733,40.985718,0.000000,0.000000,-0.034000,-0.017000,FlatInitial,Hold,0
07:15:58.054 PM 02/16/2016,Teleop Enabled,0,FALSE,0,NO ERROR,0.000000,0.000000,0.000000,0.000000,Speed,Speed,0.000000,0.740000,0.960000,0.000000,100.000000,1,0,-0.000000,0.000000,1,0.000000,-0.035355,0.000000,-19.110733,40.984619,0.000000,-0.025000,0.025000,-0.011000,FlatInitial,Hold,0
07:15:58.156 PM 02/16/2016,Teleop Enabled,0,FALSE,0,NO ERROR,0.000000,0.000000,0.000000,0.000000,Speed,Speed,0.060000,0.830000,0.840000,0.000000,103.000000,1,0,-0.000000,0.000000,1,0.004349,0.022339,0.000000,-19.110992,40.984100,0.000000,0.029000,0.042000,-0.059000,FlatInitial,Hold,0
07:15:58.256 PM 02/16/2016,Teleop Enabled,0,FALSE,0,NO ERROR,-0.146484,0.000000,-6000.000000,-6000.000000,Speed,Speed,0.010000,0.820000,1.100000,1.000000,101.000000,1,0,-0.000000,0.000000,1,-0.002365,0.000000,0.000000,-19.110458,40.985092,0.000000,-0.050000,0.012000,0.019000,FlatInitial,Hold,0
07:15:58.357 PM 02/16/2016,Teleop Enabled,0,FALSE,0,NO ERROR,0.000000,-0.439453,-6000.000000,-6000.000000,Speed,Speed,0.030000,0.910000,0.790000,1.000000,103.000000,1,0,-0.000000,0.000000,1,0.000000,-0.039032,0.000000,-19.110428,40.983871,0.000000,-0.004000,-0.038000,-0.021000,FlatInitial,Hold,0
07:15:58.458 PM 02/16/2016,Teleop Enabled,0,FALSE,0,NO ERROR,0.000000,-2.636719,-6000.000000,-6000.000000,Speed,Speed,0.050000,0.860000,0.740000,1.000000,101.000000,1,0,-0.000000,0.000000,1,0.000000,0.012070,0.000000,-19.110641,40.983063,0.000000,0.013000,0.022000,-0.012000,FlatInitial,Hold,0
07:15:58.558 PM 02/16/2016,Teleop Enabled,0,FALSE,0,NO ERROR,0.000000,-15.820312,-6000.000000,-6000.000000,Speed,Speed,0.050000,0.840000,0.760000,1.000000,101.000000,1,0,-0.000000,0.000000,1,0.000717,0.000000,0.000000,-19.110352,40.983383,0.000000,-0.019000,0.017000,-0.021000,FlatInitial,Hold,0
07:15:58.659 PM 02/16/2016,Teleop Enabled,0,FALSE,0,NO ERROR,0.000000,-10.107422,-6000.000000,-6000.000000,Speed,Speed,0.080000,0.870000,0.750000,1.000000,101.000000,1,0,-0.000000,0.000000,1,0.011856,0.000000,0.000000,-19.110123,40.983536,0.000000,0.007000,-0.013000,-0.008000,FlatInitial,Hold,0
07:15:58.759 PM 02/16/2016,Teleop Enabled,0,FALSE,0,NO ERROR,0.000000,-49.511719,-6000.000000,-6000.000000,Speed,Speed,0.000000,0.960000,0.370000,1.000000,103.000000,1,0,-0.000000,0.000000,1,0.004379,0.009583,0.000000,-19.110245,40.983734,0.000000,0.046000,0.008000,-0.161000,FlatInitial,Hold,0
07:15:58.859 PM 02/16/2016,Teleop Enabled,0,FALSE,0,NO ERROR,0.000000,13.769531,-6000.000000,-6000.000000,Speed,Speed,-0.020000,0.790000,0.670000,1.000000,104.000000,1,0,-0.000000,0.000000,1,-0.013794,-0.032532,0.000000,-19.110291,40.982849,0.000000,-0.040000,-0.014000,0.023000,FlatInitial,Hold,0
07:15:58.960 PM 02/16/2016,Teleop Enabled,0,FALSE,0,NO ERROR,0.000000,0.292969,-6000.000000,-6000.000000,Speed,Speed,0.060000,0.870000,0.710000,1.000000,102.000000,1,0,-0.000000,0.000000,1,-0.002350,0.000000,0.000000,-19.111023,40.981842,0.000000,0.029000,0.007000,0.017000,FlatInitial,Hold,0
07:15:59.063 PM 02/16/2016,Teleop Enabled,0,FALSE,0,NO ERROR,0.000000,0.000000,-6000.000000,-6000.000000,Speed,Speed,0.000000,0.810000,0.800000,1.000000,102.000000,1,0,-0.000000,0.000000,1,0.000000,0.013733,0.000000,-19.111282,40.982101,0.000000,0.016000,0.023000,-0.018000,FlatInitial,Hold,0
07:15:59.163 PM 02/16/2016,Teleop Enabled,0,FALSE,0,NO ERROR,0.000000,0.000000,-6000.000000,-6000.000000,Speed,Speed,0.010000,0.820000,0.860000,1.000000,100.000000,1,0,-0.000000,0.000000,1,0.000000,0.000000,0.000000,-19.111282,40.982513,0.000000,-0.019000,0.006000,-0.005000,FlatInitial,Hold,0
07:15:59.263 PM 02/16/2016,Teleop Enabled,0,FALSE,0,NO ERROR,0.000000,0.000000,-6000.000000,-6000.000000,Speed,Speed,0.000000,0.850000,0.840000,1.000000,100.000000,1,0,-0.000000,0.000000,1,0.008102,0.000000,0.000000,-19.111130,40.982513,0.000000,0.000000,-0.008000,0.012000,FlatInitial,Hold,0
07:15:59.364 PM 02/16/2016,Teleop Enabled,0,FALSE,0,NO ERROR,0.000000,0.000000,-6000.000000,-6000.000000,Speed,Speed,0.000000,0.830000,0.800000,1.000000,101.000000,1,0,-0.000000,0.000000,1,0.000000,0.000000,0.000000,-19.111130,40.982513,0.000000,0.003000,-0.004000,0.002000,FlatInitial,Hold,0
07:15:59.465 PM 02/16/2016,Teleop Enabled,0,FALSE,0,NO ERROR,0.000000,0.000000,-6000.000000,-6000.000000,Speed,Speed,0.000000,0.830000,0.810000,1.000000,101.000000,1,0,-0.000000,0.000000,1,0.000000,0.000000,0.000000,-19.111130,40.982513,0.000000,0.003000,0.002000,0.005000,FlatInitial,Hold,0
07:15:59.566 PM 02/16/2016,Teleop Enabled,0,FALSE,0,NO ERROR,0.000000,0.000000,-6000.000000,-6000.000000,Speed,Speed,0.000000,0.840000,0.810000,1.000000,105.000000,1,0,-0.000000,0.000000,1,0.000000,0.000000,0.000000,-19.111130,40.982513,0.000000,-0.002000,0.006000,0.004000,FlatInitial,Hold,0
07:15:59.666 PM 02/16/2016,Teleop Enabled,0,FALSE,0,NO ERROR,0.000000,0.000000,-6000.000000,-6000.000000,Speed,Speed,0.000000,0.840000,0.810000,1.000000,102.000000,1,0,-0.000000,0.000000,1,0.000000,0.000000,0.000000,-19.111130,40.982513,0.000000,0.000000,0.000000,0.001000,FlatInitial,Hold,0
07:15:59.767 PM 02/16/2016,Teleop Enabled,0,FALSE,0,NO ERROR,0.000000,0.000000,-6000.000000,-6000.000000,Speed,Speed,0.000000,0.830000,0.800000,1.000000,101.000000,1,0,-0.000000,0.000000,1,0.000000,0.000000,0.000000,-19.111130,40.982513,0.000000,0.002000,-0.004000,0.005000,FlatInitial,Hold,0
07:15:59.867 PM 02/16/2016,Teleop Enabled,0,FALSE,0,NO ERROR,0.000000,0.000000,-6000.000000,-6000.000000,Speed,Speed,0.000000,0.840000,0.800000,1.000000,102.000000,1,0,-0.000000,0.000000,1,0.000000,0.000000,0.000000,-19.111130,40.982513,0.000000,0.000000,0.001000,0.001000,FlatInitial,Hold,0
07:15:59.968 PM 02/16/2016,Teleop Enabled,0,FALSE,0,NO ERROR,0.000000,0.000000,-6000.000000,-6000.000000,Speed,Speed,0.000000,0.840000,0.810000,1.000000,101.000000,1,0,-0.000000,0.000000,1,0.000000,0.000000,0.000000,-19.111130,40.982513,0.000000,0.000000,0.000000,-0.001000,FlatInitial,Hold,0
07:16:00.068 PM 02/16/2016,Teleop Enabled,0,FALSE,0,NO ERROR,0.000000,0.000000,-6000.000000,-6000.000000,Speed,Speed,0.000000,0.830000,0.800000,1.000000,102.000000,1,0,-0.000000,0.000000,1,0.000000,0.000000,0.000000,-19.111130,40.982513,0.000000,0.000000,-0.002000,0.003000,FlatInitial,Hold,0
07:16:00.168 PM 02/16/2016,Teleop Enabled,0,FALSE,0,NO ERROR,0.000000,0.000000,-6000.000000,-6000.000000,Speed,Speed,0.000000,0.830000,0.800000,1.000000,100.000000,1,0,-0.000000,0.000000,1,0.000000,0.000000,0.000000,-19.111130,40.982513,0.000000,0.000000,-0.001000,0.006000,FlatInitial,Hold,0
07:16:00.270 PM 02/16/2016,Teleop Enabled,0,FALSE,0,NO ERROR,0.000000,0.000000,-6000.000000,-6000.000000,Speed,Speed,0.000000,0.840000,0.800000,1.000000,102.000000,1,0,-0.000000,0.000000,1,0.000000,0.000000,0.000000,-19.111130,40.982513,0.000000,0.003000,0.000000,0.002000,FlatInitial,Hold,0
07:16:00.371 PM 02/16/2016,Teleop Enabled,0,FALSE,0,NO ERROR,0.000000,0.000000,-6000.000000,-6000.000000,Speed,Speed,0.000000,0.840000,0.800000,1.000000,100.000000,1,0,-0.000000,0.000000,1,0.000000,0.000000,0.000000,-19.111130,40.982513,0.000000,0.000000,-0.002000,0.000000,FlatInitial,Hold,0
07:16:00.471 PM 02/16/2016,Teleop Enabled,0,FALSE,0,NO ERROR,0.000000,0.000000,-6000.000000,-6000.000000,Speed,Speed,0.000000,0.840000,0.780000,1.000000,102.000000,1,0,-0.000000,0.000000,1,0.000000,0.000000,0.000000,-19.111130,40.982513,0.000000,0.003000,-0.004000,0.002000,FlatInitial,Hold,0
07:16:00.571 PM 02/16/2016,Teleop Enabled,0,FALSE,0,NO ERROR,0.000000,0.000000,-6000.000000,-6000.000000,Speed,Speed,0.000000,0.840000,0.780000,1.000000,102.000000,1,0,-0.000000,0.000000,1,0.000000,0.000000,0.000000,-19.111130,40.982513,0.000000,0.000000,0.002000,0.003000,FlatInitial,Hold,0
07:16:00.672 PM 02/16/2016,Teleop Enabled,0,FALSE,0,NO ERROR,0.000000,0.000000,-6000.000000,-6000.000000,Speed,Speed,0.000000,0.840000,0.780000,1.000000,100.000000,1,0,-0.000000,0.000000,1,0.000000,0.000000,0.000000,-19.111130,40.982513,0.000000,-0.001000,0.003000,0.005000,FlatInitial,Hold,0
07:16:00.772 PM 02/16/2016,Teleop Enabled,0,FALSE,0,NO ERROR,0.000000,0.000000,-6000.000000,-6000.000000,Speed,Speed,-0.010000,0.840000,0.790000,1.000000,100.000000,1,0,-0.000000,0.000000,1,0.000000,0.000000,0.000000,-19.111130,40.982513,0.000000,0.000000,0.000000,0.002000,FlatInitial,Hold,0
07:16:00.872 PM 02/16/2016,Teleop Enabled,0,FALSE,0,NO ERROR,0.000000,0.000000,-6000.000000,-6000.000000,Speed,Speed,0.000000,0.840000,0.780000,1.000000,101.000000,1,0,-0.000000,0.000000,1,0.000000,0.000000,0.000000,-19.111130,40.982513,0.000000,0.005000,-0.002000,0.002000,FlatInitial,Hold,0
07:16:00.972 PM 02/16/2016,Teleop Enabled,0,FALSE,0,NO ERROR,0.000000,0.000000,-6000.000000,-6000.000000,Speed,Speed,-0.010000,0.840000,0.780000,1.000000,101.000000,1,0,-0.000000,0.000000,1,0.000000,0.000000,0.000000,-19.111130,40.982513,0.000000,0.000000,0.003000,0.004000,FlatInitial,Hold,0
07:16:01.072 PM 02/16/2016,Teleop Enabled,0,FALSE,0,NO ERROR,0.000000,0.000000,-6000.000000,-6000.000000,Speed,Speed,0.000000,0.840000,0.790000,1.000000,103.000000,1,0,-0.000000,0.000000,1,0.000000,0.000000,0.000000,-19.111130,40.982513,0.000000,-0.002000,0.000000,0.001000,FlatInitial,Hold,0
07:16:01.172 PM 02/16/2016,Teleop Enabled,0,FALSE,0,NO ERROR,0.000000,0.000000,-6000.000000,-6000.000000,Speed,Speed,-0.010000,0.840000,0.780000,1.000000,102.000000,1,0,-0.000000,0.000000,1,0.000000,0.000000,0.000000,-19.111130,40.982513,0.000000,0.000000,-0.003000,0.004000,FlatInitial,Hold,0
07:16:01.272 PM 02/16/2016,Teleop Enabled,0,FALSE,0,NO ERROR,0.000000,0.000000,-6000.000000,-6000.000000,Speed,Speed,-0.010000,0.840000,0.780000,1.000000,102.000000,1,0,-0.000000,0.000000,1,0.000000,0.000000,0.000000,-19.111130,40.982513,0.000000,0.002000,0.000000,0.003000,FlatInitial,Hold,0
07:16:01.372 PM 02/16/2016,Teleop Enabled,0,FALSE,0,NO ERROR,0.000000,0.000000,-6000.000000,-6000.000000,Speed,Speed,-0.010000,0.840000,0.780000,1.000000,103.000000,1,0,-0.000000,0.000000,1,0.000000,0.000000,0.000000,-19.111130,40.982513,0.000000,0.001000,0.001000,0.002000,FlatInitial,Hold,0
07:16:01.472 PM 02/16/2016,Teleop Enabled,0,FALSE,0,NO ERROR,0.000000,0.000000,-6000.000000,-6000.000000,Speed,Speed,-0.010000,0.830000,0.770000,1.000000,102.000000,1,0,-0.000000,0.000000,1,0.000000,0.000000,0.000000,-19.111130,40.982513,0.000000,-0.003000,0.000000,0.004000,FlatInitial,HighGoal,0
07:16:01.572 PM 02/16/2016,Teleop Enabled,0,FALSE,0,NO ERROR,0.000000,0.000000,-6000.000000,-6000.000000,Speed,Speed,-0.020000,0.870000,0.670000,1.000000,102.000000,1,0,-0.000000,0.000000,1,0.006287,0.007523,0.000000,-19.111038,40.982635,0.000000,0.020000,0.007000,-0.039000,FlatInitial,Hold,0
07:16:01.673 PM 02/16/2016,Teleop Enabled,0,FALSE,0,NO ERROR,0.000000,1.464844,-6000.000000,-6000.000000,Speed,Speed,-0.050000,0.800000,0.780000,1.000000,101.000000,1,0,-0.000000,0.000000,1,-0.014328,0.000000,0.000000,-19.111160,40.982666,0.000000,-0.038000,0.001000,-0.006000,FlatInitial,Hold,0
07:16:01.773 PM 02/16/2016,Teleop Enabled,0,FALSE,0,NO ERROR,0.000000,3.662109,-6000.000000,-6000.000000,Speed,Speed,0.000000,0.870000,0.760000,1.000000,102.000000,1,0,-0.000000,0.000000,1,0.014648,0.000000,0.000000,-19.111008,40.982666,0.000000,0.000000,-0.013000,0.008000,FlatInitial,Hold,0
07:16:01.874 PM 02/16/2016,Teleop Enabled,0,FALSE,0,NO ERROR,0.000000,0.000000,-6000.000000,-6000.000000,Speed,Speed,-0.030000,0.820000,0.790000,1.000000,102.000000,1,0,-0.000000,0.000000,1,0.000000,0.000000,0.000000,-19.111176,40.982666,0.000000,0.001000,0.003000,-0.001000,FlatInitial,Hold,0
07:16:01.975 PM 02/16/2016,Teleop Enabled,0,FALSE,0,NO ERROR,0.000000,0.000000,-6000.000000,-6000.000000,Speed,Speed,-0.020000,0.840000,0.770000,1.000000,102.000000,1,0,-0.000000,0.000000,1,0.000000,0.000000,0.000000,-19.111176,40.982666,0.000000,-0.004000,0.002000,-0.005000,FlatInitial,Hold,0
07:16:02.077 PM 02/16/2016,Teleop Enabled,0,FALSE,0,NO ERROR,0.000000,0.000000,-6000.000000,-6000.000000,Speed,Speed,-0.020000,0.820000,0.820000,1.000000,103.000000,1,0,-0.000000,0.000000,1,0.000000,0.000000,0.000000,-19.111176,40.982666,0.000000,-0.011000,-0.003000,-0.002000,FlatInitial,Hold,0
07:16:02.177 PM 02/16/2016,Teleop Enabled,0,FALSE,0,NO ERROR,0.000000,0.000000,-6000.000000,-6000.000000,Speed,Speed,-0.030000,0.840000,0.790000,1.000000,101.000000,1,0,-0.000000,0.000000,1,0.000000,0.000000,0.000000,-19.111176,40.982666,0.000000,0.006000,0.001000,-0.006000,FlatInitial,Hold,0
07:16:02.277 PM 02/16/2016,Teleop Enabled,0,FALSE,0,NO ERROR,0.000000,0.878906,-6000.000000,-6000.000000,Speed,Speed,-0.050000,0.750000,0.950000,1.000000,101.000000,1,0,-0.000000,0.000000,1,-0.001633,-0.028946,0.000000,-19.111191,40.981995,0.000000,-0.035000,-0.019000,0.035000,FlatInitial,Hold,0
07:16:02.377 PM 02/16/2016,Teleop Enabled,0,FALSE,0,NO ERROR,0.000000,0.000000,-6000.000000,-6000.000000,Speed,Speed,0.000000,0.830000,0.730000,1.000000,101.000000,1,0,-0.000000,0.000000,1,-0.014435,0.002090,0.000000,-19.111984,40.981003,0.000000,0.058000,0.037000,-0.031000,FlatInitial,Hold,0
07:16:02.477 PM 02/16/2016,Teleop Enabled,0,FALSE,0,NO ERROR,0.000000,0.000000,-6000.000000,-6000.000000,Speed,Speed,-0.050000,0.790000,1.030000,1.000000,104.000000,1,0,-0.000000,0.000000,1,-0.004883,0.000000,0.000000,-19.111954,40.981567,0.000000,-0.018000,0.000000,0.022000,FlatInitial,Hold,0
07:16:02.578 PM 02/16/2016,Teleop Enabled,0,FALSE,0,NO ERROR,0.000000,0.000000,-6000.000000,-6000.000000,Speed,Speed,-0.030000,0.850000,0.830000,1.000000,101.000000,1,0,-0.000000,0.000000,1,0.003754,0.000000,0.000000,-19.112015,40.981567,0.000000,0.023000,-0.027000,-0.003000,FlatInitial,Hold,0
07:16:02.678 PM 02/16/2016,Teleop Enabled,0,FALSE,0,NO ERROR,0.000000,0.000000,-6000.000000,-6000.000000,Speed,Speed,-0.070000,0.820000,0.750000,1.000000,100.000000,1,0,-0.000000,0.000000,1,-0.003998,-0.033691,0.000000,-19.111862,40.980637,0.000000,-0.012000,0.000000,0.003000,FlatInitial,Hold,0
07:16:02.779 PM 02/16/2016,Teleop Enabled,0,FALSE,0,NO ERROR,0.000000,0.000000,-6000.000000,-6000.000000,Speed,Speed,-0.020000,0.830000,0.760000,1.000000,101.000000,1,0,-0.000000,0.000000,1,0.000000,0.000000,0.000000,-19.112015,40.980637,0.000000,-0.004000,0.012000,-0.002000,FlatInitial,Hold,0
07:16:02.879 PM 02/16/2016,Teleop Enabled,0,FALSE,0,NO ERROR,0.000000,0.000000,-6000.000000,-6000.000000,Speed,Speed,-0.040000,0.840000,0.830000,1.000000,102.000000,1,0,-0.000000,0.000000,1,0.000000,0.000000,0.000000,-19.112015,40.980637,0.000000,-0.009000,0.008000,0.000000,FlatInitial,Hold,0
07:16:02.979 PM 02/16/2016,Teleop Enabled,0,FALSE,0,NO ERROR,0.000000,0.000000,-6000.000000,-6000.000000,Speed,Speed,-0.030000,0.840000,0.830000,1.000000,102.000000,1,0,-0.000000,0.000000,1,0.000000,0.000000,0.000000,-19.112015,40.980637,0.000000,0.000000,-0.008000,0.001000,FlatInitial,Hold,0
07:16:03.079 PM 02/16/2016,Teleop Enabled,0,FALSE,0,NO ERROR,0.000000,0.000000,-6000.000000,-6000.000000,Speed,Speed,-0.030000,0.830000,0.780000,1.000000,101.000000,1,0,-0.000000,0.000000,1,0.000000,0.000000,0.000000,-19.112015,40.980637,0.000000,0.003000,-0.004000,-0.004000,FlatInitial,Hold,0
07:16:03.179 PM 02/16/2016,Teleop Enabled,0,FALSE,0,NO ERROR,0.000000,0.000000,-6000.000000,-6000.000000,Speed,Speed,-0.040000,0.830000,0.800000,1.000000,103.000000,1,0,-0.000000,0.000000,1,0.000000,0.000000,0.000000,-19.112015,40.980637,0.000000,-0.007000,0.004000,0.001000,FlatInitial,Hold,0
07:16:03.279 PM 02/16/2016,Teleop Enabled,0,FALSE,0,NO ERROR,0.000000,0.000000,-6000.000000,-6000.000000,Speed,Speed,-0.030000,0.840000,0.810000,1.000000,106.000000,1,0,-0.000000,0.000000,1,0.000000,0.000000,0.000000,-19.112015,40.980637,0.000000,0.000000,0.004000,0.000000,FlatInitial,Hold,0
07:16:03.379 PM 02/16/2016,Teleop Enabled,0,FALSE,0,NO ERROR,0.000000,0.000000,-6000.000000,-6000.000000,Speed,Speed,-0.040000,0.830000,0.820000,1.000000,102.000000,1,0,-0.000000,0.000000,1,0.000000,0.000000,0.000000,-19.112015,40.980637,0.000000,0.001000,0.000000,0.002000,FlatInitial,Hold,0
07:16:03.479 PM 02/16/2016,Teleop Enabled,0,FALSE,0,NO ERROR,0.000000,0.000000,-6000.000000,-6000.000000,Speed,Speed,-0.040000,0.830000,0.810000,1.000000,101.000000,1,0,-0.000000,0.000000,1,0.000000,0.000000,0.000000,-19.112015,40.980637,0.000000,-0.001000,-0.004000,0.000000,FlatInitial,Hold,0
07:16:03.581 PM 02/16/2016,Teleop Enabled,0,FALSE,0,NO ERROR,0.000000,0.000000,-6000.000000,-6000.000000,Speed,Speed,-0.040000,0.830000,0.810000,1.000000,101.000000,1,0,-0.000000,0.000000,1,0.000000,0.000000,0.000000,-19.112015,40.980637,0.000000,0.000000,0.001000,0.007000,FlatInitial,Hold,0
07:16:03.682 PM 02/16/2016,Teleop Enabled,0,FALSE,0,NO ERROR,0.000000,0.000000,-6000.000000,-6000.000000,Speed,Speed,-0.030000,0.820000,0.820000,1.000000,102.000000,1,0,-0.000000,0.000000,1,0.000000,0.000000,0.000000,-19.112015,40.980637,0.000000,-0.002000,0.003000,0.004000,FlatInitial,Hold,0
07:16:03.783 PM 02/16/2016,Teleop Enabled,0,FALSE,0,NO ERROR,0.000000,0.000000,-6000.000000,-6000.000000,Speed,Speed,-0.030000,0.820000,0.830000,1.000000,102.000000,1,0,-0.000000,0.000000,1,0.000000,0.000000,0.000000,-19.112015,40.980637,0.000000,0.000000,0.001000,0.000000,FlatInitial,Hold,0
07:16:03.884 PM 02/16/2016,Teleop Enabled,0,FALSE,0,NO ERROR,0.000000,0.146484,-6000.000000,-6000.000000,Speed,Speed,-0.030000,0.830000,0.830000,1.000000,101.000000,1,0,-0.000000,0.000000,1,0.000000,0.000000,0.000000,-19.112015,40.980637,0.000000,0.001000,0.001000,-0.002000,FlatInitial,Hold,0
07:16:03.984 PM 02/16/2016,Teleop Enabled,0,FALSE,0,NO ERROR,0.000000,0.000000,-6000.000000,-6000.000000,Speed,Speed,-0.040000,0.830000,0.830000,1.000000,102.000000,1,0,-0.000000,0.000000,1,0.000000,0.000000,0.000000,-19.112015,40.980637,0.000000,-0.001000,-0.003000,0.008000,FlatInitial,Hold,0
07:16:04.086 PM 02/16/2016,Teleop Enabled,0,FALSE,0,NO ERROR,0.000000,0.000000,-6000.000000,-6000.000000,Speed,Speed,-0.030000,0.830000,0.820000,1.000000,101.000000,1,0,-0.000000,0.000000,1,0.000000,0.000000,0.000000,-19.112015,40.980637,0.000000,-0.001000,0.000000,0.003000,FlatInitial,Hold,0
07:16:04.186 PM 02/16/2016,Teleop Enabled,0,FALSE,0,NO ERROR,0.000000,0.000000,-6000.000000,-6000.000000,Speed,Speed,-0.030000,0.830000,0.820000,1.000000,102.000000,1,0,-0.000000,0.000000,1,0.000000,0.000000,0.000000,-19.112015,40.980637,0.000000,0.000000,0.001000,0.004000,FlatInitial,Hold,0
07:16:04.287 PM 02/16/2016,Teleop Enabled,0,FALSE,0,NO ERROR,0.000000,0.000000,-6000.000000,-6000.000000,Speed,Speed,-0.040000,0.830000,0.830000,1.000000,105.000000,1,0,-0.000000,0.000000,1,0.000000,0.000000,0.000000,-19.112015,40.980637,0.000000,0.000000,0.000000,0.003000,FlatInitial,Hold,0
07:16:04.387 PM 02/16/2016,Teleop Enabled,0,FALSE,0,NO ERROR,0.000000,0.000000,-6000.000000,-6000.000000,Speed,Speed,-0.040000,0.820000,0.830000,1.000000,102.000000,1,0,-0.000000,0.000000,1,0.000000,0.000000,0.000000,-19.112015,40.980637,0.000000,0.000000,0.000000,0.002000,FlatInitial,Hold,0
07:16:04.488 PM 02/16/2016,Teleop Enabled,0,FALSE,0,NO ERROR,0.000000,0.000000,-6000.000000,-6000.000000,Speed,Speed,-0.040000,0.830000,0.830000,1.000000,103.000000,1,0,-0.000000,0.000000,1,0.000000,0.000000,0.000000,-19.112015,40.980637,0.000000,0.000000,0.000000,0.002000,FlatInitial,LowGoal,0
07:16:04.588 PM 02/16/2016,Teleop Enabled,0,FALSE,0,NO ERROR,0.000000,0.000000,-6000.000000,-6000.000000,Speed,Speed,-0.070000,0.770000,1.000000,1.000000,102.000000,1,0,-0.000000,0.000000,1,0.000000,0.000000,0.000000,-19.112015,40.980637,0.000000,0.001000,0.004000,-0.010000,FlatInitial,Hold,0
07:16:04.688 PM 02/16/2016,Teleop Enabled,0,FALSE,0,NO ERROR,0.000000,0.000000,-6000.000000,-6000.000000,Speed,Speed,0.010000,0.790000,0.710000,1.000000,100.000000,1,0,-0.000000,0.000000,1,-0.006882,0.007462,0.000000,-19.111954,40.978897,0.000000,0.025000,0.087000,-0.068000,FlatInitial,Hold,0
07:16:04.789 PM 02/16/2016,Teleop Enabled,0,FALSE,0,NO ERROR,0.000000,0.000000,-6000.000000,-6000.000000,Speed,Speed,0.010000,0.840000,1.110000,1.000000,101.000000,1,0,-0.000000,0.000000,1,0.032303,0.022934,0.000000,-19.110748,40.980286,0.000000,0.025000,0.087000,-0.068000,FlatInitial,Hold,0
07:16:04.889 PM 02/16/2016,Teleop Enabled,0,FALSE,0,NO ERROR,0.000000,0.000000,-6000.000000,-6000.000000,Speed,Speed,-0.050000,0.830000,0.830000,1.000000,101.000000,1,0,-0.000000,0.000000,1,0.010803,0.000000,0.000000,-19.110138,40.980286,0.000000,-0.038000,-0.017000,0.003000,FlatInitial,Hold,0
07:16:04.989 PM 02/16/2016,Teleop Enabled,0,FALSE,0,NO ERROR,0.000000,0.000000,-6000.000000,-6000.000000,Speed,Speed,-0.010000,0.820000,0.810000,1.000000,102.000000,1,0,-0.000000,0.000000,1,0.010803,0.000000,0.000000,-19.110138,40.980286,0.000000,0.033000,0.004000,-0.044000,FlatInitial,Hold,0
07:16:05.089 PM 02/16/2016,Teleop Enabled,0,FALSE,0,NO ERROR,0.000000,1.611328,-6000.000000,-6000.000000,Speed,Speed,-0.060000,0.950000,0.670000,1.000000,104.000000,1,0,-0.000000,0.000000,1,0.041183,0.000000,0.000000,-19.107254,40.979187,0.000000,0.020000,0.007000,-0.033000,FlatInitial,Hold,0
07:16:05.189 PM 02/16/2016,Teleop Enabled,0,FALSE,0,NO ERROR,0.000000,17.724609,-6000.000000,-6000.000000,Speed,Speed,-0.050000,0.670000,0.940000,1.000000,101.000000,1,0,-0.000000,0.000000,1,0.041183,0.000000,0.000000,-19.107254,40.979187,0.000000,0.020000,0.007000,-0.033000,FlatInitial,Hold,0
07:16:05.289 PM 02/16/2016,Teleop Enabled,0,FALSE,0,NO ERROR,0.000000,0.146484,-6000.000000,-6000.000000,Speed,Speed,0.040000,0.920000,0.690000,1.000000,102.000000,1,0,-0.000000,0.000000,1,0.012634,-0.039810,0.000000,-19.105606,40.977844,0.000000,0.005000,0.020000,0.021000,FlatInitial,Hold,0
07:16:05.390 PM 02/16/2016,Teleop Enabled,0,FALSE,0,NO ERROR,0.000000,0.000000,-6000.000000,-6000.000000,Speed,Speed,-0.070000,0.750000,1.050000,1.000000,103.000000,1,0,-0.000000,0.000000,1,0.022659,0.000504,0.000000,-19.105148,40.976837,0.000000,-0.013000,0.042000,0.058000,FlatInitial,Hold,0
07:16:05.492 PM 02/16/2016,Teleop Enabled,0,FALSE,0,NO ERROR,0.000000,0.000000,-6000.000000,-6000.000000,Speed,Speed,-0.080000,0.830000,0.840000,1.000000,103.000000,1,0,-0.000000,0.000000,1,0.003311,0.000000,0.000000,-19.104340,40.977066,0.000000,0.034000,-0.007000,0.014000,FlatInitial,Hold,0
07:16:05.592 PM 02/16/2016,Teleop Enabled,0,FALSE,0,NO ERROR,0.000000,0.000000,-6000.000000,-6000.000000,Speed,Speed,-0.080000,0.830000,0.840000,1.000000,101.000000,1,0,-0.000000,0.000000,1,0.007233,0.000000,0.000000,-19.103806,40.977066,0.000000,-0.025000,0.006000,-0.021000,FlatInitial,Hold,0
07:16:05.692 PM 02/16/2016,Teleop Enabled,0,FALSE,0,NO ERROR,0.000000,0.000000,-6000.000000,-6000.000000,Speed,Speed,-0.070000,0.800000,0.850000,1.000000,105.000000,1,0,-0.000000,0.000000,1,0.000000,0.000000,0.000000,-19.103455,40.977066,0.000000,-0.017000,-0.016000,0.009000,FlatInitial,Hold,0
07:16:05.792 PM 02/16/2016,Teleop Enabled,0,FALSE,0,NO ERROR,0.000000,0.000000,-6000.000000,-6000.000000,Speed,Speed,-0.070000,0.800000,0.850000,1.000000,101.000000,1,0,-0.000000,0.000000,1,0.000000,0.000000,0.000000,-19.103455,40.977066,0.000000,0.003000,0.006000,-0.012000,FlatInitial,Hold,0
07:16:05.893 PM 02/16/2016,Teleop Enabled,0,FALSE,0,NO ERROR,0.000000,0.000000,-6000.000000,-6000.000000,Speed,Speed,-0.070000,0.830000,0.900000,1.000000,102.000000,1,0,-0.000000,0.000000,1,0.007782,0.000000,0.000000,-19.103271,40.977066,0.000000,-0.020000,0.000000,-0.011000,FlatInitial,Hold,0
07:16:05.993 PM 02/16/2016,Teleop Enabled,0,FALSE,0,NO ERROR,0.000000,0.000000,-6000.000000,-6000.000000,Speed,Speed,-0.070000,0.840000,0.870000,1.000000,101.000000,1,0,-0.000000,0.000000,1,0.000000,0.000000,0.000000,-19.103210,40.977066,0.000000,-0.003000,0.004000,0.001000,FlatInitial,Hold,0
07:16:06.095 PM 02/16/2016,Teleop Enabled,0,FALSE,0,NO ERROR,0.000000,0.000000,-6000.000000,-6000.000000,Speed,Speed,-0.070000,0.840000,0.880000,1.000000,102.000000,1,0,-0.000000,0.000000,1,0.000000,0.000000,0.000000,-19.103210,40.977066,0.000000,-0.003000,-0.003000,-0.006000,FlatInitial,Hold,0
07:16:06.194 PM 02/16/2016,Teleop Enabled,0,FALSE,0,NO ERROR,0.000000,0.000000,-6000.000000,-6000.000000,Speed,Speed,-0.070000,0.820000,0.900000,1.000000,100.000000,1,0,-0.000000,0.000000,1,0.000000,0.000000,0.000000,-19.103210,40.977066,0.000000,-0.003000,-0.003000,0.010000,FlatInitial,Hold,0
07:16:06.295 PM 02/16/2016,Teleop Enabled,0,FALSE,0,NO ERROR,0.000000,0.000000,-6000.000000,-6000.000000,Speed,Speed,-0.080000,0.840000,0.870000,1.000000,102.000000,1,0,-0.000000,0.000000,1,0.000000,0.000000,0.000000,-19.103210,40.977066,0.000000,0.002000,-0.002000,0.000000,FlatInitial,Hold,0
07:16:06.403 PM 02/16/2016,Teleop Enabled,0,FALSE,0,NO ERROR,0.000000,0.000000,-6000.000000,-6000.000000,Speed,Speed,-0.090000,0.820000,0.900000,1.000000,103.000000,1,0,-0.000000,0.000000,1,0.000000,0.000000,0.000000,-19.103210,40.977066,0.000000,0.002000,0.000000,0.007000,FlatInitial,Hold,0
07:16:06.503 PM 02/16/2016,Teleop Enabled,0,FALSE,0,NO ERROR,0.000000,0.000000,-6000.000000,-6000.000000,Speed,Speed,-0.100000,0.820000,0.910000,1.000000,104.000000,1,0,-0.000000,0.000000,1,0.000000,0.000000,0.000000,-19.103210,40.977066,0.000000,0.002000,0.000000,-0.002000,FlatInitial,Hold,0
07:16:06.606 PM 02/16/2016,Teleop Enabled,0,FALSE,0,NO ERROR,0.000000,0.000000,-6000.000000,-6000.000000,Speed,Speed,-0.120000,0.800000,0.930000,1.000000,101.000000,1,0,-0.000000,0.000000,1,0.000000,0.000000,0.000000,-19.103210,40.977066,0.000000,0.003000,-0.007000,0.010000,FlatInitial,Hold,0
07:16:06.707 PM 02/16/2016,Teleop Enabled,0,FALSE,0,NO ERROR,0.000000,0.000000,-6000.000000,-6000.000000,Speed,Speed,-0.140000,0.810000,0.930000,1.000000,101.000000,1,0,-0.000000,0.000000,1,0.000000,0.000000,0.000000,-19.103210,40.977066,0.000000,-0.004000,0.010000,0.004000,FlatInitial,Hold,0
07:16:06.807 PM 02/16/2016,Teleop Enabled,0,FALSE,0,NO ERROR,0.000000,0.000000,-6000.000000,-6000.000000,Speed,Speed,-0.120000,0.800000,0.970000,1.000000,101.000000,1,0,-0.000000,0.000000,1,0.000000,0.000000,0.000000,-19.103210,40.977066,0.000000,-0.001000,-0.001000,0.002000,FlatInitial,Hold,0
07:16:06.907 PM 02/16/2016,Teleop Enabled,0,FALSE,0,NO ERROR,0.000000,0.000000,-6000.000000,-6000.000000,Speed,Speed,-0.150000,0.810000,0.950000,1.000000,103.000000,1,0,-0.000000,0.000000,1,0.000000,0.000000,0.000000,-19.103210,40.977066,0.000000,0.002000,-0.005000,0.005000,FlatInitial,Hold,0
07:16:07.010 PM 02/16/2016,Teleop Enabled,0,FALSE,0,NO ERROR,0.000000,0.000000,-6000.000000,-6000.000000,Speed,Speed,-0.150000,0.800000,0.940000,1.000000,102.000000,1,0,-0.000000,0.000000,1,0.000000,0.000000,0.000000,-19.103210,40.977066,0.000000,0.003000,-0.006000,0.000000,FlatInitial,Hold,0
07:16:07.109 PM 02/16/2016,Teleop Enabled,0,FALSE,0,NO ERROR,0.000000,0.000000,-6000.000000,-6000.000000,Speed,Speed,-0.160000,0.800000,0.930000,1.000000,102.000000,1,0,-0.000000,0.000000,1,0.000000,0.000000,0.000000,-19.103210,40.977066,0.000000,-0.001000,0.005000,0.002000,FlatInitial,Hold,0
07:16:07.214 PM 02/16/2016,Teleop Enabled,0,FALSE,0,NO ERROR,0.000000,0.000000,-6000.000000,-6000.000000,Speed,Speed,-0.160000,0.790000,0.990000,1.000000,101.000000,1,0,-0.000000,0.000000,1,0.000000,0.000000,0.000000,-19.103210,40.977066,0.000000,-0.005000,0.006000,0.009000,FlatInitial,HighGoal,0
07:16:07.313 PM 02/16/2016,Teleop Enabled,0,FALSE,0,NO ERROR,0.000000,0.000000,-6000.000000,-6000.000000,Speed,Speed,-0.170000,0.800000,1.000000,1.000000,103.000000,1,0,-0.000000,0.000000,1,0.000000,0.000000,0.000000,-19.103210,40.977066,0.000000,0.000000,0.002000,0.000000,FlatInitial,Hold,0
07:16:07.413 PM 02/16/2016,Teleop Enabled,0,FALSE,0,NO ERROR,0.000000,0.000000,-6000.000000,-6000.000000,Speed,Speed,-0.160000,0.840000,0.830000,1.000000,102.000000,1,0,-0.000000,0.000000,1,-0.002411,0.000000,0.000000,-19.103271,40.977066,0.000000,0.019000,0.012000,-0.072000,FlatInitial,HighGoal,0
07:16:07.514 PM 02/16/2016,Teleop Enabled,0,FALSE,0,NO ERROR,0.000000,0.000000,-6000.000000,-6000.000000,Speed,Speed,-0.190000,0.760000,1.080000,1.000000,102.000000,1,0,-0.000000,0.000000,1,-0.005966,-0.014557,0.000000,-19.103104,40.976776,0.000000,-0.046000,-0.022000,-0.001000,FlatInitial,Hold,0
07:16:07.614 PM 02/16/2016,Teleop Enabled,0,FALSE,0,NO ERROR,0.000000,0.000000,-6000.000000,-6000.000000,Speed,Speed,-0.130000,0.840000,0.840000,1.000000,101.000000,1,0,-0.000000,0.000000,1,0.009109,0.000000,0.000000,-19.103271,40.976349,0.000000,0.007000,0.021000,-0.020000,FlatInitial,Hold,0
07:16:07.715 PM 02/16/2016,Teleop Enabled,0,FALSE,0,NO ERROR,0.000000,0.000000,-6000.000000,-6000.000000,Speed,Speed,-0.140000,0.780000,1.000000,1.000000,102.000000,1,0,-0.000000,0.000000,1,0.000000,0.000000,0.000000,-19.103149,40.976562,0.000000,0.007000,-0.015000,-0.004000,FlatInitial,Hold,0
07:16:07.817 PM 02/16/2016,Teleop Enabled,0,FALSE,0,NO ERROR,0.000000,0.000000,-6000.000000,-6000.000000,Speed,Speed,-0.140000,0.810000,0.960000,1.000000,102.000000,1,0,-0.000000,0.000000,1,0.000000,0.000000,0.000000,-19.103149,40.976562,0.000000,-0.008000,0.007000,-0.015000,FlatInitial,Hold,0
07:16:07.917 PM 02/16/2016,Teleop Enabled,0,FALSE,0,NO ERROR,0.000000,0.000000,-6000.000000,-6000.000000,Speed,Speed,-0.140000,0.810000,1.010000,1.000000,103.000000,1,0,-0.000000,0.000000,1,0.000000,0.000000,0.000000,-19.103149,40.976562,0.000000,-0.005000,-0.007000,0.011000,FlatInitial,Hold,0
07:16:08.017 PM 02/16/2016,Teleop Enabled,0,FALSE,0,NO ERROR,0.000000,0.000000,-6000.000000,-6000.000000,Speed,Speed,-0.170000,0.780000,1.020000,1.000000,101.000000,1,0,-0.000000,0.000000,1,0.000000,-0.011978,0.000000,-19.103149,40.976395,0.000000,0.007000,-0.037000,-0.031000,FlatInitial,Hold,0
07:16:08.117 PM 02/16/2016,Teleop Enabled,0,FALSE,0,NO ERROR,0.000000,0.000000,-6000.000000,-6000.000000,Speed,Speed,-0.200000,0.710000,1.130000,1.000000,101.000000,1,0,-0.000000,0.000000,1,-0.003769,0.003647,0.000000,-19.103043,40.975662,0.000000,-0.024000,0.040000,0.017000,FlatInitial,Hold,0
07:16:08.218 PM 02/16/2016,Teleop Enabled,0,FALSE,0,NO ERROR,0.000000,0.000000,-6000.000000,-6000.000000,Speed,Speed,-0.180000,0.870000,1.060000,1.000000,103.000000,1,0,-0.000000,0.000000,1,0.010040,0.079346,0.000000,-19.102951,40.978256,0.000000,0.038000,0.038000,-0.050000,FlatInitial,Hold,0
07:16:08.318 PM 02/16/2016,Teleop Enabled,0,FALSE,0,NO ERROR,0.000000,0.000000,-6000.000000,-6000.000000,Speed,Speed,-0.260000,0.720000,1.400000,1.000000,102.000000,1,0,-0.000000,0.000000,1,-0.006149,0.055130,0.000000,-19.102448,40.981827,0.000000,-0.047000,-0.060000,0.021000,FlatInitial,Hold,0
07:16:08.418 PM 02/16/2016,Teleop Enabled,0,FALSE,0,NO ERROR,0.000000,0.000000,-6000.000000,-6000.000000,Speed,Speed,-0.230000,0.850000,0.910000,1.000000,101.000000,1,0,-0.000000,0.000000,1,0.000000,0.004669,0.000000,-19.102646,40.983002,0.000000,0.009000,0.032000,-0.052000,FlatInitial,Hold,0
07:16:08.519 PM 02/16/2016,Teleop Enabled,0,FALSE,0,NO ERROR,0.000000,0.000000,-6000.000000,-6000.000000,Speed,Speed,-0.280000,0.740000,1.180000,1.000000,101.000000,1,0,-0.000000,0.000000,1,0.000000,-0.010117,0.000000,-19.102646,40.983124,0.000000,-0.014000,-0.042000,-0.001000,FlatInitial,Hold,0
07:16:08.619 PM 02/16/2016,Teleop Enabled,0,FALSE,0,NO ERROR,0.000000,0.000000,-6000.000000,-6000.000000,Speed,Speed,-0.290000,0.760000,1.030000,1.000000,102.000000,1,0,-0.000000,0.000000,1,0.000000,-0.033524,0.000000,-19.102646,40.981628,0.000000,0.000000,0.018000,0.004000,FlatInitial,Hold,0
07:16:08.719 PM 02/16/2016,Teleop Enabled,0,FALSE,0,NO ERROR,0.000000,0.000000,-6000.000000,-6000.000000,Speed,Speed,-0.320000,0.760000,1.200000,1.000000,101.000000,1,0,-0.000000,0.000000,1,0.000000,-0.004608,0.000000,-19.102646,40.980911,0.000000,0.000000,-0.016000,0.015000,FlatInitial,Hold,0
07:16:08.819 PM 02/16/2016,Teleop Enabled,0,FALSE,0,NO ERROR,0.000000,0.000000,-6000.000000,-6000.000000,Speed,Speed,-0.320000,0.710000,1.270000,1.000000,103.000000,1,0,-0.000000,0.000000,1,-0.007690,0.004364,0.000000,-19.102829,40.980957,0.000000,0.010000,0.028000,0.010000,FlatInitial,Hold,0
07:16:08.920 PM 02/16/2016,Teleop Enabled,0,FALSE,0,NO ERROR,0.000000,0.000000,-6000.000000,-6000.000000,Speed,Speed,-0.280000,0.770000,1.250000,1.000000,102.000000,1,0,-0.000000,0.000000,1,0.000000,0.000000,0.000000,-19.102829,40.981186,0.000000,0.001000,-0.001000,0.006000,FlatInitial,Hold,0
07:16:09.021 PM 02/16/2016,Teleop Enabled,0,FALSE,0,NO ERROR,0.000000,0.000000,-6000.000000,-6000.000000,Speed,Speed,-0.270000,0.750000,1.250000,1.000000,102.000000,1,0,-0.000000,0.000000,1,0.000000,0.000000,0.000000,-19.102829,40.981186,0.000000,0.000000,-0.013000,-0.003000,FlatInitial,Hold,0
07:16:09.121 PM 02/16/2016,Teleop Enabled,0,FALSE,0,NO ERROR,0.000000,0.000000,-6000.000000,-6000.000000,Speed,Speed,-0.260000,0.780000,1.100000,1.000000,101.000000,1,0,-0.000000,0.000000,1,0.000000,0.000000,0.000000,-19.102829,40.981186,0.000000,0.002000,-0.008000,0.003000,FlatInitial,Hold,0
07:16:09.221 PM 02/16/2016,Teleop Enabled,0,FALSE,0,NO ERROR,0.000000,0.000000,-6000.000000,-6000.000000,Speed,Speed,-0.260000,0.760000,1.100000,1.000000,103.000000,1,0,-0.000000,0.000000,1,0.000000,0.000000,0.000000,-19.102829,40.981186,0.000000,-0.003000,0.001000,0.009000,FlatInitial,Hold,0
07:16:09.321 PM 02/16/2016,Teleop Enabled,0,FALSE,0,NO ERROR,0.000000,0.000000,-6000.000000,-6000.000000,Speed,Speed,-0.230000,0.780000,1.080000,1.000000,101.000000,1,0,-0.000000,0.000000,1,0.000000,0.000000,0.000000,-19.102829,40.981186,0.000000,0.007000,0.015000,-0.002000,FlatInitial,Hold,0
07:16:09.423 PM 02/16/2016,Teleop Enabled,0,FALSE,0,NO ERROR,0.000000,0.000000,-6000.000000,-6000.000000,Speed,Speed,-0.230000,0.770000,1.110000,1.000000,101.000000,1,0,-0.000000,0.000000,1,0.000000,0.000000,0.000000,-19.102829,40.981186,0.000000,-0.004000,-0.007000,0.000000,FlatInitial,Hold,0
07:16:09.523 PM 02/16/2016,Teleop Enabled,0,FALSE,0,NO ERROR,0.000000,0.000000,-6000.000000,-6000.000000,Speed,Speed,-0.220000,0.790000,1.060000,1.000000,102.000000,1,0,-0.000000,0.000000,1,0.000000,0.000000,0.000000,-19.102829,40.981186,0.000000,0.000000,0.001000,0.003000,FlatInitial,Hold,0
07:16:09.626 PM 02/16/2016,Teleop Enabled,0,FALSE,0,NO ERROR,0.000000,0.000000,-6000.000000,-6000.000000,Speed,Speed,-0.230000,0.770000,1.080000,1.000000,103.000000,1,0,-0.000000,0.000000,1,0.000000,0.000000,0.000000,-19.102829,40.981186,0.000000,0.001000,-0.001000,0.003000,FlatInitial,Hold,0
07:16:09.725 PM 02/16/2016,Teleop Enabled,0,FALSE,0,NO ERROR,0.000000,0.000000,-6000.000000,-6000.000000,Speed,Speed,-0.210000,0.780000,1.090000,1.000000,101.000000,1,0,-0.000000,0.000000,1,0.000000,0.000000,0.000000,-19.102829,40.981186,0.000000,0.000000,0.009000,0.000000,FlatInitial,Hold,0
07:16:09.825 PM 02/16/2016,Teleop Enabled,0,FALSE,0,NO ERROR,0.000000,0.000000,-6000.000000,-6000.000000,Speed,Speed,-0.230000,0.800000,1.090000,1.000000,102.000000,1,0,-0.000000,0.000000,1,0.000000,0.000000,0.000000,-19.102829,40.981186,0.000000,-0.009000,-0.009000,0.005000,FlatInitial,Hold,0
07:16:09.925 PM 02/16/2016,Teleop Enabled,0,FALSE,0,NO ERROR,0.000000,0.000000,-6000.000000,-6000.000000,Speed,Speed,-0.220000,0.790000,1.070000,1.000000,102.000000,1,0,-0.000000,0.000000,1,0.000000,0.000000,0.000000,-19.102829,40.981186,0.000000,0.001000,0.005000,0.000000,FlatInitial,Hold,0
07:16:10.025 PM 02/16/2016,Teleop Enabled,0,FALSE,0,NO ERROR,0.000000,0.000000,-6000.000000,-6000.000000,Speed,Speed,-0.220000,0.780000,1.090000,1.000000,100.000000,1,0,-0.000000,0.000000,1,0.000000,0.000000,0.000000,-19.102829,40.981186,0.000000,0.002000,-0.002000,0.001000,FlatInitial,Hold,0
07:16:10.126 PM 02/16/2016,Teleop Enabled,0,FALSE,0,NO ERROR,0.000000,0.000000,-6000.000000,-6000.000000,Speed,Speed,-0.220000,0.790000,1.090000,1.000000,101.000000,1,0,-0.000000,0.000000,1,0.000000,0.000000,0.000000,-19.102829,40.981186,0.000000,-0.003000,-0.002000,0.006000,FlatInitial,Hold,0
07:16:10.226 PM 02/16/2016,Teleop Enabled,0,FALSE,0,NO ERROR,0.000000,0.000000,-6000.000000,-6000.000000,Speed,Speed,-0.220000,0.790000,1.080000,1.000000,101.000000,1,0,-0.000000,0.000000,1,0.000000,0.000000,0.000000,-19.102829,40.981186,0.000000,-0.002000,0.003000,0.008000,FlatInitial,Hold,0
07:16:10.326 PM 02/16/2016,Teleop Enabled,0,FALSE,0,NO ERROR,0.000000,0.000000,-6000.000000,-6000.000000,Speed,Speed,-0.220000,0.780000,1.090000,1.000000,101.000000,1,0,-0.000000,0.000000,1,0.000000,0.000000,0.000000,-19.102829,40.981186,0.000000,0.000000,0.002000,0.003000,FlatInitial,Hold,0
07:16:10.427 PM 02/16/2016,Teleop Enabled,0,FALSE,0,NO ERROR,0.000000,0.000000,-6000.000000,-6000.000000,Speed,Speed,-0.210000,0.780000,1.090000,1.000000,101.000000,1,0,-0.000000,0.000000,1,0.000000,0.000000,0.000000,-19.102829,40.981186,0.000000,0.000000,-0.003000,0.001000,FlatInitial,Hold,0
07:16:10.527 PM 02/16/2016,Teleop Enabled,0,FALSE,0,NO ERROR,0.000000,0.000000,-6000.000000,-6000.000000,Speed,Speed,-0.210000,0.790000,1.080000,1.000000,101.000000,1,0,-0.000000,0.000000,1,0.000000,0.000000,0.000000,-19.102829,40.981186,0.000000,0.000000,0.001000,0.005000,FlatInitial,Hold,0
07:16:10.627 PM 02/16/2016,Teleop Enabled,0,FALSE,0,NO ERROR,0.000000,0.000000,-6000.000000,-6000.000000,Speed,Speed,-0.210000,0.800000,1.080000,1.000000,102.000000,1,0,-0.000000,0.000000,1,0.000000,0.000000,0.000000,-19.102829,40.981186,0.000000,0.001000,0.000000,0.004000,FlatInitial,BumperShot,0
07:16:10.727 PM 02/16/2016,Teleop Enabled,0,FALSE,0,NO ERROR,0.000000,0.000000,-6000.000000,-6000.000000,Speed,Speed,-0.200000,0.840000,1.040000,1.000000,100.000000,1,0,-0.000000,0.000000,1,-0.007339,0.025345,0.000000,-19.103012,40.981812,0.000000,0.011000,0.006000,-0.051000,FlatInitial,Hold,0
07:16:10.827 PM 02/16/2016,Teleop Enabled,0,FALSE,0,NO ERROR,0.000000,0.000000,-6000.000000,-6000.000000,Speed,Speed,-0.210000,0.750000,1.140000,1.000000,102.000000,1,0,-0.000000,0.000000,1,-0.002579,-0.021439,0.000000,-19.102875,40.981842,0.000000,-0.068000,-0.023000,-0.005000,FlatInitial,Hold,0
07:16:10.927 PM 02/16/2016,Teleop Enabled,0,FALSE,0,NO ERROR,0.000000,0.000000,-6000.000000,-6000.000000,Speed,Speed,-0.150000,0.800000,1.000000,1.000000,102.000000,1,0,-0.000000,0.000000,1,-0.005463,0.002747,0.000000,-19.103439,40.981384,0.000000,0.015000,0.015000,0.004000,FlatInitial,Hold,0
07:16:11.027 PM 02/16/2016,Teleop Enabled,0,FALSE,0,NO ERROR,0.000000,0.000000,-6000.000000,-6000.000000,Speed,Speed,-0.210000,0.740000,1.210000,1.000000,100.000000,1,0,-0.000000,0.000000,1,-0.003387,0.000000,0.000000,-19.103500,40.981537,0.000000,-0.019000,0.014000,-0.003000,FlatInitial,Hold,0
07:16:11.127 PM 02/16/2016,Teleop Enabled,0,FALSE,0,NO ERROR,0.000000,0.000000,-6000.000000,-6000.000000,Speed,Speed,-0.160000,0.760000,1.110000,1.000000,102.000000,1,0,-0.000000,0.000000,1,0.000000,0.000000,0.000000,-19.103683,40.981537,0.000000,0.007000,0.006000,0.000000,FlatInitial,Hold,1
07:16:11.227 PM 02/16/2016,Teleop Enabled,0,FALSE,0,NO ERROR,0.000000,0.000000,-6000.000000,-6000.000000,Speed,Speed,-0.160000,0.720000,1.170000,1.000000,104.000000,1,0,-0.000000,0.000000,1,0.002670,0.000000,0.000000,-19.103653,40.981766,0.000000,0.023000,0.010000,-0.015000,FlatInitial,Hold,1
07:16:11.327 PM 02/16/2016,Teleop Enabled,0,FALSE,0,NO ERROR,0.000000,0.000000,-6000.000000,-6000.000000,Speed,Speed,-0.180000,0.750000,1.140000,1.000000,102.000000,1,0,-0.000000,0.000000,1,0.000000,0.000000,0.000000,-19.103485,40.981766,0.000000,-0.015000,-0.001000,0.000000,FlatInitial,Hold,0
07:16:11.428 PM 02/16/2016,Teleop Enabled,0,FALSE,0,NO ERROR,0.000000,0.000000,-6000.000000,-6000.000000,Speed,Speed,-0.150000,0.790000,1.010000,1.000000,101.000000,1,0,-0.000000,0.000000,1,0.000000,0.021698,0.000000,-19.103485,40.982101,0.000000,-0.004000,0.060000,-0.031000,FlatInitial,Hold,0
07:16:11.529 PM 02/16/2016,Teleop Enabled,0,FALSE,0,NO ERROR,0.000000,0.000000,-6000.000000,-6000.000000,Speed,Speed,-0.190000,0.760000,1.050000,1.000000,101.000000,1,0,-0.000000,0.000000,1,0.009979,-0.003815,0.000000,-19.102982,40.983719,0.000000,-0.040000,-0.074000,-0.028000,FlatInitial,Hold,0
07:16:11.629 PM 02/16/2016,Teleop Enabled,0,FALSE,0,NO ERROR,0.000000,0.000000,-6000.000000,-6000.000000,Speed,Speed,-0.120000,0.730000,0.880000,1.000000,103.000000,1,0,-0.000000,0.000000,1,0.009140,0.000000,0.000000,-19.102875,40.982635,0.000000,0.016000,0.005000,0.003000,FlatInitial,Hold,0
07:16:11.730 PM 02/16/2016,Teleop Enabled,0,FALSE,0,NO ERROR,0.000000,0.000000,-6000.000000,-6000.000000,Speed,Speed,-0.140000,0.760000,1.000000,1.000000,101.000000,1,0,-0.000000,0.000000,1,0.000000,0.054520,0.000000,-19.102875,40.984024,0.000000,0.000000,0.051000,-0.010000,FlatInitial,Hold,0
07:16:11.830 PM 02/16/2016,Teleop Enabled,0,FALSE,0,NO ERROR,0.000000,0.000000,-6000.000000,-6000.000000,Speed,Speed,-0.160000,0.740000,1.090000,1.000000,102.000000,1,0,-0.000000,0.000000,1,0.000000,0.049667,0.000000,-19.102676,40.986908,0.000000,-0.017000,-0.026000,0.007000,FlatInitial,Hold,0
07:16:11.930 PM 02/16/2016,Teleop Enabled,0,FALSE,0,NO ERROR,0.000000,0.000000,-6000.000000,-6000.000000,Speed,Speed,-0.150000,0.770000,0.940000,1.000000,102.000000,1,0,-0.000000,0.000000,1,0.000000,0.003967,0.000000,-19.102905,40.987823,0.000000,0.012000,0.025000,0.000000,FlatInitial,Hold,0
07:16:12.031 PM 02/16/2016,Teleop Enabled,0,FALSE,0,NO ERROR,0.000000,0.000000,-6000.000000,-6000.000000,Speed,Speed,-0.160000,0.750000,1.020000,1.000000,102.000000,1,0,-0.000000,0.000000,1,0.000000,-0.007462,0.000000,-19.102905,40.987946,0.000000,-0.002000,-0.030000,0.001000,FlatInitial,Hold,0
07:16:12.132 PM 02/16/2016,Teleop Enabled,0,FALSE,0,NO ERROR,0.000000,0.000000,-6000.000000,-6000.000000,Speed,Speed,-0.150000,0.750000,0.900000,1.000000,102.000000,1,0,-0.000000,0.000000,1,0.000000,-0.027908,0.000000,-19.102905,40.986786,0.000000,0.001000,0.010000,0.006000,FlatInitial,Hold,0
07:16:12.232 PM 02/16/2016,Teleop Enabled,0,FALSE,0,NO ERROR,0.000000,0.000000,-6000.000000,-6000.000000,Speed,Speed,-0.150000,0.770000,0.980000,1.000000,101.000000,1,0,-0.000000,0.000000,1,0.000000,-0.011017,0.000000,-19.102905,40.985947,0.000000,0.003000,-0.001000,0.001000,FlatInitial,Hold,0
07:16:12.334 PM 02/16/2016,Teleop Enabled,0,FALSE,0,NO ERROR,0.000000,0.000000,-6000.000000,-6000.000000,Speed,Speed,-0.150000,0.740000,0.960000,1.000000,101.000000,1,0,-0.000000,0.000000,1,0.000000,0.000000,0.000000,-19.102905,40.985947,0.000000,-0.004000,-0.001000,0.002000,FlatInitial,Hold,0
07:16:12.435 PM 02/16/2016,Teleop Enabled,0,FALSE,0,NO ERROR,0.000000,0.000000,-6000.000000,-6000.000000,Speed,Speed,-0.150000,0.770000,0.970000,1.000000,102.000000,1,0,-0.000000,0.000000,1,0.000000,0.000000,0.000000,-19.102905,40.985947,0.000000,0.000000,-0.003000,0.002000,FlatInitial,Hold,0
07:16:12.535 PM 02/16/2016,Teleop Enabled,0,FALSE,0,NO ERROR,0.000000,0.000000,-6000.000000,-6000.000000,Speed,Speed,-0.150000,0.750000,0.950000,1.000000,102.000000,1,0,-0.000000,0.000000,1,0.000000,0.000000,0.000000,-19.102905,40.985947,0.000000,0.001000,-0.002000,0.006000,FlatInitial,Hold,0
07:16:12.635 PM 02/16/2016,Teleop Enabled,0,FALSE,0,NO ERROR,0.000000,0.000000,-6000.000000,-6000.000000,Speed,Speed,-0.160000,0.760000,0.950000,1.000000,101.000000,1,0,-0.000000,0.000000,1,0.000000,0.000000,0.000000,-19.102905,40.985947,0.000000,0.002000,-0.001000,-0.001000,FlatInitial,Hold,0
07:16:12.735 PM 02/16/2016,Teleop Enabled,0,FALSE,0,NO ERROR,0.000000,0.000000,-6000.000000,-6000.000000,Speed,Speed,-0.160000,0.750000,0.940000,1.000000,100.000000,1,0,-0.000000,0.000000,1,0.000000,0.000000,0.000000,-19.102905,40.985947,0.000000,-0.004000,0.012000,0.005000,FlatInitial,HighGoal,0
07:16:12.836 PM 02/16/2016,Teleop Enabled,0,FALSE,0,NO ERROR,0.000000,0.000000,-6000.000000,-6000.000000,Speed,Speed,-0.160000,0.750000,0.940000,1.000000,101.000000,1,0,-0.000000,0.000000,1,0.000000,0.000000,0.000000,-19.102905,40.985947,0.000000,-0.009000,-0.003000,0.004000,FlatInitial,Hold,0
07:16:12.937 PM 02/16/2016,Teleop Enabled,0,FALSE,0,NO ERROR,0.000000,0.000000,-6000.000000,-6000.000000,Speed,Speed,-0.150000,0.740000,0.960000,1.000000,100.000000,1,0,-0.000000,0.000000,1,0.000000,0.000000,0.000000,-19.102905,40.985947,0.000000,-0.005000,0.009000,0.003000,FlatInitial,Hold,0
07:16:13.037 PM 02/16/2016,Teleop Enabled,0,FALSE,0,NO ERROR,0.000000,0.000000,-6000.000000,-6000.000000,Speed,Speed,-0.140000,0.770000,0.900000,1.000000,102.000000,1,0,-0.000000,0.000000,1,-0.004166,0.029709,0.000000,-19.102936,40.986588,0.000000,-0.033000,0.058000,0.066000,FlatInitial,Hold,0
07:16:13.138 PM 02/16/2016,Teleop Enabled,0,FALSE,0,NO ERROR,0.000000,0.000000,-6000.000000,-6000.000000,Speed,Speed,-0.130000,0.860000,0.940000,1.000000,101.000000,1,0,-0.000000,0.000000,1,0.004654,0.083054,0.000000,-19.103043,40.990387,0.000000,0.034000,-0.159000,-0.086000,FlatInitial,Hold,0
07:16:13.238 PM 02/16/2016,Teleop Enabled,0,FALSE,0,NO ERROR,0.000000,0.000000,-6000.000000,-6000.000000,Speed,Speed,-0.160000,0.720000,0.810000,1.000000,101.000000,1,0,-0.000000,0.000000,1,0.003220,-0.040466,0.000000,-19.102570,40.990448,0.000000,-0.063000,-0.086000,0.003000,FlatInitial,Hold,0
07:16:13.339 PM 02/16/2016,Teleop Enabled,0,FALSE,0,NO ERROR,0.000000,0.000000,-6000.000000,-6000.000000,Speed,Speed,-0.110000,0.760000,0.650000,1.000000,102.000000,1,0,-0.000000,0.000000,1,0.012680,-0.066025,0.000000,-19.102341,40.987244,0.000000,0.009000,0.063000,-0.001000,FlatInitial,Hold,0
07:16:13.440 PM 02/16/2016,Teleop Enabled,0,FALSE,0,NO ERROR,0.000000,0.000000,-6000.000000,-6000.000000,Speed,Speed,-0.040000,0.790000,0.820000,1.000000,103.000000,1,0,-0.000000,0.000000,1,-0.012589,0.029617,0.000000,-19.102844,40.986954,0.000000,0.043000,0.048000,-0.096000,FlatInitial,Hold,0
07:16:13.540 PM 02/16/2016,Teleop Enabled,0,FALSE,0,NO ERROR,0.000000,0.000000,-6000.000000,-6000.000000,Speed,Speed,-0.070000,0.690000,1.050000,1.000000,101.000000,1,0,-0.000000,0.000000,1,-0.004028,-0.012421,0.000000,-19.102615,40.987518,0.000000,0.043000,0.048000,-0.096000,FlatInitial,Hold,0
07:16:13.640 PM 02/16/2016,Teleop Enabled,0,FALSE,0,NO ERROR,0.000000,0.000000,-6000.000000,-6000.000000,Speed,Speed,0.020000,0.820000,0.750000,1.000000,102.000000,1,0,-0.000000,0.000000,1,-0.002396,-0.000885,0.000000,-19.103333,40.986755,0.000000,0.030000,0.077000,-0.043000,FlatInitial,Hold,0
07:16:13.740 PM 02/16/2016,Teleop Enabled,0,FALSE,0,NO ERROR,0.000000,0.000000,-6000.000000,-6000.000000,Speed,Speed,-0.030000,0.730000,1.070000,1.000000,103.000000,1,0,-0.000000,0.000000,1,0.000000,0.019913,0.000000,-19.103271,40.987869,0.000000,-0.015000,-0.049000,0.009000,FlatInitial,Hold,0
07:16:13.840 PM 02/16/2016,Teleop Enabled,0,FALSE,0,NO ERROR,0.000000,0.000000,-6000.000000,-6000.000000,Speed,Speed,0.000000,0.730000,0.840000,1.000000,103.000000,1,0,-0.000000,0.000000,1,0.000000,-0.017700,0.000000,-19.103271,40.987411,0.000000,-0.011000,0.021000,0.004000,FlatInitial,Hold,0
07:16:13.940 PM 02/16/2016,Teleop Enabled,0,FALSE,0,NO ERROR,0.000000,0.000000,-6000.000000,-6000.000000,Speed,Speed,0.000000,0.780000,0.930000,1.000000,104.000000,1,0,-0.000000,0.000000,1,0.009949,0.000000,0.000000,-19.103073,40.987396,0.000000,0.007000,-0.004000,0.003000,FlatInitial,Hold,0
07:16:14.040 PM 02/16/2016,Teleop Enabled,0,FALSE,0,NO ERROR,0.000000,0.000000,-6000.000000,-6000.000000,Speed,Speed,-0.020000,0.720000,0.960000,1.000000,101.000000,1,0,-0.000000,0.000000,1,0.000000,-0.019653,0.000000,-19.103073,40.986664,0.000000,0.007000,-0.004000,0.003000,FlatInitial,Hold,0
07:16:14.140 PM 02/16/2016,Teleop Enabled,0,FALSE,0,NO ERROR,0.000000,0.000000,-6000.000000,-6000.000000,Speed,Speed,0.000000,0.780000,0.890000,1.000000,102.000000,1,0,-0.000000,0.000000,1,0.000000,0.002182,0.000000,-19.103073,40.986420,0.000000,0.006000,-0.008000,0.008000,FlatInitial,Hold,0
07:16:14.241 PM 02/16/2016,Teleop Enabled,0,FALSE,0,NO ERROR,0.000000,0.000000,-6000.000000,-6000.000000,Speed,Speed,-0.040000,0.740000,0.860000,1.000000,102.000000,1,0,-0.000000,0.000000,1,0.000000,-0.016312,0.000000,-19.103073,40.985977,0.000000,0.006000,-0.008000,0.008000,FlatInitial,Hold,0
07:16:14.341 PM 02/16/2016,Teleop Enabled,0,FALSE,0,NO ERROR,0.000000,0.000000,-6000.000000,-6000.000000,Speed,Speed,-0.020000,0.760000,0.840000,1.000000,100.000000,1,0,-0.000000,0.000000,1,0.000000,0.009750,0.000000,-19.103073,40.986176,0.000000,-0.005000,-0.001000,0.008000,FlatInitial,Hold,0
07:16:14.443 PM 02/16/2016,Teleop Enabled,0,FALSE,0,NO ERROR,0.000000,0.000000,-6000.000000,-6000.000000,Speed,Speed,-0.040000,0.760000,0.890000,1.000000,101.000000,1,0,-0.000000,0.000000,1,0.000000,0.000000,0.000000,-19.103073,40.986176,0.000000,0.007000,0.007000,0.006000,FlatInitial,Hold,0
07:16:14.543 PM 02/16/2016,Teleop Enabled,0,FALSE,0,NO ERROR,0.000000,0.000000,-6000.000000,-6000.000000,Speed,Speed,-0.020000,0.780000,0.980000,1.000000,102.000000,1,0,-0.000000,0.000000,1,0.000000,0.000000,0.000000,-19.103073,40.986176,0.000000,-0.009000,-0.001000,0.002000,FlatInitial,Hold,0
07:16:14.643 PM 02/16/2016,Teleop Enabled,0,FALSE,0,NO ERROR,0.000000,0.000000,-6000.000000,-6000.000000,Speed,Speed,-0.130000,0.760000,1.160000,1.000000,103.000000,1,0,-0.000000,0.000000,1,0.000000,0.000000,0.000000,-19.103073,40.986176,0.000000,0.009000,0.011000,0.004000,FlatInitial,Hold,0
07:16:14.743 PM 02/16/2016,Teleop Enabled,0,FALSE,0,NO ERROR,0.000000,0.000000,-6000.000000,-6000.000000,Speed,Speed,-0.130000,0.760000,1.160000,1.000000,103.000000,1,0,-0.000000,0.000000,1,0.000000,0.000000,0.000000,-19.103073,40.986176,0.000000,0.001000,-0.005000,0.026000,FlatInitial,Hold,0
07:16:14.843 PM 02/16/2016,Teleop Enabled,0,FALSE,0,NO ERROR,0.000000,0.000000,-6000.000000,-6000.000000,Speed,Speed,-0.150000,0.780000,1.080000,1.000000,102.000000,1,0,-0.000000,0.000000,1,0.000000,0.000000,0.000000,-19.103073,40.986176,0.000000,0.004000,0.001000,-0.003000,FlatInitial,Hold,0
07:16:14.943 PM 02/16/2016,Teleop Enabled,0,FALSE,0,NO ERROR,0.000000,0.000000,-6000.000000,-6000.000000,Speed,Speed,-0.160000,0.780000,1.090000,1.000000,100.000000,1,0,-0.000000,0.000000,1,0.000000,-0.008316,0.000000,-19.103073,40.986053,0.000000,-0.006000,-0.024000,0.005000,FlatInitial,Hold,0
07:16:15.044 PM 02/16/2016,Teleop Enabled,0,FALSE,0,NO ERROR,0.000000,0.000000,-6000.000000,-6000.000000,Speed,Speed,-0.150000,0.770000,1.030000,1.000000,101.000000,1,0,-0.000000,0.000000,1,0.000000,0.000000,0.000000,-19.103073,40.985580,0.000000,0.007000,0.009000,0.003000,FlatInitial,BumperShot,0
07:16:15.144 PM 02/16/2016,Teleop Enabled,0,FALSE,0,NO ERROR,0.000000,0.000000,-6000.000000,-6000.000000,Speed,Speed,-0.160000,0.780000,1.070000,1.000000,101.000000,1,0,-0.000000,0.000000,1,0.000000,0.000000,0.000000,-19.103073,40.985580,0.000000,-0.006000,0.009000,0.014000,FlatInitial,Hold,0
