Time,RobotMode,AutoToRun,ErrorStatus, ErrorCode,ErrorSource,ActualRPM1,ActualRPM2,DesiredRPM1,DesiredRPM2,ControlMode1,ControlMode2,NavXYaw,NavXRoll,NavXPitch,ShooterState,LoopTime,IsLevel,IsAutoTargeting,LeftMotorOutput,RightMotorOutput,IsHaloDrive,NavXVelocityX,NavXVelocityY,NavXVelocityZ,NavXDisplacementX,NavXDisplacementY,NavXDisplacementZ,NavXAccelerationX,NavXAccelerationY,NavXAccelerationZ,AutoDefendState,AngeMotorState,Photoeye
07:38:25.896 PM 02/17/2016,Autonomous Disabled,0,TRUE,91,Variant To Data in WPI_DigitalInputRefNum Registry Get.vi->Periodic Tasks.vi->Robot Main.vi,-5996.484375,5992.382812,-6000.000000,-6000.000000,Speed,Speed,-81.090000,1.310000,4.220000,1.000000,101.000000,1,0,-0.000000,0.000000,1,-0.186661,0.401443,0.000000,85.095581,81.041397,0.000000,-0.045000,0.072000,0.039000,FlatInitial,Hold,0
07:38:25.995 PM 02/17/2016,Teleop Disabled,0,TRUE,-44007,<LOCATION>WPI_DigitalInputRefNum Registry Get.vi<CALLSTACK>WPI_DigitalInputRefNum Registry Get.vi< <Periodic Tasks.vi< <Robot Main.vi,0.000000,0.000000,0.000000,0.000000,Speed,Speed,-81.130000,1.080000,1.520000,0.000000,28960.000000,1,0,-0.000000,0.000000,1,0.000000,0.000000,0.000000,85.208603,81.127319,0.000000,0.000000,0.000000,-0.001000,FlatInitial,ResetBack,0
07:38:26.097 PM 02/17/2016,Teleop Disabled,0,FALSE,0,NO ERROR,0.000000,0.000000,0.000000,0.000000,Speed,Speed,-0.030000,1.080000,1.520000,0.000000,105.000000,1,0,-0.000000,0.000000,1,0.000000,0.000000,0.000000,85.208603,81.127319,0.000000,0.001000,0.000000,0.001000,FlatInitial,ResetBack,0
07:38:26.197 PM 02/17/2016,Teleop Disabled,0,FALSE,0,NO ERROR,0.000000,0.000000,0.000000,0.000000,Speed,Speed,-0.030000,1.080000,1.520000,0.000000,101.000000,1,0,-0.000000,0.000000,1,0.000000,0.000000,0.000000,85.208603,81.127319,0.000000,0.000000,0.000000,0.000000,FlatInitial,ResetBack,0
07:38:26.297 PM 02/17/2016,Teleop Disabled,0,FALSE,0,NO ERROR,0.000000,0.000000,0.000000,0.000000,Speed,Speed,-0.030000,1.080000,1.520000,0.000000,116.000000,1,0,-0.000000,0.000000,1,0.000000,0.000000,0.000000,85.208603,81.127319,0.000000,0.000000,0.000000,0.010000,FlatInitial,ResetBack,0
07:38:26.398 PM 02/17/2016,Teleop Disabled,0,FALSE,0,NO ERROR,0.000000,0.000000,0.000000,0.000000,Speed,Speed,-0.030000,1.080000,1.520000,0.000000,103.000000,1,0,-0.000000,0.000000,1,0.000000,0.000000,0.000000,85.208603,81.127319,0.000000,0.000000,-0.001000,0.003000,FlatInitial,ResetBack,0
07:38:26.499 PM 02/17/2016,Teleop Disabled,0,FALSE,0,NO ERROR,0.000000,0.000000,0.000000,0.000000,Speed,Speed,-0.030000,1.080000,1.520000,0.000000,102.000000,1,0,-0.000000,0.000000,1,0.000000,0.000000,0.000000,85.208603,81.127319,0.000000,0.000000,0.001000,0.005000,FlatInitial,ResetBack,0
07:38:26.600 PM 02/17/2016,Teleop Disabled,0,FALSE,0,NO ERROR,0.000000,0.000000,0.000000,0.000000,Speed,Speed,-0.030000,1.080000,1.520000,0.000000,102.000000,1,0,-0.000000,0.000000,1,0.000000,0.000000,0.000000,85.208603,81.127319,0.000000,0.000000,0.000000,0.000000,FlatInitial,ResetBack,0
07:38:26.701 PM 02/17/2016,Teleop Disabled,0,FALSE,0,NO ERROR,0.000000,0.000000,0.000000,0.000000,Speed,Speed,-0.030000,1.070000,1.520000,0.000000,102.000000,1,0,-0.000000,0.000000,1,0.000000,0.000000,0.000000,85.208603,81.127319,0.000000,-0.001000,0.000000,0.005000,FlatInitial,ResetBack,0
07:38:26.802 PM 02/17/2016,Teleop Disabled,0,FALSE,0,NO ERROR,0.000000,0.000000,0.000000,0.000000,Speed,Speed,-0.030000,1.070000,1.520000,0.000000,102.000000,1,0,-0.000000,0.000000,1,0.000000,0.000000,0.000000,85.208603,81.127319,0.000000,0.001000,0.000000,0.003000,FlatInitial,ResetBack,0
07:38:26.903 PM 02/17/2016,Teleop Disabled,0,FALSE,0,NO ERROR,0.000000,0.000000,0.000000,0.000000,Speed,Speed,-0.030000,1.070000,1.520000,0.000000,101.000000,1,0,-0.000000,0.000000,1,0.000000,0.000000,0.000000,85.208603,81.127319,0.000000,0.002000,-0.001000,0.003000,FlatInitial,ResetBack,0
07:38:27.004 PM 02/17/2016,Teleop Disabled,0,FALSE,0,NO ERROR,0.000000,0.000000,0.000000,0.000000,Speed,Speed,-0.030000,1.070000,1.510000,0.000000,102.000000,1,0,-0.000000,0.000000,1,0.000000,0.000000,0.000000,85.208603,81.127319,0.000000,0.000000,0.001000,0.003000,FlatInitial,ResetBack,0
07:38:27.106 PM 02/17/2016,Teleop Disabled,0,FALSE,0,NO ERROR,0.000000,0.000000,0.000000,0.000000,Speed,Speed,-0.030000,1.080000,1.520000,0.000000,103.000000,1,0,-0.000000,0.000000,1,0.000000,0.000000,0.000000,85.208603,81.127319,0.000000,0.000000,0.001000,0.004000,FlatInitial,ResetBack,0
07:38:27.208 PM 02/17/2016,Teleop Disabled,0,FALSE,0,NO ERROR,0.000000,0.000000,0.000000,0.000000,Speed,Speed,-0.030000,1.080000,1.510000,0.000000,103.000000,1,0,-0.000000,0.000000,1,0.000000,0.000000,0.000000,85.208603,81.127319,0.000000,0.003000,-0.001000,0.003000,FlatInitial,ResetBack,0
07:38:27.307 PM 02/17/2016,Teleop Disabled,0,FALSE,0,NO ERROR,0.000000,0.000000,0.000000,0.000000,Speed,Speed,-0.030000,1.080000,1.510000,0.000000,102.000000,1,0,-0.000000,0.000000,1,0.000000,0.000000,0.000000,85.208603,81.127319,0.000000,0.000000,0.000000,0.000000,FlatInitial,ResetBack,0
07:38:27.407 PM 02/17/2016,Teleop Disabled,0,FALSE,0,NO ERROR,0.000000,0.000000,0.000000,0.000000,Speed,Speed,-0.030000,1.070000,1.510000,0.000000,101.000000,1,0,-0.000000,0.000000,1,0.000000,0.000000,0.000000,85.208603,81.127319,0.000000,0.002000,0.000000,-0.002000,FlatInitial,ResetBack,0
07:38:27.507 PM 02/17/2016,Teleop Disabled,0,FALSE,0,NO ERROR,0.000000,0.000000,0.000000,0.000000,Speed,Speed,-0.030000,1.080000,1.510000,0.000000,102.000000,1,0,-0.000000,0.000000,1,0.000000,0.000000,0.000000,85.208603,81.127319,0.000000,0.001000,0.000000,0.005000,FlatInitial,ResetBack,0
07:38:27.607 PM 02/17/2016,Teleop Disabled,0,FALSE,0,NO ERROR,0.000000,0.000000,0.000000,0.000000,Speed,Speed,-0.030000,1.080000,1.510000,0.000000,101.000000,1,0,-0.000000,0.000000,1,0.000000,0.000000,0.000000,85.208603,81.127319,0.000000,0.000000,0.001000,0.000000,FlatInitial,ResetBack,0
07:38:27.709 PM 02/17/2016,Teleop Disabled,0,FALSE,0,NO ERROR,0.000000,0.000000,0.000000,0.000000,Speed,Speed,-0.030000,1.080000,1.510000,0.000000,103.000000,1,0,-0.000000,0.000000,1,0.000000,0.000000,0.000000,85.208603,81.127319,0.000000,0.001000,0.001000,0.003000,FlatInitial,ResetBack,0
07:38:27.809 PM 02/17/2016,Teleop Disabled,0,FALSE,0,NO ERROR,0.000000,0.000000,0.000000,0.000000,Speed,Speed,-0.040000,1.090000,1.510000,0.000000,103.000000,1,0,-0.000000,0.000000,1,0.000000,0.000000,0.000000,85.208603,81.127319,0.000000,0.000000,-0.002000,0.002000,FlatInitial,ResetBack,0
07:38:27.910 PM 02/17/2016,Teleop Disabled,0,FALSE,0,NO ERROR,0.000000,0.000000,0.000000,0.000000,Speed,Speed,-0.040000,1.090000,1.520000,0.000000,101.000000,1,0,-0.000000,0.000000,1,0.000000,0.000000,0.000000,85.208603,81.127319,0.000000,0.000000,0.000000,0.000000,FlatInitial,ResetBack,0
07:38:28.011 PM 02/17/2016,Teleop Disabled,0,FALSE,0,NO ERROR,0.000000,0.000000,0.000000,0.000000,Speed,Speed,-0.040000,1.090000,1.520000,0.000000,101.000000,1,0,-0.000000,0.000000,1,0.000000,0.000000,0.000000,85.208603,81.127319,0.000000,0.000000,-0.001000,-0.002000,FlatInitial,ResetBack,0
07:38:28.111 PM 02/17/2016,Teleop Disabled,0,FALSE,0,NO ERROR,0.000000,0.000000,0.000000,0.000000,Speed,Speed,-0.040000,1.090000,1.520000,0.000000,107.000000,1,0,-0.000000,0.000000,1,0.000000,0.000000,0.000000,85.208603,81.127319,0.000000,0.002000,0.000000,0.002000,FlatInitial,ResetBack,0
07:38:28.211 PM 02/17/2016,Teleop Disabled,0,FALSE,0,NO ERROR,0.000000,0.000000,0.000000,0.000000,Speed,Speed,-0.040000,1.090000,1.520000,0.000000,103.000000,1,0,-0.000000,0.000000,1,0.000000,0.000000,0.000000,85.208603,81.127319,0.000000,0.000000,0.000000,0.001000,FlatInitial,ResetBack,0
07:38:28.311 PM 02/17/2016,Teleop Disabled,0,FALSE,0,NO ERROR,0.000000,0.000000,0.000000,0.000000,Speed,Speed,-0.040000,1.090000,1.520000,0.000000,102.000000,1,0,-0.000000,0.000000,1,0.000000,0.000000,0.000000,85.208603,81.127319,0.000000,0.002000,0.001000,0.004000,FlatInitial,ResetBack,0
07:38:28.411 PM 02/17/2016,Teleop Disabled,0,FALSE,0,NO ERROR,0.000000,0.000000,0.000000,0.000000,Speed,Speed,-0.040000,1.090000,1.520000,0.000000,102.000000,1,0,-0.000000,0.000000,1,0.000000,0.000000,0.000000,85.208603,81.127319,0.000000,0.000000,0.000000,0.001000,FlatInitial,ResetBack,0
07:38:28.511 PM 02/17/2016,Teleop Disabled,0,FALSE,0,NO ERROR,0.000000,0.000000,0.000000,0.000000,Speed,Speed,-0.040000,1.090000,1.520000,0.000000,103.000000,1,0,-0.000000,0.000000,1,0.000000,0.000000,0.000000,85.208603,81.127319,0.000000,0.000000,0.002000,0.000000,FlatInitial,ResetBack,0
07:38:28.612 PM 02/17/2016,Teleop Disabled,0,FALSE,0,NO ERROR,0.000000,0.000000,0.000000,0.000000,Speed,Speed,-0.040000,1.090000,1.520000,0.000000,101.000000,1,0,-0.000000,0.000000,1,0.000000,0.000000,0.000000,85.208603,81.127319,0.000000,0.003000,-0.001000,0.000000,FlatInitial,ResetBack,0
07:38:28.712 PM 02/17/2016,Teleop Disabled,0,FALSE,0,NO ERROR,0.000000,0.000000,0.000000,0.000000,Speed,Speed,-0.040000,1.090000,1.520000,0.000000,108.000000,1,0,-0.000000,0.000000,1,0.000000,0.000000,0.000000,85.208603,81.127319,0.000000,-0.002000,0.000000,0.001000,FlatInitial,ResetBack,0
07:38:28.812 PM 02/17/2016,Teleop Disabled,0,FALSE,0,NO ERROR,0.000000,0.000000,0.000000,0.000000,Speed,Speed,-0.040000,1.090000,1.520000,0.000000,102.000000,1,0,-0.000000,0.000000,1,0.000000,0.000000,0.000000,85.208603,81.127319,0.000000,-0.003000,0.000000,0.000000,FlatInitial,ResetBack,0
07:38:28.913 PM 02/17/2016,Teleop Disabled,0,FALSE,0,NO ERROR,0.000000,0.000000,0.000000,0.000000,Speed,Speed,-0.040000,1.090000,1.520000,0.000000,102.000000,1,0,-0.000000,0.000000,1,0.000000,0.000000,0.000000,85.208603,81.127319,0.000000,0.000000,0.000000,-0.001000,FlatInitial,ResetBack,0
07:38:29.013 PM 02/17/2016,Teleop Disabled,0,FALSE,0,NO ERROR,0.000000,0.000000,0.000000,0.000000,Speed,Speed,-0.050000,1.090000,1.520000,0.000000,100.000000,1,0,-0.000000,0.000000,1,0.000000,0.000000,0.000000,85.208603,81.127319,0.000000,0.001000,-0.003000,0.001000,FlatInitial,ResetBack,0
07:38:29.116 PM 02/17/2016,Teleop Disabled,0,FALSE,0,NO ERROR,0.000000,0.000000,0.000000,0.000000,Speed,Speed,-0.050000,1.090000,1.520000,0.000000,102.000000,1,0,-0.000000,0.000000,1,0.000000,0.000000,0.000000,85.208603,81.127319,0.000000,0.000000,0.001000,0.004000,FlatInitial,ResetBack,0
07:38:29.216 PM 02/17/2016,Teleop Disabled,0,FALSE,0,NO ERROR,0.000000,0.000000,0.000000,0.000000,Speed,Speed,-0.050000,1.090000,1.520000,1.000000,103.000000,1,0,-0.000000,0.000000,1,0.000000,0.000000,0.000000,85.208603,81.127319,0.000000,0.002000,0.000000,0.003000,FlatInitial,ResetBack,0
07:38:29.316 PM 02/17/2016,Teleop Disabled,0,FALSE,0,NO ERROR,0.000000,0.000000,-6000.000000,-6000.000000,Speed,Speed,-0.050000,1.090000,1.520000,1.000000,103.000000,1,0,-0.000000,0.000000,1,0.000000,0.000000,0.000000,85.208603,81.127319,0.000000,0.002000,0.000000,0.001000,FlatInitial,ResetBack,0
07:38:29.416 PM 02/17/2016,Teleop Disabled,0,FALSE,0,NO ERROR,0.000000,0.000000,-6000.000000,-6000.000000,Speed,Speed,-0.050000,1.080000,1.510000,1.000000,126.000000,1,0,-0.000000,0.000000,1,0.000000,0.000000,0.000000,85.208603,81.127319,0.000000,0.001000,0.000000,0.004000,FlatInitial,ResetBack,0
07:38:29.516 PM 02/17/2016,Teleop Disabled,0,FALSE,0,NO ERROR,0.000000,0.000000,-6000.000000,-6000.000000,Speed,Speed,-0.050000,1.080000,1.510000,1.000000,101.000000,1,0,-0.000000,0.000000,1,0.000000,0.000000,0.000000,85.208603,81.127319,0.000000,0.002000,-0.003000,0.000000,FlatInitial,ResetBack,0
07:38:29.617 PM 02/17/2016,Teleop Disabled,0,FALSE,0,NO ERROR,0.000000,0.000000,-6000.000000,-6000.000000,Speed,Speed,-0.050000,1.080000,1.510000,1.000000,103.000000,1,0,-0.000000,0.000000,1,0.000000,0.000000,0.000000,85.208603,81.127319,0.000000,-0.001000,-0.001000,0.000000,FlatInitial,ResetBack,0
07:38:29.717 PM 02/17/2016,Teleop Disabled,0,FALSE,0,NO ERROR,0.000000,0.000000,-6000.000000,-6000.000000,Speed,Speed,-0.050000,1.090000,1.520000,1.000000,102.000000,1,0,-0.000000,0.000000,1,0.000000,0.000000,0.000000,85.208603,81.127319,0.000000,0.000000,0.002000,0.002000,FlatInitial,ResetBack,0
07:38:29.817 PM 02/17/2016,Teleop Disabled,0,FALSE,0,NO ERROR,0.000000,0.000000,-6000.000000,-6000.000000,Speed,Speed,-0.050000,1.080000,1.520000,1.000000,105.000000,1,0,-0.000000,0.000000,1,0.000000,0.000000,0.000000,85.208603,81.127319,0.000000,0.001000,0.000000,0.007000,FlatInitial,ResetBack,0
07:38:29.917 PM 02/17/2016,Teleop Disabled,0,FALSE,0,NO ERROR,0.000000,0.000000,-6000.000000,-6000.000000,Speed,Speed,-0.050000,1.090000,1.520000,1.000000,101.000000,1,0,-0.000000,0.000000,1,0.000000,0.000000,0.000000,85.208603,81.127319,0.000000,0.003000,0.001000,0.002000,FlatInitial,ResetBack,0
07:38:30.017 PM 02/17/2016,Teleop Disabled,0,FALSE,0,NO ERROR,0.000000,0.000000,-6000.000000,-6000.000000,Speed,Speed,-0.050000,1.090000,1.520000,1.000000,104.000000,1,0,-0.000000,0.000000,1,0.000000,0.000000,0.000000,85.208603,81.127319,0.000000,0.002000,-0.001000,0.004000,FlatInitial,ResetBack,0
07:38:30.118 PM 02/17/2016,Teleop Disabled,0,FALSE,0,NO ERROR,0.000000,0.000000,-6000.000000,-6000.000000,Speed,Speed,-0.060000,1.090000,1.520000,1.000000,101.000000,1,0,-0.000000,0.000000,1,0.000000,0.000000,0.000000,85.208603,81.127319,0.000000,0.000000,-0.002000,0.002000,FlatInitial,ResetBack,0
07:38:30.218 PM 02/17/2016,Teleop Disabled,0,FALSE,0,NO ERROR,0.000000,0.000000,-6000.000000,-6000.000000,Speed,Speed,-0.060000,1.090000,1.520000,1.000000,102.000000,1,0,-0.000000,0.000000,1,0.000000,0.000000,0.000000,85.208603,81.127319,0.000000,0.000000,-0.001000,-0.003000,FlatInitial,ResetBack,0
07:38:30.318 PM 02/17/2016,Teleop Disabled,0,FALSE,0,NO ERROR,0.000000,0.000000,-6000.000000,-6000.000000,Speed,Speed,-0.060000,1.090000,1.520000,1.000000,101.000000,1,0,-0.000000,0.000000,1,0.000000,0.000000,0.000000,85.208603,81.127319,0.000000,0.001000,-0.001000,0.005000,FlatInitial,ResetBack,0
07:38:30.418 PM 02/17/2016,Teleop Disabled,0,FALSE,0,NO ERROR,0.000000,0.000000,-6000.000000,-6000.000000,Speed,Speed,-0.070000,1.090000,1.520000,1.000000,101.000000,1,0,-0.000000,0.000000,1,0.000000,0.000000,0.000000,85.208603,81.127319,0.000000,-0.002000,0.000000,0.001000,FlatInitial,ResetBack,0
07:38:30.518 PM 02/17/2016,Teleop Disabled,0,FALSE,0,NO ERROR,0.000000,0.000000,-6000.000000,-6000.000000,Speed,Speed,-0.070000,1.090000,1.520000,1.000000,101.000000,1,0,-0.000000,0.000000,1,0.000000,0.000000,0.000000,85.208603,81.127319,0.000000,0.001000,0.000000,0.002000,FlatInitial,ResetBack,0
07:38:30.619 PM 02/17/2016,Teleop Disabled,0,FALSE,0,NO ERROR,0.000000,0.000000,-6000.000000,-6000.000000,Speed,Speed,-0.070000,1.080000,1.520000,1.000000,102.000000,1,0,-0.000000,0.000000,1,0.000000,0.000000,0.000000,85.208603,81.127319,0.000000,0.000000,0.000000,0.006000,FlatInitial,ResetBack,0
07:38:30.719 PM 02/17/2016,Teleop Disabled,0,FALSE,0,NO ERROR,0.000000,0.000000,-6000.000000,-6000.000000,Speed,Speed,-0.070000,1.080000,1.510000,1.000000,101.000000,1,0,-0.000000,0.000000,1,0.000000,0.000000,0.000000,85.208603,81.127319,0.000000,0.002000,-0.002000,0.002000,FlatInitial,ResetBack,0
07:38:30.819 PM 02/17/2016,Teleop Disabled,0,FALSE,0,NO ERROR,0.000000,0.000000,-6000.000000,-6000.000000,Speed,Speed,-0.070000,1.090000,1.520000,1.000000,103.000000,1,0,-0.000000,0.000000,1,0.000000,0.000000,0.000000,85.208603,81.127319,0.000000,-0.003000,-0.001000,0.004000,FlatInitial,ResetBack,0
07:38:30.921 PM 02/17/2016,Teleop Disabled,0,FALSE,0,NO ERROR,0.000000,0.000000,-6000.000000,-6000.000000,Speed,Speed,-0.070000,1.080000,1.510000,1.000000,101.000000,1,0,-0.000000,0.000000,1,0.000000,0.000000,0.000000,85.208603,81.127319,0.000000,0.001000,-0.003000,0.003000,FlatInitial,ResetBack,0
07:38:31.022 PM 02/17/2016,Teleop Disabled,0,FALSE,0,NO ERROR,0.000000,0.000000,-6000.000000,-6000.000000,Speed,Speed,-0.070000,1.080000,1.510000,1.000000,103.000000,1,0,-0.000000,0.000000,1,0.000000,0.000000,0.000000,85.208603,81.127319,0.000000,0.000000,0.001000,0.008000,FlatInitial,ResetBack,0
07:38:31.123 PM 02/17/2016,Teleop Disabled,0,FALSE,0,NO ERROR,0.000000,0.000000,-6000.000000,-6000.000000,Speed,Speed,-0.080000,1.090000,1.520000,1.000000,101.000000,1,0,-0.000000,0.000000,1,0.000000,0.000000,0.000000,85.208603,81.127319,0.000000,0.000000,0.000000,0.003000,FlatInitial,ResetBack,0
07:38:31.223 PM 02/17/2016,Teleop Disabled,0,FALSE,0,NO ERROR,0.000000,0.000000,-6000.000000,-6000.000000,Speed,Speed,-0.080000,1.090000,1.520000,1.000000,102.000000,1,0,-0.000000,0.000000,1,0.000000,0.000000,0.000000,85.208603,81.127319,0.000000,0.000000,0.000000,0.003000,FlatInitial,ResetBack,0
07:38:31.325 PM 02/17/2016,Teleop Disabled,0,FALSE,0,NO ERROR,0.000000,0.000000,-6000.000000,-6000.000000,Speed,Speed,-0.080000,1.090000,1.520000,1.000000,101.000000,1,0,-0.000000,0.000000,1,0.000000,0.000000,0.000000,85.208603,81.127319,0.000000,0.001000,-0.001000,0.003000,FlatInitial,ResetBack,0
07:38:31.425 PM 02/17/2016,Teleop Disabled,0,FALSE,0,NO ERROR,0.000000,0.000000,-6000.000000,-6000.000000,Speed,Speed,-0.080000,1.090000,1.520000,1.000000,101.000000,1,0,-0.000000,0.000000,1,0.000000,0.000000,0.000000,85.208603,81.127319,0.000000,0.000000,-0.001000,-0.002000,FlatInitial,ResetBack,0
07:38:31.525 PM 02/17/2016,Teleop Disabled,0,FALSE,0,NO ERROR,0.000000,0.000000,-6000.000000,-6000.000000,Speed,Speed,-0.080000,1.090000,1.530000,1.000000,101.000000,1,0,-0.000000,0.000000,1,0.000000,0.000000,0.000000,85.208603,81.127319,0.000000,0.003000,0.001000,0.001000,FlatInitial,ResetBack,0
07:38:31.626 PM 02/17/2016,Teleop Disabled,0,FALSE,0,NO ERROR,0.000000,0.000000,-6000.000000,-6000.000000,Speed,Speed,-0.080000,1.090000,1.530000,1.000000,107.000000,1,0,-0.000000,0.000000,1,0.000000,0.000000,0.000000,85.208603,81.127319,0.000000,0.002000,0.001000,0.004000,FlatInitial,ResetBack,0
07:38:31.726 PM 02/17/2016,Teleop Disabled,0,FALSE,0,NO ERROR,0.000000,0.000000,-6000.000000,-6000.000000,Speed,Speed,-0.080000,1.090000,1.530000,1.000000,104.000000,1,0,-0.000000,0.000000,1,0.000000,0.000000,0.000000,85.208603,81.127319,0.000000,-0.002000,0.001000,0.000000,FlatInitial,ResetBack,0
07:38:31.826 PM 02/17/2016,Teleop Disabled,0,FALSE,0,NO ERROR,0.000000,0.000000,-6000.000000,-6000.000000,Speed,Speed,-0.080000,1.090000,1.540000,1.000000,102.000000,1,0,-0.000000,0.000000,1,0.000000,0.000000,0.000000,85.208603,81.127319,0.000000,0.000000,-0.001000,0.000000,FlatInitial,ResetBack,0
07:38:31.927 PM 02/17/2016,Teleop Disabled,0,FALSE,0,NO ERROR,0.000000,0.000000,-6000.000000,-6000.000000,Speed,Speed,-0.080000,1.090000,1.530000,1.000000,102.000000,1,0,-0.000000,0.000000,1,0.000000,0.000000,0.000000,85.208603,81.127319,0.000000,-0.001000,0.002000,0.001000,FlatInitial,ResetBack,0
07:38:32.027 PM 02/17/2016,Teleop Disabled,0,FALSE,0,NO ERROR,0.000000,0.000000,-6000.000000,-6000.000000,Speed,Speed,-0.080000,1.090000,1.530000,1.000000,106.000000,1,0,-0.000000,0.000000,1,0.000000,0.000000,0.000000,85.208603,81.127319,0.000000,-0.001000,0.002000,0.001000,FlatInitial,ResetBack,0
07:38:32.127 PM 02/17/2016,Teleop Disabled,0,FALSE,0,NO ERROR,0.000000,0.000000,-6000.000000,-6000.000000,Speed,Speed,-0.070000,1.090000,1.530000,1.000000,101.000000,1,0,-0.000000,0.000000,1,0.000000,0.000000,0.000000,85.208603,81.127319,0.000000,0.000000,-0.001000,0.001000,FlatInitial,ResetBack,0
07:38:32.227 PM 02/17/2016,Teleop Disabled,0,FALSE,0,NO ERROR,0.000000,0.000000,-6000.000000,-6000.000000,Speed,Speed,-0.080000,1.090000,1.530000,1.000000,101.000000,1,0,-0.000000,0.000000,1,0.000000,0.000000,0.000000,85.208603,81.127319,0.000000,-0.002000,0.000000,-0.001000,FlatInitial,ResetBack,0
07:38:32.327 PM 02/17/2016,Teleop Disabled,0,FALSE,0,NO ERROR,0.000000,0.000000,-6000.000000,-6000.000000,Speed,Speed,-0.080000,1.090000,1.530000,1.000000,104.000000,1,0,-0.000000,0.000000,1,0.000000,0.000000,0.000000,85.208603,81.127319,0.000000,-0.002000,0.000000,-0.001000,FlatInitial,ResetBack,0
07:38:32.430 PM 02/17/2016,Teleop Disabled,0,FALSE,0,NO ERROR,0.000000,0.000000,-6000.000000,-6000.000000,Speed,Speed,-0.080000,1.090000,1.530000,1.000000,104.000000,1,0,-0.000000,0.000000,1,0.000000,0.000000,0.000000,85.208603,81.127319,0.000000,0.000000,-0.002000,0.004000,FlatInitial,ResetBack,0
07:38:32.530 PM 02/17/2016,Autonomous Disabled,0,FALSE,0,NO ERROR,0.000000,0.000000,-6000.000000,-6000.000000,Speed,Speed,-0.080000,1.090000,1.530000,1.000000,101.000000,1,0,-0.000000,0.000000,1,0.000000,0.000000,0.000000,85.208603,81.127319,0.000000,0.000000,-0.002000,0.004000,FlatInitial,ResetBack,0
07:38:32.636 PM 02/17/2016,Autonomous Disabled,0,FALSE,0,NO ERROR,0.000000,0.000000,-6000.000000,-6000.000000,Speed,Speed,-0.090000,1.090000,1.530000,1.000000,101.000000,1,0,-0.000000,0.000000,1,0.000000,0.000000,0.000000,85.208603,81.127319,0.000000,0.000000,-0.001000,0.001000,FlatInitial,ResetBack,0
07:38:32.736 PM 02/17/2016,Autonomous Disabled,0,FALSE,0,NO ERROR,0.000000,0.000000,-6000.000000,-6000.000000,Speed,Speed,-0.090000,1.090000,1.530000,1.000000,101.000000,1,0,-0.000000,0.000000,1,0.000000,0.000000,0.000000,85.208603,81.127319,0.000000,0.000000,0.000000,0.002000,FlatInitial,ResetBack,0
07:38:32.836 PM 02/17/2016,Autonomous Disabled,0,FALSE,0,NO ERROR,0.000000,0.000000,-6000.000000,-6000.000000,Speed,Speed,-0.090000,1.080000,1.520000,1.000000,101.000000,1,0,-0.000000,0.000000,1,0.000000,0.000000,0.000000,85.208603,81.127319,0.000000,0.000000,0.000000,0.003000,FlatInitial,ResetBack,0
07:38:32.937 PM 02/17/2016,Autonomous Disabled,0,FALSE,0,NO ERROR,0.000000,0.000000,-6000.000000,-6000.000000,Speed,Speed,-0.090000,1.080000,1.520000,1.000000,106.000000,1,0,-0.000000,0.000000,1,0.000000,0.000000,0.000000,85.208603,81.127319,0.000000,0.000000,0.001000,0.003000,FlatInitial,ResetBack,0
07:38:33.038 PM 02/17/2016,Autonomous Disabled,0,FALSE,0,NO ERROR,0.000000,0.000000,-6000.000000,-6000.000000,Speed,Speed,-0.090000,1.080000,1.520000,1.000000,101.000000,1,0,-0.000000,0.000000,1,0.000000,0.000000,0.000000,85.208603,81.127319,0.000000,0.000000,0.001000,0.003000,FlatInitial,ResetBack,0
07:38:33.138 PM 02/17/2016,Autonomous Disabled,0,FALSE,0,NO ERROR,0.000000,0.000000,-6000.000000,-6000.000000,Speed,Speed,-0.090000,1.080000,1.520000,1.000000,104.000000,1,0,-0.000000,0.000000,1,0.000000,0.000000,0.000000,85.208603,81.127319,0.000000,0.000000,0.000000,0.001000,FlatInitial,ResetBack,0
07:38:33.238 PM 02/17/2016,Autonomous Disabled,0,FALSE,0,NO ERROR,0.000000,0.000000,-6000.000000,-6000.000000,Speed,Speed,-0.090000,1.070000,1.530000,1.000000,102.000000,1,0,-0.000000,0.000000,1,0.000000,0.000000,0.000000,85.208603,81.127319,0.000000,-0.001000,0.001000,0.000000,FlatInitial,ResetBack,0
07:38:33.338 PM 02/17/2016,Autonomous Disabled,0,FALSE,0,NO ERROR,0.000000,0.000000,-6000.000000,-6000.000000,Speed,Speed,-0.090000,1.070000,1.530000,1.000000,102.000000,1,0,-0.000000,0.000000,1,0.000000,0.000000,0.000000,85.208603,81.127319,0.000000,0.000000,0.000000,0.001000,FlatInitial,ResetBack,0
07:38:33.438 PM 02/17/2016,Autonomous Disabled,0,FALSE,0,NO ERROR,0.000000,0.000000,-6000.000000,-6000.000000,Speed,Speed,-0.090000,1.080000,1.530000,1.000000,103.000000,1,0,-0.000000,0.000000,1,0.000000,0.000000,0.000000,85.208603,81.127319,0.000000,0.000000,0.000000,0.000000,FlatInitial,ResetBack,0
07:38:33.538 PM 02/17/2016,Autonomous Disabled,0,FALSE,0,NO ERROR,0.000000,0.000000,-6000.000000,-6000.000000,Speed,Speed,-0.090000,1.080000,1.530000,1.000000,102.000000,1,0,-0.000000,0.000000,1,0.000000,0.000000,0.000000,85.208603,81.127319,0.000000,0.000000,0.000000,0.003000,FlatInitial,ResetBack,0
07:38:33.639 PM 02/17/2016,Autonomous Disabled,0,FALSE,0,NO ERROR,0.000000,0.000000,-6000.000000,-6000.000000,Speed,Speed,-0.090000,1.080000,1.530000,1.000000,102.000000,1,0,-0.000000,0.000000,1,0.000000,0.000000,0.000000,85.208603,81.127319,0.000000,0.000000,0.000000,0.004000,FlatInitial,ResetBack,0
07:38:33.740 PM 02/17/2016,Autonomous Disabled,0,FALSE,0,NO ERROR,0.000000,0.000000,-6000.000000,-6000.000000,Speed,Speed,-0.090000,1.080000,1.540000,1.000000,103.000000,1,0,-0.000000,0.000000,1,0.000000,0.000000,0.000000,85.208603,81.127319,0.000000,0.000000,0.001000,0.000000,FlatInitial,ResetBack,0
07:38:33.839 PM 02/17/2016,Autonomous Disabled,0,FALSE,0,NO ERROR,0.000000,0.000000,-6000.000000,-6000.000000,Speed,Speed,-0.090000,1.080000,1.540000,1.000000,102.000000,1,0,-0.000000,0.000000,1,0.000000,0.000000,0.000000,85.208603,81.127319,0.000000,-0.001000,-0.001000,0.000000,FlatInitial,ResetBack,0
07:38:33.940 PM 02/17/2016,Autonomous Disabled,0,FALSE,0,NO ERROR,0.000000,0.000000,-6000.000000,-6000.000000,Speed,Speed,-0.090000,1.070000,1.540000,1.000000,104.000000,1,0,-0.000000,0.000000,1,0.000000,0.000000,0.000000,85.208603,81.127319,0.000000,0.000000,0.000000,0.004000,FlatInitial,ResetBack,0
07:38:34.040 PM 02/17/2016,Autonomous Disabled,0,FALSE,0,NO ERROR,0.000000,0.000000,-6000.000000,-6000.000000,Speed,Speed,-0.090000,1.080000,1.530000,1.000000,101.000000,1,0,-0.000000,0.000000,1,0.000000,0.000000,0.000000,85.208603,81.127319,0.000000,0.001000,0.000000,0.004000,FlatInitial,ResetBack,0
07:38:34.141 PM 02/17/2016,Autonomous Disabled,0,FALSE,0,NO ERROR,0.000000,0.000000,-6000.000000,-6000.000000,Speed,Speed,-0.090000,1.080000,1.530000,1.000000,106.000000,1,0,-0.000000,0.000000,1,0.000000,0.000000,0.000000,85.208603,81.127319,0.000000,0.000000,0.000000,0.000000,FlatInitial,ResetBack,0
07:38:34.242 PM 02/17/2016,Autonomous Disabled,0,FALSE,0,NO ERROR,0.000000,0.000000,-6000.000000,-6000.000000,Speed,Speed,-0.090000,1.080000,1.530000,1.000000,101.000000,1,0,-0.000000,0.000000,1,0.000000,0.000000,0.000000,85.208603,81.127319,0.000000,0.000000,0.000000,0.007000,FlatInitial,ResetBack,0
07:38:34.342 PM 02/17/2016,Autonomous Disabled,0,FALSE,0,NO ERROR,0.000000,0.000000,-6000.000000,-6000.000000,Speed,Speed,-0.090000,1.080000,1.530000,1.000000,102.000000,1,0,-0.000000,0.000000,1,0.000000,0.000000,0.000000,85.208603,81.127319,0.000000,0.001000,0.000000,0.000000,FlatInitial,ResetBack,0
07:38:34.442 PM 02/17/2016,Autonomous Disabled,0,FALSE,0,NO ERROR,0.000000,0.000000,-6000.000000,-6000.000000,Speed,Speed,-0.090000,1.090000,1.530000,1.000000,101.000000,1,0,-0.000000,0.000000,1,0.000000,0.000000,0.000000,85.208603,81.127319,0.000000,0.000000,-0.001000,0.003000,FlatInitial,ResetBack,0
07:38:34.543 PM 02/17/2016,Autonomous Disabled,0,FALSE,0,NO ERROR,0.000000,0.000000,-6000.000000,-6000.000000,Speed,Speed,-0.090000,1.090000,1.530000,1.000000,101.000000,1,0,-0.000000,0.000000,1,0.000000,0.000000,0.000000,85.208603,81.127319,0.000000,0.000000,0.001000,0.000000,FlatInitial,ResetBack,0
07:38:34.645 PM 02/17/2016,Autonomous Disabled,0,FALSE,0,NO ERROR,0.000000,0.000000,-6000.000000,-6000.000000,Speed,Speed,-0.090000,1.090000,1.530000,1.000000,101.000000,1,0,-0.000000,0.000000,1,0.000000,0.000000,0.000000,85.208603,81.127319,0.000000,0.000000,-0.001000,0.001000,FlatInitial,ResetBack,0
07:38:34.746 PM 02/17/2016,Autonomous Disabled,0,FALSE,0,NO ERROR,0.000000,0.000000,-6000.000000,-6000.000000,Speed,Speed,-0.090000,1.080000,1.530000,1.000000,103.000000,1,0,-0.000000,0.000000,1,0.000000,0.000000,0.000000,85.208603,81.127319,0.000000,0.000000,0.001000,0.000000,FlatInitial,ResetBack,0
07:38:34.847 PM 02/17/2016,Autonomous Disabled,0,FALSE,0,NO ERROR,0.000000,0.000000,-6000.000000,-6000.000000,Speed,Speed,-0.100000,1.090000,1.530000,1.000000,101.000000,1,0,-0.000000,0.000000,1,0.000000,0.000000,0.000000,85.208603,81.127319,0.000000,-0.001000,-0.001000,0.000000,FlatInitial,ResetBack,0
07:38:34.948 PM 02/17/2016,Autonomous Disabled,0,FALSE,0,NO ERROR,0.000000,0.000000,-6000.000000,-6000.000000,Speed,Speed,-0.100000,1.080000,1.520000,1.000000,102.000000,1,0,-0.000000,0.000000,1,0.000000,0.000000,0.000000,85.208603,81.127319,0.000000,0.000000,0.001000,0.002000,FlatInitial,ResetBack,0
07:38:35.049 PM 02/17/2016,Autonomous Disabled,0,FALSE,0,NO ERROR,0.000000,0.000000,-6000.000000,-6000.000000,Speed,Speed,-0.100000,1.080000,1.520000,1.000000,102.000000,1,0,-0.000000,0.000000,1,0.000000,0.000000,0.000000,85.208603,81.127319,0.000000,0.000000,0.000000,0.002000,FlatInitial,ResetBack,0
07:38:35.149 PM 02/17/2016,Autonomous Disabled,0,FALSE,0,NO ERROR,0.000000,0.000000,-6000.000000,-6000.000000,Speed,Speed,-0.100000,1.090000,1.530000,1.000000,104.000000,1,0,-0.000000,0.000000,1,0.000000,0.000000,0.000000,85.208603,81.127319,0.000000,-0.002000,0.000000,0.000000,FlatInitial,ResetBack,0
07:38:35.249 PM 02/17/2016,Autonomous Disabled,0,FALSE,0,NO ERROR,0.000000,0.000000,-6000.000000,-6000.000000,Speed,Speed,-0.100000,1.080000,1.530000,1.000000,100.000000,1,0,-0.000000,0.000000,1,0.000000,0.000000,0.000000,85.208603,81.127319,0.000000,-0.001000,0.000000,-0.002000,FlatInitial,ResetBack,0
07:38:35.349 PM 02/17/2016,Autonomous Disabled,0,FALSE,0,NO ERROR,0.000000,0.000000,-6000.000000,-6000.000000,Speed,Speed,-0.100000,1.090000,1.530000,1.000000,103.000000,1,0,-0.000000,0.000000,1,0.000000,0.000000,0.000000,85.208603,81.127319,0.000000,0.001000,-0.001000,0.003000,FlatInitial,ResetBack,0
07:38:35.450 PM 02/17/2016,Autonomous Disabled,0,FALSE,0,NO ERROR,0.000000,0.000000,-6000.000000,-6000.000000,Speed,Speed,-0.100000,1.080000,1.520000,1.000000,101.000000,1,0,-0.000000,0.000000,1,0.000000,0.000000,0.000000,85.208603,81.127319,0.000000,0.000000,0.003000,0.004000,FlatInitial,ResetBack,0
07:38:35.552 PM 02/17/2016,Autonomous Disabled,0,FALSE,0,NO ERROR,0.000000,0.000000,-6000.000000,-6000.000000,Speed,Speed,-0.100000,1.090000,1.520000,1.000000,104.000000,1,0,-0.000000,0.000000,1,0.000000,0.000000,0.000000,85.208603,81.127319,0.000000,0.002000,0.000000,0.001000,FlatInitial,ResetBack,0
07:38:35.652 PM 02/17/2016,Autonomous Disabled,0,FALSE,0,NO ERROR,0.000000,0.000000,-6000.000000,-6000.000000,Speed,Speed,-0.100000,1.090000,1.520000,1.000000,101.000000,1,0,-0.000000,0.000000,1,0.000000,0.000000,0.000000,85.208603,81.127319,0.000000,0.000000,-0.002000,0.003000,FlatInitial,ResetBack,0
07:38:35.753 PM 02/17/2016,Autonomous Disabled,0,FALSE,0,NO ERROR,0.000000,0.000000,-6000.000000,-6000.000000,Speed,Speed,-0.100000,1.090000,1.530000,1.000000,103.000000,1,0,-0.000000,0.000000,1,0.000000,0.000000,0.000000,85.208603,81.127319,0.000000,0.001000,0.000000,0.002000,FlatInitial,ResetBack,0
07:38:35.853 PM 02/17/2016,Autonomous Disabled,0,FALSE,0,NO ERROR,0.000000,0.000000,-6000.000000,-6000.000000,Speed,Speed,-0.110000,1.090000,1.530000,1.000000,106.000000,1,0,-0.000000,0.000000,1,0.000000,0.000000,0.000000,85.208603,81.127319,0.000000,-0.001000,0.000000,0.001000,FlatInitial,ResetBack,0
07:38:35.953 PM 02/17/2016,Autonomous Disabled,0,FALSE,0,NO ERROR,0.000000,0.000000,-6000.000000,-6000.000000,Speed,Speed,-0.110000,1.090000,1.530000,1.000000,102.000000,1,0,-0.000000,0.000000,1,0.000000,0.000000,0.000000,85.208603,81.127319,0.000000,0.000000,0.000000,0.001000,FlatInitial,ResetBack,0
07:38:36.053 PM 02/17/2016,Autonomous Disabled,0,FALSE,0,NO ERROR,0.000000,0.000000,-6000.000000,-6000.000000,Speed,Speed,-0.110000,1.090000,1.530000,1.000000,101.000000,1,0,-0.000000,0.000000,1,0.000000,0.000000,0.000000,85.208603,81.127319,0.000000,0.000000,-0.002000,0.000000,FlatInitial,ResetBack,0
07:38:36.153 PM 02/17/2016,Autonomous Disabled,0,FALSE,0,NO ERROR,0.000000,0.000000,-6000.000000,-6000.000000,Speed,Speed,-0.110000,1.090000,1.530000,1.000000,102.000000,1,0,-0.000000,0.000000,1,0.000000,0.000000,0.000000,85.208603,81.127319,0.000000,0.000000,0.000000,0.000000,FlatInitial,ResetBack,0
07:38:36.253 PM 02/17/2016,Autonomous Disabled,0,FALSE,0,NO ERROR,0.000000,0.000000,-6000.000000,-6000.000000,Speed,Speed,-0.110000,1.090000,1.530000,1.000000,105.000000,1,0,-0.000000,0.000000,1,0.000000,0.000000,0.000000,85.208603,81.127319,0.000000,0.002000,0.000000,-0.001000,FlatInitial,ResetBack,0
07:38:36.354 PM 02/17/2016,Autonomous Disabled,0,FALSE,0,NO ERROR,0.000000,0.000000,-6000.000000,-6000.000000,Speed,Speed,-0.110000,1.090000,1.530000,1.000000,100.000000,1,0,-0.000000,0.000000,1,0.000000,0.000000,0.000000,85.208603,81.127319,0.000000,0.000000,-0.001000,0.003000,FlatInitial,ResetBack,0
07:38:36.454 PM 02/17/2016,Autonomous Disabled,0,FALSE,0,NO ERROR,0.000000,0.000000,-6000.000000,-6000.000000,Speed,Speed,-0.110000,1.090000,1.520000,1.000000,101.000000,1,0,-0.000000,0.000000,1,0.000000,0.000000,0.000000,85.208603,81.127319,0.000000,0.000000,0.000000,0.003000,FlatInitial,ResetBack,0
07:38:36.554 PM 02/17/2016,Autonomous Disabled,0,FALSE,0,NO ERROR,0.000000,0.000000,-6000.000000,-6000.000000,Speed,Speed,-0.110000,1.090000,1.530000,1.000000,105.000000,1,0,-0.000000,0.000000,1,0.000000,0.000000,0.000000,85.208603,81.127319,0.000000,0.001000,0.000000,0.000000,FlatInitial,ResetBack,0
07:38:36.654 PM 02/17/2016,Autonomous Disabled,0,FALSE,0,NO ERROR,0.000000,0.000000,-6000.000000,-6000.000000,Speed,Speed,-0.110000,1.090000,1.530000,1.000000,106.000000,1,0,-0.000000,0.000000,1,0.000000,0.000000,0.000000,85.208603,81.127319,0.000000,0.000000,0.000000,0.002000,FlatInitial,ResetBack,0
07:38:36.755 PM 02/17/2016,Autonomous Disabled,0,FALSE,0,NO ERROR,0.000000,0.000000,-6000.000000,-6000.000000,Speed,Speed,-0.110000,1.090000,1.530000,1.000000,102.000000,1,0,-0.000000,0.000000,1,0.000000,0.000000,0.000000,85.208603,81.127319,0.000000,-0.001000,0.000000,-0.002000,FlatInitial,ResetBack,0
07:38:36.855 PM 02/17/2016,Autonomous Disabled,0,FALSE,0,NO ERROR,0.000000,0.000000,-6000.000000,-6000.000000,Speed,Speed,-0.110000,1.090000,1.530000,1.000000,102.000000,1,0,-0.000000,0.000000,1,0.000000,0.000000,0.000000,85.208603,81.127319,0.000000,-0.001000,0.000000,0.003000,FlatInitial,ResetBack,0
07:38:36.957 PM 02/17/2016,Autonomous Disabled,0,FALSE,0,NO ERROR,0.000000,0.000000,-6000.000000,-6000.000000,Speed,Speed,-0.100000,1.090000,1.530000,1.000000,101.000000,1,0,-0.000000,0.000000,1,0.000000,0.000000,0.000000,85.208603,81.127319,0.000000,0.000000,0.000000,0.003000,FlatInitial,ResetBack,0
07:38:37.057 PM 02/17/2016,Autonomous Disabled,0,FALSE,0,NO ERROR,0.000000,0.000000,-6000.000000,-6000.000000,Speed,Speed,-0.100000,1.090000,1.520000,1.000000,100.000000,1,0,-0.000000,0.000000,1,0.000000,0.000000,0.000000,85.208603,81.127319,0.000000,-0.002000,-0.001000,0.008000,FlatInitial,ResetBack,0
07:38:37.158 PM 02/17/2016,Autonomous Disabled,0,FALSE,0,NO ERROR,0.000000,0.000000,-6000.000000,-6000.000000,Speed,Speed,-0.100000,1.090000,1.520000,1.000000,103.000000,1,0,-0.000000,0.000000,1,0.000000,0.000000,0.000000,85.208603,81.127319,0.000000,0.000000,0.000000,0.004000,FlatInitial,ResetBack,0
07:38:37.258 PM 02/17/2016,Autonomous Disabled,0,FALSE,0,NO ERROR,0.000000,0.000000,-6000.000000,-6000.000000,Speed,Speed,-0.100000,1.090000,1.520000,1.000000,104.000000,1,0,-0.000000,0.000000,1,0.000000,0.000000,0.000000,85.208603,81.127319,0.000000,0.000000,-0.003000,-0.002000,FlatInitial,ResetBack,0
07:38:37.358 PM 02/17/2016,Autonomous Disabled,0,FALSE,0,NO ERROR,0.000000,0.000000,-6000.000000,-6000.000000,Speed,Speed,-0.100000,1.090000,1.520000,1.000000,101.000000,1,0,-0.000000,0.000000,1,0.000000,0.000000,0.000000,85.208603,81.127319,0.000000,0.000000,0.001000,0.001000,FlatInitial,ResetBack,0
07:38:37.459 PM 02/17/2016,Autonomous Disabled,0,FALSE,0,NO ERROR,0.000000,0.000000,-6000.000000,-6000.000000,Speed,Speed,-0.100000,1.090000,1.520000,1.000000,101.000000,1,0,-0.000000,0.000000,1,0.000000,0.000000,0.000000,85.208603,81.127319,0.000000,-0.003000,0.000000,0.001000,FlatInitial,ResetBack,0
07:38:37.559 PM 02/17/2016,Autonomous Disabled,0,FALSE,0,NO ERROR,0.000000,0.000000,-6000.000000,-6000.000000,Speed,Speed,-0.100000,1.100000,1.520000,1.000000,106.000000,1,0,-0.000000,0.000000,1,0.000000,0.000000,0.000000,85.208603,81.127319,0.000000,0.000000,0.000000,0.004000,FlatInitial,ResetBack,0
07:38:37.660 PM 02/17/2016,Autonomous Disabled,0,FALSE,0,NO ERROR,0.000000,0.000000,-6000.000000,-6000.000000,Speed,Speed,-0.100000,1.100000,1.520000,1.000000,101.000000,1,0,-0.000000,0.000000,1,0.000000,0.000000,0.000000,85.208603,81.127319,0.000000,0.000000,0.000000,0.001000,FlatInitial,ResetBack,0
07:38:37.760 PM 02/17/2016,Autonomous Disabled,0,FALSE,0,NO ERROR,0.000000,0.000000,-6000.000000,-6000.000000,Speed,Speed,-0.100000,1.090000,1.510000,1.000000,102.000000,1,0,-0.000000,0.000000,1,0.000000,0.000000,0.000000,85.208603,81.127319,0.000000,-0.003000,-0.002000,0.003000,FlatInitial,ResetBack,0
07:38:37.861 PM 02/17/2016,Autonomous Disabled,0,FALSE,0,NO ERROR,0.000000,0.000000,-6000.000000,-6000.000000,Speed,Speed,-0.100000,1.100000,1.520000,1.000000,102.000000,1,0,-0.000000,0.000000,1,0.000000,0.000000,0.000000,85.208603,81.127319,0.000000,-0.001000,-0.001000,0.003000,FlatInitial,ResetBack,0
07:38:37.962 PM 02/17/2016,Autonomous Disabled,0,FALSE,0,NO ERROR,0.000000,0.000000,-6000.000000,-6000.000000,Speed,Speed,-0.100000,1.090000,1.510000,1.000000,104.000000,1,0,-0.000000,0.000000,1,0.000000,0.000000,0.000000,85.208603,81.127319,0.000000,-0.001000,0.000000,0.003000,FlatInitial,ResetBack,0
07:38:38.062 PM 02/17/2016,Autonomous Disabled,0,FALSE,0,NO ERROR,0.000000,0.000000,-6000.000000,-6000.000000,Speed,Speed,-0.100000,1.090000,1.510000,1.000000,103.000000,1,0,-0.000000,0.000000,1,0.000000,0.000000,0.000000,85.208603,81.127319,0.000000,0.001000,0.001000,0.001000,FlatInitial,ResetBack,0
07:38:38.163 PM 02/17/2016,Autonomous Disabled,0,FALSE,0,NO ERROR,0.000000,0.000000,-6000.000000,-6000.000000,Speed,Speed,-0.100000,1.090000,1.520000,1.000000,102.000000,1,0,-0.000000,0.000000,1,0.000000,0.000000,0.000000,85.208603,81.127319,0.000000,0.000000,0.000000,0.001000,FlatInitial,ResetBack,0
07:38:38.268 PM 02/17/2016,Autonomous Disabled,0,FALSE,0,NO ERROR,0.000000,0.000000,-6000.000000,-6000.000000,Speed,Speed,-0.100000,1.080000,1.510000,1.000000,102.000000,1,0,-0.000000,0.000000,1,0.000000,0.000000,0.000000,85.208603,81.127319,0.000000,0.000000,-0.001000,0.004000,FlatInitial,ResetBack,0
07:38:38.369 PM 02/17/2016,Autonomous Disabled,0,FALSE,0,NO ERROR,0.000000,0.000000,-6000.000000,-6000.000000,Speed,Speed,-0.100000,1.080000,1.510000,1.000000,102.000000,1,0,-0.000000,0.000000,1,0.000000,0.000000,0.000000,85.208603,81.127319,0.000000,0.001000,-0.001000,0.002000,FlatInitial,ResetBack,0
07:38:38.471 PM 02/17/2016,Autonomous Disabled,0,FALSE,0,NO ERROR,0.000000,0.000000,-6000.000000,-6000.000000,Speed,Speed,-0.090000,1.090000,1.510000,1.000000,104.000000,1,0,-0.000000,0.000000,1,0.000000,0.000000,0.000000,85.208603,81.127319,0.000000,0.000000,0.001000,0.001000,FlatInitial,ResetBack,0
07:38:38.571 PM 02/17/2016,Autonomous Disabled,0,FALSE,0,NO ERROR,0.000000,0.000000,-6000.000000,-6000.000000,Speed,Speed,-0.090000,1.090000,1.510000,1.000000,102.000000,1,0,-0.000000,0.000000,1,0.000000,0.000000,0.000000,85.208603,81.127319,0.000000,0.001000,0.000000,0.000000,FlatInitial,ResetBack,0
07:38:38.672 PM 02/17/2016,Autonomous Disabled,0,FALSE,0,NO ERROR,0.000000,0.000000,-6000.000000,-6000.000000,Speed,Speed,-0.090000,1.080000,1.510000,1.000000,103.000000,1,0,-0.000000,0.000000,1,0.000000,0.000000,0.000000,85.208603,81.127319,0.000000,0.000000,0.000000,0.000000,FlatInitial,ResetBack,0
07:38:38.774 PM 02/17/2016,Autonomous Disabled,0,FALSE,0,NO ERROR,0.000000,0.000000,-6000.000000,-6000.000000,Speed,Speed,-0.090000,1.090000,1.520000,1.000000,101.000000,1,0,-0.000000,0.000000,1,0.000000,0.000000,0.000000,85.208603,81.127319,0.000000,0.001000,0.000000,0.002000,FlatInitial,ResetBack,0
07:38:38.874 PM 02/17/2016,Autonomous Disabled,0,FALSE,0,NO ERROR,0.000000,0.000000,-6000.000000,-6000.000000,Speed,Speed,-0.090000,1.080000,1.510000,1.000000,103.000000,1,0,-0.000000,0.000000,1,0.000000,0.000000,0.000000,85.208603,81.127319,0.000000,0.000000,0.000000,0.003000,FlatInitial,ResetBack,0
07:38:38.975 PM 02/17/2016,Autonomous Disabled,0,FALSE,0,NO ERROR,0.000000,0.000000,-6000.000000,-6000.000000,Speed,Speed,-0.090000,1.080000,1.510000,1.000000,101.000000,1,0,-0.000000,0.000000,1,0.000000,0.000000,0.000000,85.208603,81.127319,0.000000,-0.001000,0.000000,0.002000,FlatInitial,ResetBack,0
07:38:39.075 PM 02/17/2016,Autonomous Disabled,0,FALSE,0,NO ERROR,0.000000,0.000000,-6000.000000,-6000.000000,Speed,Speed,-0.090000,1.080000,1.510000,1.000000,102.000000,1,0,-0.000000,0.000000,1,0.000000,0.000000,0.000000,85.208603,81.127319,0.000000,0.001000,-0.002000,0.000000,FlatInitial,ResetBack,0
07:38:39.177 PM 02/17/2016,Autonomous Disabled,0,FALSE,0,NO ERROR,0.000000,0.000000,-6000.000000,-6000.000000,Speed,Speed,-0.090000,1.070000,1.510000,1.000000,103.000000,1,0,-0.000000,0.000000,1,0.000000,0.000000,0.000000,85.208603,81.127319,0.000000,0.002000,-0.001000,0.005000,FlatInitial,ResetBack,0
07:38:39.277 PM 02/17/2016,Autonomous Disabled,0,FALSE,0,NO ERROR,0.000000,0.000000,-6000.000000,-6000.000000,Speed,Speed,-0.090000,1.080000,1.510000,1.000000,103.000000,1,0,-0.000000,0.000000,1,0.000000,0.000000,0.000000,85.208603,81.127319,0.000000,0.002000,0.000000,0.002000,FlatInitial,ResetBack,0
07:38:39.378 PM 02/17/2016,Autonomous Disabled,0,FALSE,0,NO ERROR,0.000000,0.000000,-6000.000000,-6000.000000,Speed,Speed,-0.090000,1.080000,1.510000,1.000000,102.000000,1,0,-0.000000,0.000000,1,0.000000,0.000000,0.000000,85.208603,81.127319,0.000000,0.000000,0.001000,0.002000,FlatInitial,ResetBack,0
07:38:39.478 PM 02/17/2016,Autonomous Disabled,0,FALSE,0,NO ERROR,0.000000,0.000000,-6000.000000,-6000.000000,Speed,Speed,-0.090000,1.080000,1.510000,1.000000,102.000000,1,0,-0.000000,0.000000,1,0.000000,0.000000,0.000000,85.208603,81.127319,0.000000,0.000000,0.000000,0.003000,FlatInitial,ResetBack,0
07:38:39.578 PM 02/17/2016,Autonomous Disabled,0,FALSE,0,NO ERROR,0.000000,0.000000,-6000.000000,-6000.000000,Speed,Speed,-0.090000,1.080000,1.510000,1.000000,103.000000,1,0,-0.000000,0.000000,1,0.000000,0.000000,0.000000,85.208603,81.127319,0.000000,-0.001000,0.000000,0.000000,FlatInitial,ResetBack,0
07:38:39.679 PM 02/17/2016,Autonomous Disabled,0,FALSE,0,NO ERROR,0.000000,0.000000,-6000.000000,-6000.000000,Speed,Speed,-0.090000,1.080000,1.510000,1.000000,101.000000,1,0,-0.000000,0.000000,1,0.000000,0.000000,0.000000,85.208603,81.127319,0.000000,0.000000,-0.001000,0.002000,FlatInitial,ResetBack,0
07:38:39.779 PM 02/17/2016,Autonomous Disabled,0,FALSE,0,NO ERROR,0.000000,0.000000,-6000.000000,-6000.000000,Speed,Speed,-0.090000,1.080000,1.510000,1.000000,101.000000,1,0,-0.000000,0.000000,1,0.000000,0.000000,0.000000,85.208603,81.127319,0.000000,-0.001000,0.001000,0.004000,FlatInitial,ResetBack,0
07:38:39.880 PM 02/17/2016,Autonomous Disabled,0,FALSE,0,NO ERROR,0.000000,0.000000,-6000.000000,-6000.000000,Speed,Speed,-0.100000,1.080000,1.510000,1.000000,103.000000,1,0,-0.000000,0.000000,1,0.000000,0.000000,0.000000,85.208603,81.127319,0.000000,0.000000,0.002000,0.003000,FlatInitial,ResetBack,0
07:38:39.981 PM 02/17/2016,Autonomous Disabled,0,FALSE,0,NO ERROR,0.000000,0.000000,-6000.000000,-6000.000000,Speed,Speed,-0.100000,1.080000,1.510000,1.000000,108.000000,1,0,-0.000000,0.000000,1,0.000000,0.000000,0.000000,85.208603,81.127319,0.000000,0.000000,0.002000,-0.004000,FlatInitial,ResetBack,0
07:38:40.081 PM 02/17/2016,Autonomous Disabled,0,FALSE,0,NO ERROR,0.000000,0.000000,-6000.000000,-6000.000000,Speed,Speed,-0.100000,1.080000,1.510000,1.000000,101.000000,1,0,-0.000000,0.000000,1,0.000000,0.000000,0.000000,85.208603,81.127319,0.000000,-0.001000,0.000000,0.003000,FlatInitial,ResetBack,0
07:38:40.182 PM 02/17/2016,Autonomous Disabled,0,FALSE,0,NO ERROR,0.000000,0.000000,-6000.000000,-6000.000000,Speed,Speed,-0.100000,1.080000,1.510000,1.000000,101.000000,1,0,-0.000000,0.000000,1,0.000000,0.000000,0.000000,85.208603,81.127319,0.000000,0.000000,-0.002000,0.004000,FlatInitial,ResetBack,0
07:38:40.283 PM 02/17/2016,Autonomous Disabled,0,FALSE,0,NO ERROR,0.000000,0.000000,-6000.000000,-6000.000000,Speed,Speed,-0.100000,1.080000,1.510000,1.000000,102.000000,1,0,-0.000000,0.000000,1,0.000000,0.000000,0.000000,85.208603,81.127319,0.000000,0.002000,0.000000,0.002000,FlatInitial,ResetBack,0
07:38:40.384 PM 02/17/2016,Disconnected,0,FALSE,0,NO ERROR,0.000000,0.000000,-6000.000000,-6000.000000,Speed,Speed,-0.100000,1.080000,1.510000,1.000000,103.000000,1,0,-0.000000,0.000000,1,0.000000,0.000000,0.000000,85.208603,81.127319,0.000000,0.001000,0.000000,0.001000,FlatInitial,ResetBack,0
07:38:40.485 PM 02/17/2016,Disconnected,0,FALSE,0,NO ERROR,0.000000,0.000000,-6000.000000,-6000.000000,Speed,Speed,-0.100000,1.090000,1.510000,1.000000,101.000000,1,0,-0.000000,0.000000,1,0.000000,0.000000,0.000000,85.208603,81.127319,0.000000,0.000000,0.000000,0.002000,FlatInitial,ResetBack,0
07:38:40.586 PM 02/17/2016,Disconnected,0,FALSE,0,NO ERROR,0.000000,0.000000,-6000.000000,-6000.000000,Speed,Speed,-0.100000,1.080000,1.510000,1.000000,103.000000,1,0,-0.000000,0.000000,1,0.000000,0.000000,0.000000,85.208603,81.127319,0.000000,-0.001000,0.000000,0.000000,FlatInitial,ResetBack,0
07:38:40.686 PM 02/17/2016,Disconnected,0,FALSE,0,NO ERROR,0.000000,0.000000,-6000.000000,-6000.000000,Speed,Speed,-0.100000,1.080000,1.510000,1.000000,103.000000,1,0,-0.000000,0.000000,1,0.000000,0.000000,0.000000,85.208603,81.127319,0.000000,0.000000,-0.002000,0.000000,FlatInitial,ResetBack,0
07:38:40.787 PM 02/17/2016,Disconnected,0,FALSE,0,NO ERROR,0.000000,0.000000,-6000.000000,-6000.000000,Speed,Speed,-0.100000,1.090000,1.520000,1.000000,104.000000,1,0,-0.000000,0.000000,1,0.000000,0.000000,0.000000,85.208603,81.127319,0.000000,0.000000,-0.002000,0.003000,FlatInitial,ResetBack,0
07:38:40.887 PM 02/17/2016,Disconnected,0,FALSE,0,NO ERROR,0.000000,0.000000,-6000.000000,-6000.000000,Speed,Speed,-0.090000,1.090000,1.520000,1.000000,102.000000,1,0,-0.000000,0.000000,1,0.000000,0.000000,0.000000,85.208603,81.127319,0.000000,-0.001000,0.001000,0.004000,FlatInitial,ResetBack,0
07:38:40.987 PM 02/17/2016,Disconnected,0,FALSE,0,NO ERROR,0.000000,0.000000,-6000.000000,-6000.000000,Speed,Speed,-0.090000,1.080000,1.510000,1.000000,102.000000,1,0,-0.000000,0.000000,1,0.000000,0.000000,0.000000,85.208603,81.127319,0.000000,0.000000,-0.002000,0.004000,FlatInitial,ResetBack,0
07:38:41.087 PM 02/17/2016,Disconnected,0,FALSE,0,NO ERROR,0.000000,0.000000,-6000.000000,-6000.000000,Speed,Speed,-0.090000,1.080000,1.510000,1.000000,101.000000,1,0,-0.000000,0.000000,1,0.000000,0.000000,0.000000,85.208603,81.127319,0.000000,0.000000,0.003000,0.000000,FlatInitial,ResetBack,0
07:38:41.187 PM 02/17/2016,Disconnected,0,FALSE,0,NO ERROR,0.000000,0.000000,-6000.000000,-6000.000000,Speed,Speed,-0.090000,1.080000,1.510000,1.000000,102.000000,1,0,-0.000000,0.000000,1,0.000000,0.000000,0.000000,85.208603,81.127319,0.000000,0.001000,0.001000,0.006000,FlatInitial,ResetBack,0
07:38:41.287 PM 02/17/2016,Disconnected,0,FALSE,0,NO ERROR,0.000000,0.000000,-6000.000000,-6000.000000,Speed,Speed,-0.090000,1.090000,1.520000,1.000000,103.000000,1,0,-0.000000,0.000000,1,0.000000,0.000000,0.000000,85.208603,81.127319,0.000000,0.000000,0.000000,0.006000,FlatInitial,ResetBack,0
07:38:41.387 PM 02/17/2016,Disconnected,0,FALSE,0,NO ERROR,0.000000,0.000000,-6000.000000,-6000.000000,Speed,Speed,-0.090000,1.080000,1.510000,1.000000,101.000000,1,0,-0.000000,0.000000,1,0.000000,0.000000,0.000000,85.208603,81.127319,0.000000,-0.002000,0.000000,-0.003000,FlatInitial,ResetBack,0
07:38:41.487 PM 02/17/2016,Disconnected,0,FALSE,0,NO ERROR,0.000000,0.000000,-6000.000000,-6000.000000,Speed,Speed,-0.090000,1.080000,1.510000,1.000000,107.000000,1,0,-0.000000,0.000000,1,0.000000,0.000000,0.000000,85.208603,81.127319,0.000000,0.000000,0.000000,0.007000,FlatInitial,ResetBack,0
07:38:41.587 PM 02/17/2016,Disconnected,0,FALSE,0,NO ERROR,0.000000,0.000000,-6000.000000,-6000.000000,Speed,Speed,-0.090000,1.080000,1.500000,1.000000,102.000000,1,0,-0.000000,0.000000,1,0.000000,0.000000,0.000000,85.208603,81.127319,0.000000,0.000000,0.000000,0.003000,FlatInitial,ResetBack,0
07:38:41.687 PM 02/17/2016,Disconnected,0,FALSE,0,NO ERROR,0.000000,0.000000,-6000.000000,-6000.000000,Speed,Speed,-0.090000,1.080000,1.500000,1.000000,106.000000,1,0,-0.000000,0.000000,1,0.000000,0.000000,0.000000,85.208603,81.127319,0.000000,0.000000,0.000000,0.003000,FlatInitial,ResetBack,0
07:38:41.787 PM 02/17/2016,Disconnected,0,FALSE,0,NO ERROR,0.000000,0.000000,-6000.000000,-6000.000000,Speed,Speed,-0.090000,1.080000,1.500000,1.000000,101.000000,1,0,-0.000000,0.000000,1,0.000000,0.000000,0.000000,85.208603,81.127319,0.000000,0.000000,-0.002000,0.002000,FlatInitial,ResetBack,0
07:38:41.887 PM 02/17/2016,Disconnected,0,FALSE,0,NO ERROR,0.000000,0.000000,-6000.000000,-6000.000000,Speed,Speed,-0.090000,1.080000,1.500000,1.000000,102.000000,1,0,-0.000000,0.000000,1,0.000000,0.000000,0.000000,85.208603,81.127319,0.000000,0.000000,0.001000,0.001000,FlatInitial,ResetBack,0
07:38:41.987 PM 02/17/2016,Disconnected,0,FALSE,0,NO ERROR,0.000000,0.000000,-6000.000000,-6000.000000,Speed,Speed,-0.090000,1.090000,1.500000,1.000000,101.000000,1,0,-0.000000,0.000000,1,0.000000,0.000000,0.000000,85.208603,81.127319,0.000000,-0.001000,0.000000,0.001000,FlatInitial,ResetBack,0
07:38:42.089 PM 02/17/2016,Disconnected,0,FALSE,0,NO ERROR,0.000000,0.000000,-6000.000000,-6000.000000,Speed,Speed,-0.100000,1.080000,1.500000,1.000000,101.000000,1,0,-0.000000,0.000000,1,0.000000,0.000000,0.000000,85.208603,81.127319,0.000000,0.000000,-0.003000,0.005000,FlatInitial,ResetBack,0
07:38:42.190 PM 02/17/2016,Disconnected,0,FALSE,0,NO ERROR,0.000000,0.000000,-6000.000000,-6000.000000,Speed,Speed,-0.100000,1.090000,1.500000,1.000000,101.000000,1,0,-0.000000,0.000000,1,0.000000,0.000000,0.000000,85.208603,81.127319,0.000000,0.000000,0.000000,0.003000,FlatInitial,ResetBack,0
07:38:42.291 PM 02/17/2016,Disconnected,0,FALSE,0,NO ERROR,0.000000,0.000000,-6000.000000,-6000.000000,Speed,Speed,-0.100000,1.080000,1.500000,1.000000,105.000000,1,0,-0.000000,0.000000,1,0.000000,0.000000,0.000000,85.208603,81.127319,0.000000,0.001000,-0.002000,0.000000,FlatInitial,ResetBack,0
07:38:42.391 PM 02/17/2016,Disconnected,0,FALSE,0,NO ERROR,0.000000,0.000000,-6000.000000,-6000.000000,Speed,Speed,-0.100000,1.080000,1.500000,1.000000,101.000000,1,0,-0.000000,0.000000,1,0.000000,0.000000,0.000000,85.208603,81.127319,0.000000,0.000000,0.000000,0.001000,FlatInitial,ResetBack,0
07:38:42.491 PM 02/17/2016,Disconnected,0,FALSE,0,NO ERROR,0.000000,0.000000,-6000.000000,-6000.000000,Speed,Speed,-0.090000,1.080000,1.500000,1.000000,102.000000,1,0,-0.000000,0.000000,1,0.000000,0.000000,0.000000,85.208603,81.127319,0.000000,0.000000,0.002000,0.005000,FlatInitial,ResetBack,0
07:38:42.592 PM 02/17/2016,Disconnected,0,FALSE,0,NO ERROR,0.000000,0.000000,-6000.000000,-6000.000000,Speed,Speed,-0.090000,1.080000,1.500000,1.000000,101.000000,1,0,-0.000000,0.000000,1,0.000000,0.000000,0.000000,85.208603,81.127319,0.000000,0.000000,-0.001000,0.000000,FlatInitial,ResetBack,0
07:38:42.693 PM 02/17/2016,Disconnected,0,FALSE,0,NO ERROR,0.000000,0.000000,-6000.000000,-6000.000000,Speed,Speed,-0.100000,1.080000,1.500000,1.000000,101.000000,1,0,-0.000000,0.000000,1,0.000000,0.000000,0.000000,85.208603,81.127319,0.000000,0.001000,0.003000,-0.004000,FlatInitial,ResetBack,0
07:38:42.794 PM 02/17/2016,Disconnected,0,FALSE,0,NO ERROR,0.000000,0.000000,-6000.000000,-6000.000000,Speed,Speed,-0.100000,1.080000,1.500000,1.000000,107.000000,1,0,-0.000000,0.000000,1,0.000000,0.000000,0.000000,85.208603,81.127319,0.000000,0.001000,-0.002000,0.000000,FlatInitial,ResetBack,0
07:38:42.894 PM 02/17/2016,Disconnected,0,FALSE,0,NO ERROR,0.000000,0.000000,-6000.000000,-6000.000000,Speed,Speed,-0.100000,1.070000,1.510000,1.000000,101.000000,1,0,-0.000000,0.000000,1,0.000000,0.000000,0.000000,85.208603,81.127319,0.000000,0.001000,-0.002000,0.000000,FlatInitial,ResetBack,0
07:38:42.994 PM 02/17/2016,Disconnected,0,FALSE,0,NO ERROR,0.000000,0.000000,-6000.000000,-6000.000000,Speed,Speed,-0.100000,1.070000,1.510000,1.000000,102.000000,1,0,-0.000000,0.000000,1,0.000000,0.000000,0.000000,85.208603,81.127319,0.000000,-0.001000,0.000000,0.003000,FlatInitial,ResetBack,0
07:38:43.095 PM 02/17/2016,Disconnected,0,FALSE,0,NO ERROR,0.000000,0.000000,-6000.000000,-6000.000000,Speed,Speed,-0.100000,1.070000,1.510000,1.000000,103.000000,1,0,-0.000000,0.000000,1,0.000000,0.000000,0.000000,85.208603,81.127319,0.000000,0.000000,0.001000,0.003000,FlatInitial,ResetBack,0
07:38:43.196 PM 02/17/2016,Disconnected,0,FALSE,0,NO ERROR,0.000000,0.000000,-6000.000000,-6000.000000,Speed,Speed,-0.100000,1.070000,1.520000,1.000000,102.000000,1,0,-0.000000,0.000000,1,0.000000,0.000000,0.000000,85.208603,81.127319,0.000000,0.000000,0.002000,0.000000,FlatInitial,ResetBack,0
07:38:43.297 PM 02/17/2016,Disconnected,0,FALSE,0,NO ERROR,0.000000,0.000000,-6000.000000,-6000.000000,Speed,Speed,-0.100000,1.070000,1.520000,1.000000,102.000000,1,0,-0.000000,0.000000,1,0.000000,0.000000,0.000000,85.208603,81.127319,0.000000,-0.001000,-0.001000,-0.002000,FlatInitial,ResetBack,0
07:38:43.398 PM 02/17/2016,Disconnected,0,FALSE,0,NO ERROR,0.000000,0.000000,-6000.000000,-6000.000000,Speed,Speed,-0.090000,1.070000,1.520000,1.000000,102.000000,1,0,-0.000000,0.000000,1,0.000000,0.000000,0.000000,85.208603,81.127319,0.000000,0.000000,0.002000,0.000000,FlatInitial,ResetBack,0
07:38:43.498 PM 02/17/2016,Disconnected,0,FALSE,0,NO ERROR,0.000000,0.000000,-6000.000000,-6000.000000,Speed,Speed,-0.100000,1.080000,1.510000,1.000000,104.000000,1,0,-0.000000,0.000000,1,0.000000,0.000000,0.000000,85.208603,81.127319,0.000000,0.002000,0.000000,0.001000,FlatInitial,ResetBack,0
07:38:43.598 PM 02/17/2016,Disconnected,0,FALSE,0,NO ERROR,0.000000,0.000000,-6000.000000,-6000.000000,Speed,Speed,-0.100000,1.080000,1.520000,1.000000,102.000000,1,0,-0.000000,0.000000,1,0.000000,0.000000,0.000000,85.208603,81.127319,0.000000,0.001000,0.001000,0.004000,FlatInitial,ResetBack,0
07:38:43.704 PM 02/17/2016,Disconnected,0,FALSE,0,NO ERROR,0.000000,0.000000,-6000.000000,-6000.000000,Speed,Speed,-0.100000,1.080000,1.520000,1.000000,101.000000,1,0,-0.000000,0.000000,1,0.000000,0.000000,0.000000,85.208603,81.127319,0.000000,0.000000,0.001000,0.001000,FlatInitial,ResetBack,0
07:38:43.804 PM 02/17/2016,Disconnected,0,FALSE,0,NO ERROR,0.000000,0.000000,-6000.000000,-6000.000000,Speed,Speed,-0.100000,1.080000,1.510000,1.000000,102.000000,1,0,-0.000000,0.000000,1,0.000000,0.000000,0.000000,85.208603,81.127319,0.000000,0.000000,-0.002000,0.000000,FlatInitial,ResetBack,0
07:38:43.904 PM 02/17/2016,Disconnected,0,FALSE,0,NO ERROR,0.000000,0.000000,-6000.000000,-6000.000000,Speed,Speed,-0.100000,1.080000,1.520000,1.000000,101.000000,1,0,-0.000000,0.000000,1,0.000000,0.000000,0.000000,85.208603,81.127319,0.000000,0.000000,0.000000,0.000000,FlatInitial,ResetBack,0
07:38:44.004 PM 02/17/2016,Disconnected,0,FALSE,0,NO ERROR,0.000000,0.000000,-6000.000000,-6000.000000,Speed,Speed,-0.100000,1.080000,1.520000,1.000000,102.000000,1,0,-0.000000,0.000000,1,0.000000,0.000000,0.000000,85.208603,81.127319,0.000000,0.000000,0.000000,0.000000,FlatInitial,ResetBack,0
07:38:44.104 PM 02/17/2016,Disconnected,0,FALSE,0,NO ERROR,0.000000,0.000000,-6000.000000,-6000.000000,Speed,Speed,-0.100000,1.080000,1.520000,1.000000,101.000000,1,0,-0.000000,0.000000,1,0.000000,0.000000,0.000000,85.208603,81.127319,0.000000,0.001000,0.000000,0.007000,FlatInitial,ResetBack,0
07:38:44.204 PM 02/17/2016,Disconnected,0,FALSE,0,NO ERROR,0.000000,0.000000,-6000.000000,-6000.000000,Speed,Speed,-0.100000,1.080000,1.520000,1.000000,102.000000,1,0,-0.000000,0.000000,1,0.000000,0.000000,0.000000,85.208603,81.127319,0.000000,0.000000,0.000000,0.001000,FlatInitial,ResetBack,0
07:38:44.304 PM 02/17/2016,Disconnected,0,FALSE,0,NO ERROR,0.000000,0.000000,-6000.000000,-6000.000000,Speed,Speed,-0.100000,1.090000,1.520000,1.000000,105.000000,1,0,-0.000000,0.000000,1,0.000000,0.000000,0.000000,85.208603,81.127319,0.000000,-0.001000,0.001000,0.004000,FlatInitial,ResetBack,0
07:38:44.405 PM 02/17/2016,Disconnected,0,FALSE,0,NO ERROR,0.000000,0.000000,-6000.000000,-6000.000000,Speed,Speed,-0.100000,1.090000,1.520000,1.000000,102.000000,1,0,-0.000000,0.000000,1,0.000000,0.000000,0.000000,85.208603,81.127319,0.000000,0.001000,0.000000,0.002000,FlatInitial,ResetBack,0
07:38:44.505 PM 02/17/2016,Disconnected,0,FALSE,0,NO ERROR,0.000000,0.000000,-6000.000000,-6000.000000,Speed,Speed,-0.100000,1.090000,1.520000,1.000000,103.000000,1,0,-0.000000,0.000000,1,0.000000,0.000000,0.000000,85.208603,81.127319,0.000000,0.000000,0.001000,0.005000,FlatInitial,ResetBack,0
07:38:44.606 PM 02/17/2016,Disconnected,0,FALSE,0,NO ERROR,0.000000,0.000000,-6000.000000,-6000.000000,Speed,Speed,-0.100000,1.090000,1.520000,1.000000,102.000000,1,0,-0.000000,0.000000,1,0.000000,0.000000,0.000000,85.208603,81.127319,0.000000,0.000000,0.001000,0.005000,FlatInitial,ResetBack,0
07:38:44.706 PM 02/17/2016,Disconnected,0,FALSE,0,NO ERROR,0.000000,0.000000,-6000.000000,-6000.000000,Speed,Speed,-0.100000,1.090000,1.520000,1.000000,102.000000,1,0,-0.000000,0.000000,1,0.000000,0.000000,0.000000,85.208603,81.127319,0.000000,-0.001000,0.001000,0.003000,FlatInitial,ResetBack,0
07:38:44.806 PM 02/17/2016,Disconnected,0,FALSE,0,NO ERROR,0.000000,0.000000,-6000.000000,-6000.000000,Speed,Speed,-0.100000,1.090000,1.520000,1.000000,102.000000,1,0,-0.000000,0.000000,1,0.000000,0.000000,0.000000,85.208603,81.127319,0.000000,0.000000,0.000000,0.005000,FlatInitial,ResetBack,0
07:38:44.907 PM 02/17/2016,Disconnected,0,FALSE,0,NO ERROR,0.000000,0.000000,-6000.000000,-6000.000000,Speed,Speed,-0.100000,1.090000,1.520000,1.000000,101.000000,1,0,-0.000000,0.000000,1,0.000000,0.000000,0.000000,85.208603,81.127319,0.000000,0.000000,0.002000,0.000000,FlatInitial,ResetBack,0
07:38:45.007 PM 02/17/2016,Disconnected,0,FALSE,0,NO ERROR,0.000000,0.000000,-6000.000000,-6000.000000,Speed,Speed,-0.100000,1.090000,1.520000,1.000000,102.000000,1,0,-0.000000,0.000000,1,0.000000,0.000000,0.000000,85.208603,81.127319,0.000000,0.000000,0.000000,0.000000,FlatInitial,ResetBack,0
07:38:45.107 PM 02/17/2016,Disconnected,0,FALSE,0,NO ERROR,0.000000,0.000000,-6000.000000,-6000.000000,Speed,Speed,-0.100000,1.100000,1.520000,1.000000,101.000000,1,0,-0.000000,0.000000,1,0.000000,0.000000,0.000000,85.208603,81.127319,0.000000,0.000000,0.000000,0.000000,FlatInitial,ResetBack,0
07:38:45.207 PM 02/17/2016,Disconnected,0,FALSE,0,NO ERROR,0.000000,0.000000,-6000.000000,-6000.000000,Speed,Speed,-0.100000,1.090000,1.520000,1.000000,101.000000,1,0,-0.000000,0.000000,1,0.000000,0.000000,0.000000,85.208603,81.127319,0.000000,0.000000,-0.001000,0.003000,FlatInitial,ResetBack,0
07:38:45.309 PM 02/17/2016,Disconnected,0,FALSE,0,NO ERROR,0.000000,0.000000,-6000.000000,-6000.000000,Speed,Speed,-0.110000,1.090000,1.520000,1.000000,102.000000,1,0,-0.000000,0.000000,1,0.000000,0.000000,0.000000,85.208603,81.127319,0.000000,0.001000,0.000000,0.003000,FlatInitial,ResetBack,0
07:38:45.409 PM 02/17/2016,Disconnected,0,FALSE,0,NO ERROR,0.000000,0.000000,-6000.000000,-6000.000000,Speed,Speed,-0.110000,1.090000,1.520000,1.000000,101.000000,1,0,-0.000000,0.000000,1,0.000000,0.000000,0.000000,85.208603,81.127319,0.000000,0.001000,0.001000,-0.001000,FlatInitial,ResetBack,0
07:38:45.512 PM 02/17/2016,Disconnected,0,FALSE,0,NO ERROR,0.000000,0.000000,-6000.000000,-6000.000000,Speed,Speed,-0.110000,1.090000,1.520000,1.000000,103.000000,1,0,-0.000000,0.000000,1,0.000000,0.000000,0.000000,85.208603,81.127319,0.000000,0.001000,0.000000,0.004000,FlatInitial,ResetBack,0
07:38:45.613 PM 02/17/2016,Disconnected,0,FALSE,0,NO ERROR,0.000000,0.000000,-6000.000000,-6000.000000,Speed,Speed,-0.120000,1.090000,1.520000,1.000000,101.000000,1,0,-0.000000,0.000000,1,0.000000,0.000000,0.000000,85.208603,81.127319,0.000000,0.000000,0.000000,0.003000,FlatInitial,ResetBack,0
07:38:45.714 PM 02/17/2016,Disconnected,0,FALSE,0,NO ERROR,0.000000,0.000000,-6000.000000,-6000.000000,Speed,Speed,-0.120000,1.080000,1.520000,1.000000,102.000000,1,0,-0.000000,0.000000,1,0.000000,0.000000,0.000000,85.208603,81.127319,0.000000,0.002000,-0.001000,0.001000,FlatInitial,ResetBack,0
07:38:45.814 PM 02/17/2016,Disconnected,0,FALSE,0,NO ERROR,0.000000,0.000000,-6000.000000,-6000.000000,Speed,Speed,-0.120000,1.090000,1.530000,1.000000,101.000000,1,0,-0.000000,0.000000,1,0.000000,0.000000,0.000000,85.208603,81.127319,0.000000,0.001000,0.000000,0.000000,FlatInitial,ResetBack,0
