Time,RobotMode,AutoToRun,ErrorStatus, ErrorCode,ErrorSource,ActualRPM1,ActualRPM2,DesiredRPM1,DesiredRPM2,ControlMode1,ControlMode2,NavXYaw,NavXRoll,NavXPitch,ShooterState,LoopTime,IsLevel,IsAutoTargeting,LeftMotorOutput,RightMotorOutput,IsHaloDrive,NavXVelocityX,NavXVelocityY,NavXVelocityZ,NavXDisplacementX,NavXDisplacementY,NavXDisplacementZ,NavXAccelerationX,NavXAccelerationY,NavXAccelerationZ,AutoDefendState,AngeMotorState,Photoeye
06:33:45.980 PM 02/17/2016,Teleop Enabled,0,TRUE,91,Variant To Data in WPI_DigitalInputRefNum Registry Get.vi->Periodic Tasks.vi->Robot Main.vi,0.000000,0.000000,-6000.000000,-6000.000000,Speed,Speed,175.220000,0.890000,2.510000,1.000000,102.000000,1,0,-0.000000,0.000000,1,0.000000,0.000000,0.000000,-0.250763,0.329742,0.000000,-0.001000,-0.005000,0.014000,FlatInitial,ResetForward,1
06:33:46.081 PM 02/17/2016,Teleop Enabled,0,TRUE,-44007,<LOCATION>WPI_DigitalInputRefNum Registry Get.vi<CALLSTACK>WPI_DigitalInputRefNum Registry Get.vi< <Periodic Tasks.vi< <Robot Main.vi,-216.943359,251.953125,-6000.000000,-6000.000000,Speed,Speed,175.210000,0.900000,2.510000,1.000000,103.000000,1,0,-0.000000,0.000000,1,0.000763,-0.003281,0.000000,-0.250656,0.329712,0.000000,0.026000,-0.029000,0.005000,FlatInitial,ResetForward,1
06:33:46.182 PM 02/17/2016,Teleop Enabled,0,TRUE,-44003,<LOCATION>WPI_CameraIssue HTTP Request with Authentication.vi<CALLSTACK>WPI_CameraIssue HTTP Request with Authentication.vi< <WPI_CameraIssue Get.vi< <WPI_CameraSet Image Appearance Property.vi< <WPI_CameraSet Image Size.vi< <Vision Processing.vi< <Robot Main.vi,-1968.603516,2070.996094,-6000.000000,-6000.000000,Speed,Speed,175.290000,0.870000,2.510000,1.000000,102.000000,1,0,-0.000000,0.000000,1,0.005966,0.000000,0.000000,-0.250214,0.329315,0.000000,0.004000,0.004000,-0.076000,FlatInitial,ResetForward,1
06:33:46.283 PM 02/17/2016,Teleop Enabled,0,FALSE,0,NO ERROR,-3492.919922,3892.382812,-6000.000000,-6000.000000,Speed,Speed,175.270000,0.900000,2.510000,1.000000,101.000000,1,0,-0.000000,0.000000,1,-0.003220,0.005219,0.000000,-0.250259,0.329453,0.000000,-0.042000,0.017000,-0.007000,FlatInitial,ResetForward,1
06:33:46.383 PM 02/17/2016,Teleop Enabled,0,FALSE,0,NO ERROR,-5008.593750,5024.414062,-6000.000000,-6000.000000,Speed,Speed,175.270000,0.930000,2.510000,1.000000,101.000000,1,0,-0.000000,0.000000,1,-0.010056,0.007797,0.000000,-0.251022,0.329361,0.000000,0.117000,0.080000,0.114000,FlatInitial,ResetForward,1
06:33:46.483 PM 02/17/2016,Teleop Enabled,0,FALSE,0,NO ERROR,-5795.507812,5757.421875,-6000.000000,-6000.000000,Speed,Speed,175.290000,0.920000,2.480000,1.000000,101.000000,1,0,-0.000000,0.000000,1,0.051483,0.000000,0.000000,-0.249435,0.330383,0.000000,0.038000,0.014000,0.089000,FlatInitial,ResetForward,1
06:33:46.583 PM 02/17/2016,Teleop Enabled,0,FALSE,0,NO ERROR,-5960.742188,5858.203125,-6000.000000,-6000.000000,Speed,Speed,175.280000,0.970000,2.420000,1.000000,101.000000,1,0,-0.000000,0.000000,1,0.127182,-0.032471,0.000000,-0.244888,0.329575,0.000000,0.113000,-0.081000,0.059000,FlatInitial,ResetForward,1
06:33:46.683 PM 02/17/2016,Teleop Enabled,0,FALSE,0,NO ERROR,-5934.375000,5824.804688,-6000.000000,-6000.000000,Speed,Speed,175.270000,1.000000,2.660000,1.000000,102.000000,1,0,-0.000000,0.000000,1,0.230438,-0.113235,0.000000,-0.235275,0.325562,0.000000,0.071000,-0.084000,0.032000,FlatInitial,ResetForward,1
06:33:46.783 PM 02/17/2016,Teleop Enabled,0,FALSE,0,NO ERROR,-5921.484375,5839.453125,-6000.000000,-6000.000000,Speed,Speed,175.290000,0.960000,2.630000,1.000000,100.000000,1,0,-0.000000,0.000000,1,0.264969,-0.149979,0.000000,-0.222443,0.318680,0.000000,0.006000,-0.023000,-0.039000,FlatInitial,ResetForward,1
06:33:46.883 PM 02/17/2016,Teleop Enabled,0,FALSE,0,NO ERROR,-5934.375000,5884.570312,-6000.000000,-6000.000000,Speed,Speed,175.270000,0.920000,2.520000,1.000000,102.000000,1,0,-0.000000,0.000000,1,0.279266,-0.125443,0.000000,-0.208786,0.311539,0.000000,0.007000,0.062000,-0.067000,FlatInitial,ResetForward,1
06:33:46.983 PM 02/17/2016,Teleop Enabled,0,FALSE,0,NO ERROR,-5954.882812,5946.679688,-6000.000000,-6000.000000,Speed,Speed,175.290000,0.910000,2.370000,1.000000,101.000000,1,0,-0.000000,0.000000,1,0.009659,0.000000,0.000000,-0.205765,0.307495,0.000000,0.001000,0.031000,0.019000,FlatInitial,ResetForward,1
06:33:47.083 PM 02/17/2016,Teleop Enabled,0,FALSE,0,NO ERROR,-5971.875000,5967.773438,-6000.000000,-6000.000000,Speed,Speed,175.270000,0.910000,2.320000,1.000000,101.000000,1,0,-0.000000,0.000000,1,0.027725,0.000000,0.000000,-0.204514,0.307556,0.000000,0.004000,0.012000,0.002000,FlatInitial,ResetForward,1
06:33:47.183 PM 02/17/2016,Teleop Enabled,0,FALSE,0,NO ERROR,-5988.867188,5978.906250,-6000.000000,-6000.000000,Speed,Speed,175.270000,0.930000,2.310000,1.000000,106.000000,1,0,-0.000000,0.000000,1,0.038681,-0.042831,0.000000,-0.202744,0.306519,0.000000,0.011000,-0.093000,0.016000,FlatInitial,ResetForward,1
06:33:47.283 PM 02/17/2016,Teleop Enabled,0,FALSE,0,NO ERROR,-6004.101562,5985.351562,-6000.000000,-6000.000000,Speed,Speed,175.280000,0.960000,2.370000,1.000000,102.000000,1,0,-0.000000,0.000000,1,0.000000,-0.070206,0.000000,-0.201401,0.304138,0.000000,0.025000,-0.018000,0.022000,FlatInitial,ResetForward,1
06:33:47.383 PM 02/17/2016,Teleop Enabled,0,FALSE,0,NO ERROR,-6015.234375,5998.828125,-6000.000000,-6000.000000,Speed,Speed,175.290000,0.970000,2.340000,1.000000,104.000000,1,0,-0.000000,0.000000,1,0.024323,-0.104248,0.000000,-0.200592,0.298630,0.000000,0.036000,-0.044000,0.042000,FlatInitial,ResetForward,1
06:33:47.483 PM 02/17/2016,Teleop Enabled,0,FALSE,0,NO ERROR,-6019.335938,6016.406250,-6000.000000,-6000.000000,Speed,Speed,175.270000,0.970000,2.240000,1.000000,100.000000,1,0,-0.000000,0.000000,1,0.047516,-0.105011,0.000000,-0.198685,0.293274,0.000000,0.002000,0.029000,0.037000,FlatInitial,ResetForward,1
06:33:47.583 PM 02/17/2016,Teleop Enabled,0,FALSE,0,NO ERROR,-6018.750000,6026.367188,-6000.000000,-6000.000000,Speed,Speed,175.270000,0.950000,2.050000,1.000000,103.000000,1,0,-0.000000,0.000000,1,0.064926,-0.041855,0.000000,-0.195831,0.289612,0.000000,0.010000,0.124000,0.035000,FlatInitial,ResetForward,1
06:33:47.683 PM 02/17/2016,Teleop Enabled,0,FALSE,0,NO ERROR,-6020.507812,6021.093750,-6000.000000,-6000.000000,Speed,Speed,175.290000,0.910000,1.870000,1.000000,102.000000,1,0,-0.000000,0.000000,1,0.005814,0.023483,0.000000,-0.195053,0.289490,0.000000,-0.007000,0.070000,0.012000,FlatInitial,ResetForward,1
06:33:47.783 PM 02/17/2016,Teleop Enabled,0,FALSE,0,NO ERROR,-6021.679688,6014.062500,-6000.000000,-6000.000000,Speed,Speed,175.270000,0.890000,1.680000,1.000000,103.000000,1,0,-0.000000,0.000000,1,0.018890,0.094482,0.000000,-0.194290,0.292740,0.000000,0.010000,0.078000,0.014000,FlatInitial,ResetForward,1
06:33:47.883 PM 02/17/2016,Teleop Enabled,0,FALSE,0,NO ERROR,-6017.578125,6011.718750,-6000.000000,-6000.000000,Speed,Speed,175.270000,0.860000,1.540000,1.000000,101.000000,1,0,-0.000000,0.000000,1,0.042343,0.142960,0.000000,-0.192688,0.298874,0.000000,0.010000,0.078000,0.014000,FlatInitial,ResetForward,0
06:33:47.983 PM 02/17/2016,Teleop Enabled,0,FALSE,0,NO ERROR,-6015.820312,6011.718750,-6000.000000,-6000.000000,Speed,Speed,175.290000,0.820000,1.500000,1.000000,102.000000,1,0,-0.000000,0.000000,1,0.068192,0.162506,0.000000,-0.189758,0.306732,0.000000,0.041000,-0.014000,-0.035000,FlatInitial,Reset,0
06:33:48.083 PM 02/17/2016,Teleop Enabled,0,FALSE,0,NO ERROR,-6014.062500,6014.648438,-6000.000000,-6000.000000,Speed,Speed,175.270000,0.810000,1.490000,1.000000,101.000000,1,0,-0.000000,0.000000,1,0.104919,0.155594,0.000000,-0.185303,0.314835,0.000000,0.041000,-0.014000,-0.035000,FlatInitial,Hold,0
06:33:48.183 PM 02/17/2016,Teleop Enabled,0,FALSE,0,NO ERROR,-6009.960938,6014.648438,-6000.000000,-6000.000000,Speed,Speed,175.270000,0.820000,1.610000,1.000000,101.000000,1,0,-0.000000,0.000000,1,0.152161,-0.006302,0.000000,-0.178757,0.319290,0.000000,0.045000,-0.009000,-0.026000,FlatInitial,Hold,0
06:33:48.285 PM 02/17/2016,Teleop Enabled,0,FALSE,0,NO ERROR,-6008.203125,6016.406250,-6000.000000,-6000.000000,Speed,Speed,175.340000,0.810000,1.720000,1.000000,101.000000,1,0,-0.000000,0.000000,1,0.211700,-0.079819,0.000000,-0.169342,0.316925,0.000000,0.065000,-0.073000,-0.014000,FlatInitial,Hold,0
06:33:48.385 PM 02/17/2016,Teleop Enabled,0,FALSE,0,NO ERROR,-6010.546875,6016.406250,-6000.000000,-6000.000000,Speed,Speed,175.280000,0.820000,1.910000,1.000000,101.000000,1,0,-0.000000,0.000000,1,0.282303,-0.164520,0.000000,-0.156708,0.310516,0.000000,0.065000,-0.083000,-0.022000,FlatInitial,Hold,0
06:33:48.485 PM 02/17/2016,Teleop Enabled,0,FALSE,0,NO ERROR,-6004.687500,6016.406250,-6000.000000,-6000.000000,Speed,Speed,175.290000,0.830000,2.040000,1.000000,102.000000,1,0,-0.000000,0.000000,1,0.349457,-0.252579,0.000000,-0.140640,0.299606,0.000000,0.065000,-0.083000,-0.022000,FlatInitial,Hold,0
06:33:48.586 PM 02/17/2016,Teleop Enabled,0,FALSE,0,NO ERROR,-6004.101562,6014.062500,-6000.000000,-6000.000000,Speed,Speed,175.300000,0.850000,2.210000,1.000000,101.000000,1,0,-0.000000,0.000000,1,0.417572,-0.355682,0.000000,-0.121140,0.283905,0.000000,0.061000,-0.128000,-0.036000,FlatInitial,Hold,0
06:33:48.686 PM 02/17/2016,Teleop Enabled,0,FALSE,0,NO ERROR,-6004.101562,6012.304688,-6000.000000,-6000.000000,Speed,Speed,175.290000,0.850000,2.400000,1.000000,101.000000,1,0,-0.000000,0.000000,1,0.417572,-0.355682,0.000000,-0.121140,0.283905,0.000000,0.067000,-0.118000,-0.016000,FlatInitial,Hold,0
06:33:48.786 PM 02/17/2016,Teleop Enabled,0,FALSE,0,NO ERROR,-6002.929688,6007.617188,-6000.000000,-6000.000000,Speed,Speed,175.300000,0.890000,2.540000,1.000000,101.000000,1,0,-0.000000,0.000000,1,0.500153,-0.480728,0.000000,-0.093094,0.258057,0.000000,0.058000,-0.110000,-0.038000,FlatInitial,Hold,0
06:33:48.886 PM 02/17/2016,Teleop Enabled,0,FALSE,0,NO ERROR,-6007.617188,6001.171875,-6000.000000,-6000.000000,Speed,Speed,175.300000,0.890000,2.540000,1.000000,101.000000,1,0,-0.000000,0.000000,1,0.581085,-0.597580,0.000000,-0.065765,0.230438,0.000000,0.077000,-0.134000,-0.004000,FlatInitial,Hold,0
06:33:48.986 PM 02/17/2016,Teleop Enabled,0,FALSE,0,NO ERROR,-6007.617188,5998.828125,-6000.000000,-6000.000000,Speed,Speed,175.290000,0.920000,2.730000,1.000000,101.000000,1,0,-0.000000,0.000000,1,0.658005,-0.698486,0.000000,-0.034424,0.197495,0.000000,0.086000,-0.140000,-0.005000,FlatInitial,Hold,0
06:33:49.087 PM 02/17/2016,Teleop Enabled,0,FALSE,0,NO ERROR,-6007.617188,5994.726562,-6000.000000,-6000.000000,Speed,Speed,175.300000,0.940000,2.910000,1.000000,101.000000,1,0,-0.000000,0.000000,1,0.735245,-0.815536,0.000000,0.000793,0.158981,0.000000,0.088000,-0.089000,-0.012000,FlatInitial,Hold,0
06:33:49.187 PM 02/17/2016,Teleop Enabled,0,FALSE,0,NO ERROR,-6009.375000,5995.312500,-6000.000000,-6000.000000,Speed,Speed,175.280000,0.970000,3.070000,1.000000,101.000000,1,0,-0.000000,0.000000,1,0.821671,-0.924408,0.000000,0.040146,0.114914,0.000000,0.088000,-0.088000,-0.018000,FlatInitial,Hold,0
06:33:49.288 PM 02/17/2016,Teleop Enabled,0,FALSE,0,NO ERROR,-6007.031250,5995.312500,-6000.000000,-6000.000000,Speed,Speed,175.280000,1.000000,3.220000,1.000000,102.000000,1,0,-0.000000,0.000000,1,0.905365,-1.030930,0.000000,0.083771,0.065582,0.000000,0.066000,-0.115000,-0.009000,FlatInitial,Hold,0
06:33:49.388 PM 02/17/2016,Teleop Enabled,0,FALSE,0,NO ERROR,-6004.101562,5998.828125,-6000.000000,-6000.000000,Speed,Speed,175.290000,1.020000,3.370000,1.000000,101.000000,1,0,-0.000000,0.000000,1,0.990387,-1.122986,0.000000,0.131546,0.011276,0.000000,0.074000,-0.098000,0.037000,FlatInitial,Hold,0
06:33:49.489 PM 02/17/2016,Teleop Enabled,0,FALSE,0,NO ERROR,-6004.101562,6005.859375,-6000.000000,-6000.000000,Speed,Speed,175.280000,1.050000,3.510000,1.000000,104.000000,1,0,-0.000000,0.000000,1,1.072632,-1.209381,0.000000,0.183517,-0.047501,0.000000,0.072000,-0.082000,0.025000,FlatInitial,Hold,0
06:33:49.589 PM 02/17/2016,Teleop Enabled,0,FALSE,0,NO ERROR,-6004.101562,6010.546875,-6000.000000,-6000.000000,Speed,Speed,175.280000,1.080000,3.640000,1.000000,101.000000,1,0,-0.000000,0.000000,1,1.163315,-1.303741,0.000000,0.239792,-0.110733,0.000000,0.083000,-0.122000,0.025000,FlatInitial,Hold,0
06:33:49.690 PM 02/17/2016,Teleop Enabled,0,FALSE,0,NO ERROR,-6004.687500,6007.617188,-6000.000000,-6000.000000,Speed,Speed,175.270000,1.100000,3.750000,1.000000,103.000000,1,0,-0.000000,0.000000,1,1.243011,-1.379089,0.000000,0.300369,-0.178360,0.000000,0.097000,-0.057000,0.016000,FlatInitial,Hold,0
06:33:49.790 PM 02/17/2016,Teleop Enabled,0,FALSE,0,NO ERROR,-6007.031250,6005.273438,-6000.000000,-6000.000000,Speed,Speed,175.270000,1.140000,3.850000,1.000000,101.000000,1,0,-0.000000,0.000000,1,1.326447,-1.451797,0.000000,0.365005,-0.249527,0.000000,0.081000,-0.074000,0.027000,FlatInitial,Hold,0
06:33:49.891 PM 02/17/2016,Teleop Enabled,0,FALSE,0,NO ERROR,-6009.960938,6004.687500,-6000.000000,-6000.000000,Speed,Speed,175.270000,1.160000,3.920000,1.000000,102.000000,1,0,-0.000000,0.000000,1,1.408813,-1.503113,0.000000,0.433823,-0.323700,0.000000,0.077000,-0.055000,0.018000,FlatInitial,Hold,0
06:33:49.992 PM 02/17/2016,Teleop Enabled,0,FALSE,0,NO ERROR,-6007.031250,6009.375000,-6000.000000,-6000.000000,Speed,Speed,175.270000,1.170000,3.950000,1.000000,101.000000,1,0,-0.000000,0.000000,1,1.492874,-1.560455,0.000000,0.506775,-0.400543,0.000000,0.066000,-0.041000,0.046000,FlatInitial,Hold,0
06:33:50.093 PM 02/17/2016,Teleop Enabled,0,FALSE,0,NO ERROR,-6002.929688,6017.578125,-6000.000000,-6000.000000,Speed,Speed,175.270000,1.170000,3.920000,1.000000,102.000000,1,0,-0.000000,0.000000,1,1.563705,-1.586639,0.000000,0.583527,-0.479401,0.000000,0.079000,-0.002000,0.036000,FlatInitial,Hold,0
06:33:50.193 PM 02/17/2016,Teleop Enabled,0,FALSE,0,NO ERROR,-6003.515625,6018.164062,-6000.000000,-6000.000000,Speed,Speed,175.270000,1.180000,3.880000,1.000000,103.000000,1,0,-0.000000,0.000000,1,1.642181,-1.606186,0.000000,0.664017,-0.559296,0.000000,0.064000,-0.025000,0.000000,FlatInitial,Hold,0
06:33:50.293 PM 02/17/2016,Teleop Enabled,0,FALSE,0,NO ERROR,-6004.687500,6014.648438,-6000.000000,-6000.000000,Speed,Speed,175.280000,1.170000,3.830000,1.000000,102.000000,1,0,-0.000000,0.000000,1,1.709885,0.000000,0.000000,0.748108,-0.607605,0.000000,0.091000,-0.002000,0.028000,FlatInitial,Hold,0
06:33:50.393 PM 02/17/2016,Teleop Enabled,0,FALSE,0,NO ERROR,-6005.273438,6007.617188,-6000.000000,-6000.000000,Speed,Speed,175.280000,1.150000,3.780000,1.000000,102.000000,1,0,-0.000000,0.000000,1,1.789337,-0.006302,0.000000,0.835953,-0.607788,0.000000,0.068000,0.010000,0.015000,FlatInitial,Hold,0
06:33:50.493 PM 02/17/2016,Teleop Enabled,0,FALSE,0,NO ERROR,-6007.031250,6007.617188,-6000.000000,-6000.000000,Speed,Speed,175.280000,1.130000,3.700000,1.000000,103.000000,1,0,-0.000000,0.000000,1,1.860641,0.000000,0.000000,0.927551,-0.607819,0.000000,0.043000,0.034000,0.024000,FlatInitial,Hold,0
06:33:50.594 PM 02/17/2016,Teleop Enabled,0,FALSE,0,NO ERROR,-6007.031250,6004.687500,-6000.000000,-6000.000000,Speed,Speed,175.280000,1.090000,3.630000,1.000000,101.000000,1,0,-0.000000,0.000000,1,1.952103,0.004730,0.000000,1.042374,-0.607483,0.000000,0.090000,-0.004000,0.021000,FlatInitial,Hold,0
06:33:50.695 PM 02/17/2016,Teleop Enabled,0,FALSE,0,NO ERROR,-6007.031250,6006.445312,-6000.000000,-6000.000000,Speed,Speed,175.280000,1.080000,3.510000,1.000000,103.000000,1,0,-0.000000,0.000000,1,2.028946,0.016632,0.000000,1.142258,-0.606964,0.000000,0.074000,0.005000,0.041000,FlatInitial,Hold,0
06:33:50.795 PM 02/17/2016,Teleop Enabled,0,FALSE,0,NO ERROR,-6007.031250,6009.375000,-6000.000000,-6000.000000,Speed,Speed,175.280000,1.040000,3.370000,1.000000,101.000000,1,0,-0.000000,0.000000,1,2.095703,0.047409,0.000000,1.245789,-0.605164,0.000000,0.046000,0.024000,0.040000,FlatInitial,Hold,0
06:33:50.896 PM 02/17/2016,Teleop Enabled,0,FALSE,0,NO ERROR,-6005.859375,6009.960938,-6000.000000,-6000.000000,Speed,Speed,175.270000,1.010000,3.220000,1.000000,100.000000,1,0,-0.000000,0.000000,1,2.174362,0.069550,0.000000,1.352966,-0.602234,0.000000,0.059000,0.034000,0.031000,FlatInitial,Hold,0
06:33:50.995 PM 02/17/2016,Teleop Enabled,0,FALSE,0,NO ERROR,-6005.859375,6007.617188,-6000.000000,-6000.000000,Speed,Speed,175.270000,0.990000,3.050000,1.000000,102.000000,1,0,-0.000000,0.000000,1,2.244690,0.099640,0.000000,1.463791,-0.597916,0.000000,0.067000,0.049000,0.075000,FlatInitial,Hold,0
06:33:51.095 PM 02/17/2016,Teleop Enabled,0,FALSE,0,NO ERROR,-6003.515625,6007.617188,-6000.000000,-6000.000000,Speed,Speed,175.280000,0.950000,2.890000,1.000000,100.000000,1,0,-0.000000,0.000000,1,2.331802,0.122269,0.000000,1.578552,-0.592346,0.000000,0.088000,0.012000,0.028000,FlatInitial,Hold,0
06:33:51.196 PM 02/17/2016,Teleop Enabled,0,FALSE,0,NO ERROR,-5998.242188,6006.445312,-6000.000000,-6000.000000,Speed,Speed,175.270000,0.910000,2.730000,1.000000,100.000000,1,0,-0.000000,0.000000,1,2.415848,0.141739,0.000000,1.697632,-0.585617,0.000000,0.114000,-0.014000,0.033000,FlatInitial,Hold,0
06:33:51.296 PM 02/17/2016,Teleop Enabled,0,FALSE,0,NO ERROR,-5995.312500,6005.859375,-6000.000000,-6000.000000,Speed,Speed,175.270000,0.890000,2.640000,1.000000,100.000000,1,0,-0.000000,0.000000,1,2.512405,0.000000,0.000000,1.821335,-0.582748,0.000000,0.096000,-0.007000,0.062000,FlatInitial,Hold,0
06:33:51.397 PM 02/17/2016,Teleop Enabled,0,FALSE,0,NO ERROR,-5993.554688,6004.687500,-6000.000000,-6000.000000,Speed,Speed,175.270000,0.880000,2.540000,1.000000,100.000000,1,0,-0.000000,0.000000,1,2.619324,-0.004288,0.000000,1.950134,-0.582764,0.000000,0.109000,-0.029000,0.054000,FlatInitial,Hold,0
06:33:51.497 PM 02/17/2016,Teleop Enabled,0,FALSE,0,NO ERROR,-5992.968750,6000.000000,-6000.000000,-6000.000000,Speed,Speed,175.270000,0.860000,2.560000,1.000000,100.000000,1,0,-0.000000,0.000000,1,2.711563,-0.004364,0.000000,2.084015,-0.582916,0.000000,0.088000,-0.035000,0.053000,FlatInitial,Hold,0
06:33:51.598 PM 02/17/2016,Teleop Enabled,0,FALSE,0,NO ERROR,-5994.726562,6000.000000,-6000.000000,-6000.000000,Speed,Speed,175.270000,0.860000,2.600000,1.000000,100.000000,1,0,-0.000000,0.000000,1,2.812515,-0.034363,0.000000,2.222641,-0.584198,0.000000,0.107000,-0.024000,0.043000,FlatInitial,Hold,0
06:33:51.699 PM 02/17/2016,Teleop Enabled,0,FALSE,0,NO ERROR,-6000.585938,6000.585938,-6000.000000,-6000.000000,Speed,Speed,175.270000,0.860000,2.610000,1.000000,102.000000,1,0,-0.000000,0.000000,1,2.914261,-0.057999,0.000000,2.366318,-0.586670,0.000000,0.106000,-0.036000,0.012000,FlatInitial,Hold,0
06:33:51.799 PM 02/17/2016,Teleop Enabled,0,FALSE,0,NO ERROR,-6004.687500,5995.898438,-6000.000000,-6000.000000,Speed,Speed,175.270000,0.850000,2.630000,1.000000,101.000000,1,0,-0.000000,0.000000,1,3.038345,-0.077026,0.000000,2.545486,-0.590958,0.000000,0.110000,-0.005000,0.054000,FlatInitial,Hold,0
06:33:51.899 PM 02/17/2016,Teleop Enabled,0,FALSE,0,NO ERROR,-6010.546875,5993.554688,-6000.000000,-6000.000000,Speed,Speed,175.260000,0.830000,2.570000,1.000000,101.000000,1,0,-0.000000,0.000000,1,3.113708,-0.003860,0.000000,2.668884,-0.591782,0.000000,0.110000,-0.012000,0.033000,FlatInitial,Hold,0
06:33:51.999 PM 02/17/2016,Teleop Enabled,0,FALSE,0,NO ERROR,-6012.890625,5994.726562,-6000.000000,-6000.000000,Speed,Speed,175.260000,0.800000,2.460000,1.000000,102.000000,1,0,-0.000000,0.000000,1,3.222443,0.000000,0.000000,2.859558,-0.591827,0.000000,0.065000,0.000000,0.041000,FlatInitial,Hold,0
06:33:52.100 PM 02/17/2016,Teleop Enabled,0,FALSE,0,NO ERROR,-6008.789062,5997.070312,-6000.000000,-6000.000000,Speed,Speed,175.260000,0.770000,2.300000,1.000000,102.000000,1,0,-0.000000,0.000000,1,3.300018,0.000000,0.000000,2.990341,-0.591827,0.000000,0.091000,0.022000,-0.005000,FlatInitial,Hold,0
06:33:52.201 PM 02/17/2016,Teleop Enabled,0,FALSE,0,NO ERROR,-6004.687500,6001.757812,-6000.000000,-6000.000000,Speed,Speed,175.260000,0.770000,2.210000,1.000000,101.000000,1,0,-0.000000,0.000000,1,3.384689,0.000000,0.000000,3.191467,-0.591629,0.000000,0.074000,0.002000,0.034000,FlatInitial,Hold,0
06:33:52.301 PM 02/17/2016,Teleop Enabled,0,FALSE,0,NO ERROR,-6001.171875,6009.960938,-6000.000000,-6000.000000,Speed,Speed,175.260000,0.750000,2.030000,1.000000,102.000000,1,0,-0.000000,0.000000,1,3.467270,0.019012,0.000000,3.363235,-0.591019,0.000000,0.081000,0.000000,0.041000,FlatInitial,Hold,0
06:33:52.401 PM 02/17/2016,Teleop Enabled,0,FALSE,0,NO ERROR,-5997.656250,6016.406250,-6000.000000,-6000.000000,Speed,Speed,175.260000,0.750000,1.910000,1.000000,103.000000,1,0,-0.000000,0.000000,1,3.546356,0.034317,0.000000,3.538925,-0.589630,0.000000,0.091000,-0.012000,0.045000,FlatInitial,Hold,0
06:33:52.503 PM 02/17/2016,Teleop Enabled,0,FALSE,0,NO ERROR,-5991.796875,6013.476562,-6000.000000,-6000.000000,Speed,Speed,175.250000,0.750000,1.880000,1.000000,101.000000,1,0,-0.000000,0.000000,1,3.646774,-0.002350,0.000000,3.719162,-0.589783,0.000000,0.106000,0.025000,0.041000,FlatInitial,Hold,0
06:33:52.603 PM 02/17/2016,Teleop Enabled,0,FALSE,0,NO ERROR,-5988.867188,6007.031250,-6000.000000,-6000.000000,Speed,Speed,175.250000,0.760000,1.830000,1.000000,103.000000,1,0,-0.000000,0.000000,1,3.754257,-0.010162,0.000000,3.904724,-0.589874,0.000000,0.128000,-0.029000,0.052000,FlatInitial,Hold,0
06:33:52.703 PM 02/17/2016,Teleop Enabled,0,FALSE,0,NO ERROR,-5990.625000,6000.000000,-6000.000000,-6000.000000,Speed,Speed,175.250000,0.780000,1.880000,1.000000,100.000000,1,0,-0.000000,0.000000,1,3.865692,-0.034805,0.000000,4.095703,-0.590988,0.000000,0.100000,-0.046000,0.073000,FlatInitial,Hold,0
06:33:52.803 PM 02/17/2016,Teleop Enabled,0,FALSE,0,NO ERROR,-5992.382812,5997.070312,-6000.000000,-6000.000000,Speed,Speed,175.240000,0.790000,1.920000,1.000000,101.000000,1,0,-0.000000,0.000000,1,3.984726,-0.073502,0.000000,4.292572,-0.593796,0.000000,0.098000,-0.037000,0.061000,FlatInitial,Hold,0
06:33:52.903 PM 02/17/2016,Teleop Enabled,0,FALSE,0,NO ERROR,-5992.382812,5997.656250,-6000.000000,-6000.000000,Speed,Speed,175.240000,0.810000,2.020000,1.000000,102.000000,1,0,-0.000000,0.000000,1,4.091202,-0.118439,0.000000,4.495010,-0.598694,0.000000,0.111000,-0.026000,0.063000,FlatInitial,Hold,0
06:33:53.004 PM 02/17/2016,Teleop Enabled,0,FALSE,0,NO ERROR,-5992.968750,5992.968750,-6000.000000,-6000.000000,Speed,Speed,175.240000,0.830000,2.110000,1.000000,101.000000,1,0,-0.000000,0.000000,1,4.200775,-0.151749,0.000000,4.702896,-0.605667,0.000000,0.118000,-0.056000,0.057000,FlatInitial,Hold,0
06:33:53.105 PM 02/17/2016,Teleop Enabled,0,FALSE,0,NO ERROR,-5994.726562,5993.554688,-6000.000000,-6000.000000,Speed,Speed,175.240000,0.830000,2.230000,1.000000,102.000000,1,0,-0.000000,0.000000,1,4.308685,-0.197693,0.000000,4.916138,-0.614746,0.000000,0.123000,-0.055000,0.047000,FlatInitial,Hold,0
06:33:53.206 PM 02/17/2016,Teleop Enabled,0,FALSE,0,NO ERROR,-5997.656250,5995.312500,-6000.000000,-6000.000000,Speed,Speed,175.240000,0.850000,2.370000,1.000000,101.000000,1,0,-0.000000,0.000000,1,4.419952,-0.245331,0.000000,5.134933,-0.626129,0.000000,0.118000,-0.036000,0.062000,FlatInitial,Hold,0
06:33:53.306 PM 02/17/2016,Teleop Enabled,0,FALSE,0,NO ERROR,-5997.070312,6002.343750,-6000.000000,-6000.000000,Speed,Speed,175.240000,0.860000,2.440000,1.000000,103.000000,1,0,-0.000000,0.000000,1,4.528168,-0.017776,0.000000,5.359085,-0.628967,0.000000,0.106000,-0.021000,0.044000,FlatInitial,Hold,0
06:33:53.406 PM 02/17/2016,Teleop Enabled,0,FALSE,0,NO ERROR,-6002.929688,6008.203125,-6000.000000,-6000.000000,Speed,Speed,175.240000,0.870000,2.570000,1.000000,101.000000,1,0,-0.000000,0.000000,1,4.667114,-0.080246,0.000000,5.635498,-0.632019,0.000000,0.144000,-0.061000,0.032000,FlatInitial,Hold,0
06:33:53.506 PM 02/17/2016,Teleop Enabled,0,FALSE,0,NO ERROR,-6008.203125,6010.546875,-6000.000000,-6000.000000,Speed,Speed,175.230000,0.870000,2.650000,1.000000,102.000000,1,0,-0.000000,0.000000,1,4.792236,-0.126129,0.000000,5.872665,-0.637482,0.000000,0.104000,-0.030000,0.056000,FlatInitial,Hold,0
06:33:53.607 PM 02/17/2016,Teleop Enabled,0,FALSE,0,NO ERROR,-6011.132812,6005.273438,-6000.000000,-6000.000000,Speed,Speed,175.230000,0.880000,2.710000,1.000000,101.000000,1,0,-0.000000,0.000000,1,4.905930,-0.169952,0.000000,6.115692,-0.645111,0.000000,0.124000,-0.005000,0.058000,FlatInitial,Hold,0
06:33:53.707 PM 02/17/2016,Teleop Enabled,0,FALSE,0,NO ERROR,-6007.617188,6006.445312,-6000.000000,-6000.000000,Speed,Speed,175.230000,0.890000,2.730000,1.000000,102.000000,1,0,-0.000000,0.000000,1,5.018372,-0.195663,0.000000,6.364487,-0.654388,0.000000,0.109000,-0.019000,0.060000,FlatInitial,Hold,0
06:33:53.807 PM 02/17/2016,Teleop Enabled,0,FALSE,0,NO ERROR,-6004.101562,6006.445312,-6000.000000,-6000.000000,Speed,Speed,175.230000,0.910000,2.720000,1.000000,100.000000,1,0,-0.000000,0.000000,1,5.127441,-0.214569,0.000000,6.618652,-0.664749,0.000000,0.108000,-0.012000,0.075000,FlatInitial,Hold,0
06:33:53.907 PM 02/17/2016,Teleop Enabled,0,FALSE,0,NO ERROR,-6004.687500,6000.585938,-6000.000000,-6000.000000,Speed,Speed,175.230000,0.910000,2.670000,1.000000,104.000000,1,0,-0.000000,0.000000,1,5.224213,0.000000,0.000000,6.826126,-0.671295,0.000000,0.116000,0.030000,0.039000,FlatInitial,Hold,0
06:33:54.008 PM 02/17/2016,Teleop Enabled,0,FALSE,0,NO ERROR,-6005.859375,5997.070312,-6000.000000,-6000.000000,Speed,Speed,175.230000,0.900000,2.580000,1.000000,102.000000,1,0,-0.000000,0.000000,1,5.370178,-0.002121,0.000000,7.144760,-0.671127,0.000000,0.103000,-0.003000,0.079000,FlatInitial,Hold,0
06:33:54.108 PM 02/17/2016,Teleop Enabled,0,FALSE,0,NO ERROR,-6007.031250,5992.382812,-6000.000000,-6000.000000,Speed,Speed,175.220000,0.900000,2.530000,1.000000,101.000000,1,0,-0.000000,0.000000,1,5.481033,0.000000,0.000000,7.416550,-0.671158,0.000000,0.121000,0.003000,0.025000,FlatInitial,Hold,0
06:33:54.209 PM 02/17/2016,Teleop Enabled,0,FALSE,0,NO ERROR,-6005.859375,5989.453125,-6000.000000,-6000.000000,Speed,Speed,175.220000,0.910000,2.390000,1.000000,101.000000,1,0,-0.000000,0.000000,1,5.595261,0.000000,0.000000,7.694107,-0.671158,0.000000,0.089000,0.007000,0.048000,FlatInitial,Hold,0
06:33:54.310 PM 02/17/2016,Teleop Enabled,0,FALSE,0,NO ERROR,-6002.929688,5993.554688,-6000.000000,-6000.000000,Speed,Speed,175.220000,0.910000,2.320000,1.000000,101.000000,1,0,-0.000000,0.000000,1,5.699875,-0.007507,0.000000,7.976959,-0.671295,0.000000,0.117000,0.031000,0.035000,FlatInitial,Hold,0
06:33:54.410 PM 02/17/2016,Teleop Enabled,0,FALSE,0,NO ERROR,-6002.929688,5997.656250,-6000.000000,-6000.000000,Speed,Speed,175.220000,0.900000,2.220000,1.000000,101.000000,1,0,-0.000000,0.000000,1,5.799637,0.009003,0.000000,8.265137,-0.671127,0.000000,0.093000,0.027000,0.018000,FlatInitial,Hold,0
06:33:54.512 PM 02/17/2016,Teleop Enabled,0,FALSE,0,NO ERROR,-5999.414062,6002.343750,-6000.000000,-6000.000000,Speed,Speed,175.210000,0.920000,2.090000,1.000000,100.000000,1,0,-0.000000,0.000000,1,5.889694,0.000000,0.000000,8.557693,-0.670410,0.000000,0.106000,0.013000,0.054000,FlatInitial,Hold,0
06:33:54.612 PM 02/17/2016,Teleop Enabled,0,FALSE,0,NO ERROR,-5996.484375,6004.687500,-6000.000000,-6000.000000,Speed,Speed,175.210000,0.900000,1.980000,1.000000,102.000000,1,0,-0.000000,0.000000,1,6.005798,0.000000,0.000000,8.855652,-0.670441,0.000000,0.112000,0.008000,0.025000,FlatInitial,Hold,0
06:33:54.712 PM 02/17/2016,Teleop Enabled,0,FALSE,0,NO ERROR,-5998.242188,6009.375000,-6000.000000,-6000.000000,Speed,Speed,175.210000,0.900000,1.890000,1.000000,101.000000,1,0,-0.000000,0.000000,1,6.122635,0.000000,0.000000,9.159561,-0.670578,0.000000,0.085000,0.002000,0.051000,FlatInitial,Hold,0
06:33:54.813 PM 02/17/2016,Teleop Enabled,0,FALSE,0,NO ERROR,-6002.343750,6009.375000,-6000.000000,-6000.000000,Speed,Speed,175.210000,0.920000,1.830000,1.000000,101.000000,1,0,-0.000000,0.000000,1,6.234207,0.000000,0.000000,9.468979,-0.670578,0.000000,0.137000,0.005000,0.046000,FlatInitial,Hold,0
06:33:54.913 PM 02/17/2016,Teleop Enabled,0,FALSE,0,NO ERROR,-6003.515625,6007.617188,-6000.000000,-6000.000000,Speed,Speed,175.220000,0.910000,1.750000,1.000000,101.000000,1,0,-0.000000,0.000000,1,6.356934,0.000000,0.000000,9.784500,-0.670578,0.000000,0.079000,0.002000,0.054000,FlatInitial,Hold,0
06:33:55.015 PM 02/17/2016,Teleop Enabled,0,FALSE,0,NO ERROR,-6002.929688,6007.031250,-6000.000000,-6000.000000,Speed,Speed,175.220000,0.920000,1.700000,1.000000,102.000000,1,0,-0.000000,0.000000,1,6.464249,-0.002747,0.000000,10.105576,-0.670578,0.000000,0.121000,0.004000,0.067000,FlatInitial,Hold,0
06:33:55.115 PM 02/17/2016,Teleop Enabled,0,FALSE,0,NO ERROR,-6001.171875,6003.515625,-6000.000000,-6000.000000,Speed,Speed,175.210000,0.930000,1.650000,1.000000,102.000000,1,0,-0.000000,0.000000,1,6.562851,0.007355,0.000000,10.431915,-0.670517,0.000000,0.071000,0.018000,0.066000,FlatInitial,Hold,0
06:33:55.216 PM 02/17/2016,Teleop Enabled,0,FALSE,0,NO ERROR,-6001.171875,6001.757812,-6000.000000,-6000.000000,Speed,Speed,175.210000,0.940000,1.590000,1.000000,101.000000,1,0,-0.000000,0.000000,1,6.664627,0.000000,0.000000,10.762939,-0.670395,0.000000,0.120000,-0.014000,0.076000,FlatInitial,Hold,0
06:33:55.317 PM 02/17/2016,Teleop Enabled,0,FALSE,0,NO ERROR,-6000.585938,6001.757812,-6000.000000,-6000.000000,Speed,Speed,175.200000,0.940000,1.500000,1.000000,101.000000,1,0,-0.000000,0.000000,1,6.789963,0.005981,0.000000,11.099960,-0.670242,0.000000,0.122000,-0.001000,0.064000,FlatInitial,Hold,0
06:33:55.417 PM 02/17/2016,Teleop Enabled,0,FALSE,0,NO ERROR,-6005.273438,6000.000000,-6000.000000,-6000.000000,Speed,Speed,175.200000,0.930000,1.440000,1.000000,101.000000,1,0,-0.000000,0.000000,1,6.938171,0.000000,0.000000,11.512482,-0.670197,0.000000,0.162000,-0.002000,0.065000,FlatInitial,Hold,0
06:33:55.517 PM 02/17/2016,Teleop Enabled,0,FALSE,0,NO ERROR,-6009.960938,5998.828125,-6000.000000,-6000.000000,Speed,Speed,175.200000,0.930000,1.350000,1.000000,101.000000,1,0,-0.000000,0.000000,1,7.032089,0.000000,0.000000,11.792358,-0.670197,0.000000,0.142000,0.015000,0.042000,FlatInitial,Hold,0
06:33:55.618 PM 02/17/2016,Teleop Enabled,0,FALSE,0,NO ERROR,-6006.445312,5998.242188,-6000.000000,-6000.000000,Speed,Speed,175.200000,0.930000,1.280000,1.000000,102.000000,1,0,-0.000000,0.000000,1,7.171326,0.000000,0.000000,12.219315,-0.670197,0.000000,0.142000,0.001000,0.078000,FlatInitial,Hold,0
06:33:55.719 PM 02/17/2016,Teleop Enabled,0,FALSE,0,NO ERROR,-6004.101562,5998.828125,-6000.000000,-6000.000000,Speed,Speed,175.200000,0.930000,1.240000,1.000000,100.000000,1,0,-0.000000,0.000000,1,7.273239,0.004150,0.000000,12.580933,-0.670151,0.000000,0.102000,0.027000,0.044000,FlatInitial,Hold,0
06:33:55.820 PM 02/17/2016,Teleop Enabled,0,FALSE,0,NO ERROR,-6001.171875,5999.414062,-6000.000000,-6000.000000,Speed,Speed,175.190000,0.950000,1.180000,1.000000,101.000000,1,0,-0.000000,0.000000,1,7.369522,0.000000,0.000000,12.947678,-0.670105,0.000000,0.082000,0.003000,0.045000,FlatInitial,Hold,0
06:33:55.921 PM 02/17/2016,Teleop Enabled,0,FALSE,0,NO ERROR,-6000.585938,5996.484375,-6000.000000,-6000.000000,Speed,Speed,175.190000,0.950000,1.160000,1.000000,101.000000,1,0,-0.000000,0.000000,1,7.467239,-0.001495,0.000000,13.319077,-0.669998,0.000000,0.085000,-0.026000,0.079000,FlatInitial,Hold,0
06:33:56.021 PM 02/17/2016,Teleop Enabled,0,FALSE,0,NO ERROR,-6002.343750,5999.414062,-6000.000000,-6000.000000,Speed,Speed,175.190000,0.950000,1.110000,1.000000,100.000000,1,0,-0.000000,0.000000,1,7.580231,0.000000,0.000000,13.695724,-0.670334,0.000000,0.120000,-0.005000,0.041000,FlatInitial,Hold,0
06:33:56.122 PM 02/17/2016,Teleop Enabled,0,FALSE,0,NO ERROR,-6004.687500,6000.000000,-6000.000000,-6000.000000,Speed,Speed,175.190000,0.950000,1.110000,1.000000,101.000000,1,0,-0.000000,0.000000,1,7.690018,0.000000,0.000000,14.078079,-0.670624,0.000000,0.144000,-0.014000,0.050000,FlatInitial,Hold,0
06:33:56.222 PM 02/17/2016,Teleop Enabled,0,FALSE,0,NO ERROR,-6005.859375,6005.273438,-6000.000000,-6000.000000,Speed,Speed,175.190000,0.950000,1.060000,1.000000,100.000000,1,0,-0.000000,0.000000,1,7.773132,0.000000,0.000000,14.387726,-0.670624,0.000000,0.089000,-0.004000,0.055000,FlatInitial,Hold,0
06:33:56.322 PM 02/17/2016,Teleop Enabled,0,FALSE,0,NO ERROR,-6004.687500,6008.789062,-6000.000000,-6000.000000,Speed,Speed,175.180000,0.960000,1.060000,1.000000,102.000000,1,0,-0.000000,0.000000,1,7.897858,0.004913,0.000000,14.858490,-0.670502,0.000000,0.122000,-0.007000,0.110000,FlatInitial,Hold,0
06:33:56.423 PM 02/17/2016,Teleop Enabled,0,FALSE,0,NO ERROR,-6002.343750,6011.132812,-6000.000000,-6000.000000,Speed,Speed,175.180000,0.940000,1.050000,1.000000,104.000000,1,0,-0.000000,0.000000,1,7.993118,0.016678,0.000000,15.256348,-0.670135,0.000000,0.081000,0.032000,0.045000,FlatInitial,Hold,0
06:33:56.523 PM 02/17/2016,Teleop Enabled,0,FALSE,0,NO ERROR,-5997.656250,6011.132812,-6000.000000,-6000.000000,Speed,Speed,175.180000,0.940000,1.030000,1.000000,101.000000,1,0,-0.000000,0.000000,1,8.086533,0.011200,0.000000,15.658905,-0.669724,0.000000,0.081000,0.015000,0.083000,FlatInitial,Hold,0
06:33:56.623 PM 02/17/2016,Teleop Enabled,0,FALSE,0,NO ERROR,-5995.898438,6008.789062,-6000.000000,-6000.000000,Speed,Speed,175.190000,0.940000,1.000000,1.000000,100.000000,1,0,-0.000000,0.000000,1,8.173416,0.020370,0.000000,16.065826,-0.669159,0.000000,0.084000,0.035000,0.054000,FlatInitial,Hold,0
06:33:56.723 PM 02/17/2016,Teleop Enabled,0,FALSE,0,NO ERROR,-5995.898438,6002.929688,-6000.000000,-6000.000000,Speed,Speed,175.190000,0.940000,0.950000,1.000000,101.000000,1,0,-0.000000,0.000000,1,8.286346,0.037674,0.000000,16.477814,-0.667557,0.000000,0.096000,0.028000,0.063000,FlatInitial,Hold,0
06:33:56.823 PM 02/17/2016,Teleop Enabled,0,FALSE,0,NO ERROR,-5997.656250,6005.273438,-6000.000000,-6000.000000,Speed,Speed,175.190000,0.950000,0.940000,1.000000,102.000000,1,0,-0.000000,0.000000,1,8.387970,0.000000,0.000000,16.895187,-0.666046,0.000000,0.071000,0.031000,0.066000,FlatInitial,Hold,0
06:33:56.923 PM 02/17/2016,Teleop Enabled,0,FALSE,0,NO ERROR,-6001.757812,6003.515625,-6000.000000,-6000.000000,Speed,Speed,175.190000,0.940000,0.900000,1.000000,103.000000,1,0,-0.000000,0.000000,1,8.488327,0.027237,0.000000,17.317627,-0.665314,0.000000,0.104000,0.035000,0.086000,FlatInitial,Hold,0
06:33:57.023 PM 02/17/2016,Teleop Enabled,0,FALSE,0,NO ERROR,-6005.859375,6001.171875,-6000.000000,-6000.000000,Speed,Speed,175.190000,0.940000,0.860000,1.000000,103.000000,1,0,-0.000000,0.000000,1,8.583679,0.059814,0.000000,17.745010,-0.663025,0.000000,0.072000,0.020000,0.077000,FlatInitial,Hold,0
06:33:57.123 PM 02/17/2016,Teleop Enabled,0,FALSE,0,NO ERROR,-6006.445312,5999.414062,-6000.000000,-6000.000000,Speed,Speed,175.190000,0.940000,0.870000,1.000000,100.000000,1,0,-0.000000,0.000000,1,8.685013,0.089111,0.000000,18.263641,-0.658295,0.000000,0.100000,0.004000,0.072000,FlatInitial,Hold,0
06:33:57.223 PM 02/17/2016,Teleop Enabled,0,FALSE,0,NO ERROR,-6004.101562,5996.484375,-6000.000000,-6000.000000,Speed,Speed,175.180000,0.930000,0.870000,1.000000,101.000000,1,0,-0.000000,0.000000,1,8.769394,0.117752,0.000000,18.700500,-0.653046,0.000000,0.088000,0.014000,0.076000,FlatInitial,Hold,0
06:33:57.323 PM 02/17/2016,Teleop Enabled,0,FALSE,0,NO ERROR,-6002.343750,5994.726562,-6000.000000,-6000.000000,Speed,Speed,175.180000,0.920000,0.870000,1.000000,101.000000,1,0,-0.000000,0.000000,1,8.852753,0.142136,0.000000,19.141525,-0.646423,0.000000,0.099000,0.003000,0.052000,FlatInitial,Hold,0
06:33:57.424 PM 02/17/2016,Teleop Enabled,0,FALSE,0,NO ERROR,-6000.585938,5994.726562,-6000.000000,-6000.000000,Speed,Speed,175.180000,0.920000,0.890000,1.000000,101.000000,1,0,-0.000000,0.000000,1,8.954834,0.000000,0.000000,19.587326,-0.640640,0.000000,0.083000,0.000000,0.065000,FlatInitial,Hold,0
06:33:57.527 PM 02/17/2016,Teleop Enabled,0,FALSE,0,NO ERROR,-6001.171875,5994.140625,-6000.000000,-6000.000000,Speed,Speed,175.170000,0.920000,0.930000,1.000000,102.000000,1,0,-0.000000,0.000000,1,9.045334,0.000000,0.000000,20.037720,-0.640640,0.000000,0.066000,-0.014000,0.092000,FlatInitial,Hold,0
06:33:57.628 PM 02/17/2016,Teleop Enabled,0,FALSE,0,NO ERROR,-6003.515625,5992.382812,-6000.000000,-6000.000000,Speed,Speed,175.170000,0.930000,0.950000,1.000000,100.000000,1,0,-0.000000,0.000000,1,9.144165,0.000000,0.000000,20.492889,-0.640640,0.000000,0.106000,-0.005000,0.071000,FlatInitial,Hold,0
06:33:57.729 PM 02/17/2016,Teleop Enabled,0,FALSE,0,NO ERROR,-6001.171875,5988.867188,-6000.000000,-6000.000000,Speed,Speed,175.170000,0.930000,1.050000,1.000000,103.000000,1,0,-0.000000,0.000000,1,9.233643,-0.007889,0.000000,20.952682,-0.640778,0.000000,0.085000,-0.005000,0.054000,FlatInitial,Hold,0
06:33:57.830 PM 02/17/2016,Teleop Enabled,0,FALSE,0,NO ERROR,-5998.828125,5994.140625,-6000.000000,-6000.000000,Speed,Speed,175.170000,0.920000,1.100000,1.000000,101.000000,1,0,-0.000000,0.000000,1,9.323029,0.000000,0.000000,21.417053,-0.640778,0.000000,0.106000,0.003000,0.043000,FlatInitial,Hold,0
06:33:57.930 PM 02/17/2016,Teleop Enabled,0,FALSE,0,NO ERROR,-5998.828125,6000.000000,-6000.000000,-6000.000000,Speed,Speed,175.170000,0.920000,1.120000,1.000000,102.000000,1,0,-0.000000,0.000000,1,9.410355,0.000000,0.000000,21.885941,-0.640778,0.000000,0.085000,0.006000,0.074000,FlatInitial,Hold,0
06:33:58.031 PM 02/17/2016,Teleop Enabled,0,FALSE,0,NO ERROR,-5999.414062,6003.515625,-6000.000000,-6000.000000,Speed,Speed,175.170000,0.920000,1.150000,1.000000,104.000000,1,0,-0.000000,0.000000,1,9.493256,0.000000,0.000000,22.358948,-0.640610,0.000000,0.100000,-0.014000,0.025000,FlatInitial,Hold,0
06:33:58.132 PM 02/17/2016,Teleop Enabled,0,FALSE,0,NO ERROR,-6000.000000,6006.445312,-6000.000000,-6000.000000,Speed,Speed,175.170000,0.920000,1.190000,1.000000,102.000000,1,0,-0.000000,0.000000,1,9.584717,0.000000,0.000000,22.836441,-0.640610,0.000000,0.070000,-0.006000,0.058000,FlatInitial,Hold,0
06:33:58.233 PM 02/17/2016,Teleop Enabled,0,FALSE,0,NO ERROR,-6003.515625,6008.203125,-6000.000000,-6000.000000,Speed,Speed,175.170000,0.920000,1.220000,1.000000,101.000000,1,0,-0.000000,0.000000,1,9.670044,0.000000,0.000000,23.318130,-0.640610,0.000000,0.121000,0.031000,0.061000,FlatInitial,Hold,0
06:33:58.333 PM 02/17/2016,Teleop Enabled,0,FALSE,0,NO ERROR,-6005.273438,6008.203125,-6000.000000,-6000.000000,Speed,Speed,175.160000,0.920000,1.260000,1.000000,101.000000,1,0,-0.000000,0.000000,1,9.763809,0.000000,0.000000,23.804504,-0.640411,0.000000,0.038000,0.037000,0.042000,FlatInitial,Hold,0
06:33:58.433 PM 02/17/2016,Teleop Enabled,0,FALSE,0,NO ERROR,-6004.101562,6002.343750,-6000.000000,-6000.000000,Speed,Speed,175.160000,0.920000,1.320000,1.000000,100.000000,1,0,-0.000000,0.000000,1,9.847656,0.019592,0.000000,24.393158,-0.639709,0.000000,0.078000,0.027000,0.046000,FlatInitial,Hold,0
06:33:58.534 PM 02/17/2016,Teleop Enabled,0,FALSE,0,NO ERROR,-6003.515625,5999.414062,-6000.000000,-6000.000000,Speed,Speed,175.160000,0.910000,1.370000,1.000000,100.000000,1,0,-0.000000,0.000000,1,9.913361,0.000000,0.000000,24.887436,-0.639145,0.000000,0.087000,0.018000,0.056000,FlatInitial,Hold,0
06:33:58.634 PM 02/17/2016,Teleop Enabled,0,FALSE,0,NO ERROR,-6001.171875,6000.585938,-6000.000000,-6000.000000,Speed,Speed,175.160000,0.910000,1.420000,1.000000,102.000000,1,0,-0.000000,0.000000,1,9.985809,0.004745,0.000000,25.385345,-0.639099,0.000000,0.063000,0.042000,0.017000,FlatInitial,Hold,0
06:33:58.734 PM 02/17/2016,Teleop Enabled,0,FALSE,0,NO ERROR,-5995.898438,6004.101562,-6000.000000,-6000.000000,Speed,Speed,175.160000,0.910000,1.480000,1.000000,100.000000,1,0,-0.000000,0.000000,1,10.051849,0.025406,0.000000,25.886566,-0.638229,0.000000,0.088000,0.018000,0.044000,FlatInitial,Hold,0
06:33:58.834 PM 02/17/2016,Teleop Enabled,0,FALSE,0,NO ERROR,-5994.726562,6005.273438,-6000.000000,-6000.000000,Speed,Speed,175.160000,0.900000,1.530000,1.000000,101.000000,1,0,-0.000000,0.000000,1,10.118546,0.044662,0.000000,26.391266,-0.636429,0.000000,0.041000,0.018000,0.036000,FlatInitial,Hold,0
06:33:58.934 PM 02/17/2016,Teleop Enabled,0,FALSE,0,NO ERROR,-5995.312500,6001.757812,-6000.000000,-6000.000000,Speed,Speed,175.160000,0.910000,1.530000,1.000000,101.000000,1,0,-0.000000,0.000000,1,10.193008,0.012329,0.000000,26.899277,-0.636185,0.000000,0.107000,0.033000,0.050000,FlatInitial,Hold,0
06:33:59.034 PM 02/17/2016,Teleop Enabled,0,FALSE,0,NO ERROR,-5996.484375,5998.828125,-6000.000000,-6000.000000,Speed,Speed,175.150000,0.920000,1.520000,1.000000,102.000000,1,0,-0.000000,0.000000,1,10.274536,0.058365,0.000000,27.411438,-0.634109,0.000000,0.050000,0.051000,0.054000,FlatInitial,Hold,0
06:33:59.134 PM 02/17/2016,Teleop Enabled,0,FALSE,0,NO ERROR,-5994.140625,5995.898438,-6000.000000,-6000.000000,Speed,Speed,175.150000,0.910000,1.480000,1.000000,101.000000,1,0,-0.000000,0.000000,1,10.355392,0.089920,0.000000,27.927475,-0.630264,0.000000,0.092000,0.056000,0.071000,FlatInitial,Hold,0
06:33:59.235 PM 02/17/2016,Teleop Enabled,0,FALSE,0,NO ERROR,-5993.554688,6001.171875,-6000.000000,-6000.000000,Speed,Speed,175.150000,0.900000,1.460000,1.000000,101.000000,1,0,-0.000000,0.000000,1,10.444199,0.117950,0.000000,28.447815,-0.624802,0.000000,0.115000,0.022000,0.082000,FlatInitial,Hold,0
06:33:59.336 PM 02/17/2016,Teleop Enabled,0,FALSE,0,NO ERROR,-5991.796875,6009.375000,-6000.000000,-6000.000000,Speed,Speed,175.150000,0.890000,1.390000,1.000000,102.000000,1,0,-0.000000,0.000000,1,10.531219,0.154968,0.000000,28.972672,-0.617783,0.000000,0.085000,0.052000,0.093000,FlatInitial,Hold,0
06:33:59.436 PM 02/17/2016,Teleop Enabled,0,FALSE,0,NO ERROR,-5991.210938,6015.234375,-6000.000000,-6000.000000,Speed,Speed,175.160000,0.890000,1.320000,1.000000,101.000000,1,0,-0.000000,0.000000,1,10.627350,0.190338,0.000000,29.502029,-0.609039,0.000000,0.090000,0.068000,0.144000,FlatInitial,Hold,0
06:33:59.537 PM 02/17/2016,Teleop Enabled,0,FALSE,0,NO ERROR,-5997.656250,6014.062500,-6000.000000,-6000.000000,Speed,Speed,175.160000,0.870000,1.220000,1.000000,102.000000,1,0,-0.000000,0.000000,1,10.724167,0.221756,0.000000,30.036377,-0.598495,0.000000,0.079000,0.015000,0.089000,FlatInitial,Hold,0
06:33:59.638 PM 02/17/2016,Teleop Enabled,0,FALSE,0,NO ERROR,-6008.203125,6009.960938,-6000.000000,-6000.000000,Speed,Speed,175.160000,0.880000,1.170000,1.000000,101.000000,1,0,-0.000000,0.000000,1,10.811890,0.248291,0.000000,30.575317,-0.586594,0.000000,0.097000,0.049000,0.085000,FlatInitial,Hold,0
06:33:59.739 PM 02/17/2016,Teleop Enabled,0,FALSE,0,NO ERROR,-6011.718750,6002.929688,-6000.000000,-6000.000000,Speed,Speed,175.150000,0.880000,1.110000,1.000000,102.000000,1,0,-0.000000,0.000000,1,10.888351,0.297424,0.000000,31.118256,-0.572708,0.000000,0.072000,0.052000,0.051000,FlatInitial,Hold,0
06:33:59.840 PM 02/17/2016,Teleop Enabled,0,FALSE,0,NO ERROR,-6010.546875,6004.687500,-6000.000000,-6000.000000,Speed,Speed,175.150000,0.870000,1.060000,1.000000,101.000000,1,0,-0.000000,0.000000,1,10.962189,0.337631,0.000000,31.664825,-0.556580,0.000000,0.067000,0.046000,0.089000,FlatInitial,Hold,0
06:33:59.940 PM 02/17/2016,Teleop Enabled,0,FALSE,0,NO ERROR,-6005.859375,6003.515625,-6000.000000,-6000.000000,Speed,Speed,175.150000,0.860000,1.070000,1.000000,101.000000,1,0,-0.000000,0.000000,1,11.044281,0.383347,0.000000,32.325348,-0.534775,0.000000,0.062000,0.073000,0.097000,FlatInitial,Hold,0
06:34:00.040 PM 02/17/2016,Teleop Enabled,0,FALSE,0,NO ERROR,-6005.859375,6002.343750,-6000.000000,-6000.000000,Speed,Speed,175.150000,0.850000,1.050000,1.000000,102.000000,1,0,-0.000000,0.000000,1,11.107040,0.430191,0.000000,32.879364,-0.514160,0.000000,0.072000,0.047000,0.072000,FlatInitial,Hold,0
06:34:00.140 PM 02/17/2016,Teleop Enabled,0,FALSE,0,NO ERROR,-6008.203125,5994.726562,-6000.000000,-6000.000000,Speed,Speed,175.140000,0.840000,1.030000,1.000000,102.000000,1,0,-0.000000,0.000000,1,11.154022,0.470352,0.000000,33.324814,-0.495926,0.000000,0.050000,0.034000,0.055000,FlatInitial,Hold,0
06:34:00.241 PM 02/17/2016,Teleop Enabled,0,FALSE,0,NO ERROR,-6011.132812,5987.695312,-6000.000000,-6000.000000,Speed,Speed,175.150000,0.830000,1.110000,1.000000,100.000000,1,0,-0.000000,0.000000,1,11.208618,0.501404,0.000000,33.996231,-0.466614,0.000000,0.043000,0.043000,0.094000,FlatInitial,Hold,0
06:34:00.342 PM 02/17/2016,Teleop Enabled,0,FALSE,0,NO ERROR,-6005.859375,5986.523438,-6000.000000,-6000.000000,Speed,Speed,175.150000,0.840000,1.190000,1.000000,102.000000,1,0,-0.000000,0.000000,1,11.251907,0.530838,0.000000,34.557892,-0.440552,0.000000,0.047000,0.027000,0.069000,FlatInitial,Hold,0
06:34:00.443 PM 02/17/2016,Teleop Enabled,0,FALSE,0,NO ERROR,-6002.343750,5991.796875,-6000.000000,-6000.000000,Speed,Speed,175.150000,0.850000,1.310000,1.000000,101.000000,1,0,-0.000000,0.000000,1,11.287506,0.556534,0.000000,35.121613,-0.413315,0.000000,0.033000,0.030000,0.072000,FlatInitial,Hold,0
06:34:00.544 PM 02/17/2016,Teleop Enabled,0,FALSE,0,NO ERROR,-5997.070312,5998.242188,-6000.000000,-6000.000000,Speed,Speed,175.150000,0.860000,1.410000,1.000000,104.000000,1,0,-0.000000,0.000000,1,11.326263,0.580841,0.000000,35.687164,-0.384811,0.000000,0.030000,0.031000,0.082000,FlatInitial,Hold,0
06:34:00.646 PM 02/17/2016,Teleop Enabled,0,FALSE,0,NO ERROR,-5995.898438,6001.757812,-6000.000000,-6000.000000,Speed,Speed,175.150000,0.860000,1.530000,1.000000,103.000000,1,0,-0.000000,0.000000,1,11.364487,0.609360,0.000000,36.254547,-0.355042,0.000000,0.036000,0.066000,0.049000,FlatInitial,Hold,0
06:34:00.746 PM 02/17/2016,Teleop Enabled,0,FALSE,0,NO ERROR,-5994.726562,6000.585938,-6000.000000,-6000.000000,Speed,Speed,175.150000,0.860000,1.590000,1.000000,101.000000,1,0,-0.000000,0.000000,1,11.403229,0.651398,0.000000,36.823868,-0.323318,0.000000,0.033000,0.061000,0.019000,FlatInitial,Hold,0
06:34:00.846 PM 02/17/2016,Teleop Enabled,0,FALSE,0,NO ERROR,-5998.242188,6001.171875,-6000.000000,-6000.000000,Speed,Speed,175.150000,0.870000,1.620000,1.000000,103.000000,1,0,-0.000000,0.000000,1,11.446991,0.698105,0.000000,37.395248,-0.289261,0.000000,0.047000,0.032000,0.075000,FlatInitial,Hold,0
06:34:00.947 PM 02/17/2016,Teleop Enabled,0,FALSE,0,NO ERROR,-6001.171875,6002.343750,-6000.000000,-6000.000000,Speed,Speed,175.150000,0.880000,1.690000,1.000000,103.000000,1,0,-0.000000,0.000000,1,11.486557,0.730484,0.000000,37.968872,-0.253494,0.000000,0.061000,0.052000,0.070000,FlatInitial,Hold,0
06:34:01.048 PM 02/17/2016,Teleop Enabled,0,FALSE,0,NO ERROR,-6004.687500,6000.585938,-6000.000000,-6000.000000,Speed,Speed,175.150000,0.890000,1.730000,1.000000,101.000000,1,0,-0.000000,0.000000,1,11.530624,0.769501,0.000000,38.544479,-0.215759,0.000000,0.046000,0.046000,0.074000,FlatInitial,Hold,0
06:34:01.149 PM 02/17/2016,Teleop Enabled,0,FALSE,0,NO ERROR,-6005.859375,5997.070312,-6000.000000,-6000.000000,Speed,Speed,175.140000,0.900000,1.840000,1.000000,101.000000,1,0,-0.000000,0.000000,1,11.565842,0.801971,0.000000,39.122177,-0.176285,0.000000,0.024000,0.032000,0.050000,FlatInitial,Hold,0
06:34:01.250 PM 02/17/2016,Teleop Enabled,0,FALSE,0,NO ERROR,-5998.828125,5995.898438,-6000.000000,-6000.000000,Speed,Speed,175.140000,0.900000,1.890000,1.000000,103.000000,1,0,-0.000000,0.000000,1,11.599777,0.830429,0.000000,39.701492,-0.135422,0.000000,0.036000,0.022000,0.102000,FlatInitial,Hold,0
06:34:01.351 PM 02/17/2016,Teleop Enabled,0,FALSE,0,NO ERROR,-5993.554688,6001.171875,-6000.000000,-6000.000000,Speed,Speed,175.140000,0.910000,1.950000,1.000000,102.000000,1,0,-0.000000,0.000000,1,11.641113,0.866928,0.000000,40.282639,-0.092987,0.000000,0.056000,0.074000,0.048000,FlatInitial,Hold,0
06:34:01.452 PM 02/17/2016,Teleop Enabled,0,FALSE,0,NO ERROR,-5993.554688,6002.343750,-6000.000000,-6000.000000,Speed,Speed,175.140000,0.900000,1.940000,1.000000,104.000000,1,0,-0.000000,0.000000,1,11.696503,0.912766,0.000000,40.866287,-0.048248,0.000000,0.060000,0.054000,0.045000,FlatInitial,Hold,0
06:34:01.553 PM 02/17/2016,Teleop Enabled,0,FALSE,0,NO ERROR,-5988.281250,6004.101562,-6000.000000,-6000.000000,Speed,Speed,175.140000,0.910000,1.890000,1.000000,101.000000,1,0,-0.000000,0.000000,1,11.752441,0.962296,0.000000,41.452682,-0.001175,0.000000,0.050000,0.038000,0.076000,FlatInitial,Hold,0
06:34:01.653 PM 02/17/2016,Teleop Enabled,0,FALSE,0,NO ERROR,-5991.210938,6004.101562,-6000.000000,-6000.000000,Speed,Speed,175.140000,0.900000,1.850000,1.000000,102.000000,1,0,-0.000000,0.000000,1,11.804245,1.010574,0.000000,42.041916,0.048340,0.000000,0.055000,0.044000,0.116000,FlatInitial,Hold,0
06:34:01.754 PM 02/17/2016,Teleop Enabled,0,FALSE,0,NO ERROR,-5997.656250,6002.929688,-6000.000000,-6000.000000,Speed,Speed,175.150000,0.890000,1.750000,1.000000,102.000000,1,0,-0.000000,0.000000,1,11.888321,1.080490,0.000000,42.752975,0.111298,0.000000,0.086000,0.047000,0.072000,FlatInitial,Hold,0
06:34:01.855 PM 02/17/2016,Teleop Enabled,0,FALSE,0,NO ERROR,-5997.656250,6000.585938,-6000.000000,-6000.000000,Speed,Speed,175.140000,0.890000,1.700000,1.000000,101.000000,1,0,-0.000000,0.000000,1,11.954239,1.135757,0.000000,43.349457,0.167053,0.000000,0.047000,0.026000,0.058000,FlatInitial,Hold,0
06:34:01.957 PM 02/17/2016,Teleop Enabled,0,FALSE,0,NO ERROR,-5997.656250,5995.312500,-6000.000000,-6000.000000,Speed,Speed,175.150000,0.870000,1.620000,1.000000,102.000000,1,0,-0.000000,0.000000,1,12.027817,1.182831,0.000000,43.949417,0.225128,0.000000,0.071000,0.042000,0.084000,FlatInitial,Hold,0
06:34:02.058 PM 02/17/2016,Teleop Enabled,0,FALSE,0,NO ERROR,-6004.101562,5994.726562,-6000.000000,-6000.000000,Speed,Speed,175.150000,0.850000,1.580000,1.000000,101.000000,1,0,-0.000000,0.000000,1,12.102081,1.229172,0.000000,44.553009,0.285645,0.000000,0.071000,0.042000,0.084000,FlatInitial,Hold,0
06:34:02.159 PM 02/17/2016,Teleop Enabled,0,FALSE,0,NO ERROR,-6004.101562,5997.656250,-6000.000000,-6000.000000,Speed,Speed,175.150000,0.850000,1.550000,1.000000,102.000000,1,0,-0.000000,0.000000,1,12.168365,1.277176,0.000000,45.160080,0.348480,0.000000,0.066000,0.041000,0.092000,FlatInitial,Hold,0
06:34:02.259 PM 02/17/2016,Teleop Enabled,0,FALSE,0,NO ERROR,-6009.375000,6004.687500,-6000.000000,-6000.000000,Speed,Speed,175.150000,0.840000,1.530000,1.000000,102.000000,1,0,-0.000000,0.000000,1,12.236389,1.322388,0.000000,45.770508,0.413803,0.000000,0.058000,0.017000,0.058000,FlatInitial,Hold,0
06:34:02.360 PM 02/17/2016,Teleop Enabled,0,FALSE,0,NO ERROR,-6009.960938,6009.375000,-6000.000000,-6000.000000,Speed,Speed,175.140000,0.830000,1.580000,1.000000,103.000000,1,0,-0.000000,0.000000,1,12.279343,1.366165,0.000000,46.383713,0.481171,0.000000,0.058000,0.017000,0.058000,FlatInitial,Hold,0
06:34:02.461 PM 02/17/2016,Teleop Enabled,0,FALSE,0,NO ERROR,-6007.031250,6009.375000,-6000.000000,-6000.000000,Speed,Speed,175.150000,0.830000,1.610000,1.000000,103.000000,1,0,-0.000000,0.000000,1,12.329910,1.402023,0.000000,46.999222,0.550613,0.000000,0.034000,0.035000,0.073000,FlatInitial,Hold,0
06:34:02.561 PM 02/17/2016,Teleop Enabled,0,FALSE,0,NO ERROR,-6009.960938,6000.000000,-6000.000000,-6000.000000,Speed,Speed,175.150000,0.850000,1.750000,1.000000,101.000000,1,0,-0.000000,0.000000,1,12.357025,1.429535,0.000000,47.616608,0.621582,0.000000,0.034000,0.002000,0.042000,FlatInitial,Hold,0
06:34:02.661 PM 02/17/2016,Teleop Enabled,0,FALSE,0,NO ERROR,-6008.203125,5997.656250,-6000.000000,-6000.000000,Speed,Speed,175.150000,0.850000,1.860000,1.000000,104.000000,1,0,-0.000000,0.000000,1,12.381500,1.465256,0.000000,48.235184,0.694061,0.000000,0.034000,0.002000,0.042000,FlatInitial,Hold,0
06:34:02.761 PM 02/17/2016,Teleop Enabled,0,FALSE,0,NO ERROR,-6005.859375,5998.242188,-6000.000000,-6000.000000,Speed,Speed,175.140000,0.860000,2.000000,1.000000,103.000000,1,0,-0.000000,0.000000,1,12.407822,1.497559,0.000000,48.854980,0.768219,0.000000,0.004000,0.036000,0.106000,FlatInitial,Hold,0
06:34:02.861 PM 02/17/2016,Teleop Enabled,0,FALSE,0,NO ERROR,-6003.515625,6002.929688,-6000.000000,-6000.000000,Speed,Speed,175.140000,0.870000,2.120000,1.000000,101.000000,1,0,-0.000000,0.000000,1,12.441284,1.531586,0.000000,49.476456,0.843903,0.000000,0.034000,0.014000,0.044000,FlatInitial,Hold,0
06:34:02.961 PM 02/17/2016,Teleop Enabled,0,FALSE,0,NO ERROR,-5999.414062,6005.273438,-6000.000000,-6000.000000,Speed,Speed,175.140000,0.870000,2.210000,1.000000,102.000000,1,0,-0.000000,0.000000,1,12.458847,1.581665,0.000000,50.098999,0.922089,0.000000,0.007000,0.061000,0.034000,FlatInitial,Hold,0
06:34:03.062 PM 02/17/2016,Teleop Enabled,0,FALSE,0,NO ERROR,-5994.726562,6001.757812,-6000.000000,-6000.000000,Speed,Speed,175.140000,0.890000,2.300000,1.000000,101.000000,1,0,-0.000000,0.000000,1,12.458847,1.581665,0.000000,50.098999,0.922089,0.000000,0.020000,0.050000,0.072000,FlatInitial,Hold,0
06:34:03.163 PM 02/17/2016,Teleop Enabled,0,FALSE,0,NO ERROR,-5991.796875,5998.242188,-6000.000000,-6000.000000,Speed,Speed,175.140000,0.870000,2.360000,1.000000,103.000000,1,0,-0.000000,0.000000,1,12.473465,1.629532,0.000000,50.722351,1.002609,0.000000,0.042000,0.078000,0.055000,FlatInitial,Hold,0
06:34:03.263 PM 02/17/2016,Teleop Enabled,0,FALSE,0,NO ERROR,-5991.796875,5995.898438,-6000.000000,-6000.000000,Speed,Speed,175.140000,0.870000,2.400000,1.000000,102.000000,1,0,-0.000000,0.000000,1,12.515747,1.666443,0.000000,51.347260,1.085266,0.000000,0.030000,0.064000,0.095000,FlatInitial,Hold,0
06:34:03.363 PM 02/17/2016,Teleop Enabled,0,FALSE,0,NO ERROR,-5993.554688,5995.312500,-6000.000000,-6000.000000,Speed,Speed,175.140000,0.860000,2.380000,1.000000,100.000000,1,0,-0.000000,0.000000,1,12.556549,1.719620,0.000000,52.099640,1.187180,0.000000,0.041000,0.081000,0.088000,FlatInitial,Hold,0
06:34:03.463 PM 02/17/2016,Teleop Enabled,0,FALSE,0,NO ERROR,-6001.171875,6001.757812,-6000.000000,-6000.000000,Speed,Speed,175.140000,0.860000,2.380000,1.000000,104.000000,1,0,-0.000000,0.000000,1,12.597763,1.778183,0.000000,52.728729,1.274918,0.000000,0.047000,0.038000,0.088000,FlatInitial,Hold,0
06:34:03.563 PM 02/17/2016,Teleop Enabled,0,FALSE,0,NO ERROR,-6005.273438,6005.859375,-6000.000000,-6000.000000,Speed,Speed,175.140000,0.840000,2.360000,1.000000,104.000000,1,0,-0.000000,0.000000,1,12.646820,1.839890,0.000000,53.360092,1.365707,0.000000,0.051000,0.048000,0.076000,FlatInitial,Hold,0
06:34:03.663 PM 02/17/2016,Teleop Enabled,0,FALSE,0,NO ERROR,-6008.203125,6009.960938,-6000.000000,-6000.000000,Speed,Speed,175.140000,0.860000,2.360000,1.000000,101.000000,1,0,-0.000000,0.000000,1,12.690582,1.905136,0.000000,53.993805,1.459488,0.000000,0.031000,0.086000,0.068000,FlatInitial,Hold,0
06:34:03.763 PM 02/17/2016,Teleop Enabled,0,FALSE,0,NO ERROR,-6007.617188,6010.546875,-6000.000000,-6000.000000,Speed,Speed,175.140000,0.860000,2.400000,1.000000,101.000000,1,0,-0.000000,0.000000,1,12.720734,1.966797,0.000000,54.629257,1.556763,0.000000,0.037000,0.044000,0.074000,FlatInitial,Hold,0
06:34:03.864 PM 02/17/2016,Teleop Enabled,0,FALSE,0,NO ERROR,-6007.617188,6003.515625,-6000.000000,-6000.000000,Speed,Speed,175.140000,0.850000,2.460000,1.000000,102.000000,1,0,-0.000000,0.000000,1,12.741302,2.027863,0.000000,55.265945,1.656891,0.000000,0.022000,0.083000,0.077000,FlatInitial,Hold,0
06:34:03.963 PM 02/17/2016,Teleop Enabled,0,FALSE,0,NO ERROR,-6007.031250,6001.757812,-6000.000000,-6000.000000,Speed,Speed,175.140000,0.850000,2.570000,1.000000,102.000000,1,0,-0.000000,0.000000,1,12.770874,2.072632,0.000000,55.903992,1.759598,0.000000,0.030000,0.049000,0.050000,FlatInitial,Hold,0
06:34:04.063 PM 02/17/2016,Teleop Enabled,0,FALSE,0,NO ERROR,-6003.515625,6003.515625,-6000.000000,-6000.000000,Speed,Speed,175.140000,0.850000,2.670000,1.000000,102.000000,1,0,-0.000000,0.000000,1,0.002106,2.117279,0.000000,56.159546,1.864563,0.000000,-0.014000,0.089000,0.079000,FlatInitial,Hold,0
06:34:04.164 PM 02/17/2016,Teleop Enabled,0,FALSE,0,NO ERROR,-5999.414062,6004.687500,-6000.000000,-6000.000000,Speed,Speed,175.140000,0.850000,2.730000,1.000000,103.000000,1,0,-0.000000,0.000000,1,0.000000,2.170349,0.000000,56.159561,1.972122,0.000000,0.018000,0.042000,0.036000,FlatInitial,Hold,0
06:34:04.264 PM 02/17/2016,Teleop Enabled,0,FALSE,0,NO ERROR,-5998.242188,6004.101562,-6000.000000,-6000.000000,Speed,Speed,175.140000,0.830000,2.780000,1.000000,101.000000,1,0,-0.000000,0.000000,1,0.014130,2.230606,0.000000,56.159821,2.082642,0.000000,0.031000,0.032000,0.052000,FlatInitial,Hold,0
06:34:04.365 PM 02/17/2016,Teleop Enabled,0,FALSE,0,NO ERROR,-5995.898438,5999.414062,-6000.000000,-6000.000000,Speed,Speed,175.140000,0.830000,2.810000,1.000000,100.000000,1,0,-0.000000,0.000000,1,0.000000,2.290588,0.000000,56.160950,2.195770,0.000000,0.007000,0.072000,0.063000,FlatInitial,Hold,0
06:34:04.465 PM 02/17/2016,Teleop Enabled,0,FALSE,0,NO ERROR,-5995.898438,5992.968750,-6000.000000,-6000.000000,Speed,Speed,175.140000,0.830000,2.850000,1.000000,101.000000,1,0,-0.000000,0.000000,1,0.000000,2.351471,0.000000,56.160950,2.312164,0.000000,0.004000,0.082000,0.072000,FlatInitial,Hold,0
06:34:04.565 PM 02/17/2016,Teleop Enabled,0,FALSE,0,NO ERROR,-5996.484375,5986.523438,-6000.000000,-6000.000000,Speed,Speed,175.140000,0.830000,2.880000,1.000000,102.000000,1,0,-0.000000,0.000000,1,0.007553,2.416458,0.000000,56.161057,2.431671,0.000000,0.014000,0.089000,0.065000,FlatInitial,Hold,0
06:34:04.665 PM 02/17/2016,Teleop Enabled,0,FALSE,0,NO ERROR,-5998.242188,5988.281250,-6000.000000,-6000.000000,Speed,Speed,175.140000,0.830000,2.930000,1.000000,103.000000,1,0,-0.000000,0.000000,1,0.034866,2.461075,0.000000,56.162384,2.553848,0.000000,0.026000,0.052000,0.065000,FlatInitial,Hold,0
06:34:04.766 PM 02/17/2016,Teleop Enabled,0,FALSE,0,NO ERROR,-6003.515625,5992.382812,-6000.000000,-6000.000000,Speed,Speed,175.140000,0.840000,2.970000,1.000000,104.000000,1,0,-0.000000,0.000000,1,0.047943,2.517288,0.000000,56.164520,2.678589,0.000000,0.019000,0.045000,0.056000,FlatInitial,Hold,0
06:34:04.866 PM 02/17/2016,Teleop Enabled,0,FALSE,0,NO ERROR,-6007.617188,5997.070312,-6000.000000,-6000.000000,Speed,Speed,175.140000,0.850000,3.010000,1.000000,103.000000,1,0,-0.000000,0.000000,1,0.007904,2.572250,0.000000,56.165207,2.806168,0.000000,0.009000,0.051000,0.059000,FlatInitial,Hold,0
06:34:04.967 PM 02/17/2016,Teleop Enabled,0,FALSE,0,NO ERROR,-6005.859375,6002.343750,-6000.000000,-6000.000000,Speed,Speed,175.140000,0.850000,3.070000,1.000000,101.000000,1,0,-0.000000,0.000000,1,0.031952,2.631622,0.000000,56.166458,2.962723,0.000000,0.018000,0.021000,0.032000,FlatInitial,Hold,0
06:34:05.067 PM 02/17/2016,Teleop Enabled,0,FALSE,0,NO ERROR,-6003.515625,6005.859375,-6000.000000,-6000.000000,Speed,Speed,175.140000,0.880000,3.130000,1.000000,102.000000,1,0,-0.000000,0.000000,1,0.005432,2.673584,0.000000,56.166611,3.068954,0.000000,-0.032000,0.072000,0.044000,FlatInitial,Hold,0
06:34:05.167 PM 02/17/2016,Teleop Enabled,0,FALSE,0,NO ERROR,-6000.585938,6009.375000,-6000.000000,-6000.000000,Speed,Speed,175.130000,0.910000,3.240000,1.000000,102.000000,1,0,-0.000000,0.000000,1,0.000000,2.728409,0.000000,56.166718,3.204361,0.000000,0.000000,0.066000,0.081000,FlatInitial,Hold,0
06:34:05.268 PM 02/17/2016,Teleop Enabled,0,FALSE,0,NO ERROR,-5995.312500,6009.375000,-6000.000000,-6000.000000,Speed,Speed,175.130000,0.920000,3.300000,1.000000,101.000000,1,0,-0.000000,0.000000,1,0.004364,2.807632,0.000000,56.166748,3.370682,0.000000,0.037000,0.047000,0.073000,FlatInitial,Hold,0
06:34:05.368 PM 02/17/2016,Teleop Enabled,0,FALSE,0,NO ERROR,-5993.554688,6006.445312,-6000.000000,-6000.000000,Speed,Speed,175.130000,0.920000,3.320000,1.000000,101.000000,1,0,-0.000000,0.000000,1,0.000000,2.868240,0.000000,56.167297,3.512894,0.000000,0.000000,0.063000,0.080000,FlatInitial,Hold,0
06:34:05.468 PM 02/17/2016,Teleop Enabled,0,FALSE,0,NO ERROR,-5991.210938,6004.687500,-6000.000000,-6000.000000,Speed,Speed,175.130000,0.910000,3.340000,1.000000,102.000000,1,0,-0.000000,0.000000,1,0.000000,2.933273,0.000000,56.167297,3.658188,0.000000,0.014000,0.065000,0.085000,FlatInitial,Hold,0
06:34:05.568 PM 02/17/2016,Teleop Enabled,0,FALSE,0,NO ERROR,-5990.039062,6005.273438,-6000.000000,-6000.000000,Speed,Speed,175.130000,0.880000,3.290000,1.000000,104.000000,1,0,-0.000000,0.000000,1,0.016678,2.994003,0.000000,56.167664,3.806656,0.000000,0.018000,0.083000,0.091000,FlatInitial,Hold,0
