Time,RobotMode,AutoToRun,ErrorStatus, ErrorCode,ErrorSource,ActualRPM1,ActualRPM2,DesiredRPM1,DesiredRPM2,ControlMode1,ControlMode2,NavXYaw,NavXRoll,NavXPitch,ShooterState,LoopTime,IsLevel,IsAutoTargeting,LeftMotorOutput,RightMotorOutput,IsHaloDrive,NavXVelocityX,NavXVelocityY,NavXVelocityZ,NavXDisplacementX,NavXDisplacementY,NavXDisplacementZ,NavXAccelerationX,NavXAccelerationY,NavXAccelerationZ,AutoDefendState,AngeMotorState,Photoeye
06:56:09.184 PM 02/16/2016,Teleop Enabled,0,TRUE,91,Variant To Data in WPI_DigitalInputRefNum Registry Get.vi->Periodic Tasks.vi->Robot Main.vi,-13.769531,6.738281,-6000.000000,-6000.000000,Speed,Speed,-0.090000,0.700000,1.820000,1.000000,101.000000,1,0,-0.000000,0.000000,1,0.000000,0.000000,0.000000,0.000000,0.000000,0.000000,-0.011000,0.017000,0.029000,FlatInitial,ResetBack,0
06:56:09.285 PM 02/16/2016,Teleop Enabled,0,TRUE,-44007,<LOCATION>WPI_DigitalInputRefNum Registry Get.vi<CALLSTACK>WPI_DigitalInputRefNum Registry Get.vi< <Periodic Tasks.vi< <Robot Main.vi,-985.546875,860.156250,-6000.000000,-6000.000000,Speed,Speed,-0.090000,0.730000,1.850000,1.000000,101.000000,1,0,-0.000000,0.000000,1,0.004456,0.000000,0.000000,0.000076,0.000000,0.000000,0.005000,0.007000,0.005000,FlatInitial,ResetBack,0
06:56:09.385 PM 02/16/2016,Teleop Enabled,0,TRUE,-44003,<LOCATION>WPI_CameraIssue HTTP Request with Authentication.vi<CALLSTACK>WPI_CameraIssue HTTP Request with Authentication.vi< <WPI_CameraIssue Get.vi< <WPI_CameraSet Image Appearance Property.vi< <WPI_CameraSet Image Size.vi< <Vision Processing.vi< <Robot Main.vi,-2389.599609,2286.621094,-6000.000000,-6000.000000,Speed,Speed,-0.090000,0.690000,1.840000,1.000000,102.000000,1,0,-0.000000,0.000000,1,0.018738,-0.014603,0.000000,0.000702,-0.000229,0.000000,0.006000,-0.066000,-0.004000,FlatInitial,ResetBack,0
06:56:09.485 PM 02/16/2016,Teleop Enabled,0,FALSE,0,NO ERROR,-3859.130859,3788.964844,-6000.000000,-6000.000000,Speed,Speed,-0.090000,0.690000,1.830000,1.000000,102.000000,1,0,-0.000000,0.000000,1,0.021515,-0.022614,0.000000,0.001572,-0.001144,0.000000,0.057000,0.009000,-0.182000,FlatInitial,ResetBack,1
06:56:09.585 PM 02/16/2016,Teleop Enabled,0,FALSE,0,NO ERROR,-4972.851562,4942.968750,-6000.000000,-6000.000000,Speed,Speed,-0.090000,0.690000,1.840000,1.000000,103.000000,1,0,-0.000000,0.000000,1,0.010620,-0.026306,0.000000,0.002167,-0.002151,0.000000,0.077000,0.001000,-0.112000,FlatInitial,ResetForward,1
06:56:09.685 PM 02/16/2016,Teleop Enabled,0,FALSE,0,NO ERROR,-5591.601562,5574.023438,-6000.000000,-6000.000000,Speed,Speed,-0.110000,0.730000,1.840000,1.000000,101.000000,1,0,-0.000000,0.000000,1,0.038147,-0.012100,0.000000,0.003662,-0.002640,0.000000,-0.069000,0.007000,0.066000,FlatInitial,ResetForward,1
06:56:09.785 PM 02/16/2016,Teleop Enabled,0,FALSE,0,NO ERROR,-5827.734375,5754.492188,-6000.000000,-6000.000000,Speed,Speed,-0.080000,0.700000,1.790000,1.000000,101.000000,1,0,-0.000000,0.000000,1,-0.026657,-0.044662,0.000000,0.003540,-0.004089,0.000000,-0.041000,0.072000,0.127000,FlatInitial,ResetForward,1
06:56:09.885 PM 02/16/2016,Teleop Enabled,0,FALSE,0,NO ERROR,-5892.187500,5800.781250,-6000.000000,-6000.000000,Speed,Speed,-0.060000,0.710000,1.810000,1.000000,101.000000,1,0,-0.000000,0.000000,1,-0.106430,-0.012405,0.000000,0.000061,-0.005173,0.000000,-0.042000,0.041000,0.053000,FlatInitial,ResetForward,1
06:56:09.986 PM 02/16/2016,Teleop Enabled,0,FALSE,0,NO ERROR,-5929.687500,5838.281250,-6000.000000,-6000.000000,Speed,Speed,-0.080000,0.750000,1.890000,1.000000,102.000000,1,0,-0.000000,0.000000,1,-0.159821,0.016617,0.000000,-0.006927,-0.004913,0.000000,0.000000,0.027000,-0.031000,FlatInitial,ResetForward,1
06:56:10.086 PM 02/16/2016,Teleop Enabled,0,FALSE,0,NO ERROR,-5953.710938,5889.843750,-6000.000000,-6000.000000,Speed,Speed,-0.070000,0.750000,1.940000,1.000000,102.000000,1,0,-0.000000,0.000000,1,-0.201248,0.079285,0.000000,-0.015900,-0.002396,0.000000,-0.069000,0.053000,-0.022000,FlatInitial,ResetForward,0
06:56:10.186 PM 02/16/2016,Teleop Enabled,0,FALSE,0,NO ERROR,-5971.289062,5936.718750,-6000.000000,-6000.000000,Speed,Speed,-0.110000,0.640000,2.020000,1.000000,101.000000,1,0,-0.000000,0.000000,1,-0.275726,0.084045,0.000000,-0.030624,0.003265,0.000000,-0.081000,-0.007000,-0.023000,FlatInitial,Reset,0
06:56:10.286 PM 02/16/2016,Teleop Enabled,0,FALSE,0,NO ERROR,-5989.453125,5975.976562,-6000.000000,-6000.000000,Speed,Speed,-0.080000,0.600000,1.730000,1.000000,101.000000,1,0,-0.000000,0.000000,1,-0.308624,0.069748,0.000000,-0.045639,0.006927,0.000000,-0.026000,0.022000,-0.008000,FlatInitial,Hold,0
06:56:10.388 PM 02/16/2016,Teleop Enabled,0,FALSE,0,NO ERROR,-5996.484375,6003.515625,-6000.000000,-6000.000000,Speed,Speed,-0.100000,0.560000,1.740000,1.000000,101.000000,1,0,-0.000000,0.000000,1,-0.359360,0.072754,0.000000,-0.062622,0.010757,0.000000,-0.039000,-0.052000,-0.009000,FlatInitial,Hold,0
06:56:10.489 PM 02/16/2016,Teleop Enabled,0,FALSE,0,NO ERROR,-6001.757812,6011.132812,-6000.000000,-6000.000000,Speed,Speed,-0.070000,0.520000,1.560000,1.000000,102.000000,1,0,-0.000000,0.000000,1,-0.415115,0.040390,0.000000,-0.082306,0.013351,0.000000,-0.038000,-0.007000,-0.021000,FlatInitial,Hold,0
06:56:10.590 PM 02/16/2016,Teleop Enabled,0,FALSE,0,NO ERROR,-6016.992188,6009.375000,-6000.000000,-6000.000000,Speed,Speed,-0.070000,0.460000,1.570000,1.000000,102.000000,1,0,-0.000000,0.000000,1,-0.448441,0.083267,0.000000,-0.099731,0.015900,0.000000,-0.056000,0.032000,-0.013000,FlatInitial,Hold,0
06:56:10.694 PM 02/16/2016,Teleop Enabled,0,FALSE,0,NO ERROR,-6021.679688,6004.687500,-6000.000000,-6000.000000,Speed,Speed,-0.090000,0.390000,1.610000,1.000000,104.000000,1,0,-0.000000,0.000000,1,-0.533325,0.120773,0.000000,-0.129532,0.022217,0.000000,-0.083000,0.001000,-0.008000,FlatInitial,Hold,0
06:56:10.794 PM 02/16/2016,Teleop Enabled,0,FALSE,0,NO ERROR,-6019.921875,6005.273438,-6000.000000,-6000.000000,Speed,Speed,-0.070000,0.320000,1.630000,1.000000,101.000000,1,0,-0.000000,0.000000,1,-0.585342,0.142395,0.000000,-0.152237,0.027420,0.000000,-0.066000,0.047000,0.030000,FlatInitial,Hold,0
06:56:10.894 PM 02/16/2016,Teleop Enabled,0,FALSE,0,NO ERROR,-6017.578125,6002.929688,-6000.000000,-6000.000000,Speed,Speed,-0.090000,0.260000,1.700000,1.000000,102.000000,1,0,-0.000000,0.000000,1,-0.661896,0.192566,0.000000,-0.189987,0.037842,0.000000,-0.073000,0.038000,-0.015000,FlatInitial,Hold,0
06:56:10.996 PM 02/16/2016,Teleop Enabled,0,FALSE,0,NO ERROR,-6014.062500,6002.343750,-6000.000000,-6000.000000,Speed,Speed,-0.080000,0.200000,1.730000,1.000000,101.000000,1,0,-0.000000,0.000000,1,-0.713882,0.260178,0.000000,-0.224884,0.049423,0.000000,-0.053000,0.045000,0.001000,FlatInitial,Hold,0
06:56:11.096 PM 02/16/2016,Teleop Enabled,0,FALSE,0,NO ERROR,-6010.546875,6003.515625,-6000.000000,-6000.000000,Speed,Speed,-0.080000,0.190000,1.860000,1.000000,103.000000,1,0,-0.000000,0.000000,1,-0.761261,0.317673,0.000000,-0.261993,0.064407,0.000000,-0.051000,0.001000,0.021000,FlatInitial,Hold,0
06:56:11.197 PM 02/16/2016,Teleop Enabled,0,FALSE,0,NO ERROR,-6008.789062,6004.687500,-6000.000000,-6000.000000,Speed,Speed,-0.080000,0.130000,1.930000,1.000000,103.000000,1,0,-0.000000,0.000000,1,-0.816757,0.382141,0.000000,-0.301743,0.081985,0.000000,-0.055000,0.052000,0.036000,FlatInitial,Hold,0
06:56:11.297 PM 02/16/2016,Teleop Enabled,0,FALSE,0,NO ERROR,-6009.375000,6005.273438,-6000.000000,-6000.000000,Speed,Speed,-0.080000,0.120000,2.030000,1.000000,102.000000,1,0,-0.000000,0.000000,1,-0.853500,0.456619,0.000000,-0.343735,0.103378,0.000000,-0.055000,0.032000,0.052000,FlatInitial,Hold,0
06:56:11.397 PM 02/16/2016,Teleop Enabled,0,FALSE,0,NO ERROR,-6009.375000,6007.617188,-6000.000000,-6000.000000,Speed,Speed,-0.080000,0.100000,2.030000,1.000000,103.000000,1,0,-0.000000,0.000000,1,-0.891495,0.512558,0.000000,-0.387573,0.127899,0.000000,-0.033000,0.060000,0.038000,FlatInitial,Hold,0
06:56:11.497 PM 02/16/2016,Teleop Enabled,0,FALSE,0,NO ERROR,-6009.375000,6008.789062,-6000.000000,-6000.000000,Speed,Speed,-0.080000,0.120000,2.120000,1.000000,102.000000,1,0,-0.000000,0.000000,1,-0.922241,0.587662,0.000000,-0.433090,0.155869,0.000000,-0.057000,0.090000,0.042000,FlatInitial,Hold,0
06:56:11.598 PM 02/16/2016,Teleop Enabled,0,FALSE,0,NO ERROR,-6012.890625,6008.789062,-6000.000000,-6000.000000,Speed,Speed,-0.080000,0.130000,2.150000,1.000000,103.000000,1,0,-0.000000,0.000000,1,0.000000,0.641251,0.000000,-0.470856,0.186951,0.000000,-0.004000,0.063000,0.014000,FlatInitial,Hold,0
06:56:11.699 PM 02/16/2016,Teleop Enabled,0,FALSE,0,NO ERROR,-6011.132812,6008.789062,-6000.000000,-6000.000000,Speed,Speed,-0.090000,0.190000,2.140000,1.000000,100.000000,1,0,-0.000000,0.000000,1,0.000000,0.682220,0.000000,-0.471069,0.220184,0.000000,-0.025000,0.036000,-0.006000,FlatInitial,Hold,0
06:56:11.800 PM 02/16/2016,Teleop Enabled,0,FALSE,0,NO ERROR,-6008.203125,6007.031250,-6000.000000,-6000.000000,Speed,Speed,-0.090000,0.200000,2.120000,1.000000,101.000000,1,0,-0.000000,0.000000,1,-0.032089,0.720200,0.000000,-0.471985,0.255417,0.000000,-0.005000,0.022000,0.009000,FlatInitial,Hold,0
06:56:11.900 PM 02/16/2016,Teleop Enabled,0,FALSE,0,NO ERROR,-6009.960938,6011.132812,-6000.000000,-6000.000000,Speed,Speed,-0.090000,0.250000,2.120000,1.000000,101.000000,1,0,-0.000000,0.000000,1,0.000000,0.746597,0.000000,-0.472733,0.292206,0.000000,-0.013000,0.010000,0.010000,FlatInitial,Hold,0
06:56:12.001 PM 02/16/2016,Teleop Enabled,0,FALSE,0,NO ERROR,-6009.960938,6009.375000,-6000.000000,-6000.000000,Speed,Speed,-0.090000,0.310000,2.120000,1.000000,103.000000,1,0,-0.000000,0.000000,1,0.001511,0.014771,0.000000,-0.472717,0.292725,0.000000,0.028000,0.023000,0.009000,FlatInitial,Hold,0
06:56:12.101 PM 02/16/2016,Teleop Enabled,0,FALSE,0,NO ERROR,-6009.960938,6005.859375,-6000.000000,-6000.000000,Speed,Speed,-0.090000,0.420000,2.110000,1.000000,101.000000,1,0,-0.000000,0.000000,1,0.007660,0.019730,0.000000,-0.472488,0.293320,0.000000,0.028000,0.023000,0.009000,FlatInitial,Hold,0
06:56:12.202 PM 02/16/2016,Teleop Enabled,0,FALSE,0,NO ERROR,-6008.789062,6005.859375,-6000.000000,-6000.000000,Speed,Speed,-0.100000,0.460000,2.130000,1.000000,102.000000,1,0,-0.000000,0.000000,1,0.000000,-0.003693,0.000000,-0.472488,0.294052,0.000000,-0.004000,-0.027000,-0.004000,FlatInitial,Hold,0
06:56:12.303 PM 02/16/2016,Teleop Enabled,0,FALSE,0,NO ERROR,-6006.445312,6008.789062,-6000.000000,-6000.000000,Speed,Speed,-0.100000,0.540000,2.120000,1.000000,101.000000,1,0,-0.000000,0.000000,1,0.007462,0.000000,0.000000,-0.472336,0.293533,0.000000,0.032000,-0.003000,-0.029000,FlatInitial,Hold,0
06:56:12.404 PM 02/16/2016,Teleop Enabled,0,FALSE,0,NO ERROR,-6008.789062,6009.960938,-6000.000000,-6000.000000,Speed,Speed,-0.110000,0.630000,2.110000,1.000000,101.000000,1,0,-0.000000,0.000000,1,0.009537,-0.005173,0.000000,-0.471863,0.293320,0.000000,0.032000,-0.003000,-0.029000,FlatInitial,Hold,0
06:56:12.504 PM 02/16/2016,Teleop Enabled,0,FALSE,0,NO ERROR,-6008.203125,6004.101562,-6000.000000,-6000.000000,Speed,Speed,-0.100000,0.710000,2.120000,1.000000,103.000000,1,0,-0.000000,0.000000,1,0.000000,0.000000,0.000000,-0.471863,0.293091,0.000000,0.006000,-0.045000,-0.047000,FlatInitial,Hold,0
06:56:12.605 PM 02/16/2016,Teleop Enabled,0,FALSE,0,NO ERROR,-6006.445312,6002.929688,-6000.000000,-6000.000000,Speed,Speed,-0.110000,0.780000,2.120000,1.000000,101.000000,1,0,-0.000000,0.000000,1,0.000000,-0.013702,0.000000,-0.471756,0.292831,0.000000,0.005000,0.002000,-0.035000,FlatInitial,Hold,0
06:56:12.705 PM 02/16/2016,Teleop Enabled,0,FALSE,0,NO ERROR,-6005.273438,6004.101562,-6000.000000,-6000.000000,Speed,Speed,-0.110000,0.810000,2.050000,1.000000,102.000000,1,0,-0.000000,0.000000,1,0.000000,-0.034256,0.000000,-0.471756,0.291489,0.000000,-0.002000,-0.026000,0.003000,FlatInitial,Hold,0
06:56:12.807 PM 02/16/2016,Teleop Enabled,0,FALSE,0,NO ERROR,-6002.929688,6006.445312,-6000.000000,-6000.000000,Speed,Speed,-0.120000,0.860000,2.050000,1.000000,100.000000,1,0,-0.000000,0.000000,1,0.000000,-0.004623,0.000000,-0.471832,0.291077,0.000000,-0.001000,-0.020000,-0.039000,FlatInitial,Hold,0
06:56:12.908 PM 02/16/2016,Teleop Enabled,0,FALSE,0,NO ERROR,-6002.343750,6007.617188,-6000.000000,-6000.000000,Speed,Speed,-0.120000,0.900000,1.950000,1.000000,101.000000,1,0,-0.000000,0.000000,1,0.000000,-0.032516,0.000000,-0.471832,0.289993,0.000000,-0.007000,-0.034000,-0.018000,FlatInitial,Hold,0
06:56:13.009 PM 02/16/2016,Teleop Enabled,0,FALSE,0,NO ERROR,-6001.171875,6005.273438,-6000.000000,-6000.000000,Speed,Speed,-0.130000,0.930000,1.910000,1.000000,104.000000,1,0,-0.000000,0.000000,1,0.000000,-0.032516,0.000000,-0.471832,0.289993,0.000000,-0.006000,-0.012000,-0.053000,FlatInitial,Hold,0
06:56:13.109 PM 02/16/2016,Teleop Enabled,0,FALSE,0,NO ERROR,-6001.757812,6002.929688,-6000.000000,-6000.000000,Speed,Speed,-0.130000,0.950000,1.850000,1.000000,100.000000,1,0,-0.000000,0.000000,1,-0.008682,0.000000,0.000000,-0.471970,0.288162,0.000000,-0.013000,-0.003000,-0.057000,FlatInitial,Hold,0
06:56:13.210 PM 02/16/2016,Teleop Enabled,0,FALSE,0,NO ERROR,-6001.757812,6001.757812,-6000.000000,-6000.000000,Speed,Speed,-0.130000,0.950000,1.850000,1.000000,102.000000,1,0,-0.000000,0.000000,1,0.000000,-0.000671,0.000000,-0.472275,0.287811,0.000000,-0.012000,0.015000,-0.048000,FlatInitial,Hold,0
06:56:13.310 PM 02/16/2016,Teleop Enabled,0,FALSE,0,NO ERROR,-6001.171875,5996.484375,-6000.000000,-6000.000000,Speed,Speed,-0.130000,1.030000,1.780000,1.000000,101.000000,1,0,-0.000000,0.000000,1,0.000000,-0.000671,0.000000,-0.472275,0.287811,0.000000,-0.021000,-0.023000,-0.061000,FlatInitial,Hold,0
06:56:13.410 PM 02/16/2016,Teleop Enabled,0,FALSE,0,NO ERROR,-6001.757812,5992.968750,-6000.000000,-6000.000000,Speed,Speed,-0.130000,1.030000,1.780000,1.000000,101.000000,1,0,-0.000000,0.000000,1,0.000000,0.000000,0.000000,-0.472458,0.286896,0.000000,0.005000,-0.021000,-0.031000,FlatInitial,Hold,0
06:56:13.510 PM 02/16/2016,Teleop Enabled,0,FALSE,0,NO ERROR,-6005.859375,5993.554688,-6000.000000,-6000.000000,Speed,Speed,-0.130000,1.020000,1.740000,1.000000,103.000000,1,0,-0.000000,0.000000,1,0.000000,0.000000,0.000000,-0.472458,0.286896,0.000000,-0.030000,0.033000,-0.037000,FlatInitial,Hold,0
06:56:13.612 PM 02/16/2016,Teleop Enabled,0,FALSE,0,NO ERROR,-6008.203125,5996.484375,-6000.000000,-6000.000000,Speed,Speed,-0.130000,1.030000,1.720000,1.000000,102.000000,1,0,-0.000000,0.000000,1,0.000000,0.008926,0.000000,-0.472595,0.287323,0.000000,0.001000,0.013000,-0.074000,FlatInitial,Hold,0
06:56:13.713 PM 02/16/2016,Teleop Enabled,0,FALSE,0,NO ERROR,-6007.617188,6003.515625,-6000.000000,-6000.000000,Speed,Speed,-0.130000,1.020000,1.710000,1.000000,101.000000,1,0,-0.000000,0.000000,1,0.000000,0.000000,0.000000,-0.472595,0.287323,0.000000,-0.005000,-0.005000,-0.070000,FlatInitial,Hold,0
06:56:13.813 PM 02/16/2016,Teleop Enabled,0,FALSE,0,NO ERROR,-6008.203125,6006.445312,-6000.000000,-6000.000000,Speed,Speed,-0.130000,1.020000,1.710000,1.000000,104.000000,1,0,-0.000000,0.000000,1,0.000000,-0.001984,0.000000,-0.472809,0.287170,0.000000,0.001000,0.044000,-0.072000,FlatInitial,Hold,0
06:56:13.913 PM 02/16/2016,Teleop Enabled,0,FALSE,0,NO ERROR,-6004.101562,6008.789062,-6000.000000,-6000.000000,Speed,Speed,-0.120000,0.990000,1.710000,1.000000,101.000000,1,0,-0.000000,0.000000,1,-0.007065,0.018143,0.000000,-0.472992,0.287750,0.000000,-0.017000,0.041000,-0.046000,FlatInitial,Hold,0
06:56:14.013 PM 02/16/2016,Teleop Enabled,0,FALSE,0,NO ERROR,-6000.000000,6011.718750,-6000.000000,-6000.000000,Speed,Speed,-0.120000,1.000000,1.700000,1.000000,102.000000,1,0,-0.000000,0.000000,1,0.000000,0.000000,0.000000,-0.473099,0.288208,0.000000,-0.014000,0.005000,-0.039000,FlatInitial,Hold,0
06:56:14.113 PM 02/16/2016,Teleop Enabled,0,FALSE,0,NO ERROR,-5998.242188,6010.546875,-6000.000000,-6000.000000,Speed,Speed,-0.120000,1.000000,1.700000,1.000000,100.000000,1,0,-0.000000,0.000000,1,0.000000,0.014084,0.000000,-0.473099,0.288666,0.000000,-0.006000,0.005000,-0.029000,FlatInitial,Hold,0
06:56:14.213 PM 02/16/2016,Teleop Enabled,0,FALSE,0,NO ERROR,-5994.726562,6005.273438,-6000.000000,-6000.000000,Speed,Speed,-0.130000,0.970000,1.690000,1.000000,104.000000,1,0,-0.000000,0.000000,1,-0.005707,0.017303,0.000000,-0.473450,0.289520,0.000000,-0.042000,0.016000,-0.017000,FlatInitial,Hold,0
06:56:14.313 PM 02/16/2016,Teleop Enabled,0,FALSE,0,NO ERROR,-5992.968750,6004.101562,-6000.000000,-6000.000000,Speed,Speed,-0.120000,0.930000,1.620000,1.000000,100.000000,1,0,-0.000000,0.000000,1,-0.009720,0.021667,0.000000,-0.473877,0.290527,0.000000,-0.026000,0.042000,-0.046000,FlatInitial,Hold,0
06:56:14.414 PM 02/16/2016,Teleop Enabled,0,FALSE,0,NO ERROR,-5994.140625,6004.687500,-6000.000000,-6000.000000,Speed,Speed,-0.130000,0.920000,1.570000,1.000000,102.000000,1,0,-0.000000,0.000000,1,-0.035645,0.000000,0.000000,-0.475159,0.291107,0.000000,-0.034000,-0.001000,-0.050000,FlatInitial,Hold,0
06:56:14.515 PM 02/16/2016,Teleop Enabled,0,FALSE,0,NO ERROR,-5995.312500,6005.859375,-6000.000000,-6000.000000,Speed,Speed,-0.130000,0.860000,1.490000,1.000000,100.000000,1,0,-0.000000,0.000000,1,-0.078613,0.002808,0.000000,-0.478256,0.291214,0.000000,-0.035000,0.013000,-0.048000,FlatInitial,Hold,0
06:56:14.616 PM 02/16/2016,Teleop Enabled,0,FALSE,0,NO ERROR,-5997.070312,6003.515625,-6000.000000,-6000.000000,Speed,Speed,-0.130000,0.810000,1.470000,1.000000,102.000000,1,0,-0.000000,0.000000,1,-0.123093,0.017807,0.000000,-0.483597,0.291855,0.000000,-0.033000,0.019000,-0.039000,FlatInitial,Hold,0
06:56:14.717 PM 02/16/2016,Teleop Enabled,0,FALSE,0,NO ERROR,-5999.414062,6002.343750,-6000.000000,-6000.000000,Speed,Speed,-0.130000,0.790000,1.400000,1.000000,101.000000,1,0,-0.000000,0.000000,1,-0.145828,0.000000,0.000000,-0.490387,0.291855,0.000000,-0.039000,-0.014000,-0.017000,FlatInitial,Hold,0
06:56:14.817 PM 02/16/2016,Teleop Enabled,0,FALSE,0,NO ERROR,-6003.515625,5998.242188,-6000.000000,-6000.000000,Speed,Speed,-0.130000,0.750000,1.330000,1.000000,102.000000,1,0,-0.000000,0.000000,1,-0.177872,0.011963,0.000000,-0.498703,0.292221,0.000000,-0.050000,0.034000,-0.015000,FlatInitial,Hold,0
06:56:14.918 PM 02/16/2016,Teleop Enabled,0,FALSE,0,NO ERROR,-6007.031250,5995.312500,-6000.000000,-6000.000000,Speed,Speed,-0.120000,0.720000,1.310000,1.000000,102.000000,1,0,-0.000000,0.000000,1,-0.208893,0.020126,0.000000,-0.508514,0.293121,0.000000,-0.022000,0.044000,-0.012000,FlatInitial,Hold,0
06:56:15.018 PM 02/16/2016,Teleop Enabled,0,FALSE,0,NO ERROR,-6008.789062,5995.312500,-6000.000000,-6000.000000,Speed,Speed,-0.120000,0.670000,1.280000,1.000000,101.000000,1,0,-0.000000,0.000000,1,-0.235733,0.000000,0.000000,-0.519806,0.294327,0.000000,-0.024000,0.025000,-0.024000,FlatInitial,Hold,0
06:56:15.118 PM 02/16/2016,Teleop Enabled,0,FALSE,0,NO ERROR,-6009.375000,5997.070312,-6000.000000,-6000.000000,Speed,Speed,-0.120000,0.660000,1.260000,1.000000,102.000000,1,0,-0.000000,0.000000,1,-0.254929,0.013809,0.000000,-0.532211,0.294724,0.000000,-0.028000,0.052000,-0.023000,FlatInitial,Hold,0
06:56:15.220 PM 02/16/2016,Teleop Enabled,0,FALSE,0,NO ERROR,-6009.375000,5998.242188,-6000.000000,-6000.000000,Speed,Speed,-0.130000,0.640000,1.260000,1.000000,106.000000,1,0,-0.000000,0.000000,1,-0.278900,0.033875,0.000000,-0.545700,0.296158,0.000000,-0.018000,0.030000,-0.068000,FlatInitial,Hold,0
06:56:15.320 PM 02/16/2016,Teleop Enabled,0,FALSE,0,NO ERROR,-6007.617188,6004.101562,-6000.000000,-6000.000000,Speed,Speed,-0.120000,0.610000,1.320000,1.000000,103.000000,1,0,-0.000000,0.000000,1,0.000000,0.061142,0.000000,-0.560257,0.299149,0.000000,0.005000,0.045000,-0.051000,FlatInitial,Hold,0
06:56:15.421 PM 02/16/2016,Teleop Enabled,0,FALSE,0,NO ERROR,-6004.687500,6008.789062,-6000.000000,-6000.000000,Speed,Speed,-0.120000,0.610000,1.380000,1.000000,101.000000,1,0,-0.000000,0.000000,1,0.000000,0.081268,0.000000,-0.560257,0.302185,0.000000,-0.040000,0.022000,-0.016000,FlatInitial,Hold,0
06:56:15.521 PM 02/16/2016,Teleop Enabled,0,FALSE,0,NO ERROR,-6003.515625,6009.960938,-6000.000000,-6000.000000,Speed,Speed,-0.120000,0.560000,1.410000,1.000000,103.000000,1,0,-0.000000,0.000000,1,-0.024948,0.089859,0.000000,-0.561050,0.306458,0.000000,-0.024000,0.028000,-0.035000,FlatInitial,Hold,0
06:56:15.622 PM 02/16/2016,Teleop Enabled,0,FALSE,0,NO ERROR,-6003.515625,6008.203125,-6000.000000,-6000.000000,Speed,Speed,-0.120000,0.550000,1.500000,1.000000,101.000000,1,0,-0.000000,0.000000,1,-0.043518,0.101410,0.000000,-0.562851,0.311401,0.000000,-0.035000,-0.002000,-0.016000,FlatInitial,Hold,0
06:56:15.724 PM 02/16/2016,Teleop Enabled,0,FALSE,0,NO ERROR,-6001.757812,6008.789062,-6000.000000,-6000.000000,Speed,Speed,-0.120000,0.510000,1.560000,1.000000,102.000000,1,0,-0.000000,0.000000,1,-0.071640,0.000000,0.000000,-0.566498,0.311569,0.000000,-0.032000,0.018000,-0.005000,FlatInitial,Hold,0
06:56:15.825 PM 02/16/2016,Teleop Enabled,0,FALSE,0,NO ERROR,-6004.101562,6007.031250,-6000.000000,-6000.000000,Speed,Speed,-0.120000,0.460000,1.610000,1.000000,101.000000,1,0,-0.000000,0.000000,1,-0.103821,0.003494,0.000000,-0.571014,0.311600,0.000000,-0.038000,0.037000,-0.005000,FlatInitial,Hold,0
06:56:15.925 PM 02/16/2016,Teleop Enabled,0,FALSE,0,NO ERROR,-6005.273438,6001.171875,-6000.000000,-6000.000000,Speed,Speed,-0.120000,0.420000,1.670000,1.000000,101.000000,1,0,-0.000000,0.000000,1,-0.133392,0.000000,0.000000,-0.577072,0.311768,0.000000,-0.020000,0.002000,-0.034000,FlatInitial,Hold,0
06:56:16.025 PM 02/16/2016,Teleop Enabled,0,FALSE,0,NO ERROR,-6004.101562,5998.828125,-6000.000000,-6000.000000,Speed,Speed,-0.120000,0.410000,1.760000,1.000000,102.000000,1,0,-0.000000,0.000000,1,-0.154190,0.000000,0.000000,-0.584351,0.311905,0.000000,-0.015000,0.015000,-0.021000,FlatInitial,Hold,0
06:56:16.125 PM 02/16/2016,Teleop Enabled,0,FALSE,0,NO ERROR,-5999.414062,5996.484375,-6000.000000,-6000.000000,Speed,Speed,-0.120000,0.370000,1.800000,1.000000,102.000000,1,0,-0.000000,0.000000,1,-0.171829,0.000000,0.000000,-0.590988,0.311905,0.000000,-0.040000,-0.017000,-0.021000,FlatInitial,Hold,0
06:56:16.225 PM 02/16/2016,Teleop Enabled,0,FALSE,0,NO ERROR,-5997.656250,5994.726562,-6000.000000,-6000.000000,Speed,Speed,-0.120000,0.350000,1.880000,1.000000,101.000000,1,0,-0.000000,0.000000,1,-0.193314,0.000000,0.000000,-0.600266,0.311905,0.000000,-0.025000,-0.007000,-0.017000,FlatInitial,Hold,0
06:56:16.326 PM 02/16/2016,Teleop Enabled,0,FALSE,0,NO ERROR,-5997.656250,5992.968750,-6000.000000,-6000.000000,Speed,Speed,-0.120000,0.340000,1.910000,1.000000,104.000000,1,0,-0.000000,0.000000,1,-0.216812,-0.010620,0.000000,-0.612595,0.311752,0.000000,-0.044000,-0.021000,-0.018000,FlatInitial,Hold,0
06:56:16.426 PM 02/16/2016,Teleop Enabled,0,FALSE,0,NO ERROR,-5995.312500,5994.726562,-6000.000000,-6000.000000,Speed,Speed,-0.120000,0.310000,1.940000,1.000000,102.000000,1,0,-0.000000,0.000000,1,-0.003265,0.000000,0.000000,-0.617111,0.311615,0.000000,-0.027000,0.004000,0.010000,FlatInitial,Hold,0
06:56:16.527 PM 02/16/2016,Teleop Enabled,0,FALSE,0,NO ERROR,-5997.070312,5998.242188,-6000.000000,-6000.000000,Speed,Speed,-0.120000,0.280000,1.950000,1.000000,100.000000,1,0,-0.000000,0.000000,1,-0.026031,0.000000,0.000000,-0.617981,0.311478,0.000000,-0.029000,0.011000,-0.020000,FlatInitial,Hold,0
06:56:16.627 PM 02/16/2016,Teleop Enabled,0,FALSE,0,NO ERROR,-5997.656250,5999.414062,-6000.000000,-6000.000000,Speed,Speed,-0.120000,0.250000,1.950000,1.000000,101.000000,1,0,-0.000000,0.000000,1,-0.052124,-0.002579,0.000000,-0.620117,0.311401,0.000000,-0.020000,0.009000,-0.024000,FlatInitial,Hold,0
06:56:16.727 PM 02/16/2016,Teleop Enabled,0,FALSE,0,NO ERROR,-5997.070312,6000.000000,-6000.000000,-6000.000000,Speed,Speed,-0.120000,0.240000,2.000000,1.000000,102.000000,1,0,-0.000000,0.000000,1,-0.070435,-0.005524,0.000000,-0.623245,0.311234,0.000000,-0.030000,-0.012000,-0.007000,FlatInitial,Hold,0
06:56:16.827 PM 02/16/2016,Teleop Enabled,0,FALSE,0,NO ERROR,-5995.312500,5999.414062,-6000.000000,-6000.000000,Speed,Speed,-0.120000,0.230000,2.010000,1.000000,102.000000,1,0,-0.000000,0.000000,1,-0.004684,-0.005402,0.000000,-0.624878,0.311081,0.000000,-0.025000,-0.022000,0.008000,FlatInitial,Hold,0
06:56:16.927 PM 02/16/2016,Teleop Enabled,0,FALSE,0,NO ERROR,-5997.070312,5998.242188,-6000.000000,-6000.000000,Speed,Speed,-0.120000,0.200000,2.080000,1.000000,103.000000,1,0,-0.000000,0.000000,1,-0.033051,0.000000,0.000000,-0.626007,0.310913,0.000000,-0.021000,-0.021000,0.031000,FlatInitial,Hold,0
06:56:17.027 PM 02/16/2016,Teleop Enabled,0,FALSE,0,NO ERROR,-6001.171875,5997.656250,-6000.000000,-6000.000000,Speed,Speed,-0.120000,0.180000,2.160000,1.000000,101.000000,1,0,-0.000000,0.000000,1,-0.054550,0.000000,0.000000,-0.628281,0.310959,0.000000,-0.027000,-0.015000,0.009000,FlatInitial,Hold,0
06:56:17.127 PM 02/16/2016,Teleop Enabled,0,FALSE,0,NO ERROR,-6002.929688,5999.414062,-6000.000000,-6000.000000,Speed,Speed,-0.120000,0.160000,2.180000,1.000000,102.000000,1,0,-0.000000,0.000000,1,-0.075195,0.000000,0.000000,-0.631729,0.310959,0.000000,-0.016000,-0.017000,-0.035000,FlatInitial,Hold,0
06:56:17.228 PM 02/16/2016,Teleop Enabled,0,FALSE,0,NO ERROR,-6007.617188,5995.898438,-6000.000000,-6000.000000,Speed,Speed,-0.120000,0.140000,2.210000,1.000000,104.000000,1,0,-0.000000,0.000000,1,0.000000,-0.003098,0.000000,-0.635193,0.310745,0.000000,-0.028000,0.000000,0.001000,FlatInitial,Hold,0
06:56:17.328 PM 02/16/2016,Teleop Enabled,0,FALSE,0,NO ERROR,-6008.203125,5991.796875,-6000.000000,-6000.000000,Speed,Speed,-0.130000,0.120000,2.220000,1.000000,102.000000,1,0,-0.000000,0.000000,1,0.000000,-0.006607,0.000000,-0.635468,0.310562,0.000000,0.008000,-0.029000,-0.011000,FlatInitial,Hold,0
06:56:17.428 PM 02/16/2016,Teleop Enabled,0,FALSE,0,NO ERROR,-6007.031250,5995.312500,-6000.000000,-6000.000000,Speed,Speed,-0.120000,0.120000,2.220000,1.000000,103.000000,1,0,-0.000000,0.000000,1,0.000000,-0.025574,0.000000,-0.635468,0.309692,0.000000,-0.013000,-0.014000,-0.012000,FlatInitial,Hold,0
06:56:17.529 PM 02/16/2016,Teleop Enabled,0,FALSE,0,NO ERROR,-6005.859375,5997.656250,-6000.000000,-6000.000000,Speed,Speed,-0.130000,0.140000,2.190000,1.000000,102.000000,1,0,-0.000000,0.000000,1,0.000000,-0.008331,0.000000,-0.635468,0.309311,0.000000,0.002000,-0.074000,-0.024000,FlatInitial,Hold,0
06:56:17.630 PM 02/16/2016,Teleop Enabled,0,FALSE,0,NO ERROR,-6007.031250,6004.101562,-6000.000000,-6000.000000,Speed,Speed,-0.130000,0.130000,2.170000,1.000000,101.000000,1,0,-0.000000,0.000000,1,0.009964,-0.040924,0.000000,-0.635269,0.307800,0.000000,0.002000,-0.043000,-0.027000,FlatInitial,Hold,0
06:56:17.730 PM 02/16/2016,Teleop Enabled,0,FALSE,0,NO ERROR,-6007.617188,6009.375000,-6000.000000,-6000.000000,Speed,Speed,-0.130000,0.150000,2.160000,1.000000,101.000000,1,0,-0.000000,0.000000,1,0.026840,-0.081726,0.000000,-0.634064,0.303940,0.000000,0.000000,-0.040000,-0.028000,FlatInitial,Hold,0
06:56:17.830 PM 02/16/2016,Teleop Enabled,0,FALSE,0,NO ERROR,-6008.203125,6008.789062,-6000.000000,-6000.000000,Speed,Speed,-0.130000,0.160000,2.120000,1.000000,101.000000,1,0,-0.000000,0.000000,1,0.003510,-0.116364,0.000000,-0.634018,0.299820,0.000000,0.007000,-0.019000,-0.021000,FlatInitial,Hold,0
06:56:17.930 PM 02/16/2016,Teleop Enabled,0,FALSE,0,NO ERROR,-6007.031250,6007.031250,-6000.000000,-6000.000000,Speed,Speed,-0.130000,0.160000,2.090000,1.000000,102.000000,1,0,-0.000000,0.000000,1,0.028122,-0.153000,0.000000,-0.633026,0.291519,0.000000,0.026000,-0.016000,-0.054000,FlatInitial,Hold,0
06:56:18.030 PM 02/16/2016,Teleop Enabled,0,FALSE,0,NO ERROR,-6003.515625,6007.031250,-6000.000000,-6000.000000,Speed,Speed,-0.130000,0.180000,2.070000,1.000000,102.000000,1,0,-0.000000,0.000000,1,0.000000,-0.187561,0.000000,-0.632370,0.282883,0.000000,0.018000,-0.035000,-0.068000,FlatInitial,Hold,0
06:56:18.130 PM 02/16/2016,Teleop Enabled,0,FALSE,0,NO ERROR,-5998.828125,6007.031250,-6000.000000,-6000.000000,Speed,Speed,-0.130000,0.170000,2.020000,1.000000,100.000000,1,0,-0.000000,0.000000,1,0.017578,-0.231827,0.000000,-0.631790,0.272247,0.000000,-0.014000,-0.052000,-0.026000,FlatInitial,Hold,0
06:56:18.230 PM 02/16/2016,Teleop Enabled,0,FALSE,0,NO ERROR,-5998.828125,6005.859375,-6000.000000,-6000.000000,Speed,Speed,-0.130000,0.160000,1.990000,1.000000,102.000000,1,0,-0.000000,0.000000,1,0.037277,-0.262253,0.000000,-0.630341,0.259689,0.000000,0.012000,-0.016000,-0.029000,FlatInitial,Hold,0
06:56:18.330 PM 02/16/2016,Teleop Enabled,0,FALSE,0,NO ERROR,-5999.414062,6004.687500,-6000.000000,-6000.000000,Speed,Speed,-0.130000,0.170000,2.000000,1.000000,101.000000,1,0,-0.000000,0.000000,1,0.061813,-0.296692,0.000000,-0.627762,0.245544,0.000000,0.008000,-0.023000,-0.047000,FlatInitial,Hold,0
06:56:18.430 PM 02/16/2016,Teleop Enabled,0,FALSE,0,NO ERROR,-5998.242188,6002.929688,-6000.000000,-6000.000000,Speed,Speed,-0.130000,0.190000,2.000000,1.000000,103.000000,1,0,-0.000000,0.000000,1,0.091721,-0.323959,0.000000,-0.623825,0.229782,0.000000,0.021000,0.039000,-0.009000,FlatInitial,Hold,0
06:56:18.530 PM 02/16/2016,Teleop Enabled,0,FALSE,0,NO ERROR,-6000.000000,6000.585938,-6000.000000,-6000.000000,Speed,Speed,-0.130000,0.220000,2.040000,1.000000,106.000000,1,0,-0.000000,0.000000,1,0.118240,-0.349121,0.000000,-0.618378,0.212814,0.000000,-0.009000,-0.007000,-0.039000,FlatInitial,Hold,0
06:56:18.630 PM 02/16/2016,Teleop Enabled,0,FALSE,0,NO ERROR,-6001.171875,6001.171875,-6000.000000,-6000.000000,Speed,Speed,-0.130000,0.220000,2.080000,1.000000,102.000000,1,0,-0.000000,0.000000,1,0.015808,-0.369995,0.000000,-0.616867,0.194626,0.000000,0.020000,-0.024000,-0.030000,FlatInitial,Hold,0
06:56:18.730 PM 02/16/2016,Teleop Enabled,0,FALSE,0,NO ERROR,-6001.171875,6002.343750,-6000.000000,-6000.000000,Speed,Speed,-0.130000,0.250000,2.080000,1.000000,102.000000,1,0,-0.000000,0.000000,1,0.035019,-0.387680,0.000000,-0.615585,0.175644,0.000000,0.036000,-0.044000,-0.021000,FlatInitial,Hold,0
06:56:18.832 PM 02/16/2016,Teleop Enabled,0,FALSE,0,NO ERROR,-6001.171875,6004.101562,-6000.000000,-6000.000000,Speed,Speed,-0.130000,0.270000,2.040000,1.000000,102.000000,1,0,-0.000000,0.000000,1,0.061020,-0.424881,0.000000,-0.612915,0.155243,0.000000,0.024000,-0.023000,0.005000,FlatInitial,Hold,0
06:56:18.932 PM 02/16/2016,Teleop Enabled,0,FALSE,0,NO ERROR,-6000.585938,6003.515625,-6000.000000,-6000.000000,Speed,Speed,-0.140000,0.270000,2.050000,1.000000,102.000000,1,0,-0.000000,0.000000,1,0.080231,-0.451767,0.000000,-0.609390,0.133224,0.000000,0.028000,0.002000,-0.030000,FlatInitial,Hold,0
06:56:19.033 PM 02/16/2016,Teleop Enabled,0,FALSE,0,NO ERROR,-6001.757812,6003.515625,-6000.000000,-6000.000000,Speed,Speed,-0.140000,0.300000,2.040000,1.000000,102.000000,1,0,-0.000000,0.000000,1,0.115387,-0.482025,0.000000,-0.604294,0.109680,0.000000,0.029000,-0.023000,-0.013000,FlatInitial,Hold,0
06:56:19.134 PM 02/16/2016,Teleop Enabled,0,FALSE,0,NO ERROR,-5999.414062,6002.343750,-6000.000000,-6000.000000,Speed,Speed,-0.140000,0.330000,2.060000,1.000000,101.000000,1,0,-0.000000,0.000000,1,0.146088,-0.490326,0.000000,-0.597656,0.085281,0.000000,0.039000,-0.095000,-0.049000,FlatInitial,Hold,0
06:56:19.235 PM 02/16/2016,Teleop Enabled,0,FALSE,0,NO ERROR,-5999.414062,6005.859375,-6000.000000,-6000.000000,Speed,Speed,-0.140000,0.360000,2.070000,1.000000,102.000000,1,0,-0.000000,0.000000,1,0.186218,-0.524231,0.000000,-0.587448,0.054352,0.000000,0.026000,-0.027000,-0.020000,FlatInitial,Hold,0
06:56:19.337 PM 02/16/2016,Teleop Enabled,0,FALSE,0,NO ERROR,-5999.414062,6008.789062,-6000.000000,-6000.000000,Speed,Speed,-0.150000,0.410000,2.130000,1.000000,101.000000,1,0,-0.000000,0.000000,1,0.216644,0.000000,0.000000,-0.577194,0.049103,0.000000,0.026000,-0.009000,-0.052000,FlatInitial,Hold,0
06:56:19.437 PM 02/16/2016,Teleop Enabled,0,FALSE,0,NO ERROR,-5996.484375,6007.031250,-6000.000000,-6000.000000,Speed,Speed,-0.150000,0.460000,2.150000,1.000000,101.000000,1,0,-0.000000,0.000000,1,0.249664,-0.012650,0.000000,-0.565506,0.048859,0.000000,0.049000,-0.045000,-0.025000,FlatInitial,Hold,0
06:56:19.536 PM 02/16/2016,Teleop Enabled,0,FALSE,0,NO ERROR,-5996.484375,6004.101562,-6000.000000,-6000.000000,Speed,Speed,-0.150000,0.520000,2.120000,1.000000,102.000000,1,0,-0.000000,0.000000,1,0.281021,-0.035538,0.000000,-0.551926,0.047363,0.000000,0.043000,-0.009000,0.009000,FlatInitial,Hold,0
06:56:19.636 PM 02/16/2016,Teleop Enabled,0,FALSE,0,NO ERROR,-5992.968750,6002.343750,-6000.000000,-6000.000000,Speed,Speed,-0.140000,0.580000,2.170000,1.000000,100.000000,1,0,-0.000000,0.000000,1,0.317032,-0.049957,0.000000,-0.536804,0.045227,0.000000,0.045000,-0.058000,0.012000,FlatInitial,Hold,0
06:56:19.737 PM 02/16/2016,Teleop Enabled,0,FALSE,0,NO ERROR,-5992.968750,5998.828125,-6000.000000,-6000.000000,Speed,Speed,-0.140000,0.640000,2.170000,1.000000,103.000000,1,0,-0.000000,0.000000,1,0.352112,-0.067978,0.000000,-0.519852,0.042145,0.000000,0.035000,-0.026000,0.046000,FlatInitial,Hold,0
06:56:19.837 PM 02/16/2016,Teleop Enabled,0,FALSE,0,NO ERROR,-5995.898438,5998.242188,-6000.000000,-6000.000000,Speed,Speed,-0.150000,0.720000,2.230000,1.000000,103.000000,1,0,-0.000000,0.000000,1,0.386551,-0.075714,0.000000,-0.501221,0.038467,0.000000,0.026000,-0.071000,-0.007000,FlatInitial,Hold,0
06:56:19.938 PM 02/16/2016,Teleop Enabled,0,FALSE,0,NO ERROR,-6001.757812,5997.656250,-6000.000000,-6000.000000,Speed,Speed,-0.150000,0.770000,2.250000,1.000000,102.000000,1,0,-0.000000,0.000000,1,0.408844,-0.006836,0.000000,-0.485214,0.037506,0.000000,0.035000,-0.008000,0.023000,FlatInitial,Hold,0
06:56:20.038 PM 02/16/2016,Teleop Enabled,0,FALSE,0,NO ERROR,-6005.273438,5997.070312,-6000.000000,-6000.000000,Speed,Speed,-0.160000,0.830000,2.280000,1.000000,100.000000,1,0,-0.000000,0.000000,1,0.444504,-0.011673,0.000000,-0.463760,0.037262,0.000000,0.033000,-0.014000,-0.016000,FlatInitial,Hold,0
06:56:20.138 PM 02/16/2016,Teleop Enabled,0,FALSE,0,NO ERROR,-6011.718750,5996.484375,-6000.000000,-6000.000000,Speed,Speed,-0.160000,0.870000,2.270000,1.000000,102.000000,1,0,-0.000000,0.000000,1,0.479172,-0.014801,0.000000,-0.435974,0.036850,0.000000,0.049000,-0.038000,-0.031000,FlatInitial,Hold,0
06:56:20.238 PM 02/16/2016,Teleop Enabled,0,FALSE,0,NO ERROR,-6013.476562,5996.484375,-6000.000000,-6000.000000,Speed,Speed,-0.160000,0.870000,2.200000,1.000000,101.000000,1,0,-0.000000,0.000000,1,0.506119,-0.050598,0.000000,-0.411087,0.035065,0.000000,0.035000,-0.021000,-0.038000,FlatInitial,Hold,0
06:56:20.340 PM 02/16/2016,Teleop Enabled,0,FALSE,0,NO ERROR,-6005.859375,6000.000000,-6000.000000,-6000.000000,Speed,Speed,-0.160000,0.890000,2.190000,1.000000,102.000000,1,0,0.472441,0.472441,1,0.537445,-0.008743,0.000000,-0.384857,0.034302,0.000000,0.057000,-0.037000,-0.007000,FlatInitial,Hold,0
06:56:20.440 PM 02/16/2016,Teleop Enabled,0,FALSE,0,NO ERROR,-6003.515625,6002.343750,-6000.000000,-6000.000000,Speed,Speed,-0.090000,0.860000,1.960000,1.000000,101.000000,1,0,-0.000000,0.000000,1,0.007980,-0.080383,0.000000,-0.373718,0.032486,0.000000,-0.030000,-0.434000,0.181000,FlatInitial,Hold,0
06:56:20.540 PM 02/16/2016,Teleop Enabled,0,FALSE,0,NO ERROR,-5960.156250,5951.367188,-6000.000000,-6000.000000,Speed,Speed,0.910000,0.810000,-0.150000,1.000000,101.000000,1,0,-0.000000,0.000000,1,-0.000870,-0.279144,0.000000,-0.373688,0.019043,0.000000,0.221000,0.071000,-0.225000,FlatInitial,Hold,0
06:56:20.641 PM 02/16/2016,Teleop Enabled,0,FALSE,0,NO ERROR,-5912.695312,5900.976562,-6000.000000,-6000.000000,Speed,Speed,1.010000,0.740000,2.340000,1.000000,101.000000,1,0,-0.000000,0.000000,1,0.083237,-0.201843,0.000000,-0.370285,0.008224,0.000000,-0.111000,0.128000,-0.142000,FlatInitial,Hold,0
06:56:20.742 PM 02/16/2016,Teleop Enabled,0,FALSE,0,NO ERROR,-5944.921875,5961.914062,-6000.000000,-6000.000000,Speed,Speed,1.340000,0.750000,1.860000,1.000000,102.000000,1,0,-0.000000,0.000000,1,0.055923,-0.131165,0.000000,-0.367691,0.000778,0.000000,-0.097000,0.038000,0.061000,FlatInitial,Hold,1
06:56:20.843 PM 02/16/2016,Teleop Enabled,0,FALSE,0,NO ERROR,-6003.515625,6042.773438,-6000.000000,-6000.000000,Speed,Speed,1.080000,0.710000,2.410000,1.000000,102.000000,1,0,-0.000000,0.000000,1,-0.008102,-0.111115,0.000000,-0.367310,-0.005493,0.000000,-0.185000,0.050000,0.068000,FlatInitial,Hold,1
06:56:20.943 PM 02/16/2016,Teleop Enabled,0,FALSE,0,NO ERROR,-6036.914062,6076.757812,-6000.000000,-6000.000000,Speed,Speed,1.110000,0.540000,2.440000,1.000000,101.000000,1,0,-0.000000,0.000000,1,0.000000,-0.063141,0.000000,-0.369919,-0.010864,0.000000,-0.017000,0.103000,-0.022000,FlatInitial,Hold,1
06:56:21.044 PM 02/16/2016,Teleop Enabled,0,FALSE,0,NO ERROR,-6047.460938,6066.210938,-6000.000000,-6000.000000,Speed,Speed,1.140000,0.630000,2.640000,1.000000,104.000000,1,0,-0.000000,0.000000,1,-0.008759,-0.035904,0.000000,-0.370087,-0.012466,0.000000,0.073000,-0.004000,0.155000,FlatInitial,Hold,1
06:56:21.144 PM 02/16/2016,Teleop Enabled,0,FALSE,0,NO ERROR,-6039.257812,6035.156250,-6000.000000,-6000.000000,Speed,Speed,1.040000,0.750000,2.500000,1.000000,102.000000,1,0,-0.000000,0.000000,1,0.032608,0.000000,0.000000,-0.369064,-0.013336,0.000000,0.034000,0.038000,0.119000,FlatInitial,Hold,0
06:56:21.244 PM 02/16/2016,Teleop Enabled,0,FALSE,0,NO ERROR,-6024.609375,6018.164062,-6000.000000,-6000.000000,Speed,Speed,1.030000,0.890000,2.310000,1.000000,100.000000,1,0,-0.000000,0.000000,1,0.077576,0.008102,0.000000,-0.366257,-0.012924,0.000000,0.070000,-0.060000,-0.198000,FlatInitial,Hold,0
06:56:21.345 PM 02/16/2016,Teleop Enabled,0,FALSE,0,NO ERROR,-6011.718750,6010.546875,-6000.000000,-6000.000000,Speed,Speed,0.970000,0.910000,2.350000,1.000000,100.000000,1,0,-0.000000,0.000000,1,0.004547,-0.121414,0.000000,-0.363297,-0.017181,0.000000,0.043000,-0.117000,0.102000,FlatInitial,Hold,0
06:56:21.445 PM 02/16/2016,Teleop Enabled,0,FALSE,0,NO ERROR,-6008.203125,6006.445312,-6000.000000,-6000.000000,Speed,Speed,0.970000,1.010000,1.750000,1.000000,103.000000,1,0,-0.000000,0.000000,1,0.043625,-0.173218,0.000000,-0.361969,-0.023529,0.000000,0.007000,-0.031000,-0.083000,FlatInitial,Hold,0
06:56:21.545 PM 02/16/2016,Teleop Enabled,0,FALSE,0,NO ERROR,-6007.031250,6003.515625,-6000.000000,-6000.000000,Speed,Speed,0.980000,1.010000,1.850000,1.000000,100.000000,1,0,-0.000000,0.000000,1,0.075562,-0.243576,0.000000,-0.358658,-0.034027,0.000000,0.023000,-0.083000,-0.007000,FlatInitial,Hold,0
06:56:21.645 PM 02/16/2016,Teleop Enabled,0,FALSE,0,NO ERROR,-6003.515625,6000.000000,-6000.000000,-6000.000000,Speed,Speed,0.970000,1.010000,1.620000,1.000000,103.000000,1,0,-0.000000,0.000000,1,0.108292,-0.330292,0.000000,-0.352753,-0.051773,0.000000,0.022000,-0.076000,0.008000,FlatInitial,Hold,0
06:56:21.745 PM 02/16/2016,Teleop Enabled,0,FALSE,0,NO ERROR,-6003.515625,5999.414062,-6000.000000,-6000.000000,Speed,Speed,0.980000,1.030000,1.380000,1.000000,101.000000,1,0,-0.000000,0.000000,1,0.133667,-0.376236,0.000000,-0.347717,-0.066193,0.000000,0.010000,-0.092000,0.012000,FlatInitial,Hold,0
06:56:21.845 PM 02/16/2016,Teleop Enabled,0,FALSE,0,NO ERROR,-6001.757812,5998.242188,-6000.000000,-6000.000000,Speed,Speed,0.970000,1.020000,1.420000,1.000000,101.000000,1,0,-0.000000,0.000000,1,0.162170,-0.444153,0.000000,-0.338776,-0.091171,0.000000,0.034000,-0.079000,0.039000,FlatInitial,Hold,0
06:56:21.945 PM 02/16/2016,Teleop Enabled,0,FALSE,0,NO ERROR,-6002.343750,5997.656250,-6000.000000,-6000.000000,Speed,Speed,0.980000,1.010000,1.170000,1.000000,102.000000,1,0,-0.000000,0.000000,1,0.182022,-0.505997,0.000000,-0.329865,-0.115417,0.000000,0.011000,-0.079000,0.033000,FlatInitial,Hold,0
06:56:22.046 PM 02/16/2016,Teleop Enabled,0,FALSE,0,NO ERROR,-6001.171875,5997.070312,-6000.000000,-6000.000000,Speed,Speed,0.970000,1.010000,1.140000,1.000000,101.000000,1,0,-0.000000,0.000000,1,0.206833,-0.557465,0.000000,-0.322021,-0.136932,0.000000,0.028000,-0.032000,0.002000,FlatInitial,Hold,0
06:56:22.146 PM 02/16/2016,Teleop Enabled,0,FALSE,0,NO ERROR,-6001.757812,5996.484375,-6000.000000,-6000.000000,Speed,Speed,0.970000,1.010000,1.010000,1.000000,102.000000,1,0,-0.000000,0.000000,1,0.240067,-0.627457,0.000000,-0.308426,-0.172897,0.000000,0.025000,-0.051000,0.002000,FlatInitial,Hold,0
06:56:22.246 PM 02/16/2016,Teleop Enabled,0,FALSE,0,NO ERROR,-6002.929688,5998.242188,-6000.000000,-6000.000000,Speed,Speed,0.980000,0.990000,0.940000,1.000000,103.000000,1,0,-0.000000,0.000000,1,0.000000,-0.672699,0.000000,-0.303467,-0.205612,0.000000,0.016000,-0.060000,-0.001000,FlatInitial,Hold,0
06:56:22.346 PM 02/16/2016,Teleop Enabled,0,FALSE,0,NO ERROR,-6003.515625,6000.000000,-6000.000000,-6000.000000,Speed,Speed,0.970000,0.990000,0.980000,1.000000,101.000000,1,0,-0.000000,0.000000,1,0.028458,-0.723099,0.000000,-0.302567,-0.240646,0.000000,0.033000,-0.069000,-0.018000,FlatInitial,Hold,0
06:56:22.446 PM 02/16/2016,Teleop Enabled,0,FALSE,0,NO ERROR,-6002.343750,6002.343750,-6000.000000,-6000.000000,Speed,Speed,0.980000,0.980000,0.850000,1.000000,102.000000,1,0,-0.000000,0.000000,1,0.055801,-0.769943,0.000000,-0.300232,-0.278397,0.000000,0.003000,-0.082000,0.009000,FlatInitial,Hold,0
06:56:22.546 PM 02/16/2016,Teleop Enabled,0,FALSE,0,NO ERROR,-6003.515625,6002.929688,-6000.000000,-6000.000000,Speed,Speed,0.970000,0.940000,0.860000,1.000000,100.000000,1,0,-0.000000,0.000000,1,0.073395,-0.809875,0.000000,-0.296906,-0.318085,0.000000,0.025000,-0.075000,-0.028000,FlatInitial,Hold,0
06:56:22.647 PM 02/16/2016,Teleop Enabled,0,FALSE,0,NO ERROR,-6004.687500,6001.171875,-6000.000000,-6000.000000,Speed,Speed,0.970000,0.920000,0.810000,1.000000,101.000000,1,0,-0.000000,0.000000,1,0.000000,-0.858826,0.000000,-0.293427,-0.360291,0.000000,0.018000,-0.040000,-0.004000,FlatInitial,Hold,0
06:56:22.747 PM 02/16/2016,Teleop Enabled,0,FALSE,0,NO ERROR,-6005.273438,5998.242188,-6000.000000,-6000.000000,Speed,Speed,0.970000,0.890000,0.790000,1.000000,100.000000,1,0,-0.000000,0.000000,1,0.023239,-0.899979,0.000000,-0.292847,-0.404449,0.000000,0.027000,-0.061000,-0.011000,FlatInitial,Hold,0
06:56:22.847 PM 02/16/2016,Teleop Enabled,0,FALSE,0,NO ERROR,-6001.757812,5997.656250,-6000.000000,-6000.000000,Speed,Speed,0.970000,0.840000,0.750000,1.000000,102.000000,1,0,-0.000000,0.000000,1,0.042267,-0.935852,0.000000,-0.291428,-0.441330,0.000000,0.033000,-0.028000,-0.012000,FlatInitial,Hold,0
06:56:22.948 PM 02/16/2016,Teleop Enabled,0,FALSE,0,NO ERROR,-6000.000000,5994.140625,-6000.000000,-6000.000000,Speed,Speed,0.970000,0.810000,0.760000,1.000000,101.000000,1,0,-0.000000,0.000000,1,0.010223,-0.982193,0.000000,-0.288971,-0.508987,0.000000,0.047000,-0.012000,0.001000,FlatInitial,Hold,0
06:56:23.049 PM 02/16/2016,Teleop Enabled,0,FALSE,0,NO ERROR,-5995.898438,5994.140625,-6000.000000,-6000.000000,Speed,Speed,0.970000,0.800000,0.810000,1.000000,103.000000,1,0,-0.000000,0.000000,1,0.036972,-0.032532,0.000000,-0.287674,-0.509689,0.000000,0.041000,-0.074000,0.006000,FlatInitial,Hold,0
06:56:23.150 PM 02/16/2016,Teleop Enabled,0,FALSE,0,NO ERROR,-5992.382812,5994.726562,-6000.000000,-6000.000000,Speed,Speed,0.970000,0.780000,0.760000,1.000000,102.000000,1,0,-0.000000,0.000000,1,0.061188,-0.056030,0.000000,-0.285538,-0.511734,0.000000,0.012000,-0.048000,0.006000,FlatInitial,Hold,0
06:56:23.250 PM 02/16/2016,Teleop Enabled,0,FALSE,0,NO ERROR,-5990.039062,5996.484375,-6000.000000,-6000.000000,Speed,Speed,0.970000,0.770000,0.750000,1.000000,102.000000,1,0,-0.000000,0.000000,1,0.087372,-0.099838,0.000000,-0.280945,-0.516418,0.000000,0.031000,-0.072000,-0.001000,FlatInitial,Hold,0
06:56:23.350 PM 02/16/2016,Teleop Enabled,0,FALSE,0,NO ERROR,-5990.625000,5997.656250,-6000.000000,-6000.000000,Speed,Speed,0.970000,0.760000,0.720000,1.000000,101.000000,1,0,-0.000000,0.000000,1,0.000000,-0.125610,0.000000,-0.278015,-0.521164,0.000000,0.005000,-0.046000,0.006000,FlatInitial,Hold,0
06:56:23.451 PM 02/16/2016,Teleop Enabled,0,FALSE,0,NO ERROR,-5994.140625,5999.414062,-6000.000000,-6000.000000,Speed,Speed,0.970000,0.770000,0.650000,1.000000,101.000000,1,0,-0.000000,0.000000,1,0.038177,-0.173065,0.000000,-0.276825,-0.530457,0.000000,0.032000,-0.022000,0.000000,FlatInitial,Hold,0
06:56:23.552 PM 02/16/2016,Teleop Enabled,0,FALSE,0,NO ERROR,-5997.656250,6001.171875,-6000.000000,-6000.000000,Speed,Speed,0.970000,0.770000,0.630000,1.000000,102.000000,1,0,-0.000000,0.000000,1,0.069046,-0.213882,0.000000,-0.274078,-0.540298,0.000000,0.048000,-0.043000,0.003000,FlatInitial,Hold,0
06:56:23.652 PM 02/16/2016,Teleop Enabled,0,FALSE,0,NO ERROR,-6000.585938,6000.000000,-6000.000000,-6000.000000,Speed,Speed,0.980000,0.760000,0.560000,1.000000,102.000000,1,0,-0.196850,0.196850,1,-0.011276,-0.237213,0.000000,-0.273438,-0.551926,0.000000,-0.129000,0.121000,0.084000,FlatInitial,Hold,0
06:56:23.753 PM 02/16/2016,Teleop Enabled,0,FALSE,0,NO ERROR,-5992.968750,5994.140625,-6000.000000,-6000.000000,Speed,Speed,3.260000,0.360000,0.700000,1.000000,101.000000,1,0,-0.322835,0.322835,1,-0.062164,-0.200699,0.000000,-0.275406,-0.562515,0.000000,-0.061000,0.070000,0.049000,FlatInitial,Hold,0
06:56:23.853 PM 02/16/2016,Teleop Enabled,0,FALSE,0,NO ERROR,-5959.570312,5958.398438,-6000.000000,-6000.000000,Speed,Speed,9.210000,-0.010000,0.850000,1.000000,101.000000,1,0,-0.330709,0.330709,1,0.000000,-0.146759,0.000000,-0.279312,-0.570892,0.000000,0.001000,-0.045000,0.168000,FlatInitial,Hold,0
06:56:23.953 PM 02/16/2016,Teleop Enabled,0,FALSE,0,NO ERROR,-5917.968750,5912.109375,-6000.000000,-6000.000000,Speed,Speed,16.580000,-0.230000,1.180000,1.000000,101.000000,1,0,-0.000000,0.000000,1,0.003281,-0.096436,0.000000,-0.279282,-0.575653,0.000000,0.030000,0.053000,0.177000,FlatInitial,Hold,0
06:56:24.055 PM 02/16/2016,Teleop Enabled,0,FALSE,0,NO ERROR,-5938.476562,5935.546875,-6000.000000,-6000.000000,Speed,Speed,25.480000,0.260000,1.400000,1.000000,100.000000,1,0,-0.000000,0.000000,1,0.143204,-0.202744,0.000000,-0.275375,-0.583054,0.000000,0.095000,0.005000,-0.045000,FlatInitial,Hold,0
06:56:24.156 PM 02/16/2016,Teleop Enabled,0,FALSE,0,NO ERROR,-6010.546875,5995.898438,-6000.000000,-6000.000000,Speed,Speed,29.880000,0.640000,1.000000,1.000000,102.000000,1,0,0.275591,-0.275591,1,0.149445,-0.292694,0.000000,-0.267975,-0.595795,0.000000,-0.048000,-0.057000,0.110000,FlatInitial,Hold,1
06:56:24.257 PM 02/16/2016,Teleop Enabled,0,FALSE,0,NO ERROR,-6043.359375,6043.945312,-6000.000000,-6000.000000,Speed,Speed,30.390000,1.170000,0.940000,1.000000,101.000000,1,0,0.622047,-0.622047,1,0.238953,-0.404007,0.000000,-0.259033,-0.613220,0.000000,0.131000,-0.169000,-0.036000,FlatInitial,Hold,0
06:56:24.357 PM 02/16/2016,Teleop Enabled,0,FALSE,0,NO ERROR,-5978.320312,5954.882812,-6000.000000,-6000.000000,Speed,Speed,24.270000,1.860000,0.740000,1.000000,102.000000,1,0,0.826772,-0.826772,1,0.413620,-0.644882,0.000000,-0.235703,-0.650909,0.000000,0.332000,-0.141000,0.002000,FlatInitial,Hold,1
06:56:24.458 PM 02/16/2016,Teleop Enabled,0,FALSE,0,NO ERROR,-5799.023438,5712.890625,-6000.000000,-6000.000000,Speed,Speed,10.450000,3.120000,0.010000,1.000000,102.000000,1,0,0.826772,-0.826772,1,0.604279,-0.722946,0.000000,-0.219345,-0.671875,0.000000,0.120000,0.192000,0.216000,FlatInitial,Hold,0
06:56:24.558 PM 02/16/2016,Teleop Enabled,0,FALSE,0,NO ERROR,-5661.914062,5537.109375,-6000.000000,-6000.000000,Speed,Speed,-10.740000,4.130000,-0.630000,1.000000,101.000000,1,0,0.826772,-0.826772,1,0.887634,-0.596146,0.000000,-0.181259,-0.705597,0.000000,0.183000,0.376000,-0.024000,FlatInitial,Hold,0
06:56:24.658 PM 02/16/2016,Teleop Enabled,0,FALSE,0,NO ERROR,-5660.156250,5456.835938,-6000.000000,-6000.000000,Speed,Speed,-38.060000,5.160000,-1.440000,1.000000,102.000000,1,0,-0.000000,0.000000,1,1.102142,0.026794,0.000000,-0.108368,-0.725967,0.000000,-0.054000,0.574000,-0.043000,FlatInitial,Hold,0
06:56:24.759 PM 02/16/2016,Teleop Enabled,0,FALSE,0,NO ERROR,-5807.812500,5442.773438,-6000.000000,-6000.000000,Speed,Speed,-67.160000,4.840000,-1.760000,1.000000,102.000000,1,0,-0.000000,0.000000,1,0.713455,0.180252,0.000000,-0.073334,-0.720535,0.000000,-0.366000,0.152000,-0.312000,FlatInitial,Hold,0
06:56:24.859 PM 02/16/2016,Teleop Enabled,0,FALSE,0,NO ERROR,-6084.375000,5684.765625,-6000.000000,-6000.000000,Speed,Speed,-87.120000,3.880000,-1.080000,1.000000,102.000000,1,0,-0.000000,0.000000,1,0.291275,0.077301,0.000000,-0.046875,-0.710938,0.000000,-0.123000,-0.196000,0.129000,FlatInitial,Hold,0
06:56:24.960 PM 02/16/2016,Teleop Enabled,0,FALSE,0,NO ERROR,-6232.031250,5848.242188,-6000.000000,-6000.000000,Speed,Speed,-101.660000,2.650000,0.650000,1.000000,103.000000,1,0,-0.000000,0.000000,1,0.159668,-0.024612,0.000000,-0.038361,-0.711380,0.000000,-0.192000,0.083000,-0.230000,FlatInitial,Hold,0
06:56:25.060 PM 02/16/2016,Teleop Enabled,0,FALSE,0,NO ERROR,-6287.695312,5957.226562,-6000.000000,-6000.000000,Speed,Speed,-107.310000,2.390000,0.820000,1.000000,102.000000,1,0,-0.000000,0.000000,1,0.016861,-0.060532,0.000000,-0.035446,-0.712967,0.000000,0.003000,-0.230000,0.056000,FlatInitial,Hold,0
06:56:25.162 PM 02/16/2016,Teleop Enabled,0,FALSE,0,NO ERROR,-6253.710938,5987.695312,-6000.000000,-6000.000000,Speed,Speed,-111.930000,1.660000,1.350000,1.000000,101.000000,1,0,-0.480315,0.480315,1,-0.031006,-0.362747,0.000000,-0.035889,-0.724121,0.000000,-0.115000,-0.489000,-0.079000,FlatInitial,Hold,0
06:56:25.262 PM 02/16/2016,Teleop Enabled,0,FALSE,0,NO ERROR,-6132.421875,5928.515625,-6000.000000,-6000.000000,Speed,Speed,-110.220000,0.830000,1.740000,1.000000,103.000000,1,0,-0.480315,0.480315,1,-0.086548,-0.681442,0.000000,-0.039078,-0.752563,0.000000,-0.163000,-0.178000,-0.198000,FlatInitial,Hold,0
06:56:25.364 PM 02/16/2016,Teleop Enabled,0,FALSE,0,NO ERROR,-5962.500000,5794.335938,-6000.000000,-6000.000000,Speed,Speed,-98.870000,-0.260000,2.300000,1.000000,102.000000,1,0,-0.000000,0.000000,1,-0.220108,-0.816666,0.000000,-0.047318,-0.791183,0.000000,-0.142000,-0.088000,-0.085000,FlatInitial,Hold,0
06:56:25.464 PM 02/16/2016,Teleop Enabled,0,FALSE,0,NO ERROR,-5922.656250,5818.945312,-6000.000000,-6000.000000,Speed,Speed,-88.840000,0.080000,2.600000,1.000000,100.000000,1,0,-0.000000,0.000000,1,-0.186981,-0.660217,0.000000,-0.060547,-0.835297,0.000000,0.152000,0.091000,-0.024000,FlatInitial,Hold,0
06:56:25.564 PM 02/16/2016,Teleop Enabled,0,FALSE,0,NO ERROR,-6000.585938,5953.125000,-6000.000000,-6000.000000,Speed,Speed,-80.540000,0.700000,1.970000,1.000000,102.000000,1,0,-0.000000,0.000000,1,-0.109100,0.000000,0.000000,-0.065979,-0.854202,0.000000,0.065000,-0.009000,0.152000,FlatInitial,Hold,1
06:56:25.665 PM 02/16/2016,Teleop Enabled,0,FALSE,0,NO ERROR,-6087.890625,6086.132812,-6000.000000,-6000.000000,Speed,Speed,-77.850000,1.150000,1.460000,1.000000,102.000000,1,0,-0.000000,0.000000,1,-0.029770,0.019669,0.000000,-0.069489,-0.854355,0.000000,0.210000,0.130000,0.005000,FlatInitial,Hold,0
06:56:25.765 PM 02/16/2016,Teleop Enabled,0,FALSE,0,NO ERROR,-6116.601562,6116.015625,-6000.000000,-6000.000000,Speed,Speed,-77.430000,1.170000,1.490000,1.000000,101.000000,1,0,-0.000000,0.000000,1,-0.015182,0.044571,0.000000,-0.069519,-0.851654,0.000000,-0.010000,0.018000,-0.082000,FlatInitial,Hold,0
06:56:25.866 PM 02/16/2016,Teleop Enabled,0,FALSE,0,NO ERROR,-6100.195312,6077.343750,-6000.000000,-6000.000000,Speed,Speed,-77.990000,1.320000,1.630000,1.000000,102.000000,1,0,-0.000000,0.000000,1,0.017975,0.104935,0.000000,-0.069443,-0.848267,0.000000,0.023000,0.076000,-0.047000,FlatInitial,Hold,0
06:56:25.967 PM 02/16/2016,Teleop Enabled,0,FALSE,0,NO ERROR,-6069.726562,6035.742188,-6000.000000,-6000.000000,Speed,Speed,-77.950000,1.150000,1.570000,1.000000,102.000000,1,0,-0.000000,0.000000,1,-0.010223,0.154388,0.000000,-0.069214,-0.841553,0.000000,-0.016000,0.095000,-0.073000,FlatInitial,Hold,0
06:56:26.067 PM 02/16/2016,Teleop Enabled,0,FALSE,0,NO ERROR,-6042.187500,6009.375000,-6000.000000,-6000.000000,Speed,Speed,-77.780000,1.210000,1.720000,1.000000,102.000000,1,0,-0.000000,0.000000,1,0.016800,0.256943,0.000000,-0.069031,-0.830673,0.000000,-0.005000,0.049000,-0.090000,FlatInitial,Hold,0
06:56:26.167 PM 02/16/2016,Teleop Enabled,0,FALSE,0,NO ERROR,-6024.609375,5998.828125,-6000.000000,-6000.000000,Speed,Speed,-77.880000,1.160000,1.800000,1.000000,104.000000,1,0,-0.000000,0.000000,1,0.009293,0.326462,0.000000,-0.068771,-0.815994,0.000000,0.015000,0.114000,-0.077000,FlatInitial,Hold,0
06:56:26.268 PM 02/16/2016,Teleop Enabled,0,FALSE,0,NO ERROR,-6013.476562,5997.656250,-6000.000000,-6000.000000,Speed,Speed,-77.900000,1.170000,1.900000,1.000000,101.000000,1,0,-0.000000,0.000000,1,-0.001099,0.423462,0.000000,-0.068756,-0.796616,0.000000,0.000000,0.064000,-0.107000,FlatInitial,Hold,0
06:56:26.368 PM 02/16/2016,Teleop Enabled,0,FALSE,0,NO ERROR,-6007.031250,5996.484375,-6000.000000,-6000.000000,Speed,Speed,-77.860000,1.190000,2.040000,1.000000,100.000000,1,0,-0.000000,0.000000,1,0.023407,0.532639,0.000000,-0.068100,-0.767731,0.000000,0.002000,0.099000,-0.081000,FlatInitial,Hold,0
06:56:26.468 PM 02/16/2016,Teleop Enabled,0,FALSE,0,NO ERROR,-6003.515625,5997.656250,-6000.000000,-6000.000000,Speed,Speed,-77.880000,1.200000,2.150000,1.000000,102.000000,1,0,-0.000000,0.000000,1,0.053467,0.640640,0.000000,-0.065765,-0.732162,0.000000,0.014000,0.095000,-0.126000,FlatInitial,Hold,0
06:56:26.568 PM 02/16/2016,Teleop Enabled,0,FALSE,0,NO ERROR,-6000.000000,6001.171875,-6000.000000,-6000.000000,Speed,Speed,-77.880000,1.230000,2.290000,1.000000,102.000000,1,0,-0.000000,0.000000,1,0.003464,0.709824,0.000000,-0.065720,-0.704803,0.000000,0.039000,0.091000,-0.115000,FlatInitial,Hold,0
06:56:26.670 PM 02/16/2016,Teleop Enabled,0,FALSE,0,NO ERROR,-6001.171875,6001.757812,-6000.000000,-6000.000000,Speed,Speed,-77.880000,1.290000,2.370000,1.000000,101.000000,1,0,-0.000000,0.000000,1,0.027344,0.790421,0.000000,-0.065002,-0.674347,0.000000,0.027000,0.089000,-0.101000,FlatInitial,Hold,0
06:56:26.770 PM 02/16/2016,Teleop Enabled,0,FALSE,0,NO ERROR,-6002.343750,6002.929688,-6000.000000,-6000.000000,Speed,Speed,-77.880000,1.310000,2.430000,1.000000,102.000000,1,0,-0.000000,0.000000,1,0.056885,0.897858,0.000000,-0.062134,-0.623077,0.000000,0.009000,0.083000,-0.105000,FlatInitial,Hold,0
06:56:26.871 PM 02/16/2016,Teleop Enabled,0,FALSE,0,NO ERROR,-6002.929688,6002.343750,-6000.000000,-6000.000000,Speed,Speed,-77.870000,1.340000,2.530000,1.000000,101.000000,1,0,-0.000000,0.000000,1,0.027023,0.986404,0.000000,-0.061478,-0.575577,0.000000,0.062000,0.077000,-0.111000,FlatInitial,Hold,0
06:56:26.972 PM 02/16/2016,Teleop Enabled,0,FALSE,0,NO ERROR,-6002.343750,6006.445312,-6000.000000,-6000.000000,Speed,Speed,-77.880000,1.390000,2.510000,1.000000,103.000000,1,0,-0.000000,0.000000,1,0.075195,1.070953,0.000000,-0.058685,-0.523727,0.000000,0.069000,0.067000,-0.120000,FlatInitial,Hold,0
06:56:27.073 PM 02/16/2016,Teleop Enabled,0,FALSE,0,NO ERROR,-6002.929688,6004.101562,-6000.000000,-6000.000000,Speed,Speed,-77.870000,1.420000,2.490000,1.000000,100.000000,1,0,-0.000000,0.000000,1,0.133057,1.148743,0.000000,-0.053131,-0.468002,0.000000,0.060000,0.091000,-0.100000,FlatInitial,Hold,0
06:56:27.173 PM 02/16/2016,Teleop Enabled,0,FALSE,0,NO ERROR,-6001.757812,6006.445312,-6000.000000,-6000.000000,Speed,Speed,-77.880000,1.470000,2.470000,1.000000,102.000000,1,0,-0.000000,0.000000,1,0.184647,1.230423,0.000000,-0.045013,-0.408157,0.000000,0.085000,0.082000,-0.105000,FlatInitial,Hold,0
06:56:27.274 PM 02/16/2016,Teleop Enabled,0,FALSE,0,NO ERROR,-5997.656250,6009.375000,-6000.000000,-6000.000000,Speed,Speed,-77.880000,1.510000,2.480000,1.000000,102.000000,1,0,-0.000000,0.000000,1,0.222000,1.317749,0.000000,-0.034454,-0.344040,0.000000,0.056000,0.114000,-0.118000,FlatInitial,Hold,0
06:56:27.374 PM 02/16/2016,Teleop Enabled,0,FALSE,0,NO ERROR,-5994.140625,6007.617188,-6000.000000,-6000.000000,Speed,Speed,-77.880000,1.550000,2.410000,1.000000,101.000000,1,0,-0.000000,0.000000,1,0.266083,1.405273,0.000000,-0.022034,-0.275452,0.000000,0.052000,0.086000,-0.092000,FlatInitial,Hold,0
06:56:27.474 PM 02/16/2016,Teleop Enabled,0,FALSE,0,NO ERROR,-5991.210938,6003.515625,-6000.000000,-6000.000000,Speed,Speed,-77.880000,1.560000,2.420000,1.000000,102.000000,1,0,-0.000000,0.000000,1,0.298599,1.477280,0.000000,-0.007675,-0.202972,0.000000,0.037000,0.062000,-0.086000,FlatInitial,Hold,0
06:56:27.576 PM 02/16/2016,Teleop Enabled,0,FALSE,0,NO ERROR,-5988.867188,6000.585938,-6000.000000,-6000.000000,Speed,Speed,-77.890000,1.570000,2.420000,1.000000,101.000000,1,0,-0.000000,0.000000,1,0.328125,1.551239,0.000000,0.008118,-0.127014,0.000000,-0.006000,0.062000,-0.095000,FlatInitial,Hold,0
06:56:27.676 PM 02/16/2016,Teleop Enabled,0,FALSE,0,NO ERROR,-5993.554688,5996.484375,-6000.000000,-6000.000000,Speed,Speed,-77.890000,1.560000,2.460000,1.000000,102.000000,1,0,-0.000000,0.000000,1,0.353378,1.625473,0.000000,0.025177,-0.047211,0.000000,0.020000,0.044000,-0.111000,FlatInitial,Hold,0
06:56:27.777 PM 02/16/2016,Teleop Enabled,0,FALSE,0,NO ERROR,-5995.312500,5992.968750,-6000.000000,-6000.000000,Speed,Speed,-77.890000,1.530000,2.430000,1.000000,101.000000,1,0,-0.000000,0.000000,1,0.385696,1.685455,0.000000,0.043869,0.035675,0.000000,0.050000,0.080000,-0.077000,FlatInitial,Hold,0
06:56:27.877 PM 02/16/2016,Teleop Enabled,0,FALSE,0,NO ERROR,-5999.414062,5989.453125,-6000.000000,-6000.000000,Speed,Speed,-77.890000,1.540000,2.490000,1.000000,102.000000,1,0,-0.000000,0.000000,1,0.426270,1.762299,0.000000,0.064178,0.122177,0.000000,0.015000,0.089000,-0.135000,FlatInitial,Hold,0
06:56:27.978 PM 02/16/2016,Teleop Enabled,0,FALSE,0,NO ERROR,-6001.757812,5995.898438,-6000.000000,-6000.000000,Speed,Speed,-77.890000,1.550000,2.530000,1.000000,102.000000,1,0,-0.000000,0.000000,1,0.453461,1.840820,0.000000,0.086349,0.212646,0.000000,0.041000,0.091000,-0.124000,FlatInitial,Hold,0
06:56:28.078 PM 02/16/2016,Teleop Enabled,0,FALSE,0,NO ERROR,-6004.101562,5998.242188,-6000.000000,-6000.000000,Speed,Speed,-77.890000,1.580000,2.550000,1.000000,102.000000,1,0,-0.000000,0.000000,1,0.488052,1.927460,0.000000,0.110046,0.307343,0.000000,0.041000,0.091000,-0.124000,FlatInitial,Hold,0
06:56:28.178 PM 02/16/2016,Teleop Enabled,0,FALSE,0,NO ERROR,-6005.859375,6001.171875,-6000.000000,-6000.000000,Speed,Speed,-77.900000,1.570000,2.570000,1.000000,101.000000,1,0,-0.000000,0.000000,1,0.525391,2.002716,0.000000,0.135773,0.406082,0.000000,0.036000,0.065000,-0.106000,FlatInitial,Hold,0
06:56:28.279 PM 02/16/2016,Teleop Enabled,0,FALSE,0,NO ERROR,-6005.859375,6004.101562,-6000.000000,-6000.000000,Speed,Speed,-77.900000,1.600000,2.530000,1.000000,101.000000,1,0,-0.000000,0.000000,1,0.575897,2.082397,0.000000,0.163498,0.508514,0.000000,0.035000,0.078000,-0.104000,FlatInitial,Hold,0
06:56:28.380 PM 02/16/2016,Teleop Enabled,0,FALSE,0,NO ERROR,-6006.445312,6005.859375,-6000.000000,-6000.000000,Speed,Speed,-77.900000,1.610000,2.470000,1.000000,102.000000,1,0,-0.000000,0.000000,1,0.625381,2.159271,0.000000,0.193741,0.614899,0.000000,0.035000,0.078000,-0.104000,FlatInitial,Hold,0
06:56:28.480 PM 02/16/2016,Teleop Enabled,0,FALSE,0,NO ERROR,-6007.031250,6006.445312,-6000.000000,-6000.000000,Speed,Speed,-77.900000,1.600000,2.420000,1.000000,101.000000,1,0,-0.000000,0.000000,1,0.691422,2.236938,0.000000,0.233612,0.747101,0.000000,0.049000,0.062000,-0.115000,FlatInitial,Hold,0
06:56:28.581 PM 02/16/2016,Teleop Enabled,0,FALSE,0,NO ERROR,-6007.031250,6005.273438,-6000.000000,-6000.000000,Speed,Speed,-77.900000,1.630000,2.370000,1.000000,103.000000,1,0,-0.000000,0.000000,1,0.744110,2.311462,0.000000,0.269638,0.861221,0.000000,0.049000,0.062000,-0.115000,FlatInitial,Hold,0
06:56:28.681 PM 02/16/2016,Teleop Enabled,0,FALSE,0,NO ERROR,-6005.859375,6005.273438,-6000.000000,-6000.000000,Speed,Speed,-77.910000,1.660000,2.290000,1.000000,101.000000,1,0,-0.000000,0.000000,1,0.785126,2.385025,0.000000,0.308121,0.979050,0.000000,0.063000,0.084000,-0.093000,FlatInitial,Hold,0
06:56:28.781 PM 02/16/2016,Teleop Enabled,0,FALSE,0,NO ERROR,-6002.343750,6005.273438,-6000.000000,-6000.000000,Speed,Speed,-77.910000,1.690000,2.190000,1.000000,101.000000,1,0,-0.000000,0.000000,1,0.842743,2.440567,0.000000,0.349030,1.100098,0.000000,0.046000,0.023000,-0.098000,FlatInitial,Hold,0
