Time,RobotMode,AutoToRun,ErrorStatus, ErrorCode,ErrorSource,ActualRPM1,ActualRPM2,DesiredRPM1,DesiredRPM2,ControlMode1,ControlMode2,NavXYaw,NavXRoll,NavXPitch,ShooterState,LoopTime,IsLevel,IsAutoTargeting,LeftMotorOutput,RightMotorOutput,IsHaloDrive,NavXVelocityX,NavXVelocityY,NavXVelocityZ,NavXDisplacementX,NavXDisplacementY,NavXDisplacementZ,NavXAccelerationX,NavXAccelerationY,NavXAccelerationZ,AutoDefendState,AngeMotorState,Photoeye
08:26:44.844 PM 02/17/2016,Teleop Enabled,0,TRUE,91,Variant To Data in WPI_DigitalInputRefNum Registry Get.vi->Periodic Tasks.vi->Robot Main.vi,0.000000,0.000000,0.000000,0.000000,Speed,Speed,-0.020000,1.020000,1.560000,0.000000,104.000000,1,0,-0.000000,0.000000,1,0.000000,0.000000,0.000000,6.071030,-18.705460,0.000000,0.000000,-0.001000,0.001000,FlatInitial,ResetBack,0
08:26:44.944 PM 02/17/2016,Teleop Enabled,0,TRUE,-44007,<LOCATION>WPI_DigitalInputRefNum Registry Get.vi<CALLSTACK>WPI_DigitalInputRefNum Registry Get.vi< <Periodic Tasks.vi< <Robot Main.vi,0.000000,0.000000,0.000000,0.000000,Speed,Speed,-0.020000,1.020000,1.570000,0.000000,104.000000,1,0,-0.000000,0.000000,1,-0.010315,0.010345,0.000000,6.070816,-18.705307,0.000000,0.016000,-0.006000,0.001000,FlatInitial,ResetBack,0
08:26:45.045 PM 02/17/2016,Teleop Enabled,0,FALSE,0,NO ERROR,0.000000,0.000000,0.000000,0.000000,Speed,Speed,-0.060000,1.050000,1.540000,0.000000,101.000000,1,0,-0.000000,0.000000,1,0.013229,0.000000,0.000000,6.071091,-18.705185,0.000000,0.003000,-0.018000,-0.007000,FlatInitial,ResetBack,0
08:26:45.145 PM 02/17/2016,Teleop Enabled,0,FALSE,0,NO ERROR,0.000000,0.000000,0.000000,0.000000,Speed,Speed,-0.080000,1.000000,1.600000,0.000000,101.000000,1,0,-0.000000,0.000000,1,0.000000,0.000000,0.000000,6.071091,-18.705414,0.000000,0.009000,0.009000,-0.014000,FlatInitial,ResetBack,0
08:26:45.245 PM 02/17/2016,Teleop Enabled,0,FALSE,0,NO ERROR,0.000000,0.000000,0.000000,0.000000,Speed,Speed,-0.060000,1.040000,1.620000,0.000000,103.000000,1,0,-0.000000,0.000000,1,0.000000,0.000000,0.000000,6.071091,-18.705414,0.000000,-0.005000,0.027000,0.019000,FlatInitial,ResetBack,0
08:26:45.349 PM 02/17/2016,Teleop Enabled,0,FALSE,0,NO ERROR,0.000000,0.000000,0.000000,0.000000,Speed,Speed,-0.050000,1.000000,1.630000,0.000000,101.000000,1,0,-0.000000,0.000000,1,0.000000,0.000000,0.000000,6.071091,-18.705231,0.000000,0.016000,-0.028000,0.057000,FlatInitial,ResetBack,0
08:26:45.445 PM 02/17/2016,Teleop Enabled,0,FALSE,0,NO ERROR,0.000000,0.000000,0.000000,0.000000,Speed,Speed,-0.090000,1.000000,1.600000,0.000000,101.000000,1,0,-0.000000,0.000000,1,0.003006,0.002548,0.000000,6.071320,-18.705322,0.000000,-0.014000,0.016000,-0.017000,FlatInitial,ResetBack,0
08:26:45.545 PM 02/17/2016,Teleop Enabled,0,FALSE,0,NO ERROR,0.000000,0.000000,0.000000,0.000000,Speed,Speed,-0.080000,1.030000,1.650000,0.000000,101.000000,1,0,-0.000000,0.000000,1,0.005600,0.000000,0.000000,6.071411,-18.705322,0.000000,-0.023000,0.000000,-0.004000,FlatInitial,ResetBack,0
08:26:45.646 PM 02/17/2016,Teleop Enabled,0,FALSE,0,NO ERROR,0.000000,0.000000,0.000000,0.000000,Speed,Speed,-0.080000,1.010000,1.660000,0.000000,100.000000,1,0,-0.000000,0.000000,1,0.000000,0.000000,0.000000,6.071426,-18.705322,0.000000,0.006000,-0.005000,-0.006000,FlatInitial,ResetBack,0
08:26:45.746 PM 02/17/2016,Teleop Enabled,0,FALSE,0,NO ERROR,0.000000,0.000000,0.000000,0.000000,Speed,Speed,-0.070000,1.010000,1.670000,0.000000,101.000000,1,0,-0.000000,0.000000,1,0.000000,0.000000,0.000000,6.071426,-18.705322,0.000000,0.006000,-0.005000,-0.006000,FlatInitial,ResetBack,0
08:26:45.847 PM 02/17/2016,Teleop Enabled,0,FALSE,0,NO ERROR,0.000000,0.000000,0.000000,0.000000,Speed,Speed,-0.080000,1.010000,1.680000,0.000000,101.000000,1,0,-0.000000,0.000000,1,0.000000,0.000000,0.000000,6.071426,-18.705322,0.000000,-0.001000,0.003000,0.007000,FlatInitial,ResetBack,0
08:26:45.948 PM 02/17/2016,Teleop Enabled,0,FALSE,0,NO ERROR,0.000000,0.000000,0.000000,0.000000,Speed,Speed,-0.080000,1.010000,1.690000,0.000000,102.000000,1,0,-0.000000,0.000000,1,0.000000,0.000000,0.000000,6.071426,-18.705322,0.000000,0.000000,-0.002000,0.000000,FlatInitial,ResetBack,0
08:26:46.049 PM 02/17/2016,Teleop Enabled,0,FALSE,0,NO ERROR,0.000000,0.000000,0.000000,0.000000,Speed,Speed,-0.080000,1.010000,1.690000,0.000000,103.000000,1,0,-0.000000,0.000000,1,0.000000,0.000000,0.000000,6.071426,-18.705322,0.000000,0.002000,0.003000,-0.003000,FlatInitial,ResetBack,1
08:26:46.153 PM 02/17/2016,Teleop Enabled,0,FALSE,0,NO ERROR,0.000000,0.000000,0.000000,0.000000,Speed,Speed,-0.080000,1.000000,1.710000,0.000000,105.000000,1,0,-0.000000,0.000000,1,0.000000,0.000000,0.000000,6.071426,-18.705322,0.000000,-0.002000,0.000000,0.003000,FlatInitial,ResetForward,1
08:26:46.254 PM 02/17/2016,Teleop Enabled,0,FALSE,0,NO ERROR,0.000000,0.000000,0.000000,0.000000,Speed,Speed,-0.080000,1.010000,1.730000,0.000000,101.000000,1,0,-0.000000,0.000000,1,0.000000,0.000000,0.000000,6.071426,-18.705322,0.000000,-0.002000,0.000000,0.003000,FlatInitial,ResetForward,1
08:26:46.354 PM 02/17/2016,Teleop Enabled,0,FALSE,0,NO ERROR,0.000000,0.000000,0.000000,0.000000,Speed,Speed,-0.070000,1.000000,1.750000,0.000000,106.000000,1,0,-0.000000,0.000000,1,0.000000,0.000000,0.000000,6.071426,-18.705322,0.000000,0.001000,0.002000,0.004000,FlatInitial,ResetForward,1
08:26:46.454 PM 02/17/2016,Teleop Enabled,0,FALSE,0,NO ERROR,0.000000,0.000000,0.000000,0.000000,Speed,Speed,-0.020000,1.000000,1.810000,0.000000,101.000000,1,0,-0.000000,0.000000,1,0.000000,0.000000,0.000000,6.071426,-18.705124,0.000000,0.003000,0.009000,-0.002000,FlatInitial,ResetForward,1
08:26:46.555 PM 02/17/2016,Teleop Enabled,0,FALSE,0,NO ERROR,0.000000,0.000000,0.000000,0.000000,Speed,Speed,-0.030000,1.020000,1.710000,0.000000,100.000000,1,0,-0.000000,0.000000,1,0.000000,0.023438,0.000000,6.071426,-18.704422,0.000000,0.003000,0.009000,-0.002000,FlatInitial,ResetForward,1
08:26:46.656 PM 02/17/2016,Teleop Enabled,0,FALSE,0,NO ERROR,0.000000,0.000000,0.000000,0.000000,Speed,Speed,-0.120000,1.000000,1.870000,0.000000,101.000000,1,0,-0.000000,0.000000,1,0.000000,-0.020706,0.000000,6.071426,-18.704926,0.000000,0.009000,-0.005000,-0.028000,FlatInitial,ResetForward,1
08:26:46.758 PM 02/17/2016,Teleop Enabled,0,FALSE,0,NO ERROR,0.000000,0.000000,0.000000,0.000000,Speed,Speed,-0.060000,1.010000,1.640000,0.000000,101.000000,1,0,-0.000000,0.000000,1,0.000000,0.000000,0.000000,6.071426,-18.705154,0.000000,-0.006000,0.001000,0.005000,FlatInitial,ResetForward,0
08:26:46.858 PM 02/17/2016,Teleop Enabled,0,FALSE,0,NO ERROR,0.000000,0.000000,0.000000,0.000000,Speed,Speed,-0.100000,1.010000,1.710000,0.000000,101.000000,1,0,-0.000000,0.000000,1,0.000000,0.000000,0.000000,6.071426,-18.705154,0.000000,-0.011000,-0.013000,-0.022000,FlatInitial,Reset,0
08:26:46.958 PM 02/17/2016,Teleop Enabled,0,FALSE,0,NO ERROR,0.000000,0.000000,0.000000,0.000000,Speed,Speed,-0.090000,1.010000,1.680000,0.000000,101.000000,1,0,-0.000000,0.000000,1,0.000000,0.003387,0.000000,6.071426,-18.705124,0.000000,-0.009000,0.028000,-0.016000,FlatInitial,Hold,0
08:26:47.058 PM 02/17/2016,Teleop Enabled,0,FALSE,0,NO ERROR,0.000000,0.000000,0.000000,0.000000,Speed,Speed,-0.100000,1.020000,1.790000,0.000000,105.000000,1,0,-0.000000,0.000000,1,0.000000,-0.004166,0.000000,6.071426,-18.704559,0.000000,-0.007000,-0.035000,0.028000,FlatInitial,Hold,0
08:26:47.158 PM 02/17/2016,Teleop Enabled,0,FALSE,0,NO ERROR,0.000000,0.000000,0.000000,0.000000,Speed,Speed,-0.110000,1.000000,1.700000,0.000000,102.000000,1,0,-0.000000,0.000000,1,0.000000,-0.019974,0.000000,6.071426,-18.705215,0.000000,0.006000,0.007000,0.018000,FlatInitial,Hold,0
08:26:47.259 PM 02/17/2016,Teleop Enabled,0,FALSE,0,NO ERROR,0.000000,0.000000,0.000000,0.000000,Speed,Speed,-0.100000,1.010000,1.740000,0.000000,101.000000,1,0,-0.000000,0.000000,1,0.000000,0.000000,0.000000,6.071426,-18.705002,0.000000,-0.005000,-0.010000,0.014000,FlatInitial,Hold,0
08:26:47.360 PM 02/17/2016,Teleop Enabled,0,FALSE,0,NO ERROR,0.000000,0.000000,-6000.000000,-6000.000000,Speed,Speed,-0.110000,1.020000,1.730000,1.000000,101.000000,1,0,-0.000000,0.000000,1,0.000000,0.000000,0.000000,6.071426,-18.705002,0.000000,0.003000,-0.010000,0.007000,FlatInitial,Hold,0
08:26:47.460 PM 02/17/2016,Teleop Enabled,0,FALSE,0,NO ERROR,-121.582031,86.865234,-6000.000000,-6000.000000,Speed,Speed,-0.090000,1.020000,1.720000,2.000000,103.000000,1,0,-0.000000,0.000000,1,0.000000,0.013412,0.000000,6.071426,-18.704758,0.000000,0.031000,-0.001000,-0.018000,FlatInitial,Hold,0
08:26:47.561 PM 02/17/2016,Teleop Enabled,0,FALSE,0,NO ERROR,-1497.509766,1370.214844,0.000000,0.000000,Speed,Speed,-0.110000,1.030000,1.750000,2.000000,102.000000,1,0,-0.000000,0.000000,1,0.000000,-0.003250,0.000000,6.071564,-18.704437,0.000000,0.001000,-0.048000,-0.024000,FlatInitial,Hold,0
08:26:47.662 PM 02/17/2016,Teleop Enabled,0,FALSE,0,NO ERROR,-1876.611328,1370.214844,0.000000,0.000000,Speed,Speed,-0.100000,1.020000,1.700000,2.000000,101.000000,1,0,-0.000000,0.000000,1,-0.005203,0.000000,0.000000,6.071487,-18.704590,0.000000,0.000000,-0.006000,0.030000,FlatInitial,Hold,0
08:26:47.762 PM 02/17/2016,Teleop Enabled,0,FALSE,0,NO ERROR,-1621.582031,1360.107422,0.000000,0.000000,Speed,Speed,-0.100000,1.020000,1.700000,2.000000,100.000000,1,0,-0.000000,0.000000,1,0.000000,-0.009277,0.000000,6.071350,-18.704742,0.000000,0.000000,-0.006000,0.030000,FlatInitial,Hold,0
08:26:47.863 PM 02/17/2016,Teleop Enabled,0,FALSE,0,NO ERROR,-1621.582031,996.679687,0.000000,0.000000,Speed,Speed,-0.100000,1.020000,1.700000,2.000000,102.000000,1,0,-0.000000,0.000000,1,0.000000,0.003052,0.000000,6.071350,-18.704926,0.000000,0.002000,0.004000,-0.007000,FlatInitial,Hold,0
08:26:47.963 PM 02/17/2016,Teleop Enabled,0,FALSE,0,NO ERROR,-1144.189453,996.679687,0.000000,0.000000,Speed,Speed,-0.110000,1.020000,1.720000,2.000000,101.000000,1,0,-0.000000,0.000000,1,0.000000,0.000000,0.000000,6.071350,-18.704819,0.000000,-0.006000,0.003000,-0.037000,FlatInitial,Hold,0
08:26:48.063 PM 02/17/2016,Teleop Enabled,0,FALSE,0,NO ERROR,-961.376953,659.179688,0.000000,0.000000,Speed,Speed,-0.110000,1.020000,1.700000,2.000000,101.000000,1,0,-0.000000,0.000000,1,0.000000,0.000000,0.000000,6.071350,-18.704819,0.000000,-0.006000,0.003000,-0.037000,FlatInitial,Hold,0
08:26:48.163 PM 02/17/2016,Teleop Enabled,0,FALSE,0,NO ERROR,-771.972656,376.318359,0.000000,0.000000,Speed,Speed,-0.110000,1.020000,1.710000,2.000000,101.000000,1,0,-0.000000,0.000000,1,0.000000,0.000000,0.000000,6.071350,-18.704819,0.000000,0.000000,-0.006000,0.000000,FlatInitial,Hold,0
08:26:48.264 PM 02/17/2016,Teleop Enabled,0,FALSE,0,NO ERROR,-569.677734,33.544922,0.000000,0.000000,Speed,Speed,-0.110000,1.020000,1.700000,2.000000,105.000000,1,0,-0.000000,0.000000,1,0.000000,0.000000,0.000000,6.071350,-18.704819,0.000000,0.000000,-0.006000,0.000000,FlatInitial,Hold,0
08:26:48.364 PM 02/17/2016,Teleop Enabled,0,FALSE,0,NO ERROR,-376.025391,33.544922,0.000000,0.000000,Speed,Speed,-0.110000,1.010000,1.710000,2.000000,103.000000,1,0,-0.000000,0.000000,1,0.000000,0.000000,0.000000,6.071350,-18.704819,0.000000,0.000000,-0.003000,-0.026000,FlatInitial,Hold,0
08:26:48.465 PM 02/17/2016,Teleop Enabled,0,FALSE,0,NO ERROR,-255.468750,0.000000,0.000000,0.000000,Speed,Speed,-0.110000,1.020000,1.700000,2.000000,102.000000,1,0,-0.000000,0.000000,1,0.000000,0.000000,0.000000,6.071350,-18.704819,0.000000,0.001000,-0.001000,-0.010000,FlatInitial,Hold,0
08:26:48.565 PM 02/17/2016,Teleop Enabled,0,FALSE,0,NO ERROR,-90.820312,0.000000,0.000000,0.000000,Speed,Speed,-0.110000,1.020000,1.700000,2.000000,102.000000,1,0,-0.000000,0.000000,1,0.000000,0.000000,0.000000,6.071350,-18.704819,0.000000,-0.002000,0.001000,-0.020000,FlatInitial,Hold,0
08:26:48.668 PM 02/17/2016,Teleop Enabled,0,FALSE,0,NO ERROR,-90.820312,0.000000,0.000000,0.000000,Speed,Speed,-0.100000,1.020000,1.700000,3.000000,100.000000,1,0,-0.000000,0.000000,1,0.000000,0.000000,0.000000,6.071350,-18.704819,0.000000,-0.001000,0.001000,-0.003000,FlatInitial,Hold,0
08:26:48.769 PM 02/17/2016,Teleop Enabled,0,FALSE,0,NO ERROR,52.148438,0.000000,4000.000000,4000.000000,Speed,Speed,-0.110000,1.030000,1.680000,3.000000,101.000000,1,0,-0.000000,0.000000,1,0.000000,0.000000,0.000000,6.071350,-18.704819,0.000000,-0.001000,0.001000,-0.003000,FlatInitial,Hold,0
08:26:48.873 PM 02/17/2016,Teleop Enabled,0,FALSE,0,NO ERROR,1385.449219,-27.539062,4000.000000,4000.000000,Speed,Speed,-0.100000,1.040000,1.670000,3.000000,101.000000,1,0,-0.000000,0.000000,1,0.000000,0.000000,0.000000,6.071350,-18.704987,0.000000,-0.015000,0.019000,0.010000,FlatInitial,Hold,0
08:26:48.973 PM 02/17/2016,Teleop Enabled,0,FALSE,0,NO ERROR,3065.332031,-1140.234375,4000.000000,4000.000000,Speed,Speed,-0.110000,1.040000,1.680000,3.000000,101.000000,1,0,-0.000000,0.000000,1,0.000000,-0.008499,0.000000,6.071350,-18.705109,0.000000,-0.019000,0.015000,0.075000,FlatInitial,Hold,0
08:26:49.073 PM 02/17/2016,Teleop Enabled,0,FALSE,0,NO ERROR,3903.955078,-2762.255859,4000.000000,4000.000000,Speed,Speed,-0.110000,1.040000,1.680000,3.000000,102.000000,1,0,-0.000000,0.000000,1,0.004440,0.002029,0.000000,6.071091,-18.705414,0.000000,-0.019000,0.015000,0.075000,FlatInitial,Hold,0
08:26:49.174 PM 02/17/2016,Teleop Enabled,0,FALSE,0,NO ERROR,4072.412109,-3705.761719,4000.000000,4000.000000,Speed,Speed,-0.110000,1.070000,1.730000,3.000000,100.000000,1,0,-0.000000,0.000000,1,0.004440,0.002029,0.000000,6.071091,-18.705414,0.000000,0.010000,-0.021000,-0.029000,FlatInitial,Hold,0
08:26:49.273 PM 02/17/2016,Teleop Enabled,0,FALSE,0,NO ERROR,4064.208984,-3938.085937,4000.000000,4000.000000,Speed,Speed,-0.110000,1.090000,1.730000,3.000000,101.000000,1,0,-0.000000,0.000000,1,0.009979,0.014938,0.000000,6.071487,-18.704498,0.000000,-0.029000,-0.004000,-0.015000,FlatInitial,Hold,0
08:26:49.375 PM 02/17/2016,Teleop Enabled,0,FALSE,0,NO ERROR,4015.722656,-3919.921875,4000.000000,4000.000000,Speed,Speed,-0.110000,1.050000,1.680000,3.000000,102.000000,1,0,-0.000000,0.000000,1,-0.008850,-0.012192,0.000000,6.071365,-18.704376,0.000000,-0.006000,0.051000,-0.046000,FlatInitial,Hold,0
08:26:49.476 PM 02/17/2016,Teleop Enabled,0,FALSE,0,NO ERROR,3988.330078,-3889.599609,4000.000000,4000.000000,Speed,Speed,-0.110000,1.010000,1.620000,3.000000,101.000000,1,0,-0.000000,0.000000,1,-0.018799,-0.017731,0.000000,6.070862,-18.704865,0.000000,0.000000,0.017000,-0.079000,FlatInitial,Hold,0
08:26:49.576 PM 02/17/2016,Teleop Enabled,0,FALSE,0,NO ERROR,3988.330078,-3912.158203,4000.000000,4000.000000,Speed,Speed,-0.110000,0.940000,1.480000,3.000000,101.000000,1,0,-0.000000,0.000000,1,-0.017227,-0.050034,0.000000,6.070358,-18.706970,0.000000,0.000000,0.017000,-0.079000,FlatInitial,Hold,0
08:26:49.678 PM 02/17/2016,Teleop Enabled,0,FALSE,0,NO ERROR,3980.566406,-3956.250000,4000.000000,4000.000000,Speed,Speed,-0.110000,0.930000,1.440000,3.000000,108.000000,1,0,-0.000000,0.000000,1,0.000000,-0.069061,0.000000,6.070175,-18.711502,0.000000,0.000000,-0.005000,0.034000,FlatInitial,Hold,0
08:26:49.778 PM 02/17/2016,Teleop Enabled,0,FALSE,0,NO ERROR,3981.738281,-3981.298828,4000.000000,4000.000000,Speed,Speed,-0.110000,0.950000,1.420000,3.000000,110.000000,1,0,-0.000000,0.000000,1,0.002975,-0.004410,0.000000,6.070206,-18.712296,0.000000,0.039000,0.032000,-0.094000,FlatInitial,Hold,0
08:26:49.878 PM 02/17/2016,Teleop Enabled,0,FALSE,0,NO ERROR,3988.769531,-3986.132812,4000.000000,4000.000000,Speed,Speed,-0.110000,0.960000,1.460000,3.000000,100.000000,1,0,-0.000000,0.000000,1,0.012375,0.032318,0.000000,6.070633,-18.711441,0.000000,0.012000,0.008000,-0.077000,FlatInitial,Hold,0
08:26:49.978 PM 02/17/2016,Teleop Enabled,0,FALSE,0,NO ERROR,3995.947266,-3986.132812,4000.000000,4000.000000,Speed,Speed,-0.120000,1.000000,1.500000,3.000000,102.000000,1,0,-0.000000,0.000000,1,0.018234,0.000000,0.000000,6.071259,-18.711105,0.000000,0.031000,0.009000,0.018000,FlatInitial,Hold,0
08:26:50.078 PM 02/17/2016,Teleop Enabled,0,FALSE,0,NO ERROR,3998.876953,-3999.462891,4000.000000,4000.000000,Speed,Speed,-0.120000,1.030000,1.540000,3.000000,101.000000,1,0,-0.000000,0.000000,1,0.027039,0.005219,0.000000,6.072784,-18.711060,0.000000,0.016000,0.000000,0.000000,FlatInitial,Hold,0
08:26:50.180 PM 02/17/2016,Teleop Enabled,0,FALSE,0,NO ERROR,4002.392578,-4016.308594,4000.000000,4000.000000,Speed,Speed,-0.120000,1.050000,1.560000,3.000000,105.000000,1,0,-0.000000,0.000000,1,0.000000,0.000000,0.000000,6.072784,-18.710449,0.000000,0.001000,0.002000,-0.062000,FlatInitial,Hold,0
08:26:50.280 PM 02/17/2016,Teleop Enabled,0,FALSE,0,NO ERROR,4006.787109,-4018.652344,4000.000000,4000.000000,Speed,Speed,-0.120000,1.060000,1.550000,3.000000,110.000000,1,0,-0.000000,0.000000,1,0.009537,-0.003677,0.000000,6.073013,-18.710571,0.000000,0.001000,0.002000,-0.062000,FlatInitial,Hold,0
08:26:50.380 PM 02/17/2016,Teleop Enabled,0,FALSE,0,NO ERROR,4011.181641,-4004.589844,4000.000000,4000.000000,Speed,Speed,-0.120000,1.050000,1.540000,3.000000,102.000000,1,0,-0.000000,0.000000,1,0.005173,0.003708,0.000000,6.073105,-18.710526,0.000000,0.000000,-0.002000,0.050000,FlatInitial,Hold,0
08:26:50.480 PM 02/17/2016,Teleop Enabled,0,FALSE,0,NO ERROR,4011.767578,-4000.341797,4000.000000,4000.000000,Speed,Speed,-0.120000,1.060000,1.480000,3.000000,102.000000,1,0,-0.000000,0.000000,1,0.001984,-0.001923,0.000000,6.073257,-18.710571,0.000000,-0.007000,-0.070000,0.092000,FlatInitial,Hold,0
08:26:50.580 PM 02/17/2016,Teleop Enabled,0,FALSE,0,NO ERROR,4006.201172,-4008.984375,4000.000000,4000.000000,Speed,Speed,-0.120000,1.050000,1.440000,3.000000,102.000000,1,0,-0.000000,0.000000,1,0.011093,-0.020782,0.000000,6.073593,-18.711349,0.000000,-0.007000,-0.021000,0.049000,FlatInitial,Hold,0
08:26:50.680 PM 02/17/2016,Teleop Enabled,0,FALSE,0,NO ERROR,4004.736328,-4015.576172,4000.000000,4000.000000,Speed,Speed,-0.110000,1.020000,1.360000,3.000000,102.000000,1,0,-0.000000,0.000000,1,0.000000,-0.036987,0.000000,6.074051,-18.713043,0.000000,-0.015000,-0.017000,0.044000,FlatInitial,Hold,0
08:26:50.780 PM 02/17/2016,Teleop Enabled,0,FALSE,0,NO ERROR,4006.640625,-4009.277344,9000.000000,9000.000000,Speed,Speed,-0.120000,0.990000,1.310000,4.000000,105.000000,1,0,-0.000000,0.000000,1,0.005127,-0.039978,0.000000,6.074127,-18.714661,0.000000,-0.005000,-0.024000,0.038000,FlatInitial,Hold,0
08:26:50.881 PM 02/17/2016,Teleop Enabled,0,FALSE,0,NO ERROR,4103.320312,-4054.687500,9000.000000,9000.000000,Speed,Speed,-0.110000,0.960000,1.300000,4.000000,102.000000,1,0,-0.000000,0.000000,1,0.000000,-0.053421,0.000000,6.073669,-18.718124,0.000000,-0.005000,-0.024000,0.038000,FlatInitial,HighGoal,0
08:26:50.986 PM 02/17/2016,Teleop Enabled,0,FALSE,0,NO ERROR,5162.109375,-4923.632812,9000.000000,9000.000000,Speed,Speed,-0.110000,0.940000,1.280000,4.000000,100.000000,1,0,-0.000000,0.000000,1,-0.007950,-0.079178,0.000000,6.073517,-18.720398,0.000000,-0.013000,-0.033000,-0.231000,FlatInitial,Hold,0
08:26:51.087 PM 02/17/2016,Teleop Enabled,0,FALSE,0,NO ERROR,6382.031250,-6059.179688,9000.000000,9000.000000,Speed,Speed,-0.090000,0.960000,1.310000,4.000000,101.000000,1,0,-0.000000,0.000000,1,-0.033569,-0.105209,0.000000,6.072784,-18.726196,0.000000,0.151000,0.000000,0.239000,FlatInitial,HighGoal,0
08:26:51.188 PM 02/17/2016,Teleop Enabled,0,FALSE,0,NO ERROR,7406.250000,-7018.359375,9000.000000,9000.000000,Speed,Speed,-0.040000,1.010000,1.420000,4.000000,102.000000,1,0,-0.000000,0.000000,1,-0.018555,-0.082779,0.000000,6.071854,-18.729279,0.000000,-0.119000,0.010000,0.115000,FlatInitial,Hold,0
08:26:51.289 PM 02/17/2016,Teleop Enabled,0,FALSE,0,NO ERROR,8251.757812,-7848.046875,9000.000000,9000.000000,Speed,Speed,-0.010000,0.960000,1.230000,4.000000,102.000000,1,0,-0.000000,0.000000,1,-0.023193,-0.052887,0.000000,6.070099,-18.733551,0.000000,0.118000,0.144000,-0.069000,FlatInitial,Hold,0
08:26:51.390 PM 02/17/2016,Teleop Enabled,0,FALSE,0,NO ERROR,8785.546875,-8381.835938,9000.000000,9000.000000,Speed,Speed,-0.110000,0.930000,1.140000,4.000000,101.000000,1,0,-0.000000,0.000000,1,0.022797,-0.066559,0.000000,6.070633,-18.738266,0.000000,0.118000,0.144000,-0.069000,FlatInitial,Hold,0
08:26:51.491 PM 02/17/2016,Teleop Enabled,0,FALSE,0,NO ERROR,9016.406250,-8792.578125,9000.000000,9000.000000,Speed,Speed,-0.120000,1.010000,0.900000,4.000000,101.000000,1,0,-0.000000,0.000000,1,0.055176,-0.033142,0.000000,6.072006,-18.739685,0.000000,0.001000,-0.045000,0.017000,FlatInitial,Hold,0
08:26:51.591 PM 02/17/2016,Teleop Enabled,0,FALSE,0,NO ERROR,9163.476562,-8918.554688,9000.000000,9000.000000,Speed,Speed,-0.310000,0.960000,1.360000,4.000000,100.000000,1,0,-0.000000,0.000000,1,0.078110,-0.036163,0.000000,6.076050,-18.740601,0.000000,0.001000,-0.045000,0.017000,FlatInitial,Hold,0
08:26:51.691 PM 02/17/2016,Teleop Enabled,0,FALSE,0,NO ERROR,9212.109375,-9037.500000,9000.000000,9000.000000,Speed,Speed,-0.220000,0.940000,0.960000,4.000000,102.000000,1,0,-0.000000,0.000000,1,0.078110,-0.036163,0.000000,6.076050,-18.740601,0.000000,0.075000,-0.050000,0.049000,FlatInitial,Hold,0
08:26:51.791 PM 02/17/2016,Teleop Enabled,0,FALSE,0,NO ERROR,9219.726562,-9110.156250,9000.000000,9000.000000,Speed,Speed,-0.190000,1.000000,1.050000,4.000000,103.000000,1,0,-0.000000,0.000000,1,0.045120,-0.042313,0.000000,6.079590,-18.746399,0.000000,0.057000,0.236000,0.173000,FlatInitial,Hold,0
08:26:51.892 PM 02/17/2016,Teleop Enabled,0,FALSE,0,NO ERROR,9191.015625,-9133.007812,9000.000000,9000.000000,Speed,Speed,-0.230000,0.950000,1.500000,4.000000,102.000000,1,0,-0.000000,0.000000,1,0.125534,0.039856,0.000000,6.089233,-18.744553,0.000000,-0.120000,-0.150000,0.030000,FlatInitial,Hold,0
08:26:51.993 PM 02/17/2016,Teleop Enabled,0,FALSE,0,NO ERROR,9142.382812,-9121.289062,9000.000000,9000.000000,Speed,Speed,-0.200000,1.010000,1.200000,4.000000,102.000000,1,0,-0.000000,0.000000,1,0.073196,0.031311,0.000000,6.093277,-18.743332,0.000000,-0.168000,-0.060000,-0.069000,FlatInitial,Hold,0
08:26:52.094 PM 02/17/2016,Teleop Enabled,0,FALSE,0,NO ERROR,9096.093750,-9097.265625,9000.000000,9000.000000,Speed,Speed,-0.260000,1.010000,1.420000,4.000000,100.000000,1,0,-0.000000,0.000000,1,0.073196,0.031311,0.000000,6.093277,-18.743332,0.000000,-0.168000,-0.060000,-0.069000,FlatInitial,Hold,0
08:26:52.195 PM 02/17/2016,Teleop Enabled,0,FALSE,0,NO ERROR,9060.937500,-9076.757812,9000.000000,9000.000000,Speed,Speed,-0.280000,0.970000,1.410000,4.000000,101.000000,1,0,-0.000000,0.000000,1,-0.039932,-0.041412,0.000000,6.093903,-18.743103,0.000000,0.135000,-0.137000,0.109000,FlatInitial,Hold,0
08:26:52.296 PM 02/17/2016,Teleop Enabled,0,FALSE,0,NO ERROR,9036.914062,-9049.804688,9000.000000,9000.000000,Speed,Speed,-0.240000,1.000000,1.200000,4.000000,102.000000,1,0,-0.000000,0.000000,1,-0.010941,-0.039490,0.000000,6.092957,-18.744720,0.000000,0.139000,-0.186000,-0.019000,FlatInitial,Hold,0
08:26:52.398 PM 02/17/2016,Teleop Enabled,0,FALSE,0,NO ERROR,9021.679688,-9032.226562,9000.000000,9000.000000,Speed,Speed,-0.250000,0.980000,1.370000,4.000000,102.000000,1,1,0.155285,0.155285,1,0.071838,-0.012070,0.000000,6.095154,-18.746567,0.000000,0.139000,-0.186000,-0.019000,FlatInitial,Hold,0
08:26:52.497 PM 02/17/2016,Teleop Enabled,0,FALSE,0,NO ERROR,9011.718750,-9018.750000,9000.000000,9000.000000,Speed,Speed,-0.250000,0.980000,1.370000,4.000000,101.000000,1,1,0.155285,0.155285,1,0.071838,-0.012070,0.000000,6.095154,-18.746567,0.000000,0.139000,-0.186000,-0.019000,FlatInitial,Hold,0
08:26:52.598 PM 02/17/2016,Teleop Enabled,0,FALSE,0,NO ERROR,8998.242188,-9003.515625,9000.000000,9000.000000,Speed,Speed,-1.060000,1.170000,1.380000,4.000000,101.000000,1,1,0.155285,0.155285,1,0.210342,0.046417,0.000000,6.107040,-18.745071,0.000000,0.167000,-0.147000,-0.002000,FlatInitial,Hold,0
08:26:52.697 PM 02/17/2016,Teleop Enabled,0,FALSE,0,NO ERROR,8982.421875,-8994.726562,9000.000000,9000.000000,Speed,Speed,-2.260000,1.180000,1.500000,4.000000,101.000000,1,1,0.155285,0.155285,1,0.307098,0.110184,0.000000,6.123184,-18.740005,0.000000,0.063000,0.251000,-0.010000,FlatInitial,Hold,0
08:26:52.798 PM 02/17/2016,Teleop Enabled,0,FALSE,0,NO ERROR,8975.976562,-8988.867188,9000.000000,9000.000000,Speed,Speed,-3.980000,1.290000,1.400000,4.000000,101.000000,1,1,0.155285,0.155285,1,0.371552,0.143051,0.000000,6.133743,-18.736084,0.000000,-0.001000,0.273000,0.012000,FlatInitial,Hold,0
08:26:52.899 PM 02/17/2016,Teleop Enabled,0,FALSE,0,NO ERROR,8980.664062,-8988.867188,9000.000000,9000.000000,Speed,Speed,-6.250000,1.320000,1.450000,4.000000,101.000000,1,1,0.155285,0.155285,1,0.478577,0.232986,0.000000,6.167725,-18.720825,0.000000,-0.001000,0.273000,0.012000,FlatInitial,Hold,0
08:26:52.998 PM 02/17/2016,Teleop Enabled,0,FALSE,0,NO ERROR,8985.351562,-8994.726562,9000.000000,9000.000000,Speed,Speed,-8.740000,1.390000,1.440000,4.000000,101.000000,1,1,-0.160000,-0.160000,1,0.515671,0.269485,0.000000,6.193130,-18.707947,0.000000,0.069000,-0.066000,-0.021000,FlatInitial,Hold,0
08:26:53.098 PM 02/17/2016,Teleop Enabled,0,FALSE,0,NO ERROR,8991.796875,-8995.898438,9000.000000,9000.000000,Speed,Speed,-9.340000,0.930000,1.410000,4.000000,103.000000,1,1,-0.160000,-0.160000,1,0.515671,0.269485,0.000000,6.193130,-18.707947,0.000000,0.069000,-0.066000,-0.021000,FlatInitial,Hold,0
08:26:53.199 PM 02/17/2016,Teleop Enabled,0,FALSE,0,NO ERROR,9000.585938,-8990.039062,9000.000000,9000.000000,Speed,Speed,-9.340000,0.930000,1.410000,4.000000,102.000000,1,1,-0.160000,-0.160000,1,0.515671,0.269485,0.000000,6.193130,-18.707947,0.000000,0.069000,-0.066000,-0.021000,FlatInitial,Hold,0
08:26:53.300 PM 02/17/2016,Teleop Enabled,0,FALSE,0,NO ERROR,9001.757812,-8991.796875,9000.000000,9000.000000,Speed,Speed,-9.340000,0.930000,1.410000,4.000000,102.000000,1,1,-0.160000,-0.160000,1,0.526810,0.351791,0.000000,6.254654,-18.665527,0.000000,0.190000,-0.166000,0.016000,FlatInitial,Hold,0
08:26:53.401 PM 02/17/2016,Teleop Enabled,0,FALSE,0,NO ERROR,9001.171875,-8997.070312,9000.000000,9000.000000,Speed,Speed,-4.300000,0.660000,1.550000,4.000000,101.000000,1,1,-0.160000,-0.160000,1,0.620773,0.390198,0.000000,6.300644,-18.635696,0.000000,0.190000,-0.166000,0.016000,FlatInitial,Hold,0
08:26:53.501 PM 02/17/2016,Teleop Enabled,0,FALSE,0,NO ERROR,9002.343750,-9002.343750,9000.000000,9000.000000,Speed,Speed,-4.300000,0.660000,1.550000,4.000000,103.000000,1,1,-0.160000,-0.160000,1,0.620773,0.390198,0.000000,6.300644,-18.635696,0.000000,0.068000,-0.134000,-0.064000,FlatInitial,Hold,0
08:26:53.603 PM 02/17/2016,Teleop Enabled,0,FALSE,0,NO ERROR,9005.273438,-9007.617188,9000.000000,9000.000000,Speed,Speed,0.540000,0.590000,1.690000,4.000000,102.000000,1,1,-0.160000,-0.160000,1,0.620773,0.390198,0.000000,6.300644,-18.635696,0.000000,0.068000,-0.134000,-0.064000,FlatInitial,Hold,0
08:26:53.702 PM 02/17/2016,Teleop Enabled,0,FALSE,0,NO ERROR,9005.859375,-9018.164062,9000.000000,9000.000000,Speed,Speed,0.540000,0.590000,1.690000,4.000000,102.000000,1,1,-0.160000,-0.160000,1,0.768539,0.471863,0.000000,6.383118,-18.583923,0.000000,0.068000,-0.134000,-0.064000,FlatInitial,Hold,0
08:26:53.803 PM 02/17/2016,Teleop Enabled,0,FALSE,0,NO ERROR,9007.031250,-9019.921875,9000.000000,9000.000000,Speed,Speed,9.150000,0.460000,1.600000,4.000000,101.000000,1,1,-0.160000,-0.160000,1,0.768539,0.471863,0.000000,6.383118,-18.583923,0.000000,0.013000,0.274000,0.026000,FlatInitial,Hold,0
08:26:53.904 PM 02/17/2016,Teleop Enabled,0,FALSE,0,NO ERROR,9007.031250,-9022.265625,9000.000000,9000.000000,Speed,Speed,11.130000,0.420000,1.550000,4.000000,100.000000,1,1,-0.110972,-0.110972,1,0.914413,0.533630,0.000000,6.467529,-18.533356,0.000000,0.069000,-0.301000,0.024000,FlatInitial,Hold,0
08:26:54.004 PM 02/17/2016,Teleop Enabled,0,FALSE,0,NO ERROR,9009.375000,-9023.437500,9000.000000,9000.000000,Speed,Speed,11.130000,0.420000,1.550000,4.000000,100.000000,1,1,-0.053621,-0.053621,1,0.914413,0.533630,0.000000,6.467529,-18.533356,0.000000,0.069000,-0.301000,0.024000,FlatInitial,Hold,0
08:26:54.106 PM 02/17/2016,Teleop Enabled,0,FALSE,0,NO ERROR,9015.820312,-9028.125000,9000.000000,9000.000000,Speed,Speed,17.430000,0.510000,1.520000,4.000000,101.000000,1,1,-0.015860,-0.015860,1,0.914413,0.533630,0.000000,6.467529,-18.533356,0.000000,0.069000,-0.301000,0.024000,FlatInitial,Hold,0
08:26:54.208 PM 02/17/2016,Teleop Enabled,0,FALSE,0,NO ERROR,9019.335938,-9038.671875,9000.000000,9000.000000,Speed,Speed,17.430000,0.510000,1.520000,4.000000,100.000000,1,1,-0.000264,-0.000264,1,1.198578,0.532593,0.000000,6.605652,-18.462402,0.000000,-0.004000,-0.299000,-0.009000,FlatInitial,Hold,0
08:26:54.307 PM 02/17/2016,Teleop Enabled,0,FALSE,0,NO ERROR,9020.507812,-9041.015625,9000.000000,9000.000000,Speed,Speed,19.700000,0.800000,1.510000,4.000000,101.000000,1,1,0.006602,0.006602,1,1.198578,0.532593,0.000000,6.605652,-18.462402,0.000000,-0.004000,-0.299000,-0.009000,FlatInitial,Hold,0
08:26:54.408 PM 02/17/2016,Teleop Enabled,0,FALSE,0,NO ERROR,9018.750000,-9032.812500,9000.000000,9000.000000,Speed,Speed,19.700000,0.800000,1.510000,4.000000,102.000000,1,1,0.022594,0.022594,1,1.390182,0.542206,0.000000,6.805176,-18.386093,0.000000,-0.004000,-0.299000,-0.009000,FlatInitial,Hold,0
08:26:54.508 PM 02/17/2016,Teleop Enabled,0,FALSE,0,NO ERROR,9017.578125,-9024.023438,9000.000000,9000.000000,Speed,Speed,19.700000,0.800000,1.510000,4.000000,104.000000,1,1,0.027743,0.027743,1,1.390182,0.542206,0.000000,6.805176,-18.386093,0.000000,0.082000,0.121000,0.021000,FlatInitial,Hold,0
08:26:54.609 PM 02/17/2016,Teleop Enabled,0,FALSE,0,NO ERROR,9008.789062,-9015.234375,9000.000000,9000.000000,Speed,Speed,19.130000,0.940000,1.580000,4.000000,101.000000,1,1,0.025102,0.025102,1,1.390182,0.542206,0.000000,6.805176,-18.386093,0.000000,0.082000,0.121000,0.021000,FlatInitial,Hold,0
08:26:54.710 PM 02/17/2016,Teleop Enabled,0,FALSE,0,NO ERROR,8998.828125,-9009.375000,9000.000000,9000.000000,Speed,Speed,19.000000,0.950000,1.500000,4.000000,105.000000,1,1,0.022594,0.022594,1,1.313232,0.528015,0.000000,6.967453,-18.322083,0.000000,0.042000,0.067000,0.008000,FlatInitial,Hold,0
08:26:54.811 PM 02/17/2016,Teleop Enabled,0,FALSE,0,NO ERROR,8991.796875,-9001.171875,9000.000000,9000.000000,Speed,Speed,19.000000,0.950000,1.500000,4.000000,103.000000,1,1,0.022594,0.022594,1,1.313232,0.528015,0.000000,6.967453,-18.322083,0.000000,0.042000,0.067000,0.008000,FlatInitial,Hold,0
08:26:54.911 PM 02/17/2016,Teleop Enabled,0,FALSE,0,NO ERROR,8987.109375,-8994.726562,9000.000000,9000.000000,Speed,Speed,18.820000,0.990000,1.590000,4.000000,106.000000,1,1,0.022594,0.022594,1,1.313232,0.528015,0.000000,6.967453,-18.322083,0.000000,0.042000,0.067000,0.008000,FlatInitial,Hold,0
08:26:55.011 PM 02/17/2016,Teleop Enabled,0,FALSE,0,NO ERROR,8990.039062,-8992.382812,9000.000000,9000.000000,Speed,Speed,18.830000,0.990000,1.500000,4.000000,101.000000,1,1,0.020217,0.020217,1,1.205856,0.524002,0.000000,7.118439,-18.259308,0.000000,0.040000,0.073000,0.038000,FlatInitial,Hold,0
08:26:55.116 PM 02/17/2016,Teleop Enabled,0,FALSE,0,NO ERROR,8992.382812,-8992.382812,9000.000000,9000.000000,Speed,Speed,18.830000,0.990000,1.500000,4.000000,100.000000,1,1,0.020217,0.020217,1,1.158478,0.505341,0.000000,7.201141,-18.223251,0.000000,0.040000,0.073000,0.038000,FlatInitial,Hold,0
08:26:55.217 PM 02/17/2016,Teleop Enabled,0,FALSE,0,NO ERROR,8994.140625,-8991.796875,9000.000000,9000.000000,Speed,Speed,18.830000,0.990000,1.500000,4.000000,104.000000,1,1,0.019079,0.019079,1,1.158478,0.505341,0.000000,7.201141,-18.223251,0.000000,-0.116000,-0.138000,-0.015000,FlatInitial,Hold,0
08:26:55.321 PM 02/17/2016,Teleop Enabled,0,FALSE,0,NO ERROR,8997.656250,-8991.796875,9000.000000,9000.000000,Speed,Speed,18.810000,0.990000,1.540000,4.000000,104.000000,1,1,0.017973,0.017973,1,1.061691,0.497437,0.000000,7.367523,-18.147385,0.000000,-0.116000,-0.138000,-0.015000,FlatInitial,Hold,0
08:26:55.423 PM 02/17/2016,Teleop Enabled,0,FALSE,0,NO ERROR,9000.000000,-8992.382812,9000.000000,9000.000000,Speed,Speed,18.810000,0.990000,1.510000,4.000000,101.000000,1,1,0.017973,0.017973,1,1.061691,0.497437,0.000000,7.367523,-18.147385,0.000000,0.079000,0.114000,0.025000,FlatInitial,Hold,0
08:26:55.524 PM 02/17/2016,Teleop Enabled,0,FALSE,0,NO ERROR,9006.445312,-8994.726562,9000.000000,9000.000000,Speed,Speed,18.810000,1.000000,1.480000,4.000000,103.000000,1,1,0.017973,0.017973,1,1.003159,0.500168,0.000000,7.460510,-18.102676,0.000000,0.079000,0.114000,0.025000,FlatInitial,Hold,0
08:26:55.624 PM 02/17/2016,Teleop Enabled,0,FALSE,0,NO ERROR,9011.132812,-8998.242188,9000.000000,9000.000000,Speed,Speed,18.810000,0.970000,1.520000,4.000000,101.000000,1,1,0.017973,0.017973,1,0.983505,0.487869,0.000000,7.500107,-18.083084,0.000000,-0.103000,-0.151000,-0.034000,FlatInitial,Hold,0
08:26:55.726 PM 02/17/2016,Teleop Enabled,0,FALSE,0,NO ERROR,9010.546875,-9007.031250,9000.000000,9000.000000,Speed,Speed,18.810000,0.970000,1.550000,4.000000,101.000000,1,1,0.017973,0.017973,1,0.943710,0.480270,0.000000,7.557938,-18.054352,0.000000,-0.103000,-0.151000,-0.034000,FlatInitial,Hold,0
08:26:55.826 PM 02/17/2016,Teleop Enabled,0,FALSE,0,NO ERROR,9009.960938,-9011.718750,9000.000000,9000.000000,Speed,Speed,18.800000,0.980000,1.530000,4.000000,101.000000,1,1,0.017973,0.017973,1,0.943710,0.480270,0.000000,7.557938,-18.054352,0.000000,-0.153000,-0.075000,-0.002000,FlatInitial,Hold,0
08:26:55.926 PM 02/17/2016,Teleop Enabled,0,FALSE,0,NO ERROR,9008.203125,-9009.960938,9000.000000,9000.000000,Speed,Speed,18.800000,0.980000,1.530000,4.000000,101.000000,1,0,0.362205,-0.362205,1,0.857925,0.482361,0.000000,7.630035,-18.015686,0.000000,-0.153000,-0.075000,-0.002000,FlatInitial,Hold,0
08:26:56.027 PM 02/17/2016,Teleop Enabled,0,FALSE,0,NO ERROR,8990.625000,-8992.968750,9000.000000,9000.000000,Speed,Speed,18.040000,1.300000,1.580000,4.000000,102.000000,1,0,-0.000000,0.000000,1,0.825455,0.498795,0.000000,7.663437,-17.996231,0.000000,-0.153000,0.097000,-0.131000,FlatInitial,Hold,0
08:26:56.127 PM 02/17/2016,Teleop Enabled,0,FALSE,0,NO ERROR,8990.625000,-8978.320312,9000.000000,9000.000000,Speed,Speed,16.260000,1.390000,1.470000,4.000000,104.000000,1,0,-0.000000,0.000000,1,0.836914,0.008301,0.000000,7.722885,-17.973297,0.000000,-0.178000,0.006000,0.003000,FlatInitial,Hold,0
08:26:56.227 PM 02/17/2016,Teleop Enabled,0,FALSE,0,NO ERROR,8994.140625,-8989.453125,9000.000000,9000.000000,Speed,Speed,15.310000,1.090000,1.610000,4.000000,101.000000,1,0,-0.000000,0.000000,1,0.763092,0.038559,0.000000,7.770767,-17.971466,0.000000,0.121000,0.044000,-0.075000,FlatInitial,Hold,0
08:26:56.328 PM 02/17/2016,Teleop Enabled,0,FALSE,0,NO ERROR,9004.687500,-8989.453125,9000.000000,9000.000000,Speed,Speed,15.390000,1.050000,1.680000,4.000000,112.000000,1,0,-0.000000,0.000000,1,0.736679,0.028717,0.000000,7.793243,-17.970383,0.000000,-0.211000,-0.090000,-0.017000,FlatInitial,Hold,0
08:26:56.431 PM 02/17/2016,Teleop Enabled,0,FALSE,0,NO ERROR,9011.132812,-9001.171875,9000.000000,9000.000000,Speed,Speed,15.740000,1.090000,1.800000,4.000000,100.000000,1,0,-0.000000,0.000000,1,0.673813,-0.020004,0.000000,7.835266,-17.970383,0.000000,-0.237000,-0.020000,0.012000,FlatInitial,Hold,0
08:26:56.533 PM 02/17/2016,Teleop Enabled,0,FALSE,0,NO ERROR,9012.304688,-9012.304688,9000.000000,9000.000000,Speed,Speed,16.040000,1.100000,1.620000,4.000000,101.000000,1,0,-0.000000,0.000000,1,0.645111,-0.056015,0.000000,7.874542,-17.973053,0.000000,0.145000,-0.069000,0.014000,FlatInitial,Hold,0
08:26:56.633 PM 02/17/2016,Teleop Enabled,0,FALSE,0,NO ERROR,9011.132812,-9021.093750,9000.000000,9000.000000,Speed,Speed,16.110000,1.100000,1.660000,4.000000,101.000000,1,0,-0.000000,0.000000,1,0.622559,-0.088837,0.000000,7.899887,-17.976074,0.000000,-0.169000,0.021000,0.023000,FlatInitial,Hold,0
08:26:56.733 PM 02/17/2016,Teleop Enabled,0,FALSE,0,NO ERROR,9007.031250,-9023.437500,9000.000000,9000.000000,Speed,Speed,16.110000,1.100000,1.730000,4.000000,101.000000,1,0,-0.000000,0.000000,1,0.593674,-0.129364,0.000000,7.936249,-17.982986,0.000000,0.122000,-0.091000,-0.022000,FlatInitial,Hold,0
08:26:56.834 PM 02/17/2016,Teleop Enabled,0,FALSE,0,NO ERROR,9007.031250,-9021.679688,9000.000000,9000.000000,Speed,Speed,16.140000,1.090000,1.730000,4.000000,106.000000,1,0,-0.000000,0.000000,1,0.578308,-0.157501,0.000000,7.965317,-17.990387,0.000000,-0.206000,0.033000,0.012000,FlatInitial,Hold,0
08:26:56.935 PM 02/17/2016,Teleop Enabled,0,FALSE,0,NO ERROR,9007.031250,-9015.820312,9000.000000,9000.000000,Speed,Speed,16.200000,1.080000,1.710000,4.000000,102.000000,1,0,-0.000000,0.000000,1,0.563599,-0.200089,0.000000,7.999069,-18.001190,0.000000,-0.206000,0.033000,0.012000,FlatInitial,Hold,0
08:26:57.036 PM 02/17/2016,Teleop Enabled,0,FALSE,0,NO ERROR,9009.375000,-9011.718750,9000.000000,9000.000000,Speed,Speed,16.200000,1.080000,1.710000,4.000000,102.000000,1,1,0.019079,0.019079,1,0.563599,-0.200089,0.000000,7.999069,-18.001190,0.000000,-0.090000,-0.003000,-0.022000,FlatInitial,Hold,0
08:26:57.135 PM 02/17/2016,Teleop Enabled,0,FALSE,0,NO ERROR,9008.789062,-9008.203125,9000.000000,9000.000000,Speed,Speed,16.210000,1.070000,1.700000,4.000000,103.000000,1,1,0.017973,0.017973,1,0.563599,-0.200089,0.000000,7.999069,-18.001190,0.000000,-0.090000,-0.003000,-0.022000,FlatInitial,Hold,0
08:26:57.236 PM 02/17/2016,Teleop Enabled,0,FALSE,0,NO ERROR,9006.445312,-9004.687500,9000.000000,9000.000000,Speed,Speed,16.210000,1.070000,1.700000,4.000000,102.000000,1,1,0.002789,0.002789,1,0.561325,-0.306381,0.000000,8.071793,-18.035065,0.000000,-0.102000,-0.068000,0.039000,FlatInitial,Hold,0
08:26:57.337 PM 02/17/2016,Teleop Enabled,0,FALSE,0,NO ERROR,9003.515625,-9003.515625,9000.000000,9000.000000,Speed,Speed,16.210000,1.090000,1.700000,4.000000,101.000000,1,1,0.002789,0.002789,1,0.561325,-0.306381,0.000000,8.071793,-18.035065,0.000000,-0.102000,-0.068000,0.039000,FlatInitial,Hold,0
08:26:57.438 PM 02/17/2016,Teleop Enabled,0,FALSE,0,NO ERROR,9002.929688,-8999.414062,9000.000000,9000.000000,Speed,Speed,16.200000,1.050000,1.680000,4.000000,103.000000,1,1,0.002789,0.002789,1,0.574173,-0.393509,0.000000,8.145477,-18.081467,0.000000,0.124000,-0.018000,0.014000,FlatInitial,Hold,0
08:26:57.541 PM 02/17/2016,Teleop Enabled,0,FALSE,0,NO ERROR,9002.929688,-8998.242188,9000.000000,9000.000000,Speed,Speed,16.200000,1.050000,1.680000,4.000000,101.000000,1,1,0.002789,0.002789,1,0.574173,-0.393509,0.000000,8.145477,-18.081467,0.000000,0.114000,-0.015000,-0.029000,FlatInitial,Hold,0
08:26:57.642 PM 02/17/2016,Teleop Enabled,0,FALSE,0,NO ERROR,8999.414062,-8994.140625,9000.000000,9000.000000,Speed,Speed,16.200000,1.060000,1.680000,4.000000,102.000000,1,1,0.002789,0.002789,1,0.559647,-0.455215,0.000000,8.190781,-18.116043,0.000000,0.153000,-0.035000,-0.043000,FlatInitial,Hold,0
08:26:57.742 PM 02/17/2016,Teleop Enabled,0,FALSE,0,NO ERROR,8998.242188,-8990.039062,9000.000000,9000.000000,Speed,Speed,16.200000,1.060000,1.680000,4.000000,102.000000,1,1,0.002789,0.002789,1,0.564621,-0.488129,0.000000,8.213364,-18.135101,0.000000,0.117000,-0.042000,-0.024000,FlatInitial,Hold,0
08:26:57.843 PM 02/17/2016,Teleop Enabled,0,FALSE,0,NO ERROR,8997.656250,-8989.453125,9000.000000,9000.000000,Speed,Speed,16.200000,1.040000,1.660000,4.000000,100.000000,1,1,0.002789,0.002789,1,0.551315,-0.513367,0.000000,8.229996,-18.150238,0.000000,-0.122000,-0.049000,-0.003000,FlatInitial,Hold,0
08:26:57.943 PM 02/17/2016,Teleop Enabled,0,FALSE,0,NO ERROR,8997.070312,-8992.382812,9000.000000,9000.000000,Speed,Speed,16.200000,1.040000,1.660000,4.000000,102.000000,1,1,0.002789,0.002789,1,0.551315,-0.513367,0.000000,8.229996,-18.150238,0.000000,-0.122000,-0.049000,-0.003000,FlatInitial,Hold,0
08:26:58.043 PM 02/17/2016,Teleop Enabled,0,FALSE,0,NO ERROR,8994.140625,-9002.929688,9000.000000,9000.000000,Speed,Speed,16.200000,1.030000,1.630000,4.000000,102.000000,1,1,0.002789,0.002789,1,0.541901,-0.574814,0.000000,8.279114,-18.199371,0.000000,-0.122000,-0.049000,-0.003000,FlatInitial,Hold,0
08:26:58.144 PM 02/17/2016,Teleop Enabled,0,FALSE,0,NO ERROR,8994.140625,-9011.718750,9000.000000,9000.000000,Speed,Speed,16.200000,1.010000,1.650000,4.000000,103.000000,1,0,-0.000000,0.000000,1,0.525574,-0.649277,0.000000,8.337234,-18.266876,0.000000,-0.146000,-0.079000,0.018000,FlatInitial,Hold,0
08:26:58.245 PM 02/17/2016,Teleop Enabled,0,FALSE,0,NO ERROR,8995.312500,-9020.507812,9000.000000,9000.000000,Speed,Speed,16.200000,1.050000,1.680000,4.000000,102.000000,1,0,-0.000000,0.000000,1,0.535309,-0.673676,0.000000,8.358566,-18.293411,0.000000,-0.166000,-0.070000,0.046000,FlatInitial,Hold,0
08:26:58.345 PM 02/17/2016,Teleop Enabled,0,FALSE,0,NO ERROR,9002.343750,-9015.820312,9000.000000,9000.000000,Speed,Speed,16.200000,1.030000,1.600000,4.000000,138.000000,1,0,-0.000000,0.000000,1,0.539993,-0.685211,0.000000,8.390671,-18.334564,0.000000,-0.123000,-0.063000,0.020000,FlatInitial,Hold,0
08:26:58.445 PM 02/17/2016,Teleop Enabled,0,FALSE,0,NO ERROR,9009.375000,-9011.718750,9000.000000,9000.000000,Speed,Speed,16.200000,1.020000,1.610000,4.000000,102.000000,1,0,-0.000000,0.000000,1,0.539993,-0.685211,0.000000,8.390671,-18.334564,0.000000,-0.123000,-0.063000,0.020000,FlatInitial,Hold,0
08:26:58.546 PM 02/17/2016,Teleop Enabled,0,FALSE,0,NO ERROR,9011.718750,-9007.031250,9000.000000,9000.000000,Speed,Speed,16.200000,1.060000,1.630000,4.000000,104.000000,1,0,-0.000000,0.000000,1,0.539490,-0.697403,0.000000,8.417679,-18.369263,0.000000,0.134000,0.025000,-0.039000,FlatInitial,Hold,0
08:26:58.647 PM 02/17/2016,Teleop Enabled,0,FALSE,0,NO ERROR,9009.375000,-9003.515625,9000.000000,9000.000000,Speed,Speed,16.200000,1.060000,1.630000,4.000000,103.000000,1,0,-0.346457,0.346457,1,0.542313,-0.692627,0.000000,8.450302,-18.410782,0.000000,0.104000,0.052000,-0.036000,FlatInitial,Hold,0
08:26:58.747 PM 02/17/2016,Teleop Enabled,0,FALSE,0,NO ERROR,8987.695312,-8974.218750,9000.000000,9000.000000,Speed,Speed,19.670000,0.420000,1.710000,4.000000,101.000000,1,0,-0.000000,0.000000,1,0.443634,0.024857,0.000000,8.495071,-18.450333,0.000000,-0.119000,0.009000,0.307000,FlatInitial,Hold,0
08:26:58.848 PM 02/17/2016,Teleop Enabled,0,FALSE,0,NO ERROR,8956.640625,-8923.242188,9000.000000,9000.000000,Speed,Speed,19.670000,0.420000,1.710000,4.000000,102.000000,1,0,-0.000000,0.000000,1,0.443634,0.024857,0.000000,8.495071,-18.450333,0.000000,0.161000,0.005000,0.089000,FlatInitial,Hold,0
08:26:58.948 PM 02/17/2016,Teleop Enabled,0,FALSE,0,NO ERROR,8961.914062,-8957.226562,9000.000000,9000.000000,Speed,Speed,23.770000,0.690000,2.090000,4.000000,101.000000,1,0,-0.000000,0.000000,1,0.511780,-0.068970,0.000000,8.524796,-18.451553,0.000000,-0.110000,-0.076000,-0.103000,FlatInitial,Hold,0
08:26:59.048 PM 02/17/2016,Teleop Enabled,0,FALSE,0,NO ERROR,8986.523438,-9013.476562,9000.000000,9000.000000,Speed,Speed,24.560000,1.040000,1.670000,4.000000,104.000000,1,0,-0.000000,0.000000,1,0.487717,-0.161026,0.000000,8.569824,-18.464752,0.000000,0.033000,-0.012000,0.039000,FlatInitial,Hold,0
08:26:59.151 PM 02/17/2016,Teleop Enabled,0,FALSE,0,NO ERROR,9009.375000,-9027.539062,9000.000000,9000.000000,Speed,Speed,24.560000,1.040000,1.670000,4.000000,104.000000,1,0,-0.000000,0.000000,1,0.487717,-0.161026,0.000000,8.569824,-18.464752,0.000000,0.033000,-0.012000,0.039000,FlatInitial,Hold,0
08:26:59.251 PM 02/17/2016,Teleop Enabled,0,FALSE,0,NO ERROR,9024.609375,-9025.781250,9000.000000,9000.000000,Speed,Speed,23.910000,1.070000,1.910000,4.000000,106.000000,1,0,-0.000000,0.000000,1,0.477661,-0.138336,0.000000,8.603638,-18.475250,0.000000,0.033000,-0.113000,0.111000,FlatInitial,Hold,0
08:26:59.351 PM 02/17/2016,Teleop Enabled,0,FALSE,0,NO ERROR,9031.640625,-9021.679688,9000.000000,9000.000000,Speed,Speed,23.690000,1.050000,1.830000,4.000000,101.000000,1,0,-0.000000,0.000000,1,0.469101,-0.167328,0.000000,8.626770,-18.483109,0.000000,0.090000,-0.044000,0.118000,FlatInitial,Hold,0
08:26:59.453 PM 02/17/2016,Teleop Enabled,0,FALSE,0,NO ERROR,9026.367188,-9014.062500,9000.000000,9000.000000,Speed,Speed,23.690000,1.050000,1.830000,4.000000,101.000000,1,0,-0.000000,0.000000,1,0.441284,-0.176773,0.000000,8.645004,-18.490067,0.000000,-0.088000,-0.001000,-0.050000,FlatInitial,Hold,0
08:26:59.559 PM 02/17/2016,Teleop Enabled,0,FALSE,0,NO ERROR,9015.820312,-9011.132812,9000.000000,9000.000000,Speed,Speed,23.610000,1.030000,1.810000,4.000000,102.000000,1,0,-0.000000,0.000000,1,0.444229,-0.222885,0.000000,8.684769,-18.508331,0.000000,0.097000,-0.037000,0.002000,FlatInitial,Hold,0
08:26:59.654 PM 02/17/2016,Teleop Enabled,0,FALSE,0,NO ERROR,9008.789062,-9006.445312,9000.000000,9000.000000,Speed,Speed,23.610000,1.030000,1.810000,4.000000,100.000000,1,1,0.002789,0.002789,1,0.444229,-0.222885,0.000000,8.684769,-18.508331,0.000000,-0.113000,0.013000,-0.002000,FlatInitial,Hold,0
08:26:59.756 PM 02/17/2016,Teleop Enabled,0,FALSE,0,NO ERROR,9004.687500,-9009.960938,9000.000000,9000.000000,Speed,Speed,23.580000,1.050000,1.920000,4.000000,102.000000,1,1,0.002789,0.002789,1,0.444229,-0.222885,0.000000,8.684769,-18.508331,0.000000,-0.113000,0.013000,-0.002000,FlatInitial,Hold,0
08:26:59.858 PM 02/17/2016,Teleop Enabled,0,FALSE,0,NO ERROR,9001.171875,-9010.546875,9000.000000,9000.000000,Speed,Speed,23.580000,1.050000,1.920000,4.000000,100.000000,1,1,0.002789,0.002789,1,0.497787,0.007141,0.000000,8.750839,-18.509689,0.000000,-0.113000,0.013000,-0.002000,FlatInitial,Hold,0
08:26:59.961 PM 02/17/2016,Teleop Enabled,0,FALSE,0,NO ERROR,9000.000000,-9008.203125,9000.000000,9000.000000,Speed,Speed,23.580000,1.050000,1.920000,4.000000,101.000000,1,1,0.083196,0.083196,1,0.497787,0.007141,0.000000,8.750839,-18.509689,0.000000,-0.113000,0.013000,-0.002000,FlatInitial,Hold,0
08:27:00.060 PM 02/17/2016,Teleop Enabled,0,FALSE,0,NO ERROR,8995.898438,-9001.171875,9000.000000,9000.000000,Speed,Speed,23.340000,1.060000,1.850000,4.000000,106.000000,1,1,0.083196,0.083196,1,0.497787,0.007141,0.000000,8.750839,-18.509689,0.000000,0.012000,0.063000,0.030000,FlatInitial,Hold,0
08:27:00.160 PM 02/17/2016,Teleop Enabled,0,FALSE,0,NO ERROR,8992.968750,-8997.070312,9000.000000,9000.000000,Speed,Speed,23.340000,1.060000,1.850000,4.000000,102.000000,1,1,0.083196,0.083196,1,0.576981,0.013153,0.000000,8.836716,-18.507980,0.000000,-0.020000,0.042000,-0.013000,FlatInitial,Hold,0
08:27:00.263 PM 02/17/2016,Teleop Enabled,0,FALSE,0,NO ERROR,8991.210938,-8997.070312,9000.000000,9000.000000,Speed,Speed,22.680000,1.150000,1.790000,4.000000,103.000000,1,1,0.083196,0.083196,1,0.576981,0.013153,0.000000,8.836716,-18.507980,0.000000,0.040000,-0.045000,0.033000,FlatInitial,Hold,0
08:27:00.365 PM 02/17/2016,Teleop Enabled,0,FALSE,0,NO ERROR,8988.867188,-8991.210938,9000.000000,9000.000000,Speed,Speed,21.870000,1.130000,1.690000,4.000000,105.000000,1,1,0.078575,0.078575,1,0.617966,0.018402,0.000000,8.896805,-18.506149,0.000000,-0.018000,0.006000,0.024000,FlatInitial,Hold,0
08:27:00.469 PM 02/17/2016,Teleop Enabled,0,FALSE,0,NO ERROR,8991.796875,-8992.382812,9000.000000,9000.000000,Speed,Speed,21.870000,1.130000,1.690000,4.000000,101.000000,1,1,0.074086,0.074086,1,0.627930,0.028595,0.000000,8.909332,-18.505630,0.000000,0.068000,-0.039000,-0.032000,FlatInitial,Hold,0
08:27:00.569 PM 02/17/2016,Teleop Enabled,0,FALSE,0,NO ERROR,8998.242188,-9001.171875,9000.000000,9000.000000,Speed,Speed,21.080000,1.150000,1.670000,4.000000,102.000000,1,1,0.063441,0.063441,1,0.650436,0.000000,0.000000,8.960464,-18.505676,0.000000,0.068000,-0.039000,-0.032000,FlatInitial,Hold,0
08:27:00.669 PM 02/17/2016,Teleop Enabled,0,FALSE,0,NO ERROR,9002.343750,-9007.031250,9000.000000,9000.000000,Speed,Speed,20.620000,1.130000,1.630000,4.000000,101.000000,1,1,0.057450,0.057450,1,0.650436,0.000000,0.000000,8.960464,-18.505676,0.000000,-0.014000,0.025000,-0.016000,FlatInitial,Hold,0
08:27:00.769 PM 02/17/2016,Teleop Enabled,0,FALSE,0,NO ERROR,9006.445312,-9010.546875,9000.000000,9000.000000,Speed,Speed,20.620000,1.130000,1.630000,4.000000,105.000000,1,1,0.042927,0.042927,1,0.686172,0.017319,0.000000,9.007462,-18.504868,0.000000,-0.047000,0.059000,-0.015000,FlatInitial,Hold,0
08:27:00.870 PM 02/17/2016,Teleop Enabled,0,FALSE,0,NO ERROR,9007.617188,-9011.132812,9000.000000,9000.000000,Speed,Speed,20.220000,1.070000,1.630000,4.000000,103.000000,1,1,0.036457,0.036457,1,0.686172,0.017319,0.000000,9.007462,-18.504868,0.000000,-0.047000,0.059000,-0.015000,FlatInitial,Hold,0
08:27:00.971 PM 02/17/2016,Teleop Enabled,0,FALSE,0,NO ERROR,9011.132812,-9011.132812,9000.000000,9000.000000,Speed,Speed,20.130000,1.070000,1.570000,4.000000,108.000000,1,1,0.033420,0.033420,1,0.746368,0.060928,0.000000,9.100204,-18.499664,0.000000,-0.037000,0.121000,0.032000,FlatInitial,Hold,0
08:27:01.071 PM 02/17/2016,Teleop Enabled,0,FALSE,0,NO ERROR,9011.132812,-9010.546875,9000.000000,9000.000000,Speed,Speed,20.130000,1.070000,1.570000,4.000000,101.000000,1,1,0.033420,0.033420,1,0.746368,0.060928,0.000000,9.100204,-18.499664,0.000000,-0.037000,0.121000,0.032000,FlatInitial,Hold,0
08:27:01.173 PM 02/17/2016,Teleop Enabled,0,FALSE,0,NO ERROR,9011.132812,-9010.546875,9000.000000,9000.000000,Speed,Speed,20.130000,1.050000,1.580000,4.000000,101.000000,1,1,0.031952,0.031952,1,0.819504,0.104034,0.000000,9.186523,-18.491241,0.000000,-0.037000,0.121000,0.032000,FlatInitial,Hold,0
08:27:01.275 PM 02/17/2016,Teleop Enabled,0,FALSE,0,NO ERROR,9008.203125,-9007.031250,9000.000000,9000.000000,Speed,Speed,20.130000,1.050000,1.580000,4.000000,103.000000,1,1,0.031952,0.031952,1,0.819504,0.104034,0.000000,9.186523,-18.491241,0.000000,0.006000,0.200000,0.027000,FlatInitial,Hold,0
08:27:01.375 PM 02/17/2016,Teleop Enabled,0,FALSE,0,NO ERROR,9005.859375,-9007.031250,9000.000000,9000.000000,Speed,Speed,20.130000,1.040000,1.650000,4.000000,105.000000,1,1,0.031952,0.031952,1,0.819504,0.104034,0.000000,9.186523,-18.491241,0.000000,0.006000,0.200000,0.027000,FlatInitial,Hold,0
08:27:01.476 PM 02/17/2016,Teleop Enabled,0,FALSE,0,NO ERROR,9003.515625,-9004.687500,9000.000000,9000.000000,Speed,Speed,20.130000,1.040000,1.650000,4.000000,102.000000,1,1,0.031952,0.031952,1,0.905914,0.186737,0.000000,9.290344,-18.473602,0.000000,0.038000,0.208000,0.044000,FlatInitial,Hold,0
08:27:01.577 PM 02/17/2016,Teleop Enabled,0,FALSE,0,NO ERROR,9004.687500,-8997.656250,9000.000000,9000.000000,Speed,Speed,20.140000,1.080000,1.730000,4.000000,102.000000,1,1,0.031952,0.031952,1,0.905914,0.186737,0.000000,9.290344,-18.473602,0.000000,0.038000,0.208000,0.044000,FlatInitial,Hold,0
08:27:01.677 PM 02/17/2016,Teleop Enabled,0,FALSE,0,NO ERROR,9002.343750,-8991.796875,9000.000000,9000.000000,Speed,Speed,20.140000,1.080000,1.730000,4.000000,102.000000,1,1,0.031952,0.031952,1,0.981003,0.256271,0.000000,9.394653,-18.448837,0.000000,0.038000,0.208000,0.044000,FlatInitial,Hold,0
08:27:01.777 PM 02/17/2016,Teleop Enabled,0,FALSE,0,NO ERROR,8998.828125,-8991.210938,9000.000000,9000.000000,Speed,Speed,20.130000,1.070000,1.640000,4.000000,102.000000,1,1,0.031952,0.031952,1,1.034119,0.307114,0.000000,9.455170,-18.431671,0.000000,0.054000,-0.160000,-0.015000,FlatInitial,Hold,0
08:27:01.877 PM 02/17/2016,Teleop Enabled,0,FALSE,0,NO ERROR,8995.898438,-8991.796875,9000.000000,9000.000000,Speed,Speed,20.130000,1.050000,1.720000,4.000000,102.000000,1,1,0.031952,0.031952,1,1.034119,0.307114,0.000000,9.455170,-18.431671,0.000000,0.054000,-0.160000,-0.015000,FlatInitial,Hold,0
08:27:01.977 PM 02/17/2016,Teleop Enabled,0,FALSE,0,NO ERROR,8993.554688,-8995.312500,9000.000000,9000.000000,Speed,Speed,20.130000,1.100000,1.680000,4.000000,103.000000,1,0,-0.000000,0.000000,1,1.121109,0.372726,0.000000,9.574356,-18.394363,0.000000,-0.021000,0.193000,0.051000,FlatInitial,Hold,0
08:27:02.077 PM 02/17/2016,Teleop Enabled,0,FALSE,0,NO ERROR,8993.554688,-8995.898438,9000.000000,9000.000000,Speed,Speed,20.140000,1.090000,1.750000,4.000000,105.000000,1,0,-0.000000,0.000000,1,1.161041,0.406860,0.000000,9.631622,-18.374710,0.000000,0.038000,0.213000,0.050000,FlatInitial,Hold,0
08:27:02.178 PM 02/17/2016,Teleop Enabled,0,FALSE,0,NO ERROR,8997.656250,-8996.484375,9000.000000,9000.000000,Speed,Speed,20.140000,1.090000,1.750000,4.000000,105.000000,1,0,-0.000000,0.000000,1,1.202682,0.442154,0.000000,9.690994,-18.353363,0.000000,0.033000,-0.149000,0.005000,FlatInitial,Hold,0
08:27:02.278 PM 02/17/2016,Teleop Enabled,0,FALSE,0,NO ERROR,9000.585938,-8994.726562,9000.000000,9000.000000,Speed,Speed,20.140000,1.100000,1.690000,4.000000,103.000000,1,0,-0.000000,0.000000,1,1.249817,0.469391,0.000000,9.740356,-18.334930,0.000000,0.061000,-0.164000,-0.026000,FlatInitial,Hold,0
08:27:02.379 PM 02/17/2016,Teleop Enabled,0,FALSE,0,NO ERROR,9000.585938,-8995.898438,9000.000000,9000.000000,Speed,Speed,20.140000,1.130000,1.690000,4.000000,102.000000,1,0,-0.000000,0.000000,1,1.293533,0.485138,0.000000,9.803986,-18.311111,0.000000,0.025000,0.220000,0.046000,FlatInitial,Hold,0
08:27:02.480 PM 02/17/2016,Teleop Enabled,0,FALSE,0,NO ERROR,9000.585938,-8993.554688,9000.000000,9000.000000,Speed,Speed,20.140000,1.090000,1.770000,4.000000,102.000000,1,0,-0.448819,0.448819,1,1.345612,0.503067,0.000000,9.870056,-18.286362,0.000000,-0.174000,0.160000,-0.090000,FlatInitial,Hold,0
08:27:02.581 PM 02/17/2016,Teleop Enabled,0,FALSE,0,NO ERROR,8995.898438,-8986.523438,9000.000000,9000.000000,Speed,Speed,25.110000,0.110000,1.760000,4.000000,101.000000,1,0,-0.480315,0.480315,1,1.238022,0.676071,0.000000,9.934250,-18.255981,0.000000,-0.174000,0.160000,-0.090000,FlatInitial,Hold,0
08:27:02.680 PM 02/17/2016,Teleop Enabled,0,FALSE,0,NO ERROR,8933.789062,-8868.750000,9000.000000,9000.000000,Speed,Speed,32.080000,-0.440000,2.120000,4.000000,102.000000,1,0,-0.488189,0.488189,1,1.178391,0.846436,0.000000,10.006317,-18.209549,0.000000,0.106000,0.092000,-0.016000,FlatInitial,Hold,0
08:27:02.780 PM 02/17/2016,Teleop Enabled,0,FALSE,0,NO ERROR,8859.375000,-8796.093750,9000.000000,9000.000000,Speed,Speed,32.080000,-0.440000,2.120000,4.000000,104.000000,1,0,-0.000000,0.000000,1,1.178391,0.846436,0.000000,10.006317,-18.209549,0.000000,0.106000,0.092000,-0.016000,FlatInitial,Hold,0
08:27:02.880 PM 02/17/2016,Teleop Enabled,0,FALSE,0,NO ERROR,8841.796875,-8816.015625,9000.000000,9000.000000,Speed,Speed,50.530000,-1.200000,2.570000,4.000000,102.000000,1,0,-0.000000,0.000000,1,1.306793,0.979248,0.000000,10.092087,-18.143326,0.000000,0.359000,-0.001000,0.039000,FlatInitial,Hold,0
08:27:02.980 PM 02/17/2016,Teleop Enabled,0,FALSE,0,NO ERROR,8916.210938,-8926.171875,9000.000000,9000.000000,Speed,Speed,61.220000,-0.830000,2.360000,4.000000,108.000000,1,0,-0.000000,0.000000,1,1.523865,0.600739,0.000000,10.223267,-18.073273,0.000000,0.335000,-0.095000,0.055000,FlatInitial,Hold,0
08:27:03.081 PM 02/17/2016,Teleop Enabled,0,FALSE,0,NO ERROR,9014.648438,-9067.382812,9000.000000,9000.000000,Speed,Speed,71.080000,-0.360000,2.540000,4.000000,105.000000,1,0,-0.000000,0.000000,1,1.523865,0.600739,0.000000,10.223267,-18.073273,0.000000,-0.215000,-0.256000,-0.069000,FlatInitial,Hold,0
08:27:03.181 PM 02/17/2016,Teleop Enabled,0,FALSE,0,NO ERROR,9075.585938,-9145.312500,9000.000000,9000.000000,Speed,Speed,81.280000,0.200000,1.410000,4.000000,101.000000,1,0,-0.000000,0.000000,1,1.502029,0.448944,0.000000,10.299240,-18.048325,0.000000,-0.113000,0.092000,-0.059000,FlatInitial,Hold,0
08:27:03.285 PM 02/17/2016,Teleop Enabled,0,FALSE,0,NO ERROR,9099.609375,-9152.929688,9000.000000,9000.000000,Speed,Speed,81.280000,0.200000,1.410000,4.000000,101.000000,1,0,-0.000000,0.000000,1,1.445831,0.385971,0.000000,10.372681,-18.027863,0.000000,-0.055000,-0.254000,-0.033000,FlatInitial,Hold,0
08:27:03.386 PM 02/17/2016,Teleop Enabled,0,FALSE,0,NO ERROR,9097.851562,-9131.835938,9000.000000,9000.000000,Speed,Speed,82.810000,0.790000,1.590000,4.000000,101.000000,1,0,0.283465,-0.283465,1,1.410675,0.236038,0.000000,10.513916,-17.998260,0.000000,-0.018000,0.005000,0.032000,FlatInitial,Hold,0
08:27:03.487 PM 02/17/2016,Teleop Enabled,0,FALSE,0,NO ERROR,9058.007812,-9093.750000,9000.000000,9000.000000,Speed,Speed,78.930000,1.450000,1.410000,4.000000,102.000000,1,0,0.669291,-0.669291,1,1.410675,0.236038,0.000000,10.513916,-17.998260,0.000000,-0.018000,0.005000,0.032000,FlatInitial,Hold,0
08:27:03.588 PM 02/17/2016,Teleop Enabled,0,FALSE,0,NO ERROR,8942.578125,-8904.492188,9000.000000,9000.000000,Speed,Speed,78.930000,1.450000,1.410000,4.000000,102.000000,1,0,0.543307,-0.543307,1,1.388016,0.067734,0.000000,10.598297,-17.988480,0.000000,0.171000,-0.272000,-0.020000,FlatInitial,Hold,0
08:27:03.688 PM 02/17/2016,Teleop Enabled,0,FALSE,0,NO ERROR,8760.351562,-8735.156250,9000.000000,9000.000000,Speed,Speed,53.340000,3.090000,-0.070000,4.000000,104.000000,1,0,-0.000000,0.000000,1,1.473694,-0.163681,0.000000,10.669876,-17.991913,0.000000,-0.017000,-0.083000,0.017000,FlatInitial,Hold,0
08:27:03.790 PM 02/17/2016,Teleop Enabled,0,FALSE,0,NO ERROR,8792.578125,-8820.703125,9000.000000,9000.000000,Speed,Speed,53.340000,3.090000,-0.070000,4.000000,102.000000,1,0,-0.000000,0.000000,1,1.562622,-0.153748,0.000000,10.746140,-18.001831,0.000000,0.111000,0.396000,-0.004000,FlatInitial,Hold,0
08:27:03.891 PM 02/17/2016,Teleop Enabled,0,FALSE,0,NO ERROR,8976.562500,-8950.195312,9000.000000,9000.000000,Speed,Speed,39.390000,2.540000,0.280000,4.000000,101.000000,1,0,-0.000000,0.000000,1,1.611298,0.170456,0.000000,10.858932,-17.998444,0.000000,0.019000,0.326000,0.091000,FlatInitial,Hold,0
08:27:03.991 PM 02/17/2016,Teleop Enabled,0,FALSE,0,NO ERROR,9104.296875,-9077.343750,9000.000000,9000.000000,Speed,Speed,31.840000,2.070000,1.520000,4.000000,101.000000,1,0,-0.000000,0.000000,1,1.585464,0.238373,0.000000,10.906738,-17.991913,0.000000,0.220000,0.294000,-0.037000,FlatInitial,Hold,0
08:27:04.093 PM 02/17/2016,Teleop Enabled,0,FALSE,0,NO ERROR,9156.445312,-9121.875000,9000.000000,9000.000000,Speed,Speed,26.330000,1.900000,1.290000,4.000000,101.000000,1,0,-0.000000,0.000000,1,1.549866,0.365479,0.000000,11.050125,-17.965088,0.000000,-0.014000,0.103000,-0.008000,FlatInitial,Hold,0
08:27:04.194 PM 02/17/2016,Teleop Enabled,0,FALSE,0,NO ERROR,9154.101562,-9138.867188,9000.000000,9000.000000,Speed,Speed,24.270000,1.590000,1.160000,4.000000,101.000000,1,0,-0.000000,0.000000,1,1.534180,0.406387,0.000000,11.080872,-17.957138,0.000000,-0.216000,0.084000,-0.034000,FlatInitial,Hold,0
08:27:04.296 PM 02/17/2016,Teleop Enabled,0,FALSE,0,NO ERROR,9127.148438,-9120.117188,9000.000000,9000.000000,Speed,Speed,23.250000,1.440000,1.830000,4.000000,103.000000,1,0,-0.000000,0.000000,1,1.465454,0.436386,0.000000,11.155228,-17.935455,0.000000,-0.012000,0.046000,-0.001000,FlatInitial,Hold,0
08:27:04.397 PM 02/17/2016,Teleop Enabled,0,FALSE,0,NO ERROR,9090.234375,-9088.476562,9000.000000,9000.000000,Speed,Speed,23.230000,1.400000,1.780000,4.000000,100.000000,1,0,-0.000000,0.000000,1,1.477661,0.473618,0.000000,11.213882,-17.917114,0.000000,0.030000,0.157000,0.086000,FlatInitial,Hold,0
08:27:04.497 PM 02/17/2016,Teleop Enabled,0,FALSE,0,NO ERROR,9053.320312,-9059.765625,9000.000000,9000.000000,Speed,Speed,23.450000,1.250000,1.660000,4.000000,102.000000,1,0,-0.000000,0.000000,1,1.497299,0.512634,0.000000,11.302994,-17.887436,0.000000,-0.038000,-0.253000,-0.032000,FlatInitial,Hold,0
08:27:04.601 PM 02/17/2016,Teleop Enabled,0,FALSE,0,NO ERROR,9025.781250,-9027.539062,9000.000000,9000.000000,Speed,Speed,23.610000,1.320000,1.740000,4.000000,101.000000,1,0,-0.000000,0.000000,1,1.546478,0.522919,0.000000,11.379379,-17.861496,0.000000,0.082000,0.302000,0.027000,FlatInitial,Hold,0
08:27:04.701 PM 02/17/2016,Teleop Enabled,0,FALSE,0,NO ERROR,9006.445312,-9009.375000,9000.000000,9000.000000,Speed,Speed,23.650000,1.290000,1.710000,4.000000,101.000000,1,0,-0.000000,0.000000,1,1.589020,0.523941,0.000000,11.488861,-17.824615,0.000000,0.183000,0.286000,0.035000,FlatInitial,Hold,0
08:27:04.802 PM 02/17/2016,Teleop Enabled,0,FALSE,0,NO ERROR,9001.757812,-9000.000000,9000.000000,9000.000000,Speed,Speed,23.600000,1.280000,1.640000,4.000000,105.000000,1,1,0.031952,0.031952,1,1.611145,0.526566,0.000000,11.536865,-17.808838,0.000000,-0.051000,-0.279000,-0.004000,FlatInitial,Hold,0
