Time,RobotMode,AutoToRun,ErrorStatus, ErrorCode,ErrorSource,ActualRPM1,ActualRPM2,DesiredRPM1,DesiredRPM2,ControlMode1,ControlMode2,NavXYaw,NavXRoll,NavXPitch,ShooterState,LoopTime,IsLevel,IsAutoTargeting,LeftMotorOutput,RightMotorOutput,IsHaloDrive,NavXVelocityX,NavXVelocityY,NavXVelocityZ,NavXDisplacementX,NavXDisplacementY,NavXDisplacementZ,NavXAccelerationX,NavXAccelerationY,NavXAccelerationZ,AutoDefendState,AngeMotorState,Photoeye
08:59:38.853 PM 02/17/2016,Teleop Enabled,0,TRUE,91,Variant To Data in WPI_DigitalInputRefNum Registry Get.vi->Periodic Tasks.vi->Robot Main.vi,0.000000,0.000000,4000.000000,4000.000000,Speed,Speed,-0.540000,1.060000,1.720000,3.000000,100.000000,1,0,-0.000000,0.000000,1,0.000000,0.000000,0.000000,-9.651382,-1.150177,0.000000,0.005000,-0.006000,-0.001000,FlatInitial,ResetBack,0
08:59:38.953 PM 02/17/2016,Teleop Enabled,0,TRUE,-44007,<LOCATION>WPI_DigitalInputRefNum Registry Get.vi<CALLSTACK>WPI_DigitalInputRefNum Registry Get.vi< <Periodic Tasks.vi< <Robot Main.vi,305.712891,-176.513672,4000.000000,4000.000000,Speed,Speed,-0.540000,1.060000,1.720000,3.000000,102.000000,1,0,-0.000000,0.000000,1,0.000000,0.000000,0.000000,-9.651382,-1.150177,0.000000,0.005000,-0.006000,-0.001000,FlatInitial,ResetBack,0
08:59:39.053 PM 02/17/2016,Teleop Enabled,0,FALSE,0,NO ERROR,1750.781250,-1800.732422,4000.000000,4000.000000,Speed,Speed,-0.540000,1.060000,1.720000,3.000000,102.000000,1,0,-0.000000,0.000000,1,0.000000,0.000000,0.000000,-9.651382,-1.150177,0.000000,0.005000,-0.006000,-0.001000,FlatInitial,ResetBack,0
08:59:39.154 PM 02/17/2016,Teleop Enabled,0,FALSE,0,NO ERROR,3641.015625,-3355.078125,4000.000000,4000.000000,Speed,Speed,-0.540000,1.060000,1.720000,3.000000,113.000000,1,0,-0.000000,0.000000,1,0.000000,0.000000,0.000000,-9.651382,-1.150177,0.000000,0.005000,-0.006000,-0.001000,FlatInitial,ResetBack,0
08:59:39.254 PM 02/17/2016,Teleop Enabled,0,FALSE,0,NO ERROR,4091.894531,-3960.498047,4000.000000,4000.000000,Speed,Speed,-0.540000,1.060000,1.720000,3.000000,101.000000,1,0,-0.000000,0.000000,1,0.000000,0.000000,0.000000,-9.651382,-1.150177,0.000000,0.005000,-0.006000,-0.001000,FlatInitial,ResetBack,0
08:59:39.355 PM 02/17/2016,Teleop Enabled,0,FALSE,0,NO ERROR,4062.011719,-3927.978516,4000.000000,4000.000000,Speed,Speed,-0.540000,1.060000,1.720000,3.000000,102.000000,1,0,-0.000000,0.000000,1,0.000000,0.000000,0.000000,-9.651382,-1.150177,0.000000,0.005000,-0.006000,-0.001000,FlatInitial,ResetBack,0
08:59:39.458 PM 02/17/2016,Teleop Enabled,0,FALSE,0,NO ERROR,3993.750000,-3844.482422,4000.000000,4000.000000,Speed,Speed,-0.540000,1.060000,1.720000,3.000000,101.000000,1,0,-0.000000,0.000000,1,0.000000,0.000000,0.000000,-9.651382,-1.150177,0.000000,0.005000,-0.006000,-0.001000,FlatInitial,ResetBack,1
08:59:39.559 PM 02/17/2016,Teleop Enabled,0,FALSE,0,NO ERROR,3943.066406,-3861.035156,4000.000000,4000.000000,Speed,Speed,-0.540000,1.060000,1.720000,3.000000,101.000000,1,0,-0.000000,0.000000,1,0.000000,0.000000,0.000000,-9.651382,-1.150177,0.000000,0.005000,-0.006000,-0.001000,FlatInitial,ResetForward,1
08:59:39.658 PM 02/17/2016,Teleop Enabled,0,FALSE,0,NO ERROR,3938.232422,-3921.533203,4000.000000,4000.000000,Speed,Speed,-0.540000,1.060000,1.720000,3.000000,101.000000,1,0,-0.000000,0.000000,1,0.000000,0.000000,0.000000,-9.651382,-1.150177,0.000000,0.005000,-0.006000,-0.001000,FlatInitial,ResetForward,1
08:59:39.759 PM 02/17/2016,Teleop Enabled,0,FALSE,0,NO ERROR,3959.912109,-3964.160156,4000.000000,4000.000000,Speed,Speed,-0.540000,1.060000,1.720000,3.000000,101.000000,1,0,-0.000000,0.000000,1,0.000000,0.000000,0.000000,-9.651382,-1.150177,0.000000,0.005000,-0.006000,-0.001000,FlatInitial,ResetForward,1
08:59:39.859 PM 02/17/2016,Teleop Enabled,0,FALSE,0,NO ERROR,3981.152344,-3985.253906,4000.000000,4000.000000,Speed,Speed,-0.540000,1.060000,1.720000,3.000000,101.000000,1,0,-0.000000,0.000000,1,0.000000,0.000000,0.000000,-9.651382,-1.150177,0.000000,0.005000,-0.006000,-0.001000,FlatInitial,ResetForward,1
08:59:39.958 PM 02/17/2016,Teleop Enabled,0,FALSE,0,NO ERROR,3992.285156,-3989.355469,4000.000000,4000.000000,Speed,Speed,-0.540000,1.060000,1.720000,3.000000,102.000000,1,0,-0.000000,0.000000,1,0.000000,0.000000,0.000000,-9.651382,-1.150177,0.000000,0.005000,-0.006000,-0.001000,FlatInitial,ResetForward,1
08:59:40.059 PM 02/17/2016,Teleop Enabled,0,FALSE,0,NO ERROR,3997.851562,-3994.189453,4000.000000,4000.000000,Speed,Speed,-0.540000,1.060000,1.720000,3.000000,102.000000,1,0,-0.000000,0.000000,1,0.000000,0.000000,0.000000,-9.651382,-1.150177,0.000000,0.005000,-0.006000,-0.001000,FlatInitial,ResetForward,0
08:59:40.158 PM 02/17/2016,Teleop Enabled,0,FALSE,0,NO ERROR,4006.201172,-4000.195312,4000.000000,4000.000000,Speed,Speed,-0.540000,1.060000,1.720000,3.000000,102.000000,1,0,-0.000000,0.000000,1,0.000000,0.000000,0.000000,-9.651382,-1.150177,0.000000,0.005000,-0.006000,-0.001000,FlatInitial,Reset,0
08:59:40.259 PM 02/17/2016,Teleop Enabled,0,FALSE,0,NO ERROR,4014.697266,-4002.978516,4000.000000,4000.000000,Speed,Speed,-0.540000,1.060000,1.720000,3.000000,101.000000,1,0,-0.000000,0.000000,1,0.000000,0.000000,0.000000,-9.651382,-1.150177,0.000000,0.005000,-0.006000,-0.001000,FlatInitial,Hold,0
08:59:40.360 PM 02/17/2016,Teleop Enabled,0,FALSE,0,NO ERROR,4011.181641,-3993.457031,4000.000000,4000.000000,Speed,Speed,-0.540000,1.060000,1.720000,3.000000,101.000000,1,0,-0.000000,0.000000,1,0.000000,0.000000,0.000000,-9.651382,-1.150177,0.000000,0.005000,-0.006000,-0.001000,FlatInitial,Hold,0
08:59:40.462 PM 02/17/2016,Teleop Enabled,0,FALSE,0,NO ERROR,4007.666016,-3990.087891,4000.000000,4000.000000,Speed,Speed,-0.540000,1.060000,1.720000,3.000000,101.000000,1,0,-0.000000,0.000000,1,0.000000,0.000000,0.000000,-9.651382,-1.150177,0.000000,0.005000,-0.006000,-0.001000,FlatInitial,Hold,0
08:59:40.562 PM 02/17/2016,Teleop Enabled,0,FALSE,0,NO ERROR,4006.640625,-3995.361328,4000.000000,4000.000000,Speed,Speed,-0.540000,1.060000,1.720000,3.000000,101.000000,1,0,-0.000000,0.000000,1,0.000000,0.000000,0.000000,-9.651382,-1.150177,0.000000,0.005000,-0.006000,-0.001000,FlatInitial,Hold,0
08:59:40.664 PM 02/17/2016,Teleop Enabled,0,FALSE,0,NO ERROR,4005.175781,-4005.761719,4000.000000,4000.000000,Speed,Speed,-0.540000,1.060000,1.720000,3.000000,101.000000,1,0,-0.000000,0.000000,1,0.000000,0.000000,0.000000,-9.651382,-1.150177,0.000000,0.005000,-0.006000,-0.001000,FlatInitial,Hold,0
08:59:40.764 PM 02/17/2016,Teleop Enabled,0,FALSE,0,NO ERROR,4005.029297,-4007.519531,4000.000000,4000.000000,Speed,Speed,-0.540000,1.060000,1.720000,3.000000,101.000000,1,0,-0.000000,0.000000,1,0.000000,0.000000,0.000000,-9.651382,-1.150177,0.000000,0.005000,-0.006000,-0.001000,FlatInitial,Hold,0
08:59:40.864 PM 02/17/2016,Teleop Enabled,0,FALSE,0,NO ERROR,4005.322266,-4002.246094,4000.000000,4000.000000,Speed,Speed,-0.540000,1.060000,1.720000,3.000000,101.000000,1,0,-0.000000,0.000000,1,0.000000,0.000000,0.000000,-9.651382,-1.150177,0.000000,0.005000,-0.006000,-0.001000,FlatInitial,Hold,0
08:59:40.963 PM 02/17/2016,Teleop Enabled,0,FALSE,0,NO ERROR,4003.417969,-4000.195312,4000.000000,4000.000000,Speed,Speed,-0.540000,1.060000,1.720000,3.000000,103.000000,1,0,-0.000000,0.000000,1,0.000000,0.000000,0.000000,-9.651382,-1.150177,0.000000,0.005000,-0.006000,-0.001000,FlatInitial,Hold,0
08:59:41.063 PM 02/17/2016,Teleop Enabled,0,FALSE,0,NO ERROR,3997.265625,-4003.564453,4000.000000,4000.000000,Speed,Speed,-0.540000,1.060000,1.720000,3.000000,102.000000,1,0,-0.000000,0.000000,1,0.000000,0.000000,0.000000,-9.651382,-1.150177,0.000000,0.005000,-0.006000,-0.001000,FlatInitial,Hold,0
08:59:41.165 PM 02/17/2016,Teleop Enabled,0,FALSE,0,NO ERROR,3992.578125,-4013.964844,4000.000000,4000.000000,Speed,Speed,-0.540000,1.060000,1.720000,3.000000,101.000000,1,0,-0.000000,0.000000,1,0.000000,0.000000,0.000000,-9.651382,-1.150177,0.000000,0.005000,-0.006000,-0.001000,FlatInitial,Hold,0
08:59:41.264 PM 02/17/2016,Teleop Enabled,0,FALSE,0,NO ERROR,3990.966797,-4016.455078,4000.000000,4000.000000,Speed,Speed,-0.540000,1.060000,1.720000,3.000000,101.000000,1,0,-0.000000,0.000000,1,0.000000,0.000000,0.000000,-9.651382,-1.150177,0.000000,0.005000,-0.006000,-0.001000,FlatInitial,Hold,0
08:59:41.365 PM 02/17/2016,Teleop Enabled,0,FALSE,0,NO ERROR,3991.992187,-4005.908203,4000.000000,4000.000000,Speed,Speed,-0.540000,1.060000,1.720000,3.000000,101.000000,1,0,-0.000000,0.000000,1,0.000000,0.000000,0.000000,-9.651382,-1.150177,0.000000,0.005000,-0.006000,-0.001000,FlatInitial,Hold,0
08:59:41.465 PM 02/17/2016,Teleop Enabled,0,FALSE,0,NO ERROR,3995.654297,-3989.941406,4000.000000,4000.000000,Speed,Speed,-0.540000,1.060000,1.720000,3.000000,102.000000,1,0,-0.000000,0.000000,1,0.000000,0.000000,0.000000,-9.651382,-1.150177,0.000000,0.005000,-0.006000,-0.001000,FlatInitial,Hold,0
08:59:41.565 PM 02/17/2016,Teleop Enabled,0,FALSE,0,NO ERROR,4001.660156,-3988.916016,4000.000000,4000.000000,Speed,Speed,-0.540000,1.060000,1.720000,3.000000,101.000000,1,0,-0.000000,0.000000,1,0.000000,0.000000,0.000000,-9.651382,-1.150177,0.000000,0.005000,-0.006000,-0.001000,FlatInitial,Hold,0
08:59:41.665 PM 02/17/2016,Teleop Enabled,0,FALSE,0,NO ERROR,4008.691406,-4002.246094,4000.000000,4000.000000,Speed,Speed,-0.540000,1.060000,1.720000,3.000000,101.000000,1,0,-0.000000,0.000000,1,0.000000,0.000000,0.000000,-9.651382,-1.150177,0.000000,0.005000,-0.006000,-0.001000,FlatInitial,Hold,0
08:59:41.768 PM 02/17/2016,Teleop Enabled,0,FALSE,0,NO ERROR,4014.843750,-4006.494141,4000.000000,4000.000000,Speed,Speed,-0.540000,1.060000,1.720000,3.000000,102.000000,1,0,-0.000000,0.000000,1,0.000000,0.000000,0.000000,-9.651382,-1.150177,0.000000,0.005000,-0.006000,-0.001000,FlatInitial,Hold,0
08:59:41.869 PM 02/17/2016,Teleop Enabled,0,FALSE,0,NO ERROR,4016.455078,-4000.341797,4000.000000,4000.000000,Speed,Speed,-0.540000,1.060000,1.720000,3.000000,100.000000,1,0,-0.000000,0.000000,1,0.000000,0.000000,0.000000,-9.651382,-1.150177,0.000000,0.005000,-0.006000,-0.001000,FlatInitial,Hold,0
08:59:41.970 PM 02/17/2016,Teleop Enabled,0,FALSE,0,NO ERROR,4013.378906,-3995.361328,4000.000000,4000.000000,Speed,Speed,-0.540000,1.060000,1.720000,3.000000,101.000000,1,0,-0.000000,0.000000,1,0.000000,0.000000,0.000000,-9.651382,-1.150177,0.000000,0.005000,-0.006000,-0.001000,FlatInitial,Hold,0
08:59:42.071 PM 02/17/2016,Teleop Enabled,0,FALSE,0,NO ERROR,4005.761719,-3998.583984,4000.000000,4000.000000,Speed,Speed,-0.540000,1.060000,1.720000,3.000000,101.000000,1,0,-0.000000,0.000000,1,0.000000,0.000000,0.000000,-9.651382,-1.150177,0.000000,0.005000,-0.006000,-0.001000,FlatInitial,Hold,0
08:59:42.170 PM 02/17/2016,Teleop Enabled,0,FALSE,0,NO ERROR,4003.710937,-4009.863281,4000.000000,4000.000000,Speed,Speed,-0.540000,1.060000,1.720000,3.000000,101.000000,1,0,-0.000000,0.000000,1,0.000000,0.000000,0.000000,-9.651382,-1.150177,0.000000,0.005000,-0.006000,-0.001000,FlatInitial,Hold,0
08:59:42.270 PM 02/17/2016,Teleop Enabled,0,FALSE,0,NO ERROR,4004.443359,-4021.142578,4000.000000,4000.000000,Speed,Speed,-0.540000,1.060000,1.720000,3.000000,100.000000,1,0,-0.000000,0.000000,1,0.000000,0.000000,0.000000,-9.651382,-1.150177,0.000000,0.005000,-0.006000,-0.001000,FlatInitial,Hold,0
08:59:42.371 PM 02/17/2016,Teleop Enabled,0,FALSE,0,NO ERROR,4004.882812,-4011.474609,4000.000000,4000.000000,Speed,Speed,-0.540000,1.060000,1.720000,3.000000,102.000000,1,0,-0.000000,0.000000,1,0.000000,0.000000,0.000000,-9.651382,-1.150177,0.000000,0.005000,-0.006000,-0.001000,FlatInitial,Hold,0
08:59:42.472 PM 02/17/2016,Teleop Enabled,0,FALSE,0,NO ERROR,4003.125000,-3989.062500,4000.000000,4000.000000,Speed,Speed,-0.540000,1.060000,1.720000,3.000000,102.000000,1,0,-0.000000,0.000000,1,0.000000,0.000000,0.000000,-9.651382,-1.150177,0.000000,0.005000,-0.006000,-0.001000,FlatInitial,Hold,0
08:59:42.572 PM 02/17/2016,Teleop Enabled,0,FALSE,0,NO ERROR,4003.417969,-3984.375000,4000.000000,4000.000000,Speed,Speed,-0.540000,1.060000,1.720000,3.000000,101.000000,1,0,-0.000000,0.000000,1,0.000000,0.000000,0.000000,-9.651382,-1.150177,0.000000,0.005000,-0.006000,-0.001000,FlatInitial,Hold,0
08:59:42.672 PM 02/17/2016,Teleop Enabled,0,FALSE,0,NO ERROR,4000.781250,-3995.214844,4000.000000,4000.000000,Speed,Speed,-0.540000,1.060000,1.720000,3.000000,100.000000,1,0,-0.000000,0.000000,1,0.000000,0.000000,0.000000,-9.651382,-1.150177,0.000000,0.005000,-0.006000,-0.001000,FlatInitial,Hold,0
08:59:42.772 PM 02/17/2016,Teleop Enabled,0,FALSE,0,NO ERROR,3998.876953,-4004.736328,4000.000000,4000.000000,Speed,Speed,-0.540000,1.060000,1.720000,3.000000,103.000000,1,0,-0.000000,0.000000,1,0.000000,0.000000,0.000000,-9.651382,-1.150177,0.000000,0.005000,-0.006000,-0.001000,FlatInitial,Hold,0
08:59:42.872 PM 02/17/2016,Teleop Enabled,0,FALSE,0,NO ERROR,3999.169922,-4000.488281,4000.000000,4000.000000,Speed,Speed,-0.540000,1.060000,1.720000,3.000000,101.000000,1,0,-0.000000,0.000000,1,0.000000,0.000000,0.000000,-9.651382,-1.150177,0.000000,0.005000,-0.006000,-0.001000,FlatInitial,Hold,0
08:59:42.972 PM 02/17/2016,Teleop Enabled,0,FALSE,0,NO ERROR,3997.998047,-3992.285156,4000.000000,4000.000000,Speed,Speed,-0.540000,1.060000,1.720000,3.000000,102.000000,1,0,-0.000000,0.000000,1,0.000000,0.000000,0.000000,-9.651382,-1.150177,0.000000,0.005000,-0.006000,-0.001000,FlatInitial,Hold,0
08:59:43.073 PM 02/17/2016,Teleop Enabled,0,FALSE,0,NO ERROR,3997.119141,-3991.552734,4000.000000,4000.000000,Speed,Speed,-0.540000,1.060000,1.720000,3.000000,102.000000,1,0,-0.000000,0.000000,1,0.000000,0.000000,0.000000,-9.651382,-1.150177,0.000000,0.005000,-0.006000,-0.001000,FlatInitial,Hold,0
08:59:43.173 PM 02/17/2016,Teleop Enabled,0,FALSE,0,NO ERROR,3997.119141,-4002.539062,4000.000000,4000.000000,Speed,Speed,-0.540000,1.060000,1.720000,3.000000,102.000000,1,0,-0.000000,0.000000,1,0.000000,0.000000,0.000000,-9.651382,-1.150177,0.000000,0.005000,-0.006000,-0.001000,FlatInitial,Hold,0
08:59:43.274 PM 02/17/2016,Teleop Enabled,0,FALSE,0,NO ERROR,3998.730469,-4014.404297,4000.000000,4000.000000,Speed,Speed,-0.540000,1.060000,1.720000,3.000000,102.000000,1,0,-0.000000,0.000000,1,0.000000,0.000000,0.000000,-9.651382,-1.150177,0.000000,0.005000,-0.006000,-0.001000,FlatInitial,Hold,0
08:59:43.374 PM 02/17/2016,Teleop Enabled,0,FALSE,0,NO ERROR,4001.220703,-4013.671875,4000.000000,4000.000000,Speed,Speed,-0.540000,1.060000,1.720000,3.000000,101.000000,1,0,-0.000000,0.000000,1,0.000000,0.000000,0.000000,-9.651382,-1.150177,0.000000,0.005000,-0.006000,-0.001000,FlatInitial,Hold,0
08:59:43.476 PM 02/17/2016,Teleop Enabled,0,FALSE,0,NO ERROR,4002.539062,-4000.341797,4000.000000,4000.000000,Speed,Speed,-0.540000,1.060000,1.720000,3.000000,101.000000,1,0,-0.000000,0.000000,1,0.000000,0.000000,0.000000,-9.651382,-1.150177,0.000000,0.005000,-0.006000,-0.001000,FlatInitial,Hold,0
08:59:43.577 PM 02/17/2016,Teleop Enabled,0,FALSE,0,NO ERROR,4004.736328,-3991.113281,4000.000000,4000.000000,Speed,Speed,-0.540000,1.060000,1.720000,3.000000,102.000000,1,0,-0.000000,0.000000,1,0.000000,0.000000,0.000000,-9.651382,-1.150177,0.000000,0.005000,-0.006000,-0.001000,FlatInitial,Hold,0
08:59:43.677 PM 02/17/2016,Teleop Enabled,0,FALSE,0,NO ERROR,4006.347656,-3995.800781,4000.000000,4000.000000,Speed,Speed,-0.540000,1.060000,1.720000,3.000000,102.000000,1,0,-0.000000,0.000000,1,0.000000,0.000000,0.000000,-9.651382,-1.150177,0.000000,0.005000,-0.006000,-0.001000,FlatInitial,Hold,0
08:59:43.777 PM 02/17/2016,Teleop Enabled,0,FALSE,0,NO ERROR,4006.054687,-4005.468750,4000.000000,4000.000000,Speed,Speed,-0.540000,1.060000,1.720000,3.000000,101.000000,1,0,-0.000000,0.000000,1,0.000000,0.000000,0.000000,-9.651382,-1.150177,0.000000,0.005000,-0.006000,-0.001000,FlatInitial,Hold,0
08:59:43.877 PM 02/17/2016,Teleop Enabled,0,FALSE,0,NO ERROR,4005.908203,-4006.494141,4000.000000,4000.000000,Speed,Speed,-0.540000,1.060000,1.720000,3.000000,102.000000,1,0,-0.000000,0.000000,1,0.000000,0.000000,0.000000,-9.651382,-1.150177,0.000000,0.005000,-0.006000,-0.001000,FlatInitial,Hold,0
08:59:43.977 PM 02/17/2016,Teleop Enabled,0,FALSE,0,NO ERROR,4003.710937,-3999.023437,4000.000000,4000.000000,Speed,Speed,-0.540000,1.060000,1.720000,3.000000,103.000000,1,0,-0.000000,0.000000,1,0.000000,0.000000,0.000000,-9.651382,-1.150177,0.000000,0.005000,-0.006000,-0.001000,FlatInitial,Hold,0
08:59:44.077 PM 02/17/2016,Teleop Enabled,0,FALSE,0,NO ERROR,4000.341797,-3993.017578,4000.000000,4000.000000,Speed,Speed,-0.540000,1.060000,1.720000,3.000000,100.000000,1,0,-0.000000,0.000000,1,0.000000,0.000000,0.000000,-9.651382,-1.150177,0.000000,0.005000,-0.006000,-0.001000,FlatInitial,Hold,0
08:59:44.177 PM 02/17/2016,Teleop Enabled,0,FALSE,0,NO ERROR,3995.800781,-3999.462891,4000.000000,4000.000000,Speed,Speed,-0.540000,1.060000,1.720000,3.000000,103.000000,1,0,-0.000000,0.000000,1,0.000000,0.000000,0.000000,-9.651382,-1.150177,0.000000,0.005000,-0.006000,-0.001000,FlatInitial,Hold,0
08:59:44.277 PM 02/17/2016,Teleop Enabled,0,FALSE,0,NO ERROR,3993.017578,-4009.130859,4000.000000,4000.000000,Speed,Speed,-0.540000,1.060000,1.720000,3.000000,101.000000,1,0,-0.000000,0.000000,1,0.000000,0.000000,0.000000,-9.651382,-1.150177,0.000000,0.005000,-0.006000,-0.001000,FlatInitial,Hold,0
08:59:44.379 PM 02/17/2016,Teleop Enabled,0,FALSE,0,NO ERROR,3992.578125,-4012.207031,4000.000000,4000.000000,Speed,Speed,-0.540000,1.060000,1.720000,3.000000,101.000000,1,0,-0.000000,0.000000,1,0.000000,0.000000,0.000000,-9.651382,-1.150177,0.000000,0.005000,-0.006000,-0.001000,FlatInitial,Hold,0
08:59:44.479 PM 02/17/2016,Teleop Enabled,0,FALSE,0,NO ERROR,3995.068359,-3999.609375,4000.000000,4000.000000,Speed,Speed,-0.540000,1.060000,1.720000,3.000000,102.000000,1,0,-0.000000,0.000000,1,0.000000,0.000000,0.000000,-9.651382,-1.150177,0.000000,0.005000,-0.006000,-0.001000,FlatInitial,Hold,0
08:59:44.580 PM 02/17/2016,Teleop Enabled,0,FALSE,0,NO ERROR,3998.437500,-3985.400391,4000.000000,4000.000000,Speed,Speed,-0.540000,1.060000,1.720000,3.000000,104.000000,1,0,-0.000000,0.000000,1,0.000000,0.000000,0.000000,-9.651382,-1.150177,0.000000,0.005000,-0.006000,-0.001000,FlatInitial,Hold,0
08:59:44.679 PM 02/17/2016,Teleop Enabled,0,FALSE,0,NO ERROR,4003.564453,-3985.400391,4000.000000,4000.000000,Speed,Speed,-0.540000,1.060000,1.720000,3.000000,101.000000,1,0,-0.000000,0.000000,1,0.000000,0.000000,0.000000,-9.651382,-1.150177,0.000000,0.005000,-0.006000,-0.001000,FlatInitial,Hold,0
08:59:44.779 PM 02/17/2016,Teleop Enabled,0,FALSE,0,NO ERROR,4005.468750,-4002.685547,4000.000000,4000.000000,Speed,Speed,-0.540000,1.060000,1.720000,3.000000,102.000000,1,0,-0.000000,0.000000,1,0.000000,0.000000,0.000000,-9.651382,-1.150177,0.000000,0.005000,-0.006000,-0.001000,FlatInitial,Hold,0
08:59:44.880 PM 02/17/2016,Teleop Enabled,0,FALSE,0,NO ERROR,4008.837891,-4002.685547,4000.000000,4000.000000,Speed,Speed,-0.540000,1.060000,1.720000,3.000000,104.000000,1,0,-0.000000,0.000000,1,0.000000,0.000000,0.000000,-9.651382,-1.150177,0.000000,0.005000,-0.006000,-0.001000,FlatInitial,Hold,0
08:59:44.981 PM 02/17/2016,Teleop Enabled,0,FALSE,0,NO ERROR,4009.863281,-4005.761719,4000.000000,4000.000000,Speed,Speed,-0.540000,1.060000,1.720000,3.000000,102.000000,1,0,-0.000000,0.000000,1,0.000000,0.000000,0.000000,-9.651382,-1.150177,0.000000,0.005000,-0.006000,-0.001000,FlatInitial,Hold,0
08:59:45.082 PM 02/17/2016,Teleop Enabled,0,FALSE,0,NO ERROR,4009.863281,-3998.876953,4000.000000,4000.000000,Speed,Speed,-0.540000,1.060000,1.720000,3.000000,101.000000,1,0,-0.000000,0.000000,1,0.000000,0.000000,0.000000,-9.651382,-1.150177,0.000000,0.005000,-0.006000,-0.001000,FlatInitial,Hold,0
08:59:45.182 PM 02/17/2016,Teleop Enabled,0,FALSE,0,NO ERROR,4007.080078,-3994.482422,4000.000000,4000.000000,Speed,Speed,-0.540000,1.060000,1.720000,3.000000,101.000000,1,0,-0.000000,0.000000,1,0.000000,0.000000,0.000000,-9.651382,-1.150177,0.000000,0.005000,-0.006000,-0.001000,FlatInitial,Hold,0
08:59:45.282 PM 02/17/2016,Teleop Enabled,0,FALSE,0,NO ERROR,4004.150391,-3998.144531,4000.000000,4000.000000,Speed,Speed,-0.540000,1.060000,1.720000,3.000000,101.000000,1,0,-0.000000,0.000000,1,0.000000,0.000000,0.000000,-9.651382,-1.150177,0.000000,0.005000,-0.006000,-0.001000,FlatInitial,Hold,0
08:59:45.382 PM 02/17/2016,Teleop Enabled,0,FALSE,0,NO ERROR,3999.755859,-4009.716797,4000.000000,4000.000000,Speed,Speed,-0.540000,1.060000,1.720000,3.000000,101.000000,1,0,-0.000000,0.000000,1,0.000000,0.000000,0.000000,-9.651382,-1.150177,0.000000,0.005000,-0.006000,-0.001000,FlatInitial,Hold,0
08:59:45.482 PM 02/17/2016,Teleop Enabled,0,FALSE,0,NO ERROR,3997.412109,-4019.091797,4000.000000,4000.000000,Speed,Speed,-0.540000,1.060000,1.720000,3.000000,104.000000,1,0,-0.000000,0.000000,1,0.000000,0.000000,0.000000,-9.651382,-1.150177,0.000000,0.005000,-0.006000,-0.001000,FlatInitial,Hold,0
08:59:45.582 PM 02/17/2016,Teleop Enabled,0,FALSE,0,NO ERROR,3995.654297,-4010.742187,4000.000000,4000.000000,Speed,Speed,-0.540000,1.060000,1.720000,3.000000,101.000000,1,0,-0.000000,0.000000,1,0.000000,0.000000,0.000000,-9.651382,-1.150177,0.000000,0.005000,-0.006000,-0.001000,FlatInitial,Hold,0
08:59:45.683 PM 02/17/2016,Teleop Enabled,0,FALSE,0,NO ERROR,3993.310547,-3995.507812,4000.000000,4000.000000,Speed,Speed,-0.540000,1.060000,1.720000,3.000000,101.000000,1,0,-0.000000,0.000000,1,0.000000,0.000000,0.000000,-9.651382,-1.150177,0.000000,0.005000,-0.006000,-0.001000,FlatInitial,Hold,0
08:59:45.784 PM 02/17/2016,Teleop Enabled,0,FALSE,0,NO ERROR,3995.068359,-3989.941406,4000.000000,4000.000000,Speed,Speed,-0.540000,1.060000,1.720000,3.000000,102.000000,1,0,-0.000000,0.000000,1,0.000000,0.000000,0.000000,-9.651382,-1.150177,0.000000,0.005000,-0.006000,-0.001000,FlatInitial,Hold,0
08:59:45.884 PM 02/17/2016,Teleop Enabled,0,FALSE,0,NO ERROR,3996.093750,-3993.896484,4000.000000,4000.000000,Speed,Speed,-0.540000,1.060000,1.720000,3.000000,100.000000,1,0,-0.000000,0.000000,1,0.000000,0.000000,0.000000,-9.651382,-1.150177,0.000000,0.005000,-0.006000,-0.001000,FlatInitial,Hold,0
08:59:45.984 PM 02/17/2016,Teleop Enabled,0,FALSE,0,NO ERROR,3999.462891,-4000.048828,4000.000000,4000.000000,Speed,Speed,-0.540000,1.060000,1.720000,3.000000,101.000000,1,0,-0.000000,0.000000,1,0.000000,0.000000,0.000000,-9.651382,-1.150177,0.000000,0.005000,-0.006000,-0.001000,FlatInitial,Hold,0
08:59:46.084 PM 02/17/2016,Teleop Enabled,0,FALSE,0,NO ERROR,4000.634766,-3999.316406,4000.000000,4000.000000,Speed,Speed,-0.540000,1.060000,1.720000,3.000000,101.000000,1,0,-0.000000,0.000000,1,0.000000,0.000000,0.000000,-9.651382,-1.150177,0.000000,0.005000,-0.006000,-0.001000,FlatInitial,Hold,0
08:59:46.184 PM 02/17/2016,Teleop Enabled,0,FALSE,0,NO ERROR,4001.806641,-3995.947266,4000.000000,4000.000000,Speed,Speed,-0.540000,1.060000,1.720000,3.000000,101.000000,1,0,-0.000000,0.000000,1,0.000000,0.000000,0.000000,-9.651382,-1.150177,0.000000,0.005000,-0.006000,-0.001000,FlatInitial,Hold,0
08:59:46.284 PM 02/17/2016,Teleop Enabled,0,FALSE,0,NO ERROR,3997.558594,-3997.705078,4000.000000,4000.000000,Speed,Speed,-0.540000,1.060000,1.720000,3.000000,102.000000,1,0,-0.000000,0.000000,1,0.000000,0.000000,0.000000,-9.651382,-1.150177,0.000000,0.005000,-0.006000,-0.001000,FlatInitial,Hold,0
08:59:46.385 PM 02/17/2016,Teleop Enabled,0,FALSE,0,NO ERROR,3993.310547,-4006.640625,4000.000000,4000.000000,Speed,Speed,-0.540000,1.060000,1.720000,3.000000,100.000000,1,0,-0.000000,0.000000,1,0.000000,0.000000,0.000000,-9.651382,-1.150177,0.000000,0.005000,-0.006000,-0.001000,FlatInitial,Hold,0
08:59:46.485 PM 02/17/2016,Teleop Enabled,0,FALSE,0,NO ERROR,3989.355469,-4019.384766,4000.000000,4000.000000,Speed,Speed,-0.540000,1.060000,1.720000,3.000000,102.000000,1,0,-0.000000,0.000000,1,0.000000,0.000000,0.000000,-9.651382,-1.150177,0.000000,0.005000,-0.006000,-0.001000,FlatInitial,Hold,0
08:59:46.586 PM 02/17/2016,Teleop Enabled,0,FALSE,0,NO ERROR,3993.017578,-4019.531250,4000.000000,4000.000000,Speed,Speed,-0.540000,1.060000,1.720000,3.000000,102.000000,1,0,-0.000000,0.000000,1,0.000000,0.000000,0.000000,-9.651382,-1.150177,0.000000,0.005000,-0.006000,-0.001000,FlatInitial,Hold,0
08:59:46.685 PM 02/17/2016,Teleop Enabled,0,FALSE,0,NO ERROR,3996.240234,-3997.558594,4000.000000,4000.000000,Speed,Speed,-0.540000,1.060000,1.720000,3.000000,102.000000,1,0,-0.000000,0.000000,1,0.000000,0.000000,0.000000,-9.651382,-1.150177,0.000000,0.005000,-0.006000,-0.001000,FlatInitial,Hold,0
08:59:46.786 PM 02/17/2016,Teleop Enabled,0,FALSE,0,NO ERROR,3999.462891,-3989.355469,4000.000000,4000.000000,Speed,Speed,-0.540000,1.060000,1.720000,3.000000,101.000000,1,0,-0.000000,0.000000,1,0.000000,0.000000,0.000000,-9.651382,-1.150177,0.000000,0.005000,-0.006000,-0.001000,FlatInitial,Hold,0
08:59:46.886 PM 02/17/2016,Teleop Enabled,0,FALSE,0,NO ERROR,4005.322266,-3993.457031,4000.000000,4000.000000,Speed,Speed,-0.540000,1.060000,1.720000,3.000000,104.000000,1,0,-0.000000,0.000000,1,0.000000,0.000000,0.000000,-9.651382,-1.150177,0.000000,0.005000,-0.006000,-0.001000,FlatInitial,Hold,0
08:59:46.986 PM 02/17/2016,Teleop Enabled,0,FALSE,0,NO ERROR,4010.742187,-4000.341797,4000.000000,4000.000000,Speed,Speed,-0.540000,1.060000,1.720000,3.000000,102.000000,1,0,-0.000000,0.000000,1,0.000000,0.000000,0.000000,-9.651382,-1.150177,0.000000,0.005000,-0.006000,-0.001000,FlatInitial,Hold,0
08:59:47.086 PM 02/17/2016,Teleop Enabled,0,FALSE,0,NO ERROR,4012.353516,-3999.609375,4000.000000,4000.000000,Speed,Speed,-0.540000,1.060000,1.720000,3.000000,102.000000,1,0,-0.000000,0.000000,1,0.000000,0.000000,0.000000,-9.651382,-1.150177,0.000000,0.005000,-0.006000,-0.001000,FlatInitial,Hold,0
08:59:47.186 PM 02/17/2016,Teleop Enabled,0,FALSE,0,NO ERROR,4007.519531,-3991.699219,4000.000000,4000.000000,Speed,Speed,-0.540000,1.060000,1.720000,3.000000,101.000000,1,0,-0.000000,0.000000,1,0.000000,0.000000,0.000000,-9.651382,-1.150177,0.000000,0.005000,-0.006000,-0.001000,FlatInitial,Hold,0
08:59:47.287 PM 02/17/2016,Teleop Enabled,0,FALSE,0,NO ERROR,4005.468750,-3990.380859,4000.000000,4000.000000,Speed,Speed,-0.540000,1.060000,1.720000,3.000000,101.000000,1,0,-0.000000,0.000000,1,0.000000,0.000000,0.000000,-9.651382,-1.150177,0.000000,0.005000,-0.006000,-0.001000,FlatInitial,Hold,0
08:59:47.388 PM 02/17/2016,Teleop Enabled,0,FALSE,0,NO ERROR,4004.003906,-4002.978516,4000.000000,4000.000000,Speed,Speed,-0.540000,1.060000,1.720000,3.000000,102.000000,1,0,-0.000000,0.000000,1,0.000000,0.000000,0.000000,-9.651382,-1.150177,0.000000,0.005000,-0.006000,-0.001000,FlatInitial,Hold,0
08:59:47.489 PM 02/17/2016,Teleop Enabled,0,FALSE,0,NO ERROR,4003.125000,-4019.677734,4000.000000,4000.000000,Speed,Speed,-0.540000,1.060000,1.720000,3.000000,104.000000,1,0,-0.000000,0.000000,1,0.000000,0.000000,0.000000,-9.651382,-1.150177,0.000000,0.005000,-0.006000,-0.001000,FlatInitial,Hold,0
08:59:47.590 PM 02/17/2016,Teleop Enabled,0,FALSE,0,NO ERROR,4003.710937,-4021.582031,4000.000000,4000.000000,Speed,Speed,-0.540000,1.060000,1.720000,3.000000,102.000000,1,0,-0.000000,0.000000,1,0.000000,0.000000,0.000000,-9.651382,-1.150177,0.000000,0.005000,-0.006000,-0.001000,FlatInitial,Hold,0
08:59:47.691 PM 02/17/2016,Teleop Enabled,0,FALSE,0,NO ERROR,4003.417969,-4003.857422,4000.000000,4000.000000,Speed,Speed,-0.540000,1.060000,1.720000,3.000000,101.000000,1,0,-0.000000,0.000000,1,0.000000,0.000000,0.000000,-9.651382,-1.150177,0.000000,0.005000,-0.006000,-0.001000,FlatInitial,Hold,0
08:59:47.790 PM 02/17/2016,Teleop Enabled,0,FALSE,0,NO ERROR,4002.539062,-3989.501953,4000.000000,4000.000000,Speed,Speed,-0.540000,1.060000,1.720000,3.000000,101.000000,1,0,-0.000000,0.000000,1,0.000000,0.000000,0.000000,-9.651382,-1.150177,0.000000,0.005000,-0.006000,-0.001000,FlatInitial,Hold,0
08:59:47.890 PM 02/17/2016,Teleop Enabled,0,FALSE,0,NO ERROR,4004.589844,-3987.304687,4000.000000,4000.000000,Speed,Speed,-0.540000,1.060000,1.720000,3.000000,101.000000,1,0,-0.000000,0.000000,1,0.000000,0.000000,0.000000,-9.651382,-1.150177,0.000000,0.005000,-0.006000,-0.001000,FlatInitial,Hold,0
08:59:47.991 PM 02/17/2016,Teleop Enabled,0,FALSE,0,NO ERROR,4005.761719,-4001.074219,4000.000000,4000.000000,Speed,Speed,-0.540000,1.060000,1.720000,3.000000,105.000000,1,0,-0.000000,0.000000,1,0.000000,0.000000,0.000000,-9.651382,-1.150177,0.000000,0.005000,-0.006000,-0.001000,FlatInitial,Hold,0
08:59:48.091 PM 02/17/2016,Teleop Enabled,0,FALSE,0,NO ERROR,4005.175781,-4009.716797,4000.000000,4000.000000,Speed,Speed,-0.540000,1.060000,1.720000,3.000000,102.000000,1,0,-0.000000,0.000000,1,0.000000,0.000000,0.000000,-9.651382,-1.150177,0.000000,0.005000,-0.006000,-0.001000,FlatInitial,Hold,0
08:59:48.191 PM 02/17/2016,Teleop Enabled,0,FALSE,0,NO ERROR,4003.564453,-4001.074219,4000.000000,4000.000000,Speed,Speed,-0.540000,1.060000,1.720000,3.000000,101.000000,1,0,-0.000000,0.000000,1,0.000000,0.000000,0.000000,-9.651382,-1.150177,0.000000,0.005000,-0.006000,-0.001000,FlatInitial,Hold,0
08:59:48.291 PM 02/17/2016,Teleop Enabled,0,FALSE,0,NO ERROR,4004.003906,-3994.921875,4000.000000,4000.000000,Speed,Speed,-0.540000,1.060000,1.720000,3.000000,101.000000,1,0,-0.000000,0.000000,1,0.000000,0.000000,0.000000,-9.651382,-1.150177,0.000000,0.005000,-0.006000,-0.001000,FlatInitial,Hold,0
08:59:48.390 PM 02/17/2016,Teleop Enabled,0,FALSE,0,NO ERROR,4001.220703,-3995.507812,4000.000000,4000.000000,Speed,Speed,-0.540000,1.060000,1.720000,3.000000,102.000000,1,0,-0.000000,0.000000,1,0.000000,0.000000,0.000000,-9.651382,-1.150177,0.000000,0.005000,-0.006000,-0.001000,FlatInitial,Hold,0
08:59:48.490 PM 02/17/2016,Teleop Enabled,0,FALSE,0,NO ERROR,3998.291016,-4006.933594,4000.000000,4000.000000,Speed,Speed,-0.540000,1.060000,1.720000,3.000000,102.000000,1,0,-0.000000,0.000000,1,0.000000,0.000000,0.000000,-9.651382,-1.150177,0.000000,0.005000,-0.006000,-0.001000,FlatInitial,Hold,0
08:59:48.591 PM 02/17/2016,Teleop Enabled,0,FALSE,0,NO ERROR,3996.826172,-4016.894531,4000.000000,4000.000000,Speed,Speed,-0.540000,1.060000,1.720000,3.000000,101.000000,1,0,-0.000000,0.000000,1,0.000000,0.000000,0.000000,-9.651382,-1.150177,0.000000,0.005000,-0.006000,-0.001000,FlatInitial,Hold,0
08:59:48.692 PM 02/17/2016,Teleop Enabled,0,FALSE,0,NO ERROR,3996.972656,-4008.837891,4000.000000,4000.000000,Speed,Speed,-0.540000,1.060000,1.720000,3.000000,102.000000,1,0,-0.000000,0.000000,1,0.000000,0.000000,0.000000,-9.651382,-1.150177,0.000000,0.005000,-0.006000,-0.001000,FlatInitial,Hold,0
08:59:48.792 PM 02/17/2016,Teleop Enabled,0,FALSE,0,NO ERROR,3995.947266,-3993.603516,4000.000000,4000.000000,Speed,Speed,-0.540000,1.060000,1.720000,3.000000,102.000000,1,0,-0.000000,0.000000,1,0.000000,0.000000,0.000000,-9.651382,-1.150177,0.000000,0.005000,-0.006000,-0.001000,FlatInitial,Hold,0
08:59:48.893 PM 02/17/2016,Teleop Enabled,0,FALSE,0,NO ERROR,3997.998047,-3988.769531,4000.000000,4000.000000,Speed,Speed,-0.540000,1.060000,1.720000,3.000000,102.000000,1,0,-0.000000,0.000000,1,0.000000,0.000000,0.000000,-9.651382,-1.150177,0.000000,0.005000,-0.006000,-0.001000,FlatInitial,Hold,0
08:59:48.993 PM 02/17/2016,Teleop Enabled,0,FALSE,0,NO ERROR,4002.099609,-4000.195312,4000.000000,4000.000000,Speed,Speed,-0.540000,1.060000,1.720000,3.000000,101.000000,1,0,-0.000000,0.000000,1,0.000000,0.000000,0.000000,-9.651382,-1.150177,0.000000,0.005000,-0.006000,-0.001000,FlatInitial,Hold,0
08:59:49.093 PM 02/17/2016,Teleop Disabled,0,FALSE,0,NO ERROR,4005.322266,-4005.761719,4000.000000,4000.000000,Speed,Speed,-0.540000,1.060000,1.720000,3.000000,103.000000,1,0,-0.000000,0.000000,1,0.000000,0.000000,0.000000,-9.651382,-1.150177,0.000000,0.005000,-0.006000,-0.001000,FlatInitial,Hold,0
08:59:49.193 PM 02/17/2016,Teleop Disabled,0,FALSE,0,NO ERROR,3975.878906,-3970.751953,4000.000000,4000.000000,Speed,Speed,-0.540000,1.060000,1.720000,3.000000,100.000000,1,0,-0.000000,0.000000,1,0.000000,0.000000,0.000000,-9.651382,-1.150177,0.000000,0.005000,-0.006000,-0.001000,FlatInitial,Hold,0
08:59:49.293 PM 02/17/2016,Teleop Disabled,0,FALSE,0,NO ERROR,3779.736328,-3590.478516,4000.000000,4000.000000,Speed,Speed,-0.540000,1.060000,1.720000,3.000000,102.000000,1,0,-0.000000,0.000000,1,0.000000,0.000000,0.000000,-9.651382,-1.150177,0.000000,0.005000,-0.006000,-0.001000,FlatInitial,Hold,0
08:59:49.393 PM 02/17/2016,Teleop Disabled,0,FALSE,0,NO ERROR,3440.185547,-3068.115234,4000.000000,4000.000000,Speed,Speed,-0.540000,1.060000,1.720000,3.000000,101.000000,1,0,-0.000000,0.000000,1,0.000000,0.000000,0.000000,-9.651382,-1.150177,0.000000,0.005000,-0.006000,-0.001000,FlatInitial,Hold,0
08:59:49.494 PM 02/17/2016,Teleop Disabled,0,FALSE,0,NO ERROR,3110.449219,-2568.164062,4000.000000,4000.000000,Speed,Speed,-0.540000,1.060000,1.720000,3.000000,101.000000,1,0,-0.000000,0.000000,1,0.000000,0.000000,0.000000,-9.651382,-1.150177,0.000000,0.005000,-0.006000,-0.001000,FlatInitial,Hold,0
08:59:49.593 PM 02/17/2016,Teleop Disabled,0,FALSE,0,NO ERROR,2795.214844,-2095.605469,4000.000000,4000.000000,Speed,Speed,-0.540000,1.060000,1.720000,3.000000,101.000000,1,0,-0.000000,0.000000,1,0.000000,0.000000,0.000000,-9.651382,-1.150177,0.000000,0.005000,-0.006000,-0.001000,FlatInitial,Hold,0
08:59:49.694 PM 02/17/2016,Teleop Disabled,0,FALSE,0,NO ERROR,2490.966797,-1736.279297,4000.000000,4000.000000,Speed,Speed,-0.540000,1.060000,1.720000,3.000000,103.000000,1,0,-0.000000,0.000000,1,0.000000,0.000000,0.000000,-9.651382,-1.150177,0.000000,0.005000,-0.006000,-0.001000,FlatInitial,Hold,0
08:59:49.794 PM 02/17/2016,Teleop Disabled,0,FALSE,0,NO ERROR,2199.902344,-1314.550781,4000.000000,4000.000000,Speed,Speed,-0.540000,1.060000,1.720000,3.000000,102.000000,1,0,-0.000000,0.000000,1,0.000000,0.000000,0.000000,-9.651382,-1.150177,0.000000,0.005000,-0.006000,-0.001000,FlatInitial,Hold,0
08:59:49.893 PM 02/17/2016,Teleop Disabled,0,FALSE,0,NO ERROR,1977.246094,-923.291016,4000.000000,4000.000000,Speed,Speed,-0.540000,1.060000,1.720000,3.000000,100.000000,1,0,-0.000000,0.000000,1,0.000000,0.000000,0.000000,-9.651382,-1.150177,0.000000,0.005000,-0.006000,-0.001000,FlatInitial,Hold,0
08:59:49.994 PM 02/17/2016,Teleop Disabled,0,FALSE,0,NO ERROR,1712.109375,-561.328125,4000.000000,4000.000000,Speed,Speed,-0.540000,1.060000,1.720000,3.000000,102.000000,1,0,-0.000000,0.000000,1,0.000000,0.000000,0.000000,-9.651382,-1.150177,0.000000,0.005000,-0.006000,-0.001000,FlatInitial,Hold,0
08:59:50.094 PM 02/17/2016,Teleop Disabled,0,FALSE,0,NO ERROR,1457.666016,-269.677734,4000.000000,4000.000000,Speed,Speed,-0.540000,1.060000,1.720000,3.000000,102.000000,1,0,-0.000000,0.000000,1,0.000000,0.000000,0.000000,-9.651382,-1.150177,0.000000,0.005000,-0.006000,-0.001000,FlatInitial,Hold,0
08:59:50.194 PM 02/17/2016,Teleop Disabled,0,FALSE,0,NO ERROR,1214.794922,-17.578125,4000.000000,4000.000000,Speed,Speed,-0.540000,1.060000,1.720000,3.000000,104.000000,1,0,-0.000000,0.000000,1,0.000000,0.000000,0.000000,-9.651382,-1.150177,0.000000,0.005000,-0.006000,-0.001000,FlatInitial,Hold,0
08:59:50.293 PM 02/17/2016,Teleop Disabled,0,FALSE,0,NO ERROR,996.679687,0.585938,4000.000000,4000.000000,Speed,Speed,-0.540000,1.060000,1.720000,3.000000,101.000000,1,0,-0.000000,0.000000,1,0.000000,0.000000,0.000000,-9.651382,-1.150177,0.000000,0.005000,-0.006000,-0.001000,FlatInitial,Hold,0
08:59:50.394 PM 02/17/2016,Teleop Disabled,0,FALSE,0,NO ERROR,779.003906,0.000000,4000.000000,4000.000000,Speed,Speed,-0.540000,1.060000,1.720000,3.000000,102.000000,1,0,-0.000000,0.000000,1,0.000000,0.000000,0.000000,-9.651382,-1.150177,0.000000,0.005000,-0.006000,-0.001000,FlatInitial,Hold,0
08:59:50.495 PM 02/17/2016,Teleop Disabled,0,FALSE,0,NO ERROR,579.785156,0.000000,4000.000000,4000.000000,Speed,Speed,-0.540000,1.060000,1.720000,3.000000,101.000000,1,0,-0.000000,0.000000,1,0.000000,0.000000,0.000000,-9.651382,-1.150177,0.000000,0.005000,-0.006000,-0.001000,FlatInitial,Hold,0
08:59:50.596 PM 02/17/2016,Teleop Disabled,0,FALSE,0,NO ERROR,419.384766,0.000000,4000.000000,4000.000000,Speed,Speed,-0.540000,1.060000,1.720000,3.000000,102.000000,1,0,-0.000000,0.000000,1,0.000000,0.000000,0.000000,-9.651382,-1.150177,0.000000,0.005000,-0.006000,-0.001000,FlatInitial,Hold,0
08:59:50.697 PM 02/17/2016,Teleop Disabled,0,FALSE,0,NO ERROR,298.681641,0.000000,4000.000000,4000.000000,Speed,Speed,-0.540000,1.060000,1.720000,3.000000,103.000000,1,0,-0.000000,0.000000,1,0.000000,0.000000,0.000000,-9.651382,-1.150177,0.000000,0.005000,-0.006000,-0.001000,FlatInitial,Hold,0
08:59:50.796 PM 02/17/2016,Teleop Disabled,0,FALSE,0,NO ERROR,180.908203,0.000000,4000.000000,4000.000000,Speed,Speed,-0.540000,1.060000,1.720000,3.000000,100.000000,1,0,-0.000000,0.000000,1,0.000000,0.000000,0.000000,-9.651382,-1.150177,0.000000,0.005000,-0.006000,-0.001000,FlatInitial,Hold,0
08:59:50.897 PM 02/17/2016,Teleop Disabled,0,FALSE,0,NO ERROR,17.724609,0.000000,4000.000000,4000.000000,Speed,Speed,-0.540000,1.060000,1.720000,3.000000,103.000000,1,0,-0.000000,0.000000,1,0.000000,0.000000,0.000000,-9.651382,-1.150177,0.000000,0.005000,-0.006000,-0.001000,FlatInitial,Hold,0
08:59:50.997 PM 02/17/2016,Teleop Disabled,0,FALSE,0,NO ERROR,-38.085938,0.000000,4000.000000,4000.000000,Speed,Speed,-0.540000,1.060000,1.720000,3.000000,102.000000,1,0,-0.000000,0.000000,1,0.000000,0.000000,0.000000,-9.651382,-1.150177,0.000000,0.005000,-0.006000,-0.001000,FlatInitial,Hold,0
08:59:51.097 PM 02/17/2016,Teleop Disabled,0,FALSE,0,NO ERROR,-27.832031,0.000000,4000.000000,4000.000000,Speed,Speed,-0.540000,1.060000,1.720000,3.000000,101.000000,1,0,-0.000000,0.000000,1,0.000000,0.000000,0.000000,-9.651382,-1.150177,0.000000,0.005000,-0.006000,-0.001000,FlatInitial,Hold,0
08:59:51.196 PM 02/17/2016,Teleop Disabled,0,FALSE,0,NO ERROR,-1.757812,0.000000,4000.000000,4000.000000,Speed,Speed,-0.540000,1.060000,1.720000,3.000000,102.000000,1,0,-0.000000,0.000000,1,0.000000,0.000000,0.000000,-9.651382,-1.150177,0.000000,0.005000,-0.006000,-0.001000,FlatInitial,Hold,0
08:59:51.297 PM 02/17/2016,Teleop Disabled,0,FALSE,0,NO ERROR,0.000000,0.000000,4000.000000,4000.000000,Speed,Speed,-0.540000,1.060000,1.720000,3.000000,102.000000,1,0,-0.000000,0.000000,1,0.000000,0.000000,0.000000,-9.651382,-1.150177,0.000000,0.005000,-0.006000,-0.001000,FlatInitial,Hold,0
08:59:51.396 PM 02/17/2016,Teleop Disabled,0,FALSE,0,NO ERROR,0.000000,0.000000,4000.000000,4000.000000,Speed,Speed,-0.540000,1.060000,1.720000,3.000000,104.000000,1,0,-0.000000,0.000000,1,0.000000,0.000000,0.000000,-9.651382,-1.150177,0.000000,0.005000,-0.006000,-0.001000,FlatInitial,Hold,0
08:59:51.497 PM 02/17/2016,Teleop Disabled,0,FALSE,0,NO ERROR,0.000000,0.000000,4000.000000,4000.000000,Speed,Speed,-0.540000,1.060000,1.720000,3.000000,101.000000,1,0,-0.000000,0.000000,1,0.000000,0.000000,0.000000,-9.651382,-1.150177,0.000000,0.005000,-0.006000,-0.001000,FlatInitial,Hold,0
08:59:51.596 PM 02/17/2016,Teleop Disabled,0,FALSE,0,NO ERROR,0.000000,0.000000,4000.000000,4000.000000,Speed,Speed,-0.540000,1.060000,1.720000,3.000000,102.000000,1,0,-0.000000,0.000000,1,0.000000,0.000000,0.000000,-9.651382,-1.150177,0.000000,0.005000,-0.006000,-0.001000,FlatInitial,Hold,0
08:59:51.697 PM 02/17/2016,Teleop Disabled,0,FALSE,0,NO ERROR,0.000000,0.000000,4000.000000,4000.000000,Speed,Speed,-0.540000,1.060000,1.720000,3.000000,101.000000,1,0,-0.000000,0.000000,1,0.000000,0.000000,0.000000,-9.651382,-1.150177,0.000000,0.005000,-0.006000,-0.001000,FlatInitial,Hold,0
08:59:51.797 PM 02/17/2016,Teleop Disabled,0,FALSE,0,NO ERROR,0.000000,0.000000,4000.000000,4000.000000,Speed,Speed,-0.540000,1.060000,1.720000,3.000000,101.000000,1,0,-0.000000,0.000000,1,0.000000,0.000000,0.000000,-9.651382,-1.150177,0.000000,0.005000,-0.006000,-0.001000,FlatInitial,Hold,0
08:59:51.898 PM 02/17/2016,Teleop Disabled,0,FALSE,0,NO ERROR,0.000000,0.000000,4000.000000,4000.000000,Speed,Speed,-0.540000,1.060000,1.720000,3.000000,101.000000,1,0,-0.000000,0.000000,1,0.000000,0.000000,0.000000,-9.651382,-1.150177,0.000000,0.005000,-0.006000,-0.001000,FlatInitial,Hold,0
08:59:51.997 PM 02/17/2016,Teleop Disabled,0,FALSE,0,NO ERROR,0.000000,0.000000,4000.000000,4000.000000,Speed,Speed,-0.540000,1.060000,1.720000,3.000000,102.000000,1,0,-0.000000,0.000000,1,0.000000,0.000000,0.000000,-9.651382,-1.150177,0.000000,0.005000,-0.006000,-0.001000,FlatInitial,Hold,0
08:59:52.098 PM 02/17/2016,Teleop Disabled,0,FALSE,0,NO ERROR,0.000000,0.000000,4000.000000,4000.000000,Speed,Speed,-0.540000,1.060000,1.720000,3.000000,101.000000,1,0,-0.000000,0.000000,1,0.000000,0.000000,0.000000,-9.651382,-1.150177,0.000000,0.005000,-0.006000,-0.001000,FlatInitial,Hold,0
08:59:52.198 PM 02/17/2016,Teleop Disabled,0,FALSE,0,NO ERROR,0.000000,0.000000,4000.000000,4000.000000,Speed,Speed,-0.540000,1.060000,1.720000,3.000000,103.000000,1,0,-0.000000,0.000000,1,0.000000,0.000000,0.000000,-9.651382,-1.150177,0.000000,0.005000,-0.006000,-0.001000,FlatInitial,Hold,0
08:59:52.299 PM 02/17/2016,Teleop Disabled,0,FALSE,0,NO ERROR,0.000000,0.000000,4000.000000,4000.000000,Speed,Speed,-0.540000,1.060000,1.720000,3.000000,103.000000,1,0,-0.000000,0.000000,1,0.000000,0.000000,0.000000,-9.651382,-1.150177,0.000000,0.005000,-0.006000,-0.001000,FlatInitial,Hold,0
08:59:52.399 PM 02/17/2016,Teleop Disabled,0,FALSE,0,NO ERROR,0.000000,0.000000,4000.000000,4000.000000,Speed,Speed,-0.540000,1.060000,1.720000,3.000000,101.000000,1,0,-0.000000,0.000000,1,0.000000,0.000000,0.000000,-9.651382,-1.150177,0.000000,0.005000,-0.006000,-0.001000,FlatInitial,Hold,0
08:59:52.500 PM 02/17/2016,Teleop Disabled,0,FALSE,0,NO ERROR,0.000000,0.000000,4000.000000,4000.000000,Speed,Speed,-0.540000,1.060000,1.720000,3.000000,101.000000,1,0,-0.000000,0.000000,1,0.000000,0.000000,0.000000,-9.651382,-1.150177,0.000000,0.005000,-0.006000,-0.001000,FlatInitial,Hold,0
08:59:52.600 PM 02/17/2016,Teleop Disabled,0,FALSE,0,NO ERROR,0.000000,0.000000,4000.000000,4000.000000,Speed,Speed,-0.540000,1.060000,1.720000,3.000000,102.000000,1,0,-0.000000,0.000000,1,0.000000,0.000000,0.000000,-9.651382,-1.150177,0.000000,0.005000,-0.006000,-0.001000,FlatInitial,Hold,0
08:59:52.700 PM 02/17/2016,Teleop Disabled,0,FALSE,0,NO ERROR,0.000000,0.000000,4000.000000,4000.000000,Speed,Speed,-0.540000,1.060000,1.720000,3.000000,101.000000,1,0,-0.000000,0.000000,1,0.000000,0.000000,0.000000,-9.651382,-1.150177,0.000000,0.005000,-0.006000,-0.001000,FlatInitial,Hold,0
08:59:52.799 PM 02/17/2016,Teleop Disabled,0,FALSE,0,NO ERROR,0.000000,0.000000,4000.000000,4000.000000,Speed,Speed,-0.540000,1.060000,1.720000,3.000000,101.000000,1,0,-0.000000,0.000000,1,0.000000,0.000000,0.000000,-9.651382,-1.150177,0.000000,0.005000,-0.006000,-0.001000,FlatInitial,Hold,0
08:59:52.900 PM 02/17/2016,Teleop Disabled,0,FALSE,0,NO ERROR,0.000000,0.000000,4000.000000,4000.000000,Speed,Speed,-0.540000,1.060000,1.720000,3.000000,103.000000,1,0,-0.000000,0.000000,1,0.000000,0.000000,0.000000,-9.651382,-1.150177,0.000000,0.005000,-0.006000,-0.001000,FlatInitial,Hold,0
08:59:53.000 PM 02/17/2016,Teleop Disabled,0,FALSE,0,NO ERROR,0.000000,0.000000,4000.000000,4000.000000,Speed,Speed,-0.540000,1.060000,1.720000,3.000000,102.000000,1,0,-0.000000,0.000000,1,0.000000,0.000000,0.000000,-9.651382,-1.150177,0.000000,0.005000,-0.006000,-0.001000,FlatInitial,Hold,0
08:59:53.099 PM 02/17/2016,Teleop Disabled,0,FALSE,0,NO ERROR,0.000000,0.000000,4000.000000,4000.000000,Speed,Speed,-0.540000,1.060000,1.720000,3.000000,101.000000,1,0,-0.000000,0.000000,1,0.000000,0.000000,0.000000,-9.651382,-1.150177,0.000000,0.005000,-0.006000,-0.001000,FlatInitial,Hold,0
08:59:53.200 PM 02/17/2016,Teleop Disabled,0,FALSE,0,NO ERROR,0.000000,0.000000,4000.000000,4000.000000,Speed,Speed,-0.540000,1.060000,1.720000,3.000000,102.000000,1,0,-0.000000,0.000000,1,0.000000,0.000000,0.000000,-9.651382,-1.150177,0.000000,0.005000,-0.006000,-0.001000,FlatInitial,Hold,0
08:59:53.301 PM 02/17/2016,Teleop Disabled,0,FALSE,0,NO ERROR,0.000000,0.000000,4000.000000,4000.000000,Speed,Speed,-0.540000,1.060000,1.720000,3.000000,101.000000,1,0,-0.000000,0.000000,1,0.000000,0.000000,0.000000,-9.651382,-1.150177,0.000000,0.005000,-0.006000,-0.001000,FlatInitial,Hold,0
08:59:53.402 PM 02/17/2016,Teleop Disabled,0,FALSE,0,NO ERROR,0.000000,0.000000,4000.000000,4000.000000,Speed,Speed,-0.540000,1.060000,1.720000,3.000000,102.000000,1,0,-0.000000,0.000000,1,0.000000,0.000000,0.000000,-9.651382,-1.150177,0.000000,0.005000,-0.006000,-0.001000,FlatInitial,Hold,0
08:59:53.502 PM 02/17/2016,Teleop Disabled,0,FALSE,0,NO ERROR,0.000000,0.000000,4000.000000,4000.000000,Speed,Speed,-0.540000,1.060000,1.720000,3.000000,100.000000,1,0,-0.000000,0.000000,1,0.000000,0.000000,0.000000,-9.651382,-1.150177,0.000000,0.005000,-0.006000,-0.001000,FlatInitial,Hold,0
08:59:53.602 PM 02/17/2016,Teleop Disabled,0,FALSE,0,NO ERROR,0.000000,0.000000,4000.000000,4000.000000,Speed,Speed,-0.540000,1.060000,1.720000,3.000000,103.000000,1,0,-0.000000,0.000000,1,0.000000,0.000000,0.000000,-9.651382,-1.150177,0.000000,0.005000,-0.006000,-0.001000,FlatInitial,Hold,0
08:59:53.704 PM 02/17/2016,Teleop Disabled,0,FALSE,0,NO ERROR,0.000000,0.000000,4000.000000,4000.000000,Speed,Speed,-0.540000,1.060000,1.720000,3.000000,101.000000,1,0,-0.000000,0.000000,1,0.000000,0.000000,0.000000,-9.651382,-1.150177,0.000000,0.005000,-0.006000,-0.001000,FlatInitial,Hold,0
08:59:53.804 PM 02/17/2016,Teleop Disabled,0,FALSE,0,NO ERROR,0.000000,0.000000,4000.000000,4000.000000,Speed,Speed,-0.540000,1.060000,1.720000,3.000000,101.000000,1,0,-0.000000,0.000000,1,0.000000,0.000000,0.000000,-9.651382,-1.150177,0.000000,0.005000,-0.006000,-0.001000,FlatInitial,Hold,0
08:59:53.904 PM 02/17/2016,Teleop Disabled,0,FALSE,0,NO ERROR,0.000000,0.000000,4000.000000,4000.000000,Speed,Speed,-0.540000,1.060000,1.720000,3.000000,103.000000,1,0,-0.000000,0.000000,1,0.000000,0.000000,0.000000,-9.651382,-1.150177,0.000000,0.005000,-0.006000,-0.001000,FlatInitial,Hold,0
08:59:54.004 PM 02/17/2016,Teleop Disabled,0,FALSE,0,NO ERROR,0.000000,0.000000,4000.000000,4000.000000,Speed,Speed,-0.540000,1.060000,1.720000,3.000000,102.000000,1,0,-0.000000,0.000000,1,0.000000,0.000000,0.000000,-9.651382,-1.150177,0.000000,0.005000,-0.006000,-0.001000,FlatInitial,Hold,0
08:59:54.104 PM 02/17/2016,Teleop Disabled,0,FALSE,0,NO ERROR,0.000000,0.000000,4000.000000,4000.000000,Speed,Speed,-0.540000,1.060000,1.720000,3.000000,102.000000,1,0,-0.000000,0.000000,1,0.000000,0.000000,0.000000,-9.651382,-1.150177,0.000000,0.005000,-0.006000,-0.001000,FlatInitial,Hold,0
08:59:54.204 PM 02/17/2016,Teleop Disabled,0,FALSE,0,NO ERROR,0.000000,0.000000,4000.000000,4000.000000,Speed,Speed,-0.540000,1.060000,1.720000,3.000000,101.000000,1,0,-0.000000,0.000000,1,0.000000,0.000000,0.000000,-9.651382,-1.150177,0.000000,0.005000,-0.006000,-0.001000,FlatInitial,Hold,0
08:59:54.303 PM 02/17/2016,Teleop Disabled,0,FALSE,0,NO ERROR,0.000000,0.000000,4000.000000,4000.000000,Speed,Speed,-0.540000,1.060000,1.720000,3.000000,100.000000,1,0,-0.000000,0.000000,1,0.000000,0.000000,0.000000,-9.651382,-1.150177,0.000000,0.005000,-0.006000,-0.001000,FlatInitial,Hold,0
08:59:54.404 PM 02/17/2016,Teleop Disabled,0,FALSE,0,NO ERROR,0.000000,0.000000,4000.000000,4000.000000,Speed,Speed,-0.540000,1.060000,1.720000,3.000000,102.000000,1,0,-0.000000,0.000000,1,0.000000,0.000000,0.000000,-9.651382,-1.150177,0.000000,0.005000,-0.006000,-0.001000,FlatInitial,Hold,0
08:59:54.504 PM 02/17/2016,Teleop Disabled,0,FALSE,0,NO ERROR,0.000000,0.000000,4000.000000,4000.000000,Speed,Speed,-0.540000,1.060000,1.720000,3.000000,101.000000,1,0,-0.000000,0.000000,1,0.000000,0.000000,0.000000,-9.651382,-1.150177,0.000000,0.005000,-0.006000,-0.001000,FlatInitial,Hold,0
08:59:54.604 PM 02/17/2016,Teleop Disabled,0,FALSE,0,NO ERROR,0.000000,0.000000,4000.000000,4000.000000,Speed,Speed,-0.540000,1.060000,1.720000,3.000000,102.000000,1,0,-0.000000,0.000000,1,0.000000,0.000000,0.000000,-9.651382,-1.150177,0.000000,0.005000,-0.006000,-0.001000,FlatInitial,Hold,0
08:59:54.704 PM 02/17/2016,Teleop Disabled,0,FALSE,0,NO ERROR,0.000000,0.000000,4000.000000,4000.000000,Speed,Speed,-0.540000,1.060000,1.720000,3.000000,101.000000,1,0,-0.000000,0.000000,1,0.000000,0.000000,0.000000,-9.651382,-1.150177,0.000000,0.005000,-0.006000,-0.001000,FlatInitial,Hold,0
08:59:54.804 PM 02/17/2016,Teleop Disabled,0,FALSE,0,NO ERROR,0.000000,0.000000,4000.000000,4000.000000,Speed,Speed,-0.540000,1.060000,1.720000,3.000000,101.000000,1,0,-0.000000,0.000000,1,0.000000,0.000000,0.000000,-9.651382,-1.150177,0.000000,0.005000,-0.006000,-0.001000,FlatInitial,Hold,0
08:59:54.904 PM 02/17/2016,Teleop Disabled,0,FALSE,0,NO ERROR,0.000000,0.000000,4000.000000,4000.000000,Speed,Speed,-0.540000,1.060000,1.720000,3.000000,101.000000,1,0,-0.000000,0.000000,1,0.000000,0.000000,0.000000,-9.651382,-1.150177,0.000000,0.005000,-0.006000,-0.001000,FlatInitial,Hold,0
08:59:55.005 PM 02/17/2016,Teleop Disabled,0,FALSE,0,NO ERROR,0.000000,0.000000,4000.000000,4000.000000,Speed,Speed,-0.540000,1.060000,1.720000,3.000000,101.000000,1,0,-0.000000,0.000000,1,0.000000,0.000000,0.000000,-9.651382,-1.150177,0.000000,0.005000,-0.006000,-0.001000,FlatInitial,Hold,0
08:59:55.106 PM 02/17/2016,Teleop Disabled,0,FALSE,0,NO ERROR,0.000000,0.000000,4000.000000,4000.000000,Speed,Speed,-0.540000,1.060000,1.720000,3.000000,102.000000,1,0,-0.000000,0.000000,1,0.000000,0.000000,0.000000,-9.651382,-1.150177,0.000000,0.005000,-0.006000,-0.001000,FlatInitial,Hold,0
08:59:55.206 PM 02/17/2016,Teleop Disabled,0,FALSE,0,NO ERROR,0.000000,0.000000,4000.000000,4000.000000,Speed,Speed,-0.540000,1.060000,1.720000,3.000000,100.000000,1,0,-0.000000,0.000000,1,0.000000,0.000000,0.000000,-9.651382,-1.150177,0.000000,0.005000,-0.006000,-0.001000,FlatInitial,Hold,0
08:59:55.306 PM 02/17/2016,Teleop Disabled,0,FALSE,0,NO ERROR,0.000000,0.000000,4000.000000,4000.000000,Speed,Speed,-0.540000,1.060000,1.720000,3.000000,103.000000,1,0,-0.000000,0.000000,1,0.000000,0.000000,0.000000,-9.651382,-1.150177,0.000000,0.005000,-0.006000,-0.001000,FlatInitial,Hold,0
08:59:55.405 PM 02/17/2016,Teleop Disabled,0,FALSE,0,NO ERROR,0.000000,0.000000,4000.000000,4000.000000,Speed,Speed,-0.540000,1.060000,1.720000,3.000000,102.000000,1,0,-0.000000,0.000000,1,0.000000,0.000000,0.000000,-9.651382,-1.150177,0.000000,0.005000,-0.006000,-0.001000,FlatInitial,Hold,0
08:59:55.506 PM 02/17/2016,Teleop Disabled,0,FALSE,0,NO ERROR,0.000000,0.000000,4000.000000,4000.000000,Speed,Speed,-0.540000,1.060000,1.720000,3.000000,104.000000,1,0,-0.000000,0.000000,1,0.000000,0.000000,0.000000,-9.651382,-1.150177,0.000000,0.005000,-0.006000,-0.001000,FlatInitial,Hold,0
08:59:55.606 PM 02/17/2016,Teleop Disabled,0,FALSE,0,NO ERROR,0.000000,0.000000,4000.000000,4000.000000,Speed,Speed,-0.540000,1.060000,1.720000,3.000000,101.000000,1,0,-0.000000,0.000000,1,0.000000,0.000000,0.000000,-9.651382,-1.150177,0.000000,0.005000,-0.006000,-0.001000,FlatInitial,Hold,0
08:59:55.706 PM 02/17/2016,Teleop Disabled,0,FALSE,0,NO ERROR,0.000000,0.000000,4000.000000,4000.000000,Speed,Speed,-0.540000,1.060000,1.720000,3.000000,104.000000,1,0,-0.000000,0.000000,1,0.000000,0.000000,0.000000,-9.651382,-1.150177,0.000000,0.005000,-0.006000,-0.001000,FlatInitial,Hold,0
08:59:55.806 PM 02/17/2016,Teleop Disabled,0,FALSE,0,NO ERROR,0.000000,0.000000,4000.000000,4000.000000,Speed,Speed,-0.540000,1.060000,1.720000,3.000000,102.000000,1,0,-0.000000,0.000000,1,0.000000,0.000000,0.000000,-9.651382,-1.150177,0.000000,0.005000,-0.006000,-0.001000,FlatInitial,Hold,0
08:59:55.905 PM 02/17/2016,Teleop Disabled,0,FALSE,0,NO ERROR,0.000000,0.000000,4000.000000,4000.000000,Speed,Speed,-0.540000,1.060000,1.720000,3.000000,104.000000,1,0,-0.000000,0.000000,1,0.000000,0.000000,0.000000,-9.651382,-1.150177,0.000000,0.005000,-0.006000,-0.001000,FlatInitial,Hold,0
08:59:56.005 PM 02/17/2016,Teleop Disabled,0,FALSE,0,NO ERROR,0.000000,0.000000,4000.000000,4000.000000,Speed,Speed,-0.540000,1.060000,1.720000,3.000000,100.000000,1,0,-0.000000,0.000000,1,0.000000,0.000000,0.000000,-9.651382,-1.150177,0.000000,0.005000,-0.006000,-0.001000,FlatInitial,Hold,0
08:59:56.106 PM 02/17/2016,Teleop Disabled,0,FALSE,0,NO ERROR,0.000000,0.000000,4000.000000,4000.000000,Speed,Speed,-0.540000,1.060000,1.720000,3.000000,101.000000,1,0,-0.000000,0.000000,1,0.000000,0.000000,0.000000,-9.651382,-1.150177,0.000000,0.005000,-0.006000,-0.001000,FlatInitial,Hold,0
08:59:56.206 PM 02/17/2016,Teleop Disabled,0,FALSE,0,NO ERROR,0.000000,0.000000,4000.000000,4000.000000,Speed,Speed,-0.540000,1.060000,1.720000,3.000000,103.000000,1,0,-0.000000,0.000000,1,0.000000,0.000000,0.000000,-9.651382,-1.150177,0.000000,0.005000,-0.006000,-0.001000,FlatInitial,Hold,0
08:59:56.306 PM 02/17/2016,Teleop Disabled,0,FALSE,0,NO ERROR,0.000000,0.000000,4000.000000,4000.000000,Speed,Speed,-0.540000,1.060000,1.720000,3.000000,102.000000,1,0,-0.000000,0.000000,1,0.000000,0.000000,0.000000,-9.651382,-1.150177,0.000000,0.005000,-0.006000,-0.001000,FlatInitial,Hold,0
08:59:56.406 PM 02/17/2016,Teleop Disabled,0,FALSE,0,NO ERROR,0.000000,0.000000,4000.000000,4000.000000,Speed,Speed,-0.540000,1.060000,1.720000,3.000000,103.000000,1,0,-0.000000,0.000000,1,0.000000,0.000000,0.000000,-9.651382,-1.150177,0.000000,0.005000,-0.006000,-0.001000,FlatInitial,Hold,0
08:59:56.506 PM 02/17/2016,Teleop Disabled,0,FALSE,0,NO ERROR,0.000000,0.000000,4000.000000,4000.000000,Speed,Speed,-0.540000,1.060000,1.720000,3.000000,102.000000,1,0,-0.000000,0.000000,1,0.000000,0.000000,0.000000,-9.651382,-1.150177,0.000000,0.005000,-0.006000,-0.001000,FlatInitial,Hold,0
08:59:56.606 PM 02/17/2016,Teleop Disabled,0,FALSE,0,NO ERROR,0.000000,0.000000,4000.000000,4000.000000,Speed,Speed,-0.540000,1.060000,1.720000,3.000000,101.000000,1,0,-0.000000,0.000000,1,0.000000,0.000000,0.000000,-9.651382,-1.150177,0.000000,0.005000,-0.006000,-0.001000,FlatInitial,Hold,0
08:59:56.706 PM 02/17/2016,Teleop Disabled,0,FALSE,0,NO ERROR,0.000000,0.000000,4000.000000,4000.000000,Speed,Speed,-0.540000,1.060000,1.720000,3.000000,101.000000,1,0,-0.000000,0.000000,1,0.000000,0.000000,0.000000,-9.651382,-1.150177,0.000000,0.005000,-0.006000,-0.001000,FlatInitial,Hold,0
08:59:56.806 PM 02/17/2016,Teleop Disabled,0,FALSE,0,NO ERROR,0.000000,0.000000,4000.000000,4000.000000,Speed,Speed,-0.540000,1.060000,1.720000,3.000000,101.000000,1,0,-0.000000,0.000000,1,0.000000,0.000000,0.000000,-9.651382,-1.150177,0.000000,0.005000,-0.006000,-0.001000,FlatInitial,Hold,0
08:59:56.906 PM 02/17/2016,Teleop Disabled,0,FALSE,0,NO ERROR,0.000000,0.000000,4000.000000,4000.000000,Speed,Speed,-0.540000,1.060000,1.720000,3.000000,102.000000,1,0,-0.000000,0.000000,1,0.000000,0.000000,0.000000,-9.651382,-1.150177,0.000000,0.005000,-0.006000,-0.001000,FlatInitial,Hold,0
08:59:57.006 PM 02/17/2016,Teleop Disabled,0,FALSE,0,NO ERROR,0.000000,0.000000,4000.000000,4000.000000,Speed,Speed,-0.540000,1.060000,1.720000,3.000000,102.000000,1,0,-0.000000,0.000000,1,0.000000,0.000000,0.000000,-9.651382,-1.150177,0.000000,0.005000,-0.006000,-0.001000,FlatInitial,Hold,0
08:59:57.107 PM 02/17/2016,Teleop Disabled,0,FALSE,0,NO ERROR,0.000000,0.000000,4000.000000,4000.000000,Speed,Speed,-0.540000,1.060000,1.720000,3.000000,101.000000,1,0,-0.000000,0.000000,1,0.000000,0.000000,0.000000,-9.651382,-1.150177,0.000000,0.005000,-0.006000,-0.001000,FlatInitial,Hold,0
08:59:57.206 PM 02/17/2016,Teleop Disabled,0,FALSE,0,NO ERROR,0.000000,0.000000,4000.000000,4000.000000,Speed,Speed,-0.540000,1.060000,1.720000,3.000000,101.000000,1,0,-0.000000,0.000000,1,0.000000,0.000000,0.000000,-9.651382,-1.150177,0.000000,0.005000,-0.006000,-0.001000,FlatInitial,Hold,0
08:59:57.307 PM 02/17/2016,Teleop Disabled,0,FALSE,0,NO ERROR,0.000000,0.000000,4000.000000,4000.000000,Speed,Speed,-0.540000,1.060000,1.720000,3.000000,101.000000,1,0,-0.000000,0.000000,1,0.000000,0.000000,0.000000,-9.651382,-1.150177,0.000000,0.005000,-0.006000,-0.001000,FlatInitial,Hold,0
08:59:57.408 PM 02/17/2016,Teleop Disabled,0,FALSE,0,NO ERROR,0.000000,0.000000,4000.000000,4000.000000,Speed,Speed,-0.540000,1.060000,1.720000,3.000000,102.000000,1,0,-0.000000,0.000000,1,0.000000,0.000000,0.000000,-9.651382,-1.150177,0.000000,0.005000,-0.006000,-0.001000,FlatInitial,Hold,0
08:59:57.508 PM 02/17/2016,Teleop Disabled,0,FALSE,0,NO ERROR,0.000000,0.000000,4000.000000,4000.000000,Speed,Speed,-0.540000,1.060000,1.720000,3.000000,101.000000,1,0,-0.000000,0.000000,1,0.000000,0.000000,0.000000,-9.651382,-1.150177,0.000000,0.005000,-0.006000,-0.001000,FlatInitial,Hold,0
08:59:57.608 PM 02/17/2016,Teleop Disabled,0,FALSE,0,NO ERROR,0.000000,0.000000,4000.000000,4000.000000,Speed,Speed,-0.540000,1.060000,1.720000,3.000000,101.000000,1,0,-0.000000,0.000000,1,0.000000,0.000000,0.000000,-9.651382,-1.150177,0.000000,0.005000,-0.006000,-0.001000,FlatInitial,Hold,0
08:59:57.709 PM 02/17/2016,Teleop Disabled,0,FALSE,0,NO ERROR,0.000000,0.000000,4000.000000,4000.000000,Speed,Speed,-0.540000,1.060000,1.720000,3.000000,101.000000,1,0,-0.000000,0.000000,1,0.000000,0.000000,0.000000,-9.651382,-1.150177,0.000000,0.005000,-0.006000,-0.001000,FlatInitial,Hold,0
08:59:57.810 PM 02/17/2016,Teleop Disabled,0,FALSE,0,NO ERROR,0.000000,0.000000,4000.000000,4000.000000,Speed,Speed,-0.540000,1.060000,1.720000,3.000000,101.000000,1,0,-0.000000,0.000000,1,0.000000,0.000000,0.000000,-9.651382,-1.150177,0.000000,0.005000,-0.006000,-0.001000,FlatInitial,Hold,0
08:59:57.910 PM 02/17/2016,Teleop Disabled,0,FALSE,0,NO ERROR,0.000000,0.000000,4000.000000,4000.000000,Speed,Speed,-0.540000,1.060000,1.720000,3.000000,101.000000,1,0,-0.000000,0.000000,1,0.000000,0.000000,0.000000,-9.651382,-1.150177,0.000000,0.005000,-0.006000,-0.001000,FlatInitial,Hold,0
08:59:58.010 PM 02/17/2016,Teleop Disabled,0,FALSE,0,NO ERROR,0.000000,0.000000,4000.000000,4000.000000,Speed,Speed,-0.540000,1.060000,1.720000,3.000000,102.000000,1,0,-0.000000,0.000000,1,0.000000,0.000000,0.000000,-9.651382,-1.150177,0.000000,0.005000,-0.006000,-0.001000,FlatInitial,Hold,0
08:59:58.111 PM 02/17/2016,Teleop Disabled,0,FALSE,0,NO ERROR,0.000000,0.000000,4000.000000,4000.000000,Speed,Speed,-0.540000,1.060000,1.720000,3.000000,101.000000,1,0,-0.000000,0.000000,1,0.000000,0.000000,0.000000,-9.651382,-1.150177,0.000000,0.005000,-0.006000,-0.001000,FlatInitial,Hold,0
08:59:58.211 PM 02/17/2016,Teleop Disabled,0,FALSE,0,NO ERROR,0.000000,0.000000,4000.000000,4000.000000,Speed,Speed,-0.540000,1.060000,1.720000,3.000000,102.000000,1,0,-0.000000,0.000000,1,0.000000,0.000000,0.000000,-9.651382,-1.150177,0.000000,0.005000,-0.006000,-0.001000,FlatInitial,Hold,0
08:59:58.312 PM 02/17/2016,Teleop Disabled,0,FALSE,0,NO ERROR,0.000000,0.000000,4000.000000,4000.000000,Speed,Speed,-0.540000,1.060000,1.720000,3.000000,100.000000,1,0,-0.000000,0.000000,1,0.000000,0.000000,0.000000,-9.651382,-1.150177,0.000000,0.005000,-0.006000,-0.001000,FlatInitial,Hold,0
08:59:58.412 PM 02/17/2016,Teleop Disabled,0,FALSE,0,NO ERROR,0.000000,0.000000,4000.000000,4000.000000,Speed,Speed,-0.540000,1.060000,1.720000,3.000000,101.000000,1,0,-0.000000,0.000000,1,0.000000,0.000000,0.000000,-9.651382,-1.150177,0.000000,0.005000,-0.006000,-0.001000,FlatInitial,Hold,0
08:59:58.513 PM 02/17/2016,Teleop Disabled,0,FALSE,0,NO ERROR,0.000000,0.000000,4000.000000,4000.000000,Speed,Speed,-0.540000,1.060000,1.720000,3.000000,101.000000,1,0,-0.000000,0.000000,1,0.000000,0.000000,0.000000,-9.651382,-1.150177,0.000000,0.005000,-0.006000,-0.001000,FlatInitial,Hold,0
08:59:58.614 PM 02/17/2016,Teleop Disabled,0,FALSE,0,NO ERROR,0.000000,0.000000,4000.000000,4000.000000,Speed,Speed,-0.540000,1.060000,1.720000,3.000000,101.000000,1,0,-0.000000,0.000000,1,0.000000,0.000000,0.000000,-9.651382,-1.150177,0.000000,0.005000,-0.006000,-0.001000,FlatInitial,Hold,0
08:59:58.714 PM 02/17/2016,Teleop Disabled,0,FALSE,0,NO ERROR,0.000000,0.000000,4000.000000,4000.000000,Speed,Speed,-0.540000,1.060000,1.720000,3.000000,101.000000,1,0,-0.000000,0.000000,1,0.000000,0.000000,0.000000,-9.651382,-1.150177,0.000000,0.005000,-0.006000,-0.001000,FlatInitial,Hold,0
