Time,Robot Mode,Loop Time,Error Status,Error Code,Error Source,Left Motor Output,Left Motor Encoder,Right Motor Output,Right Motor Encoder,Is Level,Is Stalled,Ball Detector Photoeye,Vision Enabled,Vision Teleop Control,Vision Auto Control,Vision Current State,Vision X Output,Vision NavX Error,Vision NavX Target,NavX Connection Status,NavX Displacement X,NavX Displacement Y,NavX Displacement Z,NavX Velocity X,NavX Velocity Y,NavX Velocity Z,NavX Acceleration X,NavX Acceleration Y,NavX Acceleration Z,NavX Pitch,NavX Yaw,NavX Roll,Gyro Angle,Roller Arm State,Roller Arm Actual,Roller Arm Desired,Shooter Arm State,Shooter Arm Actual,Shooter Arm Desired,Shooter State,Actual RPM Left,Desired RPM Left,Control Mode Left,Actual RPM Right,Desired RPM Right,Scaler Motor Output,Auto To Run,Auto Current File,Auto File Status,Auto Current Command,Auto Trimmed Command
03:30:50.565 PM 03/19/2016,Teleop Enabled,11,FALSE,0,NO ERROR,-0.000000,-0.006417,0.000000,0.000000,TRUE,FALSE,TRUE,FALSE,FALSE,FALSE,Disabled,0.000000,-0.000000,135.850000,TRUE,-10.398361,7.733032,0.000000,0.000000,0.000000,0.000000,-0.001000,-0.001000,0.017000,104.100000,-0.160000,2.510000,-19.869774,ResetBack,0.927002,-0.200000,ResetBack,-46541.000000,-0.300000,Empty,0.000000,0.000000,Speed,0.000000,0.000000,Speed,Off,Off0.000000,0,,,,
03:30:50.677 PM 03/19/2016,Teleop Enabled,11,FALSE,0,NO ERROR,-0.000000,-0.006417,0.000000,0.000000,TRUE,FALSE,TRUE,FALSE,FALSE,FALSE,Disabled,0.000000,-0.000000,135.850000,TRUE,-10.405197,7.729233,0.000000,0.000000,0.001801,0.000000,0.005000,-0.026000,0.016000,0.020000,-0.100000,2.460000,0.043387,ResetBack,-0.196289,-0.200000,ResetBack,-46541.000000,-0.300000,Empty,0.000000,0.000000,Speed,0.000000,0.000000,Speed,Off,Off0.000000,0,,,,
03:30:50.778 PM 03/19/2016,Teleop Enabled,10,FALSE,0,NO ERROR,-0.000000,-0.006417,0.000000,0.000000,TRUE,FALSE,TRUE,FALSE,FALSE,FALSE,Disabled,0.000000,-0.000000,135.850000,TRUE,-10.405197,7.729141,0.000000,0.000000,0.000000,0.000000,0.000000,-0.023000,0.013000,0.000000,-0.100000,2.470000,0.028690,ResetBack,-0.196289,-0.200000,ResetBack,-35420.000000,-0.300000,Empty,0.000000,0.000000,Speed,0.000000,0.000000,Speed,Off,Off0.000000,0,,,,
03:30:50.878 PM 03/19/2016,Teleop Enabled,11,FALSE,0,NO ERROR,-0.000000,-0.006417,0.000000,0.000000,TRUE,FALSE,TRUE,FALSE,FALSE,FALSE,Disabled,0.000000,-0.000000,135.850000,TRUE,-10.405197,7.729065,0.000000,0.000000,0.001129,0.000000,0.012000,0.007000,0.045000,0.000000,-0.090000,2.480000,0.047321,Reset,-0.196533,0.000000,ResetBack,-24417.000000,-0.300000,Empty,0.000000,0.000000,Speed,0.000000,0.000000,Speed,Off,Off0.000000,0,,,,
03:30:50.979 PM 03/19/2016,Teleop Enabled,9,FALSE,0,NO ERROR,-0.000000,0.032083,0.000000,0.000000,TRUE,FALSE,TRUE,FALSE,FALSE,FALSE,Disabled,0.000000,-0.000000,135.850000,TRUE,-10.405579,7.729141,0.000000,-0.020874,0.007278,0.000000,0.006000,0.022000,-0.056000,0.000000,-0.010000,2.510000,0.095035,Hold,1.159424,0.000000,ResetBack,-12648.000000,-0.300000,Empty,0.000000,0.000000,Speed,0.000000,0.000000,Speed,Off,Off0.000000,0,,,,
03:30:51.080 PM 03/19/2016,Teleop Enabled,11,FALSE,0,NO ERROR,-0.000000,0.032083,0.000000,0.000000,TRUE,FALSE,TRUE,FALSE,FALSE,FALSE,Disabled,0.000000,-0.000000,135.850000,TRUE,-10.405563,7.729248,0.000000,0.006760,-0.008911,0.000000,0.041000,0.044000,0.081000,0.000000,0.020000,2.460000,0.060076,Hold,0.895020,0.000000,ResetBack,-2993.000000,-0.300000,Empty,0.000000,0.000000,Speed,0.000000,0.000000,Speed,Off,Off0.000000,0,,,,
03:30:51.181 PM 03/19/2016,Teleop Enabled,10,FALSE,0,NO ERROR,-0.000000,0.032083,0.000000,0.000000,TRUE,FALSE,TRUE,FALSE,FALSE,FALSE,Disabled,0.000000,-0.000000,135.850000,TRUE,-10.405304,7.729172,0.000000,-0.002121,0.000000,0.000000,0.005000,0.032000,0.063000,-0.020000,-0.090000,2.460000,0.032997,Hold,0.895264,0.000000,ResetBack,-1006.000000,-0.300000,Empty,0.000000,0.000000,Speed,0.000000,0.000000,Speed,Off,Off0.000000,0,,,,
03:30:51.281 PM 03/19/2016,Teleop Enabled,11,FALSE,0,NO ERROR,-0.000000,0.032083,0.000000,0.000000,TRUE,FALSE,TRUE,FALSE,FALSE,FALSE,Disabled,0.000000,-0.000000,135.850000,TRUE,-10.405685,7.729431,0.000000,-0.007629,0.002197,0.000000,0.010000,-0.005000,0.017000,0.020000,-0.070000,2.450000,0.085981,Hold,0.895264,0.000000,ResetBack,-420.000000,-0.300000,Empty,0.000000,0.000000,Speed,0.000000,0.000000,Speed,Off,Off0.000000,0,,,,
03:30:51.381 PM 03/19/2016,Teleop Enabled,10,FALSE,0,NO ERROR,-0.000000,0.032083,0.000000,0.000000,TRUE,FALSE,TRUE,FALSE,FALSE,FALSE,Disabled,0.000000,-0.000000,135.850000,TRUE,-10.405746,7.729431,0.000000,0.000000,0.000000,0.000000,0.006000,-0.011000,0.012000,0.000000,-0.060000,2.460000,0.088133,Hold,0.895264,0.000000,ResetBack,-420.000000,-0.300000,Empty,0.000000,0.000000,Speed,0.000000,0.000000,Speed,Off,Off0.000000,0,,,,
03:30:51.481 PM 03/19/2016,Teleop Enabled,11,FALSE,0,NO ERROR,-0.000000,0.032083,0.000000,0.000000,TRUE,FALSE,TRUE,FALSE,FALSE,FALSE,Disabled,0.000000,-0.000000,135.850000,TRUE,-10.405746,7.729431,0.000000,0.000000,0.000000,0.000000,-0.005000,-0.015000,0.013000,0.000000,-0.080000,2.480000,0.097913,Hold,0.895264,0.000000,ResetBack,-419.000000,-0.300000,Empty,0.000000,0.000000,Speed,0.000000,0.000000,Speed,Off,Off0.000000,0,,,,
03:30:51.583 PM 03/19/2016,Teleop Enabled,10,FALSE,0,NO ERROR,-0.000000,0.032083,0.000000,0.000000,TRUE,FALSE,TRUE,FALSE,FALSE,FALSE,Disabled,0.000000,-0.000000,135.850000,TRUE,-10.405746,7.729431,0.000000,0.000000,0.000000,0.000000,0.000000,-0.006000,0.026000,0.000000,-0.060000,2.480000,0.112720,Hold,0.895264,0.000000,ResetBack,-419.000000,-0.300000,Empty,0.000000,0.000000,Speed,0.000000,0.000000,Speed,Off,Off0.000000,0,,,,
03:30:51.683 PM 03/19/2016,Teleop Enabled,10,FALSE,0,NO ERROR,-0.000000,0.032083,0.000000,0.000000,TRUE,FALSE,TRUE,FALSE,FALSE,FALSE,Disabled,0.000000,-0.000000,135.850000,TRUE,-10.405746,7.729431,0.000000,0.000000,0.000000,0.000000,-0.001000,-0.005000,0.014000,0.000000,-0.080000,2.480000,0.112820,Hold,0.895264,0.000000,ResetBack,-419.000000,-0.300000,Empty,0.000000,0.000000,Speed,0.000000,0.000000,Speed,Off,Off0.000000,0,,,,
03:30:51.784 PM 03/19/2016,Teleop Enabled,10,FALSE,0,NO ERROR,-0.000000,0.032083,0.000000,0.000000,TRUE,FALSE,TRUE,FALSE,FALSE,FALSE,Disabled,0.000000,-0.000000,135.850000,TRUE,-10.405746,7.729431,0.000000,0.000000,0.000000,0.000000,-0.001000,-0.005000,0.014000,0.000000,-0.070000,2.480000,0.114059,Hold,0.895264,0.000000,Reset,-419.000000,2.000000,Suck,0.000000,2181.818182,Speed,0.000000,2181.818182,Speed,Off,Off0.000000,0,,,,
03:30:51.884 PM 03/19/2016,Teleop Enabled,11,FALSE,0,NO ERROR,-0.000000,0.032083,0.000000,0.000000,TRUE,FALSE,TRUE,FALSE,FALSE,FALSE,Disabled,0.000000,-0.000000,135.850000,TRUE,-10.405731,7.729431,0.000000,0.000000,0.000000,0.000000,0.022000,0.001000,0.045000,0.000000,-0.080000,2.480000,0.114152,Hold,0.895264,0.000000,Hold,-243.000000,2.000000,Hold,0.000000,0.000000,Speed,0.000000,0.000000,Speed,Off,Off0.000000,0,,,,
03:30:51.984 PM 03/19/2016,Teleop Enabled,10,FALSE,0,NO ERROR,-0.000000,0.032083,0.000000,0.000000,TRUE,FALSE,TRUE,FALSE,FALSE,FALSE,Disabled,0.000000,-0.000000,135.850000,TRUE,-10.405731,7.729431,0.000000,0.000000,0.000000,0.000000,-0.007000,-0.001000,0.006000,0.000000,-0.080000,2.480000,0.110041,Hold,0.895264,0.000000,Hold,-243.000000,2.000000,Hold,0.000000,0.000000,Speed,0.000000,0.000000,Speed,Off,Off0.000000,0,,,,
03:30:52.085 PM 03/19/2016,Teleop Enabled,11,FALSE,0,NO ERROR,-0.000000,0.032083,0.000000,0.000000,TRUE,FALSE,TRUE,FALSE,FALSE,FALSE,Disabled,0.000000,-0.000000,135.850000,TRUE,-10.405731,7.729431,0.000000,0.000000,0.000000,0.000000,-0.005000,-0.002000,0.022000,0.000000,-0.070000,2.470000,0.114527,Hold,0.895264,0.000000,Hold,-243.000000,2.000000,Hold,0.000000,0.000000,Speed,0.000000,0.000000,Speed,Off,Off0.000000,0,,,,
03:30:52.185 PM 03/19/2016,Teleop Enabled,9,FALSE,0,NO ERROR,-0.000000,0.032083,0.000000,0.000000,TRUE,FALSE,TRUE,FALSE,FALSE,FALSE,Disabled,0.000000,-0.000000,135.850000,TRUE,-10.405731,7.729431,0.000000,0.000000,0.000000,0.000000,0.000000,-0.004000,0.022000,0.000000,-0.080000,2.480000,0.122059,Hold,0.895264,0.000000,Hold,-243.000000,2.000000,Hold,0.000000,0.000000,Speed,0.000000,0.000000,Speed,Off,Off0.000000,0,,,,
03:30:52.285 PM 03/19/2016,Teleop Enabled,10,FALSE,0,NO ERROR,-0.000000,0.032083,0.000000,0.000000,TRUE,FALSE,TRUE,FALSE,FALSE,FALSE,Disabled,0.000000,-0.000000,135.850000,TRUE,-10.405731,7.729431,0.000000,0.000000,0.000000,0.000000,0.000000,0.001000,0.014000,0.000000,-0.080000,2.480000,0.134532,Hold,0.895264,0.000000,Hold,-243.000000,2.000000,Hold,0.000000,0.000000,Speed,0.000000,0.000000,Speed,Off,Off0.000000,0,,,,
03:30:52.387 PM 03/19/2016,Teleop Enabled,11,FALSE,0,NO ERROR,-0.000000,0.032083,0.000000,0.000000,TRUE,FALSE,TRUE,FALSE,FALSE,FALSE,Disabled,0.000000,-0.000000,135.850000,TRUE,-10.405731,7.729431,0.000000,0.000000,0.000000,0.000000,0.001000,0.002000,0.026000,0.000000,-0.070000,2.480000,0.123299,Hold,0.895264,0.000000,Hold,-243.000000,2.000000,Hold,0.000000,0.000000,Speed,0.000000,0.000000,Speed,Off,Off0.000000,0,,,,
03:30:52.489 PM 03/19/2016,Teleop Enabled,9,FALSE,0,NO ERROR,-0.000000,0.032083,0.000000,0.000000,TRUE,FALSE,TRUE,FALSE,FALSE,FALSE,Disabled,0.000000,-0.000000,135.850000,TRUE,-10.405731,7.729431,0.000000,0.000000,0.000000,0.000000,-0.004000,-0.002000,0.018000,0.000000,-0.070000,2.470000,0.123147,Hold,0.895264,0.000000,Hold,-243.000000,2.000000,Hold,0.000000,0.000000,Speed,0.000000,0.000000,Speed,Off,Off0.000000,0,,,,
03:30:52.589 PM 03/19/2016,Teleop Enabled,9,FALSE,0,NO ERROR,-0.000000,0.032083,0.000000,0.000000,TRUE,FALSE,TRUE,FALSE,FALSE,FALSE,Disabled,0.000000,-0.000000,135.850000,TRUE,-10.405731,7.729431,0.000000,0.000000,0.000000,0.000000,-0.003000,-0.001000,0.015000,0.000000,-0.070000,2.470000,0.133354,Hold,0.895264,0.000000,Hold,-243.000000,2.000000,Hold,0.000000,0.000000,Speed,0.000000,0.000000,Speed,Off,Off0.000000,0,,,,
03:30:52.689 PM 03/19/2016,Teleop Enabled,10,FALSE,0,NO ERROR,-0.000000,0.032083,0.000000,0.000000,TRUE,FALSE,TRUE,FALSE,FALSE,FALSE,Disabled,0.000000,-0.000000,135.850000,TRUE,-10.405731,7.729431,0.000000,0.000000,0.000000,0.000000,-0.003000,0.000000,0.019000,0.000000,-0.070000,2.470000,0.139761,Hold,0.895264,0.000000,Hold,-243.000000,2.000000,Hold,0.000000,0.000000,Speed,0.000000,0.000000,Speed,Off,Off0.000000,0,,,,
03:30:52.790 PM 03/19/2016,Teleop Enabled,10,FALSE,0,NO ERROR,-0.000000,0.032083,0.000000,0.000000,TRUE,FALSE,TRUE,FALSE,FALSE,FALSE,Disabled,0.000000,-0.000000,135.850000,TRUE,-10.405731,7.729431,0.000000,0.000000,0.000000,0.000000,0.000000,0.000000,0.016000,0.000000,-0.070000,2.470000,0.143259,Hold,0.895264,0.000000,Hold,-243.000000,2.000000,Hold,0.000000,0.000000,Speed,0.000000,0.000000,Speed,Off,Off0.000000,0,,,,
03:30:52.889 PM 03/19/2016,Teleop Enabled,10,FALSE,0,NO ERROR,-0.000000,0.032083,0.000000,0.000000,TRUE,FALSE,TRUE,FALSE,FALSE,FALSE,Disabled,0.000000,-0.000000,135.850000,TRUE,-10.405731,7.729431,0.000000,0.000000,0.000000,0.000000,0.001000,-0.003000,0.019000,0.000000,-0.070000,2.470000,0.154516,Hold,0.895264,0.000000,Hold,-243.000000,2.000000,Hold,0.000000,0.000000,Speed,0.000000,0.000000,Speed,Off,Off0.000000,0,,,,
03:30:52.989 PM 03/19/2016,Teleop Enabled,10,FALSE,0,NO ERROR,-0.000000,0.032083,0.000000,0.000000,TRUE,FALSE,TRUE,FALSE,FALSE,FALSE,Disabled,0.000000,-0.000000,135.850000,TRUE,-10.405731,7.729431,0.000000,0.000000,0.000000,0.000000,0.001000,0.001000,0.020000,0.000000,-0.070000,2.480000,0.159707,Hold,0.895264,0.000000,Hold,-243.000000,2.000000,Hold,0.000000,0.000000,Speed,0.000000,0.000000,Speed,Off,Off0.000000,0,,,,
03:30:53.090 PM 03/19/2016,Teleop Enabled,10,FALSE,0,NO ERROR,-0.000000,0.032083,0.000000,0.000000,TRUE,FALSE,TRUE,FALSE,FALSE,FALSE,Disabled,0.000000,-0.000000,135.850000,TRUE,-10.405731,7.729431,0.000000,0.000000,0.000000,0.000000,0.001000,-0.001000,0.024000,0.000000,-0.080000,2.480000,0.159707,Hold,0.895264,0.000000,Hold,-243.000000,2.000000,LowGoal,0.000000,-1454.545455,Speed,0.000000,-1454.545455,Speed,Off,Off0.000000,0,,,,
03:30:53.191 PM 03/19/2016,Teleop Enabled,9,FALSE,0,NO ERROR,-0.000000,0.032083,0.000000,0.000000,TRUE,FALSE,TRUE,FALSE,FALSE,FALSE,Disabled,0.000000,-0.000000,135.850000,TRUE,-10.405731,7.729431,0.000000,0.000000,0.000000,0.000000,-0.001000,-0.001000,0.015000,0.000000,-0.080000,2.480000,0.169876,Hold,0.895264,0.000000,Hold,-243.000000,2.000000,LowGoal,0.000000,-1454.545455,Speed,0.000000,-1454.545455,Speed,Off,Off0.000000,0,,,,
03:30:53.292 PM 03/19/2016,Teleop Enabled,10,FALSE,0,NO ERROR,-0.000000,0.032083,0.000000,0.000000,TRUE,FALSE,TRUE,FALSE,FALSE,FALSE,Disabled,0.000000,-0.000000,135.850000,TRUE,-10.405731,7.729431,0.000000,0.000000,0.000000,0.000000,0.000000,0.001000,0.012000,0.000000,-0.080000,2.480000,0.186346,Hold,0.895264,0.000000,Hold,-243.000000,2.000000,LowGoal,0.000000,-1454.545455,Speed,0.000000,-1454.545455,Speed,Off,Off0.000000,0,,,,
03:30:53.392 PM 03/19/2016,Teleop Enabled,10,FALSE,0,NO ERROR,-0.000000,0.032083,0.000000,0.000000,TRUE,FALSE,TRUE,FALSE,FALSE,FALSE,Disabled,0.000000,-0.000000,135.850000,TRUE,-10.405731,7.729431,0.000000,0.000000,0.000000,0.000000,0.000000,0.000000,0.017000,0.000000,-0.080000,2.480000,0.185984,Hold,0.895264,0.000000,Hold,-243.000000,2.000000,LowGoal,0.000000,-1454.545455,Speed,0.000000,-1454.545455,Speed,Off,Off0.000000,0,,,,
03:30:53.493 PM 03/19/2016,Teleop Enabled,9,FALSE,0,NO ERROR,-0.000000,0.032083,0.000000,0.000000,TRUE,FALSE,TRUE,FALSE,FALSE,FALSE,Disabled,0.000000,-0.000000,135.850000,TRUE,-10.405731,7.729431,0.000000,0.000000,0.000000,0.000000,0.001000,0.000000,0.020000,0.000000,-0.080000,2.480000,0.204044,Hold,0.895264,0.000000,Hold,-243.000000,2.000000,LowGoal,0.000000,-1454.545455,Speed,0.000000,-1454.545455,Speed,Off,Off0.000000,0,,,,
03:30:53.594 PM 03/19/2016,Teleop Enabled,10,FALSE,0,NO ERROR,-0.000000,0.032083,0.000000,0.000000,TRUE,TRUE,TRUE,FALSE,FALSE,FALSE,Disabled,0.000000,-0.000000,135.850000,TRUE,-10.405731,7.729431,0.000000,0.000000,0.000000,0.000000,-0.001000,-0.001000,0.019000,0.000000,-0.080000,2.480000,0.211101,Hold,0.895264,0.000000,Hold,-243.000000,2.000000,LowGoal,0.000000,-1454.545455,Speed,0.000000,-1454.545455,Speed,Off,Off0.000000,0,,,,
03:30:53.694 PM 03/19/2016,Teleop Enabled,10,FALSE,0,NO ERROR,-0.000000,0.032083,0.000000,0.000000,TRUE,TRUE,TRUE,FALSE,FALSE,FALSE,Disabled,0.000000,-0.000000,135.850000,TRUE,-10.405731,7.729431,0.000000,0.000000,0.000000,0.000000,0.000000,0.001000,0.020000,0.000000,-0.080000,2.480000,0.216702,Hold,0.895264,0.000000,Hold,-243.000000,2.000000,LowGoal,0.000000,0.000000,Speed,0.000000,0.000000,Speed,Off,Off0.000000,0,,,,
03:30:53.795 PM 03/19/2016,Teleop Enabled,10,FALSE,0,NO ERROR,-0.000000,0.032083,0.000000,0.000000,TRUE,FALSE,TRUE,FALSE,FALSE,FALSE,Disabled,0.000000,-0.000000,135.850000,TRUE,-10.405731,7.729431,0.000000,0.000000,0.000000,0.000000,-0.001000,0.000000,0.017000,0.000000,-0.080000,2.480000,0.236810,Hold,0.895264,0.000000,Hold,-243.000000,2.000000,LowGoal,0.000000,0.000000,Speed,0.000000,0.000000,Speed,Off,Off0.000000,0,,,,
03:30:53.895 PM 03/19/2016,Teleop Enabled,10,FALSE,0,NO ERROR,-0.000000,0.032083,0.000000,0.000000,TRUE,FALSE,TRUE,FALSE,FALSE,FALSE,Disabled,0.000000,-0.000000,135.850000,TRUE,-10.405731,7.729431,0.000000,0.000000,0.000000,0.000000,0.000000,0.000000,0.020000,0.000000,-0.080000,2.480000,0.230555,Hold,0.895264,0.000000,Hold,-243.000000,2.000000,LowGoal,0.000000,-1454.545455,Speed,0.000000,-1454.545455,Speed,Off,Off0.000000,0,,,,
03:30:53.995 PM 03/19/2016,Teleop Enabled,9,FALSE,0,NO ERROR,-0.000000,0.032083,0.000000,0.000000,TRUE,FALSE,TRUE,FALSE,FALSE,FALSE,Disabled,0.000000,-0.000000,135.850000,TRUE,-10.405731,7.729431,0.000000,0.000000,0.000000,0.000000,0.001000,0.000000,0.016000,-0.010000,-0.080000,2.480000,0.230465,Hold,0.895264,0.000000,Hold,-243.000000,2.000000,LowGoal,0.000000,-1454.545455,Speed,0.000000,-1454.545455,Speed,Off,Off0.000000,0,,,,
03:30:54.095 PM 03/19/2016,Teleop Enabled,10,FALSE,0,NO ERROR,-0.000000,0.032083,0.000000,0.000000,TRUE,FALSE,TRUE,FALSE,FALSE,FALSE,Disabled,0.000000,-0.000000,135.850000,TRUE,-10.405731,7.729431,0.000000,0.000000,0.000000,0.000000,-0.001000,0.000000,0.021000,-0.010000,-0.080000,2.480000,0.239485,Hold,0.895264,0.000000,Hold,-243.000000,2.000000,LowGoal,0.000000,-1454.545455,Speed,0.000000,-1454.545455,Speed,Off,Off0.000000,0,,,,
03:30:54.196 PM 03/19/2016,Teleop Enabled,9,FALSE,0,NO ERROR,-0.000000,0.032083,0.000000,0.000000,TRUE,FALSE,TRUE,FALSE,FALSE,FALSE,Disabled,0.000000,-0.000000,135.850000,TRUE,-10.405731,7.729431,0.000000,0.000000,0.000000,0.000000,0.000000,-0.001000,0.022000,-0.010000,-0.080000,2.480000,0.239994,Hold,0.895264,0.000000,Hold,-243.000000,2.000000,LowGoal,0.000000,-1454.545455,Speed,0.000000,-1454.545455,Speed,Off,Off0.000000,0,,,,
03:30:54.297 PM 03/19/2016,Teleop Enabled,10,FALSE,0,NO ERROR,-0.000000,0.032083,0.000000,0.000000,TRUE,FALSE,TRUE,FALSE,FALSE,FALSE,Disabled,0.000000,-0.000000,135.850000,TRUE,-10.405731,7.729431,0.000000,0.000000,0.000000,0.000000,0.001000,0.000000,0.020000,-0.010000,-0.070000,2.480000,0.256939,Hold,0.895264,0.000000,Hold,-243.000000,2.000000,LowGoal,0.000000,-1454.545455,Speed,0.000000,-1454.545455,Speed,Off,Off0.000000,0,,,,
03:30:54.398 PM 03/19/2016,Teleop Enabled,10,FALSE,0,NO ERROR,-0.000000,0.032083,0.000000,0.000000,TRUE,TRUE,TRUE,FALSE,FALSE,FALSE,Disabled,0.000000,-0.000000,135.850000,TRUE,-10.405731,7.729431,0.000000,0.000000,0.000000,0.000000,0.000000,0.000000,0.020000,-0.010000,-0.070000,2.490000,0.241075,Hold,0.895264,0.000000,Hold,-243.000000,2.000000,LowGoal,0.000000,-1454.545455,Speed,0.000000,-1454.545455,Speed,Off,Off0.000000,0,,,,
03:30:54.498 PM 03/19/2016,Teleop Enabled,9,FALSE,0,NO ERROR,-0.000000,0.032083,0.000000,0.000000,TRUE,TRUE,TRUE,FALSE,FALSE,FALSE,Disabled,0.000000,-0.000000,135.850000,TRUE,-10.405731,7.729431,0.000000,0.000000,0.000000,0.000000,0.000000,0.000000,0.019000,-0.010000,-0.070000,2.490000,0.252921,Hold,0.895264,0.000000,Hold,-243.000000,2.000000,LowGoal,0.000000,0.000000,Speed,0.000000,0.000000,Speed,Off,Off0.000000,0,,,,
03:30:54.599 PM 03/19/2016,Teleop Enabled,9,FALSE,0,NO ERROR,-0.000000,0.032083,0.000000,0.000000,TRUE,FALSE,TRUE,FALSE,FALSE,FALSE,Disabled,0.000000,-0.000000,135.850000,TRUE,-10.405731,7.729431,0.000000,0.000000,0.000000,0.000000,-0.001000,0.000000,0.017000,-0.010000,-0.070000,2.490000,0.263049,Hold,0.895264,0.000000,Hold,-243.000000,2.000000,LowGoal,0.000000,0.000000,Speed,0.000000,0.000000,Speed,Off,Off0.000000,0,,,,
03:30:54.700 PM 03/19/2016,Teleop Enabled,9,FALSE,0,NO ERROR,-0.000000,0.032083,0.000000,0.000000,TRUE,FALSE,TRUE,FALSE,FALSE,FALSE,Disabled,0.000000,-0.000000,135.850000,TRUE,-10.405731,7.729431,0.000000,0.000000,0.000000,0.000000,0.000000,0.001000,0.023000,-0.010000,-0.070000,2.480000,0.275246,Hold,0.895264,0.000000,Hold,-243.000000,2.000000,LowGoal,0.000000,-1454.545455,Speed,0.000000,-1454.545455,Speed,Off,Off0.000000,0,,,,
03:30:54.801 PM 03/19/2016,Teleop Enabled,10,FALSE,0,NO ERROR,-0.000000,0.032083,0.000000,0.000000,TRUE,FALSE,TRUE,FALSE,FALSE,FALSE,Disabled,0.000000,-0.000000,135.850000,TRUE,-10.405731,7.729431,0.000000,0.000000,0.000000,0.000000,0.000000,0.001000,0.017000,-0.010000,-0.070000,2.480000,0.270540,Hold,0.895264,0.000000,Hold,-243.000000,2.000000,LowGoal,0.000000,-1454.545455,Speed,0.000000,-1454.545455,Speed,Off,Off0.000000,0,,,,
03:30:54.902 PM 03/19/2016,Teleop Enabled,9,FALSE,0,NO ERROR,-0.000000,0.032083,0.000000,0.000000,TRUE,FALSE,TRUE,FALSE,FALSE,FALSE,Disabled,0.000000,-0.000000,135.850000,TRUE,-10.405731,7.729431,0.000000,0.000000,0.000000,0.000000,0.001000,0.000000,0.021000,-0.010000,-0.080000,2.480000,0.251754,Hold,0.895264,0.000000,Hold,-243.000000,2.000000,LowGoal,0.000000,-1454.545455,Speed,0.000000,-1454.545455,Speed,Off,Off0.000000,0,,,,
03:30:55.002 PM 03/19/2016,Teleop Enabled,11,FALSE,0,NO ERROR,-0.000000,0.032083,0.000000,0.000000,TRUE,FALSE,TRUE,FALSE,FALSE,FALSE,Disabled,0.000000,-0.000000,135.850000,TRUE,-10.405731,7.729431,0.000000,0.000000,0.000000,0.000000,0.001000,-0.002000,0.019000,-0.010000,-0.070000,2.480000,0.256474,Hold,0.895264,0.000000,Hold,-243.000000,2.000000,LowGoal,0.000000,-1454.545455,Speed,0.000000,-1454.545455,Speed,Off,Off0.000000,0,,,,
03:30:55.103 PM 03/19/2016,Teleop Enabled,4,FALSE,0,NO ERROR,-0.000000,0.032083,0.000000,0.000000,TRUE,FALSE,TRUE,FALSE,FALSE,FALSE,Disabled,0.000000,-0.000000,135.850000,TRUE,-10.405731,7.729431,0.000000,0.000000,0.000000,0.000000,-0.001000,-0.002000,0.021000,-0.010000,-0.070000,2.480000,0.264282,Hold,0.895264,0.000000,Hold,-243.000000,2.000000,LowGoal,0.000000,-1454.545455,Speed,0.000000,-1454.545455,Speed,Off,Off0.000000,0,,,,
03:30:55.203 PM 03/19/2016,Teleop Enabled,10,FALSE,0,NO ERROR,-0.000000,0.032083,0.000000,0.000000,TRUE,TRUE,TRUE,FALSE,FALSE,FALSE,Disabled,0.000000,-0.000000,135.850000,TRUE,-10.405731,7.729431,0.000000,0.000000,0.000000,0.000000,0.000000,-0.001000,0.019000,-0.010000,-0.070000,2.480000,0.273931,Hold,0.895264,0.000000,Hold,-243.000000,2.000000,LowGoal,0.000000,-1454.545455,Speed,0.000000,-1454.545455,Speed,Off,Off0.000000,0,,,,
03:30:55.303 PM 03/19/2016,Teleop Enabled,9,FALSE,0,NO ERROR,-0.000000,0.032083,0.000000,0.000000,TRUE,TRUE,TRUE,FALSE,FALSE,FALSE,Disabled,0.000000,-0.000000,135.850000,TRUE,-10.405731,7.729431,0.000000,0.000000,0.000000,0.000000,0.000000,-0.001000,0.019000,-0.010000,-0.070000,2.480000,0.277360,Hold,0.895264,0.000000,Hold,-243.000000,2.000000,LowGoal,0.000000,0.000000,Speed,0.000000,0.000000,Speed,Off,Off0.000000,0,,,,
03:30:55.403 PM 03/19/2016,Teleop Enabled,10,FALSE,0,NO ERROR,-0.000000,0.032083,0.000000,0.000000,TRUE,FALSE,TRUE,FALSE,FALSE,FALSE,Disabled,0.000000,-0.000000,135.850000,TRUE,-10.405731,7.729431,0.000000,0.000000,0.000000,0.000000,0.002000,0.000000,0.024000,-0.010000,-0.070000,2.470000,0.281395,Hold,0.895264,0.000000,Hold,-243.000000,2.000000,LowGoal,0.000000,0.000000,Speed,0.000000,0.000000,Speed,Off,Off0.000000,0,,,,
03:30:55.504 PM 03/19/2016,Teleop Enabled,11,FALSE,0,NO ERROR,-0.000000,0.032083,0.000000,0.000000,TRUE,FALSE,TRUE,FALSE,FALSE,FALSE,Disabled,0.000000,-0.000000,135.850000,TRUE,-10.405731,7.729431,0.000000,0.000000,0.000000,0.000000,0.002000,0.000000,0.025000,-0.010000,-0.070000,2.470000,0.282279,Hold,0.895264,0.000000,Hold,-243.000000,2.000000,LowGoal,0.000000,-1454.545455,Speed,0.000000,-1454.545455,Speed,Off,Off0.000000,0,,,,
03:30:55.605 PM 03/19/2016,Teleop Enabled,15,FALSE,0,NO ERROR,-0.000000,0.032083,0.000000,0.000000,TRUE,FALSE,TRUE,FALSE,FALSE,FALSE,Disabled,0.000000,-0.000000,135.850000,TRUE,-10.405731,7.729431,0.000000,0.000000,0.000000,0.000000,0.000000,0.001000,0.023000,-0.010000,-0.070000,2.470000,0.290039,Hold,0.895264,0.000000,Hold,-243.000000,2.000000,LowGoal,0.000000,-1454.545455,Speed,0.000000,-1454.545455,Speed,Off,Off0.000000,0,,,,
03:30:55.706 PM 03/19/2016,Teleop Enabled,11,FALSE,0,NO ERROR,-0.000000,0.032083,0.000000,0.000000,TRUE,FALSE,TRUE,FALSE,FALSE,FALSE,Disabled,0.000000,-0.000000,135.850000,TRUE,-10.405731,7.729431,0.000000,0.000000,0.000000,0.000000,0.003000,0.001000,0.020000,-0.010000,-0.080000,2.480000,0.304209,Hold,0.895264,0.000000,Hold,-243.000000,2.000000,LowGoal,0.000000,-1454.545455,Speed,0.000000,-1454.545455,Speed,Off,Off0.000000,0,,,,
03:30:55.807 PM 03/19/2016,Teleop Enabled,9,FALSE,0,NO ERROR,-0.000000,0.032083,0.000000,0.000000,TRUE,FALSE,TRUE,FALSE,FALSE,FALSE,Disabled,0.000000,-0.000000,135.850000,TRUE,-10.405731,7.729431,0.000000,0.000000,0.000000,0.000000,0.001000,-0.001000,0.020000,-0.010000,-0.080000,2.480000,0.306195,Hold,0.895264,0.000000,Hold,-243.000000,2.000000,LowGoal,0.000000,-1454.545455,Speed,0.000000,-1454.545455,Speed,Off,Off0.000000,0,,,,
03:30:55.907 PM 03/19/2016,Teleop Enabled,11,FALSE,0,NO ERROR,-0.000000,0.032083,0.000000,0.000000,TRUE,FALSE,TRUE,FALSE,FALSE,FALSE,Disabled,0.000000,-0.000000,135.850000,TRUE,-10.405731,7.729431,0.000000,0.000000,0.000000,0.000000,0.000000,0.000000,0.021000,-0.010000,-0.080000,2.480000,0.337801,Hold,0.895264,0.000000,Hold,-243.000000,2.000000,LowGoal,0.000000,-1454.545455,Speed,0.000000,-1454.545455,Speed,Off,Off0.000000,0,,,,
03:30:56.007 PM 03/19/2016,Teleop Enabled,11,FALSE,0,NO ERROR,-0.000000,0.032083,0.000000,0.000000,TRUE,FALSE,TRUE,FALSE,FALSE,FALSE,Disabled,0.000000,-0.000000,135.850000,TRUE,-10.405731,7.729431,0.000000,0.000000,0.000000,0.000000,0.002000,-0.001000,0.018000,-0.010000,-0.070000,2.480000,0.358233,Hold,0.895264,0.000000,Hold,-243.000000,2.000000,LowGoal,0.000000,-1454.545455,Speed,0.000000,-1454.545455,Speed,Off,Off0.000000,0,,,,
03:30:56.109 PM 03/19/2016,Teleop Enabled,9,FALSE,0,NO ERROR,-0.000000,0.032083,0.000000,0.000000,TRUE,TRUE,TRUE,FALSE,FALSE,FALSE,Disabled,0.000000,-0.000000,135.850000,TRUE,-10.405731,7.729431,0.000000,0.000000,0.000000,0.000000,0.000000,0.000000,0.022000,-0.020000,-0.070000,2.480000,0.374378,Hold,0.895264,0.000000,Hold,-243.000000,2.000000,LowGoal,0.000000,-1454.545455,Speed,0.000000,-1454.545455,Speed,Off,Off0.000000,0,,,,
03:30:56.209 PM 03/19/2016,Teleop Enabled,6,FALSE,0,NO ERROR,-0.000000,0.032083,0.000000,0.000000,TRUE,TRUE,TRUE,FALSE,FALSE,FALSE,Disabled,0.000000,-0.000000,135.850000,TRUE,-10.405731,7.729431,0.000000,0.000000,0.000000,0.000000,-0.002000,0.001000,0.016000,-0.020000,-0.070000,2.480000,0.376743,Hold,0.895264,0.000000,Hold,-243.000000,2.000000,LowGoal,0.000000,0.000000,Speed,0.000000,0.000000,Speed,Off,Off0.000000,0,,,,
03:30:56.309 PM 03/19/2016,Teleop Enabled,9,FALSE,0,NO ERROR,-0.000000,0.032083,0.000000,0.000000,TRUE,FALSE,TRUE,FALSE,FALSE,FALSE,Disabled,0.000000,-0.000000,135.850000,TRUE,-10.405731,7.729431,0.000000,0.000000,0.000000,0.000000,0.001000,0.000000,0.022000,-0.020000,-0.070000,2.490000,0.377559,Hold,0.895264,0.000000,Hold,-243.000000,2.000000,LowGoal,0.000000,0.000000,Speed,0.000000,0.000000,Speed,Off,Off0.000000,0,,,,
03:30:56.409 PM 03/19/2016,Teleop Enabled,10,FALSE,0,NO ERROR,-0.000000,0.032083,0.000000,0.000000,TRUE,FALSE,TRUE,FALSE,FALSE,FALSE,Disabled,0.000000,-0.000000,135.850000,TRUE,-10.405731,7.729431,0.000000,0.000000,0.000000,0.000000,0.002000,0.000000,0.020000,-0.020000,-0.070000,2.490000,0.394658,Hold,0.895264,0.000000,Hold,-243.000000,2.000000,LowGoal,0.000000,-1454.545455,Speed,0.000000,-1454.545455,Speed,Off,Off0.000000,0,,,,
03:30:56.509 PM 03/19/2016,Teleop Enabled,11,FALSE,0,NO ERROR,-0.000000,0.032083,0.000000,0.000000,TRUE,FALSE,TRUE,FALSE,FALSE,FALSE,Disabled,0.000000,-0.000000,135.850000,TRUE,-10.405731,7.729431,0.000000,0.000000,0.000000,0.000000,-0.001000,0.000000,0.015000,-0.020000,-0.070000,2.490000,0.391718,Hold,0.895264,0.000000,Hold,-243.000000,2.000000,LowGoal,0.000000,-1454.545455,Speed,0.000000,-1454.545455,Speed,Off,Off0.000000,0,,,,
03:30:56.610 PM 03/19/2016,Teleop Enabled,11,FALSE,0,NO ERROR,-0.000000,0.032083,0.000000,0.000000,TRUE,FALSE,TRUE,FALSE,FALSE,FALSE,Disabled,0.000000,-0.000000,135.850000,TRUE,-10.405731,7.729431,0.000000,0.000000,0.000000,0.000000,0.001000,0.000000,0.022000,-0.020000,-0.070000,2.480000,0.396135,Hold,0.895264,0.000000,Hold,-243.000000,2.000000,LowGoal,0.000000,-1454.545455,Speed,0.000000,-1454.545455,Speed,Off,Off0.000000,0,,,,
03:30:56.710 PM 03/19/2016,Teleop Enabled,11,FALSE,0,NO ERROR,-0.000000,0.032083,0.000000,0.000000,TRUE,FALSE,TRUE,FALSE,FALSE,FALSE,Disabled,0.000000,-0.000000,135.850000,TRUE,-10.405731,7.729431,0.000000,0.000000,0.000000,0.000000,0.000000,0.000000,0.018000,-0.030000,-0.070000,2.480000,0.403850,Hold,0.895264,0.000000,Hold,-243.000000,2.000000,LowGoal,0.000000,-1454.545455,Speed,0.000000,-1454.545455,Speed,Off,Off0.000000,0,,,,
03:30:56.809 PM 03/19/2016,Teleop Enabled,10,FALSE,0,NO ERROR,-0.000000,0.032083,0.000000,0.000000,TRUE,FALSE,TRUE,FALSE,FALSE,FALSE,Disabled,0.000000,-0.000000,135.850000,TRUE,-10.405731,7.729431,0.000000,0.000000,0.000000,0.000000,0.000000,0.000000,0.025000,-0.030000,-0.070000,2.480000,0.413021,Hold,0.895264,0.000000,Hold,-243.000000,2.000000,LowGoal,0.000000,-1454.545455,Speed,0.000000,-1454.545455,Speed,Off,Off0.000000,0,,,,
03:30:56.911 PM 03/19/2016,Teleop Enabled,10,FALSE,0,NO ERROR,-0.000000,0.032083,0.000000,0.000000,TRUE,TRUE,TRUE,FALSE,FALSE,FALSE,Disabled,0.000000,-0.000000,135.850000,TRUE,-10.405731,7.729431,0.000000,0.000000,0.000000,0.000000,0.001000,-0.001000,0.022000,-0.030000,-0.070000,2.480000,0.425263,Hold,0.895264,0.000000,Hold,-243.000000,2.000000,LowGoal,0.000000,-1454.545455,Speed,0.000000,-1454.545455,Speed,Off,Off0.000000,0,,,,
03:30:57.011 PM 03/19/2016,Teleop Enabled,10,FALSE,0,NO ERROR,-0.000000,0.032083,0.000000,0.000000,TRUE,TRUE,TRUE,FALSE,FALSE,FALSE,Disabled,0.000000,-0.000000,135.850000,TRUE,-10.405731,7.729431,0.000000,0.000000,0.000000,0.000000,0.001000,-0.001000,0.020000,-0.030000,-0.070000,2.480000,0.427218,Hold,0.895264,0.000000,Hold,-243.000000,2.000000,LowGoal,0.000000,0.000000,Speed,0.000000,0.000000,Speed,Off,Off0.000000,0,,,,
03:30:57.111 PM 03/19/2016,Teleop Enabled,10,FALSE,0,NO ERROR,-0.000000,0.032083,0.000000,0.000000,TRUE,FALSE,TRUE,FALSE,FALSE,FALSE,Disabled,0.000000,-0.000000,135.850000,TRUE,-10.405731,7.729431,0.000000,0.000000,0.000000,0.000000,-0.001000,0.000000,0.018000,-0.030000,-0.070000,2.480000,0.420199,Hold,0.895264,0.000000,Hold,-243.000000,2.000000,LowGoal,0.000000,0.000000,Speed,0.000000,0.000000,Speed,Off,Off0.000000,0,,,,
03:30:57.212 PM 03/19/2016,Teleop Enabled,9,FALSE,0,NO ERROR,-0.000000,0.032083,0.000000,0.000000,TRUE,FALSE,TRUE,FALSE,FALSE,FALSE,Disabled,0.000000,-0.000000,135.850000,TRUE,-10.405731,7.729431,0.000000,0.000000,0.000000,0.000000,0.000000,0.000000,0.020000,-0.040000,-0.070000,2.470000,0.417207,Hold,0.895264,0.000000,Hold,-243.000000,2.000000,LowGoal,0.000000,0.000000,Speed,0.000000,0.000000,Speed,Off,Off0.000000,0,,,,
03:30:57.314 PM 03/19/2016,Teleop Enabled,10,FALSE,0,NO ERROR,-0.000000,0.032083,0.000000,0.000000,TRUE,FALSE,TRUE,FALSE,FALSE,FALSE,Disabled,0.000000,-0.000000,135.850000,TRUE,-10.405731,7.729431,0.000000,0.000000,0.000000,0.000000,-0.001000,-0.005000,0.015000,-0.040000,-0.070000,2.470000,0.418977,Hold,0.895264,0.000000,Hold,-243.000000,2.000000,LowGoal,0.000000,-1454.545455,Speed,0.000000,-1454.545455,Speed,Off,Off0.000000,0,,,,
03:30:57.414 PM 03/19/2016,Teleop Enabled,10,FALSE,0,NO ERROR,-0.000000,0.032083,0.000000,0.000000,TRUE,FALSE,TRUE,FALSE,FALSE,FALSE,Disabled,0.000000,-0.000000,135.850000,TRUE,-10.405731,7.729431,0.000000,0.000000,0.000000,0.000000,0.000000,0.002000,0.019000,-0.030000,-0.070000,2.460000,0.420681,Hold,0.895264,0.000000,Hold,-243.000000,2.000000,LowGoal,0.000000,-1454.545455,Speed,0.000000,-1454.545455,Speed,Off,Off0.000000,0,,,,
03:30:57.514 PM 03/19/2016,Teleop Enabled,9,FALSE,0,NO ERROR,-0.000000,0.032083,0.000000,0.000000,TRUE,FALSE,TRUE,FALSE,FALSE,FALSE,Disabled,0.000000,-0.000000,135.850000,TRUE,-10.405731,7.729431,0.000000,0.000000,0.000000,0.000000,-0.001000,0.000000,0.019000,-0.030000,-0.070000,2.460000,0.421407,Hold,0.895264,0.000000,Hold,-243.000000,2.000000,LowGoal,0.000000,-1454.545455,Speed,0.000000,-1454.545455,Speed,Off,Off0.000000,0,,,,
03:30:57.614 PM 03/19/2016,Teleop Enabled,11,FALSE,0,NO ERROR,-0.000000,0.032083,0.000000,0.000000,TRUE,FALSE,TRUE,FALSE,FALSE,FALSE,Disabled,0.000000,-0.000000,135.850000,TRUE,-10.405731,7.729431,0.000000,0.000000,0.000000,0.000000,-0.001000,0.000000,0.019000,-0.040000,-0.070000,2.470000,0.435983,Hold,0.895264,0.000000,Hold,-243.000000,2.000000,LowGoal,0.000000,-1454.545455,Speed,0.000000,-1454.545455,Speed,Off,Off0.000000,0,,,,
03:30:57.714 PM 03/19/2016,Teleop Enabled,10,FALSE,0,NO ERROR,-0.000000,0.032083,0.000000,0.000000,TRUE,FALSE,TRUE,FALSE,FALSE,FALSE,Disabled,0.000000,-0.000000,135.850000,TRUE,-10.405731,7.729431,0.000000,0.000000,0.000000,0.000000,0.001000,0.000000,0.018000,-0.040000,-0.080000,2.470000,0.444238,Hold,0.895264,0.000000,Hold,-243.000000,2.000000,LowGoal,0.000000,-1454.545455,Speed,0.000000,-1454.545455,Speed,Off,Off0.000000,0,,,,
03:30:57.814 PM 03/19/2016,Teleop Enabled,11,FALSE,0,NO ERROR,-0.000000,0.032083,0.000000,0.000000,TRUE,TRUE,TRUE,FALSE,FALSE,FALSE,Disabled,0.000000,-0.000000,135.850000,TRUE,-10.405731,7.729431,0.000000,0.000000,0.000000,0.000000,0.000000,0.000000,0.020000,-0.040000,-0.070000,2.470000,0.447385,Hold,0.895264,0.000000,Hold,-243.000000,2.000000,LowGoal,0.000000,-1454.545455,Speed,0.000000,-1454.545455,Speed,Off,Off0.000000,0,,,,
03:30:57.914 PM 03/19/2016,Teleop Enabled,10,FALSE,0,NO ERROR,-0.000000,0.032083,0.000000,0.000000,TRUE,TRUE,TRUE,FALSE,FALSE,FALSE,Disabled,0.000000,-0.000000,135.850000,TRUE,-10.405731,7.729431,0.000000,0.000000,0.000000,0.000000,0.000000,0.001000,0.021000,-0.040000,-0.070000,2.470000,0.450552,Hold,0.895264,0.000000,Hold,-243.000000,2.000000,LowGoal,0.000000,0.000000,Speed,0.000000,0.000000,Speed,Off,Off0.000000,0,,,,
03:30:58.015 PM 03/19/2016,Teleop Enabled,10,FALSE,0,NO ERROR,-0.000000,0.032083,0.000000,0.000000,TRUE,FALSE,TRUE,FALSE,FALSE,FALSE,Disabled,0.000000,-0.000000,135.850000,TRUE,-10.405731,7.729431,0.000000,0.000000,0.000000,0.000000,0.000000,0.002000,0.016000,-0.040000,-0.070000,2.470000,0.473772,Hold,0.895264,0.000000,Hold,-243.000000,2.000000,LowGoal,0.000000,0.000000,Speed,0.000000,0.000000,Speed,Off,Off0.000000,0,,,,
03:30:58.115 PM 03/19/2016,Teleop Enabled,10,FALSE,0,NO ERROR,-0.000000,0.032083,0.000000,0.000000,TRUE,FALSE,TRUE,FALSE,FALSE,FALSE,Disabled,0.000000,-0.000000,135.850000,TRUE,-10.405731,7.729431,0.000000,0.000000,0.000000,0.000000,0.000000,0.000000,0.018000,-0.040000,-0.070000,2.470000,0.474471,Hold,0.895264,0.000000,Hold,-243.000000,2.000000,LowGoal,0.000000,-1454.545455,Speed,0.000000,-1454.545455,Speed,Off,Off0.000000,0,,,,
03:30:58.215 PM 03/19/2016,Teleop Enabled,10,FALSE,0,NO ERROR,-0.000000,0.032083,0.000000,0.000000,TRUE,FALSE,TRUE,FALSE,FALSE,FALSE,Disabled,0.000000,-0.000000,135.850000,TRUE,-10.405731,7.729431,0.000000,0.000000,0.000000,0.000000,-0.002000,-0.003000,0.023000,-0.040000,-0.070000,2.470000,0.483759,Hold,0.895264,0.000000,Hold,-243.000000,2.000000,LowGoal,0.000000,-1454.545455,Speed,0.000000,-1454.545455,Speed,Off,Off0.000000,0,,,,
03:30:58.316 PM 03/19/2016,Teleop Enabled,9,FALSE,0,NO ERROR,-0.000000,0.032083,0.000000,0.000000,TRUE,FALSE,TRUE,FALSE,FALSE,FALSE,Disabled,0.000000,-0.000000,135.850000,TRUE,-10.405731,7.729431,0.000000,0.000000,0.000000,0.000000,0.000000,0.000000,0.019000,-0.040000,-0.070000,2.470000,0.490062,Hold,0.895264,0.000000,Hold,-243.000000,2.000000,LowGoal,0.000000,-1454.545455,Speed,0.000000,-1454.545455,Speed,Off,Off0.000000,0,,,,
03:30:58.417 PM 03/19/2016,Teleop Enabled,11,FALSE,0,NO ERROR,-0.000000,0.032083,0.000000,0.000000,TRUE,FALSE,TRUE,FALSE,FALSE,FALSE,Disabled,0.000000,-0.000000,135.850000,TRUE,-10.405731,7.729431,0.000000,0.000000,0.000000,0.000000,0.001000,-0.001000,0.020000,-0.040000,-0.080000,2.470000,0.498317,Hold,0.895264,0.000000,Hold,-243.000000,2.000000,LowGoal,0.000000,-1454.545455,Speed,0.000000,-1454.545455,Speed,Off,Off0.000000,0,,,,
03:30:58.518 PM 03/19/2016,Teleop Enabled,11,FALSE,0,NO ERROR,-0.000000,0.032083,0.000000,0.000000,TRUE,FALSE,TRUE,FALSE,FALSE,FALSE,Disabled,0.000000,-0.000000,135.850000,TRUE,-10.405731,7.729431,0.000000,0.000000,0.000000,0.000000,-0.001000,-0.001000,0.021000,-0.040000,-0.080000,2.470000,0.511251,Hold,0.895264,0.000000,Hold,-243.000000,2.000000,LowGoal,0.000000,-1454.545455,Speed,0.000000,-1454.545455,Speed,Off,Off0.000000,0,,,,
03:30:58.619 PM 03/19/2016,Teleop Enabled,10,FALSE,0,NO ERROR,-0.000000,0.032083,0.000000,0.000000,TRUE,TRUE,TRUE,FALSE,FALSE,FALSE,Disabled,0.000000,-0.000000,135.850000,TRUE,-10.405731,7.729431,0.000000,0.000000,0.000000,0.000000,0.001000,0.001000,0.018000,-0.040000,-0.070000,2.460000,0.519365,Hold,0.895264,0.000000,Hold,-243.000000,2.000000,LowGoal,0.000000,-1454.545455,Speed,0.000000,-1454.545455,Speed,Off,Off0.000000,0,,,,
03:30:58.719 PM 03/19/2016,Teleop Enabled,11,FALSE,0,NO ERROR,-0.000000,0.032083,0.000000,0.000000,TRUE,TRUE,TRUE,FALSE,FALSE,FALSE,Disabled,0.000000,-0.000000,135.850000,TRUE,-10.405731,7.729431,0.000000,0.000000,0.000000,0.000000,0.000000,0.001000,0.018000,-0.040000,-0.070000,2.470000,0.533077,Hold,0.895264,0.000000,Hold,-243.000000,2.000000,LowGoal,0.000000,0.000000,Speed,0.000000,0.000000,Speed,Off,Off0.000000,0,,,,
03:30:58.820 PM 03/19/2016,Teleop Enabled,10,FALSE,0,NO ERROR,-0.000000,0.032083,0.000000,0.000000,TRUE,FALSE,TRUE,FALSE,FALSE,FALSE,Disabled,0.000000,-0.000000,135.850000,TRUE,-10.405731,7.729431,0.000000,0.000000,0.000000,0.000000,0.000000,-0.001000,0.021000,-0.040000,-0.070000,2.470000,0.539146,Hold,0.895264,0.000000,Hold,-243.000000,2.000000,LowGoal,0.000000,0.000000,Speed,0.000000,0.000000,Speed,Off,Off0.000000,0,,,,
03:30:58.921 PM 03/19/2016,Teleop Enabled,11,FALSE,0,NO ERROR,-0.000000,0.032083,0.000000,0.000000,TRUE,FALSE,TRUE,FALSE,FALSE,FALSE,Disabled,0.000000,-0.000000,135.850000,TRUE,-10.405731,7.729431,0.000000,0.000000,0.000000,0.000000,0.000000,0.001000,0.023000,-0.040000,-0.070000,2.470000,0.541631,Hold,0.895264,0.000000,Hold,-243.000000,2.000000,LowGoal,0.000000,-1454.545455,Speed,0.000000,-1454.545455,Speed,Off,Off0.000000,0,,,,
03:30:59.021 PM 03/19/2016,Teleop Enabled,10,FALSE,0,NO ERROR,-0.000000,0.032083,0.000000,0.000000,TRUE,FALSE,TRUE,FALSE,FALSE,FALSE,Disabled,0.000000,-0.000000,135.850000,TRUE,-10.405731,7.729431,0.000000,0.000000,0.000000,0.000000,-0.002000,0.001000,0.019000,-0.040000,-0.060000,2.480000,0.524019,Hold,0.895264,0.000000,Hold,-243.000000,2.000000,LowGoal,0.000000,-1454.545455,Speed,0.000000,-1454.545455,Speed,Off,Off0.000000,0,,,,
03:30:59.122 PM 03/19/2016,Teleop Enabled,9,FALSE,0,NO ERROR,-0.000000,0.032083,0.000000,0.000000,TRUE,FALSE,TRUE,FALSE,FALSE,FALSE,Disabled,0.000000,-0.000000,135.850000,TRUE,-10.405731,7.729431,0.000000,0.000000,0.000000,0.000000,0.000000,0.001000,0.023000,-0.040000,-0.070000,2.480000,0.532664,Hold,0.895264,0.000000,Hold,-243.000000,2.000000,LowGoal,0.000000,-1454.545455,Speed,0.000000,-1454.545455,Speed,Off,Off0.000000,0,,,,
03:30:59.223 PM 03/19/2016,Teleop Enabled,10,FALSE,0,NO ERROR,-0.000000,0.032083,0.000000,0.000000,TRUE,FALSE,TRUE,FALSE,FALSE,FALSE,Disabled,0.000000,-0.000000,135.850000,TRUE,-10.405731,7.729431,0.000000,0.000000,0.000000,0.000000,0.001000,0.000000,0.019000,-0.040000,-0.060000,2.480000,0.531731,Hold,0.895264,0.000000,Hold,-243.000000,2.000000,LowGoal,0.000000,-1454.545455,Speed,0.000000,-1454.545455,Speed,Off,Off0.000000,0,,,,
03:30:59.324 PM 03/19/2016,Teleop Enabled,10,FALSE,0,NO ERROR,-0.000000,0.032083,0.000000,0.000000,TRUE,FALSE,TRUE,FALSE,FALSE,FALSE,Disabled,0.000000,-0.000000,135.850000,TRUE,-10.405731,7.729431,0.000000,0.000000,0.000000,0.000000,0.000000,0.000000,0.019000,-0.040000,-0.060000,2.490000,0.535035,Hold,0.895264,0.000000,Hold,-243.000000,2.000000,LowGoal,0.000000,-1454.545455,Speed,0.000000,-1454.545455,Speed,Off,Off0.000000,0,,,,
03:30:59.424 PM 03/19/2016,Teleop Enabled,10,FALSE,0,NO ERROR,-0.000000,0.032083,0.000000,0.000000,TRUE,TRUE,TRUE,FALSE,FALSE,FALSE,Disabled,0.000000,-0.000000,135.850000,TRUE,-10.405731,7.729431,0.000000,0.000000,0.000000,0.000000,0.001000,0.000000,0.017000,-0.040000,-0.060000,2.490000,0.549518,Hold,0.895264,0.000000,Hold,-243.000000,2.000000,LowGoal,0.000000,-1454.545455,Speed,0.000000,-1454.545455,Speed,Off,Off0.000000,0,,,,
03:30:59.525 PM 03/19/2016,Teleop Enabled,11,FALSE,0,NO ERROR,-0.000000,0.032083,0.000000,0.000000,TRUE,TRUE,TRUE,FALSE,FALSE,FALSE,Disabled,0.000000,-0.000000,135.850000,TRUE,-10.405731,7.729431,0.000000,0.000000,0.000000,0.000000,0.000000,-0.001000,0.016000,-0.040000,-0.060000,2.480000,0.552114,Hold,0.895264,0.000000,Hold,-243.000000,2.000000,LowGoal,0.000000,0.000000,Speed,0.000000,0.000000,Speed,Off,Off0.000000,0,,,,
03:30:59.625 PM 03/19/2016,Teleop Enabled,10,FALSE,0,NO ERROR,-0.000000,0.032083,0.000000,0.000000,TRUE,FALSE,TRUE,FALSE,FALSE,FALSE,Disabled,0.000000,-0.000000,135.850000,TRUE,-10.405731,7.729431,0.000000,0.000000,0.000000,0.000000,0.000000,0.000000,0.023000,-0.040000,-0.060000,2.480000,0.562153,Hold,0.895264,0.000000,Hold,-243.000000,2.000000,LowGoal,0.000000,0.000000,Speed,0.000000,0.000000,Speed,Off,Off0.000000,0,,,,
03:30:59.725 PM 03/19/2016,Teleop Enabled,10,FALSE,0,NO ERROR,-0.000000,0.032083,0.000000,0.000000,TRUE,FALSE,TRUE,FALSE,FALSE,FALSE,Disabled,0.000000,-0.000000,135.850000,TRUE,-10.405731,7.729431,0.000000,0.000000,0.000000,0.000000,0.000000,0.001000,0.018000,-0.040000,-0.060000,2.480000,0.564607,Hold,0.895264,0.000000,Hold,-243.000000,2.000000,LowGoal,0.000000,-1454.545455,Speed,0.000000,-1454.545455,Speed,Off,Off0.000000,0,,,,
03:30:59.825 PM 03/19/2016,Teleop Enabled,10,FALSE,0,NO ERROR,-0.000000,0.032083,0.000000,0.000000,TRUE,FALSE,TRUE,FALSE,FALSE,FALSE,Disabled,0.000000,-0.000000,135.850000,TRUE,-10.405731,7.729431,0.000000,0.000000,0.000000,0.000000,0.002000,0.000000,0.020000,-0.040000,-0.060000,2.480000,0.564583,Hold,0.895264,0.000000,Hold,-243.000000,2.000000,LowGoal,0.000000,-1454.545455,Speed,0.000000,-1454.545455,Speed,Off,Off0.000000,0,,,,
03:30:59.925 PM 03/19/2016,Teleop Enabled,11,FALSE,0,NO ERROR,-0.000000,0.032083,0.000000,0.000000,TRUE,FALSE,TRUE,FALSE,FALSE,FALSE,Disabled,0.000000,-0.000000,135.850000,TRUE,-10.405731,7.729431,0.000000,0.000000,0.000000,0.000000,0.000000,0.000000,0.021000,-0.040000,-0.060000,2.480000,0.568762,Hold,0.895264,0.000000,Hold,-243.000000,2.000000,LowGoal,0.000000,-1454.545455,Speed,0.000000,-1454.545455,Speed,Off,Off0.000000,0,,,,
03:31:00.025 PM 03/19/2016,Teleop Enabled,10,FALSE,0,NO ERROR,-0.000000,0.032083,0.000000,0.000000,TRUE,FALSE,TRUE,FALSE,FALSE,FALSE,Disabled,0.000000,-0.000000,135.850000,TRUE,-10.405731,7.729431,0.000000,0.000000,0.000000,0.000000,0.001000,0.000000,0.021000,-0.040000,-0.060000,2.480000,0.586681,Hold,0.895264,0.000000,Hold,-243.000000,2.000000,LowGoal,0.000000,-1454.545455,Speed,0.000000,-1454.545455,Speed,Off,Off0.000000,0,,,,
03:31:00.126 PM 03/19/2016,Teleop Enabled,11,FALSE,0,NO ERROR,-0.000000,0.032083,0.000000,0.000000,TRUE,FALSE,TRUE,FALSE,FALSE,FALSE,Disabled,0.000000,-0.000000,135.850000,TRUE,-10.405731,7.729431,0.000000,0.000000,0.000000,0.000000,0.000000,0.000000,0.021000,-0.040000,-0.060000,2.480000,0.589287,Hold,0.895264,0.000000,Hold,-243.000000,2.000000,LowGoal,0.000000,-1454.545455,Speed,0.000000,-1454.545455,Speed,Off,Off0.000000,0,,,,
03:31:00.225 PM 03/19/2016,Teleop Enabled,10,FALSE,0,NO ERROR,-0.000000,0.032083,0.000000,0.000000,TRUE,TRUE,TRUE,FALSE,FALSE,FALSE,Disabled,0.000000,-0.000000,135.850000,TRUE,-10.405731,7.729431,0.000000,0.000000,0.000000,0.000000,0.000000,0.001000,0.020000,-0.050000,-0.060000,2.480000,0.597917,Hold,0.895264,0.000000,Hold,-243.000000,2.000000,LowGoal,0.000000,-1454.545455,Speed,0.000000,-1454.545455,Speed,Off,Off0.000000,0,,,,
03:31:00.325 PM 03/19/2016,Teleop Enabled,11,FALSE,0,NO ERROR,-0.000000,0.032083,0.000000,0.000000,TRUE,TRUE,TRUE,FALSE,FALSE,FALSE,Disabled,0.000000,-0.000000,135.850000,TRUE,-10.405731,7.729431,0.000000,0.000000,0.000000,0.000000,0.000000,0.000000,0.018000,-0.050000,-0.060000,2.490000,0.609557,Hold,0.895264,0.000000,Hold,-243.000000,2.000000,LowGoal,0.000000,0.000000,Speed,0.000000,0.000000,Speed,Off,Off0.000000,0,,,,
03:31:00.425 PM 03/19/2016,Teleop Enabled,10,FALSE,0,NO ERROR,-0.000000,0.032083,0.000000,0.000000,TRUE,FALSE,TRUE,FALSE,FALSE,FALSE,Disabled,0.000000,-0.000000,135.850000,TRUE,-10.405731,7.729431,0.000000,0.000000,0.000000,0.000000,0.000000,0.001000,0.020000,-0.050000,-0.060000,2.490000,0.610142,Hold,0.895264,0.000000,Hold,-243.000000,2.000000,LowGoal,0.000000,0.000000,Speed,0.000000,0.000000,Speed,Off,Off0.000000,0,,,,
03:31:00.525 PM 03/19/2016,Teleop Enabled,11,FALSE,0,NO ERROR,-0.000000,0.032083,0.000000,0.000000,TRUE,FALSE,TRUE,FALSE,FALSE,FALSE,Disabled,0.000000,-0.000000,135.850000,TRUE,-10.405731,7.729431,0.000000,0.000000,0.000000,0.000000,0.000000,0.000000,0.019000,-0.050000,-0.060000,2.480000,0.620487,Hold,0.895264,0.000000,Hold,-243.000000,2.000000,LowGoal,0.000000,-1454.545455,Speed,0.000000,-1454.545455,Speed,Off,Off0.000000,0,,,,
03:31:00.625 PM 03/19/2016,Teleop Enabled,9,FALSE,0,NO ERROR,-0.000000,0.032083,0.000000,0.000000,TRUE,FALSE,TRUE,FALSE,FALSE,FALSE,Disabled,0.000000,-0.000000,135.850000,TRUE,-10.405731,7.729431,0.000000,0.000000,0.000000,0.000000,0.000000,0.000000,0.024000,-0.050000,-0.060000,2.480000,0.614868,Hold,0.895264,0.000000,Hold,-243.000000,2.000000,LowGoal,0.000000,-1454.545455,Speed,0.000000,-1454.545455,Speed,Off,Off0.000000,0,,,,
03:31:00.725 PM 03/19/2016,Teleop Enabled,9,FALSE,0,NO ERROR,-0.000000,0.032083,0.000000,0.000000,TRUE,FALSE,TRUE,FALSE,FALSE,FALSE,Disabled,0.000000,-0.000000,135.850000,TRUE,-10.405731,7.729431,0.000000,0.000000,0.000000,0.000000,0.000000,0.000000,0.021000,-0.050000,-0.060000,2.480000,0.617987,Hold,0.895264,0.000000,Hold,-243.000000,2.000000,LowGoal,0.000000,-1454.545455,Speed,0.000000,-1454.545455,Speed,Off,Off0.000000,0,,,,
03:31:00.825 PM 03/19/2016,Teleop Enabled,10,FALSE,0,NO ERROR,-0.000000,0.032083,0.000000,0.000000,TRUE,FALSE,TRUE,FALSE,FALSE,FALSE,Disabled,0.000000,-0.000000,135.850000,TRUE,-10.405731,7.729431,0.000000,0.000000,0.000000,0.000000,0.001000,-0.002000,0.019000,-0.050000,-0.060000,2.480000,0.622050,Hold,0.895264,0.000000,Hold,-243.000000,2.000000,LowGoal,0.000000,-1454.545455,Speed,0.000000,-1454.545455,Speed,Off,Off0.000000,0,,,,
03:31:00.926 PM 03/19/2016,Teleop Enabled,9,FALSE,0,NO ERROR,-0.000000,0.032083,0.000000,0.000000,TRUE,FALSE,TRUE,FALSE,FALSE,FALSE,Disabled,0.000000,-0.000000,135.850000,TRUE,-10.405731,7.729431,0.000000,0.000000,0.000000,0.000000,0.001000,-0.002000,0.019000,-0.050000,-0.060000,2.480000,0.618820,Hold,0.895264,0.000000,Hold,-243.000000,2.000000,LowGoal,0.000000,-1454.545455,Speed,0.000000,-1454.545455,Speed,Off,Off0.000000,0,,,,
03:31:01.027 PM 03/19/2016,Teleop Enabled,11,FALSE,0,NO ERROR,-0.000000,0.032083,0.000000,0.000000,TRUE,TRUE,TRUE,FALSE,FALSE,FALSE,Disabled,0.000000,-0.000000,135.850000,TRUE,-10.405731,7.729431,0.000000,0.000000,0.000000,0.000000,0.002000,-0.001000,0.020000,-0.050000,-0.060000,2.480000,0.640171,Hold,0.895264,0.000000,Hold,-243.000000,2.000000,LowGoal,0.000000,-1454.545455,Speed,0.000000,-1454.545455,Speed,Off,Off0.000000,0,,,,
03:31:01.127 PM 03/19/2016,Teleop Enabled,10,FALSE,0,NO ERROR,-0.000000,0.032083,0.000000,0.000000,TRUE,TRUE,TRUE,FALSE,FALSE,FALSE,Disabled,0.000000,-0.000000,135.850000,TRUE,-10.405731,7.729431,0.000000,0.000000,0.000000,0.000000,0.001000,0.000000,0.020000,-0.050000,-0.060000,2.480000,0.643445,Hold,0.895264,0.000000,Hold,-243.000000,2.000000,LowGoal,0.000000,0.000000,Speed,0.000000,0.000000,Speed,Off,Off0.000000,0,,,,
03:31:01.227 PM 03/19/2016,Teleop Enabled,7,FALSE,0,NO ERROR,-0.000000,0.032083,0.000000,0.000000,TRUE,FALSE,TRUE,FALSE,FALSE,FALSE,Disabled,0.000000,-0.000000,135.850000,TRUE,-10.405731,7.729431,0.000000,0.000000,0.000000,0.000000,0.001000,0.001000,0.018000,-0.050000,-0.060000,2.470000,0.638966,Hold,0.895264,0.000000,Hold,-243.000000,2.000000,LowGoal,0.000000,0.000000,Speed,0.000000,0.000000,Speed,Off,Off0.000000,0,,,,
03:31:01.327 PM 03/19/2016,Teleop Enabled,9,FALSE,0,NO ERROR,-0.000000,0.032083,0.000000,0.000000,TRUE,FALSE,TRUE,FALSE,FALSE,FALSE,Disabled,0.000000,-0.000000,135.850000,TRUE,-10.405731,7.729431,0.000000,0.000000,0.000000,0.000000,0.001000,-0.002000,0.023000,-0.050000,-0.060000,2.480000,0.640756,Hold,0.895264,0.000000,Hold,-243.000000,2.000000,LowGoal,0.000000,-1454.545455,Speed,0.000000,-1454.545455,Speed,Off,Off0.000000,0,,,,
03:31:01.427 PM 03/19/2016,Teleop Enabled,10,FALSE,0,NO ERROR,-0.000000,0.032083,0.000000,0.000000,TRUE,FALSE,TRUE,FALSE,FALSE,FALSE,Disabled,0.000000,-0.000000,135.850000,TRUE,-10.405731,7.729431,0.000000,0.000000,0.000000,0.000000,-0.001000,-0.001000,0.017000,-0.050000,-0.050000,2.480000,0.637458,Hold,0.895264,0.000000,Hold,-243.000000,2.000000,LowGoal,0.000000,-1454.545455,Speed,0.000000,-1454.545455,Speed,Off,Off0.000000,0,,,,
03:31:01.528 PM 03/19/2016,Teleop Enabled,9,FALSE,0,NO ERROR,-0.000000,0.032083,0.000000,0.000000,TRUE,FALSE,TRUE,FALSE,FALSE,FALSE,Disabled,0.000000,-0.000000,135.850000,TRUE,-10.405731,7.729431,0.000000,0.000000,0.000000,0.000000,0.000000,0.001000,0.016000,-0.050000,-0.060000,2.480000,0.652038,Hold,0.895264,0.000000,Hold,-243.000000,2.000000,LowGoal,0.000000,-1454.545455,Speed,0.000000,-1454.545455,Speed,Off,Off0.000000,0,,,,
03:31:01.627 PM 03/19/2016,Teleop Enabled,9,FALSE,0,NO ERROR,-0.000000,0.032083,0.000000,0.000000,TRUE,FALSE,TRUE,FALSE,FALSE,FALSE,Disabled,0.000000,-0.000000,135.850000,TRUE,-10.405731,7.729431,0.000000,0.000000,0.000000,0.000000,0.000000,-0.001000,0.018000,-0.050000,-0.060000,2.480000,0.660906,Hold,0.895264,0.000000,Hold,-243.000000,2.000000,LowGoal,0.000000,-1454.545455,Speed,0.000000,-1454.545455,Speed,Off,Off0.000000,0,,,,
03:31:01.728 PM 03/19/2016,Teleop Enabled,11,FALSE,0,NO ERROR,-0.000000,0.032083,0.000000,0.000000,TRUE,FALSE,TRUE,FALSE,FALSE,FALSE,Disabled,0.000000,-0.000000,135.850000,TRUE,-10.405731,7.729431,0.000000,0.000000,0.000000,0.000000,0.001000,-0.001000,0.022000,-0.050000,-0.060000,2.480000,0.665984,Hold,0.895264,0.000000,Hold,-243.000000,2.000000,LowGoal,0.000000,-1454.545455,Speed,0.000000,-1454.545455,Speed,Off,Off0.000000,0,,,,
03:31:01.828 PM 03/19/2016,Teleop Enabled,10,FALSE,0,NO ERROR,-0.000000,0.032083,0.000000,0.000000,TRUE,TRUE,TRUE,FALSE,FALSE,FALSE,Disabled,0.000000,-0.000000,135.850000,TRUE,-10.405731,7.729431,0.000000,0.000000,0.000000,0.000000,-0.001000,-0.001000,0.020000,-0.060000,-0.060000,2.490000,0.665984,Hold,0.895264,0.000000,Hold,-243.000000,2.000000,LowGoal,0.000000,-1454.545455,Speed,0.000000,-1454.545455,Speed,Off,Off0.000000,0,,,,
03:31:01.928 PM 03/19/2016,Teleop Enabled,8,FALSE,0,NO ERROR,-0.000000,0.032083,0.000000,0.000000,TRUE,TRUE,TRUE,FALSE,FALSE,FALSE,Disabled,0.000000,-0.000000,135.850000,TRUE,-10.405731,7.729431,0.000000,0.000000,0.000000,0.000000,-0.001000,-0.002000,0.023000,-0.060000,-0.060000,2.490000,0.661360,Hold,0.895264,0.000000,Hold,-243.000000,2.000000,LowGoal,0.000000,0.000000,Speed,0.000000,0.000000,Speed,Off,Off0.000000,0,,,,
03:31:02.028 PM 03/19/2016,Teleop Enabled,9,FALSE,0,NO ERROR,-0.000000,0.032083,0.000000,0.000000,TRUE,FALSE,TRUE,FALSE,FALSE,FALSE,Disabled,0.000000,-0.000000,135.850000,TRUE,-10.405731,7.729431,0.000000,0.000000,0.000000,0.000000,0.000000,0.001000,0.020000,-0.060000,-0.070000,2.480000,0.655580,Hold,0.895264,0.000000,Hold,-243.000000,2.000000,LowGoal,0.000000,0.000000,Speed,0.000000,0.000000,Speed,Off,Off0.000000,0,,,,
03:31:02.130 PM 03/19/2016,Teleop Enabled,10,FALSE,0,NO ERROR,-0.000000,0.032083,0.000000,0.000000,TRUE,FALSE,TRUE,FALSE,FALSE,FALSE,Disabled,0.000000,-0.000000,135.850000,TRUE,-10.405731,7.729431,0.000000,0.000000,0.000000,0.000000,0.004000,-0.001000,0.019000,-0.060000,-0.070000,2.480000,0.675065,Hold,0.895264,0.000000,Hold,-243.000000,2.000000,LowGoal,0.000000,-1454.545455,Speed,0.000000,-1454.545455,Speed,Off,Off0.000000,0,,,,
03:31:02.231 PM 03/19/2016,Teleop Enabled,10,FALSE,0,NO ERROR,-0.000000,0.032083,0.000000,0.000000,TRUE,FALSE,TRUE,FALSE,FALSE,FALSE,Disabled,0.000000,-0.000000,135.850000,TRUE,-10.405731,7.729431,0.000000,0.000000,0.000000,0.000000,-0.002000,0.000000,0.023000,-0.060000,-0.070000,2.490000,0.688759,Hold,0.895264,0.000000,Hold,-243.000000,2.000000,LowGoal,0.000000,-1454.545455,Speed,0.000000,-1454.545455,Speed,Off,Off0.000000,0,,,,
03:31:02.331 PM 03/19/2016,Teleop Enabled,11,FALSE,0,NO ERROR,-0.000000,0.032083,0.000000,0.000000,TRUE,FALSE,TRUE,FALSE,FALSE,FALSE,Disabled,0.000000,-0.000000,135.850000,TRUE,-10.405731,7.729431,0.000000,0.000000,0.000000,0.000000,0.000000,0.002000,0.021000,-0.060000,-0.070000,2.490000,0.675657,Hold,0.895264,0.000000,Hold,-243.000000,2.000000,LowGoal,0.000000,-1454.545455,Speed,0.000000,-1454.545455,Speed,Off,Off0.000000,0,,,,
03:31:02.431 PM 03/19/2016,Teleop Enabled,10,FALSE,0,NO ERROR,-0.000000,0.032083,0.000000,0.000000,TRUE,FALSE,TRUE,FALSE,FALSE,FALSE,Disabled,0.000000,-0.000000,135.850000,TRUE,-10.405731,7.729431,0.000000,0.000000,0.000000,0.000000,0.002000,0.000000,0.022000,-0.060000,-0.070000,2.480000,0.670073,Hold,0.895264,0.000000,Hold,-243.000000,2.000000,LowGoal,0.000000,-1454.545455,Speed,0.000000,-1454.545455,Speed,Off,Off0.000000,0,,,,
03:31:02.532 PM 03/19/2016,Teleop Enabled,11,FALSE,0,NO ERROR,-0.000000,0.032083,0.000000,0.000000,TRUE,FALSE,TRUE,FALSE,FALSE,FALSE,Disabled,0.000000,-0.000000,135.850000,TRUE,-10.405731,7.729431,0.000000,0.000000,0.000000,0.000000,0.000000,0.000000,0.023000,-0.060000,-0.070000,2.490000,0.676390,Hold,0.895264,0.000000,Hold,-243.000000,2.000000,LowGoal,0.000000,-1454.545455,Speed,0.000000,-1454.545455,Speed,Off,Off0.000000,0,,,,
03:31:02.632 PM 03/19/2016,Teleop Enabled,10,FALSE,0,NO ERROR,-0.000000,0.032083,0.000000,0.000000,TRUE,TRUE,TRUE,FALSE,FALSE,FALSE,Disabled,0.000000,-0.000000,135.850000,TRUE,-10.405731,7.729431,0.000000,0.000000,0.000000,0.000000,-0.003000,0.000000,0.018000,-0.060000,-0.070000,2.480000,0.683864,Hold,0.895264,0.000000,Hold,-243.000000,2.000000,LowGoal,0.000000,-1454.545455,Speed,0.000000,-1454.545455,Speed,Off,Off0.000000,0,,,,
03:31:02.732 PM 03/19/2016,Teleop Enabled,8,FALSE,0,NO ERROR,-0.000000,0.032083,0.000000,0.000000,TRUE,TRUE,TRUE,FALSE,FALSE,FALSE,Disabled,0.000000,-0.000000,135.850000,TRUE,-10.405731,7.729431,0.000000,0.000000,0.000000,0.000000,0.000000,0.000000,0.018000,-0.060000,-0.070000,2.480000,0.694760,Hold,0.895264,0.000000,Hold,-243.000000,2.000000,LowGoal,0.000000,0.000000,Speed,0.000000,0.000000,Speed,Off,Off0.000000,0,,,,
03:31:02.832 PM 03/19/2016,Teleop Enabled,9,FALSE,0,NO ERROR,-0.000000,0.032083,0.000000,0.000000,TRUE,FALSE,TRUE,FALSE,FALSE,FALSE,Disabled,0.000000,-0.000000,135.850000,TRUE,-10.405731,7.729431,0.000000,0.000000,0.000000,0.000000,0.001000,0.000000,0.016000,-0.060000,-0.070000,2.480000,0.704826,Hold,0.895264,0.000000,Hold,-243.000000,2.000000,LowGoal,0.000000,0.000000,Speed,0.000000,0.000000,Speed,Off,Off0.000000,0,,,,
03:31:02.933 PM 03/19/2016,Teleop Enabled,9,FALSE,0,NO ERROR,-0.000000,0.032083,0.000000,0.000000,TRUE,FALSE,TRUE,FALSE,FALSE,FALSE,Disabled,0.000000,-0.000000,135.850000,TRUE,-10.405731,7.729431,0.000000,0.000000,0.000000,0.000000,0.000000,0.000000,0.023000,-0.070000,-0.080000,2.490000,0.704007,Hold,0.895264,0.000000,Hold,-243.000000,2.000000,LowGoal,0.000000,0.000000,Speed,0.000000,0.000000,Speed,Off,Off0.000000,0,,,,
03:31:03.033 PM 03/19/2016,Teleop Enabled,11,FALSE,0,NO ERROR,-0.000000,0.032083,0.000000,0.000000,TRUE,FALSE,TRUE,FALSE,FALSE,FALSE,Disabled,0.000000,-0.000000,135.850000,TRUE,-10.405731,7.729431,0.000000,0.000000,0.000000,0.000000,-0.001000,0.002000,0.018000,-0.060000,-0.070000,2.490000,0.695424,Hold,0.895264,0.000000,Hold,-243.000000,2.000000,LowGoal,0.000000,-1454.545455,Speed,0.000000,-1454.545455,Speed,Off,Off0.000000,0,,,,
03:31:03.133 PM 03/19/2016,Teleop Enabled,10,FALSE,0,NO ERROR,-0.000000,0.032083,0.000000,0.000000,TRUE,FALSE,TRUE,FALSE,FALSE,FALSE,Disabled,0.000000,-0.000000,135.850000,TRUE,-10.405731,7.729431,0.000000,0.000000,0.000000,0.000000,0.000000,-0.003000,0.020000,-0.060000,-0.070000,2.490000,0.690013,Hold,0.895264,0.000000,Hold,-243.000000,2.000000,LowGoal,0.000000,-1454.545455,Speed,0.000000,-1454.545455,Speed,Off,Off0.000000,0,,,,
03:31:03.233 PM 03/19/2016,Teleop Enabled,9,FALSE,0,NO ERROR,-0.000000,0.032083,0.000000,0.000000,TRUE,FALSE,TRUE,FALSE,FALSE,FALSE,Disabled,0.000000,-0.000000,135.850000,TRUE,-10.405731,7.729431,0.000000,0.000000,0.000000,0.000000,0.000000,0.002000,0.019000,-0.060000,-0.070000,2.490000,0.708926,Hold,0.895264,0.000000,Hold,-243.000000,2.000000,LowGoal,0.000000,-1454.545455,Speed,0.000000,-1454.545455,Speed,Off,Off0.000000,0,,,,
03:31:03.333 PM 03/19/2016,Teleop Enabled,10,FALSE,0,NO ERROR,-0.000000,0.032083,0.000000,0.000000,TRUE,FALSE,TRUE,FALSE,FALSE,FALSE,Disabled,0.000000,-0.000000,135.850000,TRUE,-10.405731,7.729431,0.000000,0.000000,0.000000,0.000000,-0.001000,0.002000,0.020000,-0.060000,-0.060000,2.490000,0.717419,Hold,0.895264,0.000000,Hold,-243.000000,2.000000,LowGoal,0.000000,-1454.545455,Speed,0.000000,-1454.545455,Speed,Off,Off0.000000,0,,,,
03:31:03.435 PM 03/19/2016,Teleop Enabled,10,FALSE,0,NO ERROR,-0.000000,0.032083,0.000000,0.000000,TRUE,TRUE,TRUE,FALSE,FALSE,FALSE,Disabled,0.000000,-0.000000,135.850000,TRUE,-10.405731,7.729431,0.000000,0.000000,0.000000,0.000000,0.001000,0.000000,0.019000,-0.070000,-0.060000,2.480000,0.719491,Hold,0.895264,0.000000,Hold,-243.000000,2.000000,LowGoal,0.000000,-1454.545455,Speed,0.000000,-1454.545455,Speed,Off,Off0.000000,0,,,,
03:31:03.535 PM 03/19/2016,Teleop Enabled,10,FALSE,0,NO ERROR,-0.000000,0.032083,0.000000,0.000000,TRUE,TRUE,TRUE,FALSE,FALSE,FALSE,Disabled,0.000000,-0.000000,135.850000,TRUE,-10.405731,7.729431,0.000000,0.000000,0.000000,0.000000,0.000000,0.000000,0.019000,-0.070000,-0.060000,2.480000,0.730724,Hold,0.895264,0.000000,Hold,-243.000000,2.000000,LowGoal,0.000000,-1454.545455,Speed,0.000000,-1454.545455,Speed,Off,Off0.000000,0,,,,
03:31:03.637 PM 03/19/2016,Teleop Enabled,10,FALSE,0,NO ERROR,-0.000000,0.032083,0.000000,0.000000,TRUE,TRUE,TRUE,FALSE,FALSE,FALSE,Disabled,0.000000,-0.000000,135.850000,TRUE,-10.405731,7.729431,0.000000,0.000000,0.000000,0.000000,0.000000,0.000000,0.019000,-0.070000,-0.060000,2.480000,0.716706,Hold,0.895264,0.000000,Hold,-243.000000,2.000000,LowGoal,0.000000,0.000000,Speed,0.000000,0.000000,Speed,Off,Off0.000000,0,,,,
03:31:03.738 PM 03/19/2016,Teleop Enabled,11,FALSE,0,NO ERROR,-0.000000,0.032083,0.000000,0.000000,TRUE,FALSE,TRUE,FALSE,FALSE,FALSE,Disabled,0.000000,-0.000000,135.850000,TRUE,-10.405731,7.729431,0.000000,0.000000,0.000000,0.000000,0.000000,-0.002000,0.022000,-0.070000,-0.060000,2.480000,0.731172,Hold,0.895264,0.000000,Hold,-243.000000,2.000000,LowGoal,0.000000,0.000000,Speed,0.000000,0.000000,Speed,Off,Off0.000000,0,,,,
03:31:03.837 PM 03/19/2016,Teleop Enabled,11,FALSE,0,NO ERROR,-0.000000,0.032083,0.000000,0.000000,TRUE,FALSE,TRUE,FALSE,FALSE,FALSE,Disabled,0.000000,-0.000000,135.850000,TRUE,-10.405731,7.729431,0.000000,0.000000,0.000000,0.000000,0.000000,0.001000,0.020000,-0.070000,-0.060000,2.480000,0.734380,Hold,0.895264,0.000000,Hold,-243.000000,2.000000,LowGoal,0.000000,-1454.545455,Speed,0.000000,-1454.545455,Speed,Off,Off0.000000,0,,,,
03:31:03.938 PM 03/19/2016,Teleop Enabled,11,FALSE,0,NO ERROR,-0.000000,0.032083,0.000000,0.000000,TRUE,FALSE,TRUE,FALSE,FALSE,FALSE,Disabled,0.000000,-0.000000,135.850000,TRUE,-10.405731,7.729431,0.000000,0.000000,0.000000,0.000000,-0.003000,0.000000,0.021000,-0.070000,-0.050000,2.480000,0.755194,Hold,0.895264,0.000000,Hold,-243.000000,2.000000,LowGoal,0.000000,-1454.545455,Speed,0.000000,-1454.545455,Speed,Off,Off0.000000,0,,,,
03:31:04.039 PM 03/19/2016,Teleop Enabled,11,FALSE,0,NO ERROR,-0.000000,0.032083,0.000000,0.000000,TRUE,FALSE,TRUE,FALSE,FALSE,FALSE,Disabled,0.000000,-0.000000,135.850000,TRUE,-10.405731,7.729431,0.000000,0.000000,0.000000,0.000000,0.000000,0.000000,0.018000,-0.070000,-0.060000,2.470000,0.780046,Hold,0.895264,0.000000,Hold,-243.000000,2.000000,LowGoal,0.000000,-1454.545455,Speed,0.000000,-1454.545455,Speed,Off,Off0.000000,0,,,,
03:31:04.140 PM 03/19/2016,Teleop Enabled,9,FALSE,0,NO ERROR,-0.000000,0.032083,0.000000,0.000000,TRUE,FALSE,TRUE,FALSE,FALSE,FALSE,Disabled,0.000000,-0.000000,135.850000,TRUE,-10.405731,7.729431,0.000000,0.000000,0.000000,0.000000,0.000000,0.000000,0.018000,-0.070000,-0.060000,2.470000,0.797975,Hold,0.895264,0.000000,Hold,-243.000000,2.000000,LowGoal,0.000000,-1454.545455,Speed,0.000000,-1454.545455,Speed,Off,Off0.000000,0,,,,
03:31:04.240 PM 03/19/2016,Teleop Enabled,11,FALSE,0,NO ERROR,-0.000000,0.032083,0.000000,0.000000,TRUE,FALSE,TRUE,FALSE,FALSE,FALSE,Disabled,0.000000,-0.000000,135.850000,TRUE,-10.405731,7.729431,0.000000,0.000000,0.000000,0.000000,0.000000,0.001000,0.020000,-0.070000,-0.060000,2.470000,0.796508,Hold,0.895264,0.000000,Hold,-243.000000,2.000000,LowGoal,0.000000,-1454.545455,Speed,0.000000,-1454.545455,Speed,Off,Off0.000000,0,,,,
