Time,Robot Mode,Loop Time,Error Status,Error Code,Error Source,Left Motor Output,Left Motor Encoder,Right Motor Output,Right Motor Encoder,Is Level,Is Stalled,Ball Detector Photoeye,Vision Enabled,Vision Teleop Control,Vision Auto Control,Vision Current State,Vision X Output,Vision NavX Error,Vision NavX Target,NavX Connection Status,NavX Displacement X,NavX Displacement Y,NavX Displacement Z,NavX Velocity X,NavX Velocity Y,NavX Velocity Z,NavX Acceleration X,NavX Acceleration Y,NavX Acceleration Z,NavX Pitch,NavX Yaw,NavX Roll,Gyro Angle,Roller Arm State,Roller Arm Actual,Roller Arm Desired,Shooter Arm State,Shooter Arm Actual,Shooter Arm Desired,Shooter State,Actual RPM Left,Desired RPM Left,Control Mode Left,Actual RPM Right,Desired RPM Right,Scaler Motor Output,Auto To Run,Auto Current File,Auto File Status,Auto Current Command,Auto Trimmed Command
07:55:57.578 PM 03/17/2016,Teleop Enabled,8,FALSE,0,NO ERROR,-0.000000,0.000000,0.000000,0.000000,TRUE,TRUE,FALSE,FALSE,FALSE,FALSE,Disabled,0.000000,0.000000,0.000000,TRUE,3.107285,0.034668,0.000000,0.000000,0.000000,0.000000,0.000000,0.000000,0.013000,-0.140000,-0.210000,1.210000,0.939639,ResetBack,0.725098,-0.200000,ResetBack,125615.000000,-0.300000,Suck,0.000000,0.000000,Speed,0.000000,0.000000,Speed,On,Off0.000000,0,,,,
07:55:57.679 PM 03/17/2016,Teleop Enabled,9,FALSE,0,NO ERROR,-0.000000,0.000000,0.000000,0.000000,TRUE,FALSE,FALSE,FALSE,FALSE,FALSE,Disabled,0.000000,0.000000,0.000000,TRUE,3.107285,0.034668,0.000000,0.000000,0.000000,0.000000,0.005000,-0.002000,0.004000,-0.140000,-0.210000,1.210000,0.935632,ResetBack,-1.190918,-0.200000,ResetBack,125615.000000,-0.300000,Suck,0.000000,0.000000,Speed,0.000000,0.000000,Speed,On,Off0.000000,0,,,,
07:55:57.779 PM 03/17/2016,Teleop Enabled,10,FALSE,0,NO ERROR,-0.000000,0.000000,0.000000,0.000000,TRUE,FALSE,FALSE,FALSE,FALSE,FALSE,Disabled,0.000000,0.000000,0.000000,TRUE,3.107285,0.034592,0.000000,0.000000,0.000000,0.000000,0.001000,-0.004000,0.006000,-0.140000,-0.240000,1.230000,0.933522,ResetBack,-1.444824,-0.200000,ResetBack,130972.000000,-0.300000,Suck,0.000000,-2181.818182,Speed,0.000000,-2181.818182,Speed,On,Off0.000000,0,,,,
07:55:57.880 PM 03/17/2016,Teleop Enabled,9,FALSE,0,NO ERROR,-0.000000,0.000000,0.000000,0.000000,TRUE,FALSE,FALSE,FALSE,FALSE,FALSE,Disabled,0.000000,0.000000,0.000000,TRUE,3.107147,0.034683,0.000000,-0.004623,0.006744,0.000000,0.092000,0.270000,0.088000,-0.140000,-0.190000,1.350000,0.917128,ResetBack,-1.445068,-0.200000,ResetBack,141497.000000,-0.300000,Suck,14.282227,-2181.818182,Speed,14.282227,-2181.818182,Speed,On,Off0.000000,0,,,,
07:55:57.981 PM 03/17/2016,Teleop Enabled,9,FALSE,0,NO ERROR,-0.000000,0.000000,0.000000,-0.006417,TRUE,FALSE,FALSE,FALSE,FALSE,FALSE,Disabled,0.000000,0.000000,0.000000,TRUE,3.107620,0.039169,0.000000,0.015717,0.116989,0.000000,-0.013000,-0.067000,0.136000,-0.150000,-0.210000,1.170000,0.927604,Reset,-1.445068,0.000000,ResetBack,146067.000000,-0.300000,Suck,107.666016,-2181.818182,Speed,131.835938,-2181.818182,Speed,On,Off0.000000,0,,,,
07:55:58.083 PM 03/17/2016,Teleop Enabled,10,FALSE,0,NO ERROR,-0.000000,0.000000,0.000000,0.000000,TRUE,FALSE,FALSE,FALSE,FALSE,FALSE,Disabled,0.000000,0.000000,0.000000,TRUE,3.108414,0.045151,0.000000,0.020035,0.128998,0.000000,-0.038000,-0.005000,-0.061000,-0.140000,-0.220000,1.270000,0.933457,Hold,1.096191,0.000000,ResetBack,147663.000000,-0.300000,Suck,232.910156,-2181.818182,Speed,250.488281,-2181.818182,Speed,On,Off0.000000,0,,,,
07:55:58.183 PM 03/17/2016,Teleop Enabled,10,FALSE,0,NO ERROR,-0.000000,0.000000,0.000000,0.000000,TRUE,FALSE,FALSE,FALSE,FALSE,FALSE,Disabled,0.000000,0.000000,0.000000,TRUE,3.107819,0.048492,0.000000,-0.030060,-0.005997,0.000000,-0.011000,-0.043000,-0.023000,-0.150000,-0.290000,1.250000,0.920647,Hold,1.113525,0.000000,ResetBack,148638.000000,-0.300000,Suck,330.688477,-2181.818182,Speed,330.688477,-2181.818182,Speed,On,Off0.000000,0,,,,
07:55:58.284 PM 03/17/2016,Teleop Enabled,10,FALSE,0,NO ERROR,-0.000000,0.000000,0.000000,0.000000,TRUE,FALSE,FALSE,FALSE,FALSE,FALSE,Disabled,0.000000,0.000000,0.000000,TRUE,3.106293,0.045303,0.000000,-0.031815,-0.101715,0.000000,-0.030000,0.095000,0.199000,-0.160000,-0.280000,1.270000,0.909341,Hold,1.095703,0.000000,ResetBack,149391.000000,-0.300000,Suck,414.184570,-2181.818182,Speed,332.885742,-2181.818182,Speed,On,Off0.000000,0,,,,
07:55:58.385 PM 03/17/2016,Teleop Enabled,13,FALSE,0,NO ERROR,-0.000000,0.000000,0.000000,0.000000,TRUE,FALSE,FALSE,FALSE,FALSE,FALSE,Disabled,0.000000,0.000000,0.000000,TRUE,3.103455,0.040833,0.000000,-0.069092,-0.085571,0.000000,-0.060000,0.250000,0.247000,-0.140000,-0.260000,1.260000,0.899021,Hold,1.095459,0.000000,ResetBack,149391.000000,-0.300000,Suck,481.201172,-2181.818182,Speed,302.124023,-2181.818182,Speed,On,Off0.000000,0,,,,
07:55:58.485 PM 03/17/2016,Teleop Enabled,13,FALSE,0,NO ERROR,-0.000000,0.000000,0.000000,0.000000,TRUE,FALSE,FALSE,FALSE,FALSE,FALSE,Disabled,0.000000,0.000000,0.000000,TRUE,3.100067,0.036057,0.000000,-0.061768,-0.121185,0.000000,-0.036000,0.128000,0.129000,-0.150000,-0.250000,1.260000,0.878055,Hold,1.095459,0.000000,ResetBack,149739.000000,-0.300000,Suck,530.639648,-2181.818182,Speed,299.926758,-2181.818182,Speed,On,Off0.000000,0,,,,
07:55:58.586 PM 03/17/2016,Teleop Enabled,10,FALSE,0,NO ERROR,-0.000000,0.000000,0.000000,0.000000,TRUE,FALSE,FALSE,FALSE,FALSE,FALSE,Disabled,0.000000,0.000000,0.000000,TRUE,3.098007,0.030548,0.000000,0.000000,-0.105392,0.000000,-0.037000,0.103000,-0.086000,-0.160000,-0.220000,1.250000,0.883360,Hold,1.095215,0.000000,ResetBack,149759.000000,-0.300000,Suck,561.401367,-2181.818182,Speed,315.307617,-2181.818182,Speed,On,Off0.000000,0,,,,
07:55:58.686 PM 03/17/2016,Teleop Enabled,11,FALSE,0,NO ERROR,-0.000000,0.000000,0.000000,0.000000,TRUE,FALSE,FALSE,FALSE,FALSE,FALSE,Disabled,0.000000,0.000000,0.000000,TRUE,3.097580,0.026794,0.000000,-0.002274,-0.020203,0.000000,0.000000,0.116000,0.081000,-0.160000,-0.230000,1.300000,0.874844,Hold,1.095215,0.000000,ResetBack,149774.000000,-0.300000,Suck,598.754883,-2181.818182,Speed,313.110352,-2181.818182,Speed,On,Off0.000000,0,,,,
07:55:58.788 PM 03/17/2016,Teleop Enabled,10,FALSE,0,NO ERROR,-0.000000,0.000000,0.000000,0.000000,TRUE,FALSE,FALSE,FALSE,FALSE,FALSE,Disabled,0.000000,0.000000,0.000000,TRUE,3.097687,0.027237,0.000000,0.011932,0.026443,0.000000,0.040000,-0.002000,-0.103000,-0.160000,-0.280000,1.280000,0.851224,Hold,1.095215,0.000000,ResetBack,149785.000000,-0.300000,Suck,618.530273,-2181.818182,Speed,307.617188,-2181.818182,Speed,On,Off0.000000,0,,,,
07:55:58.889 PM 03/17/2016,Teleop Enabled,13,FALSE,0,NO ERROR,-0.000000,0.000000,0.000000,0.000000,TRUE,FALSE,FALSE,FALSE,FALSE,FALSE,Disabled,0.000000,0.000000,0.000000,TRUE,3.098740,0.030045,0.000000,0.000000,0.080444,0.000000,-0.037000,0.093000,-0.024000,-0.160000,-0.250000,1.240000,0.855242,Hold,1.094971,0.000000,Reset,149795.000000,2.000000,Suck,638.305664,-2181.818182,Speed,309.814453,-2181.818182,Speed,On,Off0.000000,0,,,,
07:55:58.990 PM 03/17/2016,Teleop Enabled,11,FALSE,0,NO ERROR,-0.000000,0.000000,0.000000,0.000000,TRUE,FALSE,FALSE,FALSE,FALSE,FALSE,Disabled,0.000000,0.000000,0.000000,TRUE,3.097946,0.034790,0.000000,-0.021194,0.098175,0.000000,0.031000,0.030000,0.050000,-0.160000,-0.210000,1.200000,0.850680,Hold,1.094971,0.000000,Hold,-188.000000,2.000000,Suck,652.587891,-2181.818182,Speed,312.011719,-2181.818182,Speed,On,Off0.000000,0,,,,
07:55:59.091 PM 03/17/2016,Teleop Enabled,9,FALSE,0,NO ERROR,-0.000000,0.000000,0.000000,0.000000,TRUE,FALSE,FALSE,FALSE,FALSE,FALSE,Disabled,0.000000,0.000000,0.000000,TRUE,3.096344,0.038895,0.000000,-0.047897,0.060822,0.000000,-0.151000,-0.105000,0.010000,-0.160000,-0.170000,1.260000,0.852474,Hold,1.094971,0.000000,Hold,-188.000000,2.000000,Suck,664.672852,-2181.818182,Speed,312.011719,-2181.818182,Speed,On,Off0.000000,0,,,,
07:55:59.191 PM 03/17/2016,Teleop Enabled,10,FALSE,0,NO ERROR,-0.000000,0.000000,0.000000,0.000000,TRUE,FALSE,FALSE,FALSE,FALSE,FALSE,Disabled,0.000000,0.000000,0.000000,TRUE,3.093246,0.038559,0.000000,0.000000,-0.043167,0.000000,0.014000,0.011000,0.107000,-0.160000,-0.230000,1.200000,0.853803,Hold,1.094971,0.000000,Hold,-188.000000,2.000000,Suck,672.363281,-2181.818182,Speed,310.913086,-2181.818182,Speed,On,Off0.000000,0,,,,
07:55:59.292 PM 03/17/2016,Teleop Enabled,9,FALSE,0,NO ERROR,-0.000000,0.000000,0.000000,0.000000,TRUE,FALSE,FALSE,FALSE,FALSE,FALSE,Disabled,0.000000,0.000000,0.000000,TRUE,3.092468,0.034836,0.000000,-0.025375,-0.088943,0.000000,0.023000,-0.048000,-0.164000,-0.160000,-0.210000,1.220000,0.853789,Hold,1.094971,0.000000,Hold,-188.000000,2.000000,Suck,680.053711,-2181.818182,Speed,312.011719,-2181.818182,Speed,On,Off0.000000,0,,,,
07:55:59.392 PM 03/17/2016,Teleop Enabled,10,FALSE,0,NO ERROR,-0.000000,0.000000,0.000000,0.000000,TRUE,FALSE,FALSE,FALSE,FALSE,FALSE,Disabled,0.000000,0.000000,0.000000,TRUE,3.093613,0.030319,0.000000,0.049683,-0.082184,0.000000,-0.143000,-0.067000,-0.112000,-0.160000,-0.240000,1.240000,0.865700,Hold,1.093262,0.000000,Hold,-188.000000,2.000000,Suck,680.053711,-2181.818182,Speed,310.913086,-2181.818182,Speed,On,Off0.000000,0,,,,
07:55:59.492 PM 03/17/2016,Teleop Enabled,9,FALSE,0,NO ERROR,-0.000000,0.000000,0.000000,0.000000,TRUE,FALSE,FALSE,FALSE,FALSE,FALSE,Disabled,0.000000,0.000000,0.000000,TRUE,3.094604,0.027298,0.000000,0.048065,-0.033722,0.000000,0.099000,0.080000,0.107000,-0.170000,-0.230000,1.210000,0.846690,Hold,1.093262,0.000000,Hold,-188.000000,2.000000,Suck,691.040039,-2181.818182,Speed,310.913086,-2181.818182,Speed,On,Off0.000000,0,,,,
07:55:59.593 PM 03/17/2016,Teleop Enabled,9,FALSE,0,NO ERROR,-0.000000,0.000000,0.000000,0.000000,TRUE,FALSE,FALSE,FALSE,FALSE,FALSE,Disabled,0.000000,0.000000,0.000000,TRUE,3.096603,0.027985,0.000000,0.039139,0.053452,0.000000,0.138000,0.160000,0.053000,-0.170000,-0.260000,1.190000,0.853303,Hold,1.089844,0.000000,Hold,-188.000000,2.000000,Suck,694.335938,-2181.818182,Speed,312.011719,-2181.818182,Speed,On,Off0.000000,0,,,,
07:55:59.692 PM 03/17/2016,Teleop Enabled,9,FALSE,0,NO ERROR,-0.000000,0.000000,0.000000,0.000000,TRUE,FALSE,FALSE,FALSE,FALSE,FALSE,Disabled,0.000000,0.000000,0.000000,TRUE,3.100281,0.033401,0.000000,0.052933,0.105927,0.000000,0.146000,-0.033000,-0.086000,-0.170000,-0.240000,1.240000,0.851730,Hold,0.960449,0.000000,Hold,-188.000000,2.000000,Suck,696.533203,-2181.818182,Speed,310.913086,-2181.818182,Speed,On,Off0.000000,0,,,,
07:55:59.792 PM 03/17/2016,Teleop Enabled,8,FALSE,0,NO ERROR,-0.000000,0.000000,0.000000,0.000000,TRUE,FALSE,FALSE,FALSE,FALSE,FALSE,Disabled,0.000000,0.000000,0.000000,TRUE,3.102051,0.037857,0.000000,0.021545,0.100800,0.000000,0.074000,-0.096000,-0.026000,-0.170000,-0.240000,1.210000,0.835912,Hold,0.959229,0.000000,Hold,-188.000000,2.000000,Suck,698.730469,-2181.818182,Speed,312.011719,-2181.818182,Speed,On,Off0.000000,0,,,,
07:55:59.893 PM 03/17/2016,Teleop Enabled,9,FALSE,0,NO ERROR,-0.000000,0.000000,0.000000,0.000000,TRUE,FALSE,FALSE,FALSE,FALSE,FALSE,Disabled,0.000000,0.000000,0.000000,TRUE,3.105103,0.042343,0.000000,0.044098,0.037369,0.000000,0.016000,-0.130000,-0.087000,-0.170000,-0.240000,1.230000,0.836669,Hold,0.959229,0.000000,Hold,-188.000000,2.000000,Suck,700.927734,-2181.818182,Speed,310.913086,-2181.818182,Speed,On,Off0.000000,0,,,,
07:55:59.995 PM 03/17/2016,Teleop Enabled,10,FALSE,0,NO ERROR,-0.000000,0.000000,0.000000,0.000000,TRUE,FALSE,FALSE,FALSE,FALSE,FALSE,Disabled,0.000000,0.000000,0.000000,TRUE,3.106049,0.042389,0.000000,-0.015396,-0.030563,0.000000,0.064000,-0.085000,-0.064000,-0.170000,-0.250000,1.240000,0.823987,Hold,0.958984,0.000000,Hold,-188.000000,2.000000,Suck,703.125000,-2181.818182,Speed,312.011719,-2181.818182,Speed,On,Off0.000000,0,,,,
07:56:00.096 PM 03/17/2016,Teleop Enabled,10,FALSE,0,NO ERROR,-0.000000,0.000000,0.000000,0.000000,TRUE,FALSE,FALSE,FALSE,FALSE,FALSE,Disabled,0.000000,0.000000,0.000000,TRUE,3.106689,0.038651,0.000000,0.017273,-0.079102,0.000000,0.077000,-0.037000,-0.010000,-0.170000,-0.220000,1.260000,0.791940,Hold,0.958984,0.000000,Hold,-188.000000,2.000000,Suck,704.223633,-2181.818182,Speed,312.011719,-2181.818182,Speed,On,Off0.000000,0,,,,
07:56:00.196 PM 03/17/2016,Teleop Enabled,11,FALSE,0,NO ERROR,-0.000000,0.000000,0.000000,0.000000,TRUE,FALSE,FALSE,FALSE,FALSE,FALSE,Disabled,0.000000,0.000000,0.000000,TRUE,3.109253,0.034729,0.000000,0.048752,-0.078400,0.000000,0.163000,0.142000,-0.033000,-0.170000,-0.240000,1.260000,0.781622,Hold,0.958740,0.000000,Hold,-188.000000,2.000000,Suck,706.420898,-2181.818182,Speed,312.011719,-2181.818182,Speed,On,Off0.000000,0,,,,
07:56:00.297 PM 03/17/2016,Teleop Enabled,9,FALSE,0,NO ERROR,-0.000000,0.000000,0.000000,0.000000,TRUE,FALSE,FALSE,FALSE,FALSE,FALSE,Disabled,0.000000,0.000000,0.000000,TRUE,3.112518,0.031738,0.000000,0.067673,-0.048141,0.000000,0.126000,0.143000,0.128000,-0.180000,-0.220000,1.230000,0.774865,Hold,0.958740,0.000000,Hold,-188.000000,2.000000,Suck,707.519531,-2181.818182,Speed,310.913086,-2181.818182,Speed,On,Off0.000000,0,,,,
07:56:00.398 PM 03/17/2016,Teleop Enabled,9,FALSE,0,NO ERROR,-0.000000,0.000000,0.000000,0.000000,TRUE,FALSE,FALSE,FALSE,FALSE,FALSE,Disabled,0.000000,0.000000,0.000000,TRUE,3.117111,0.031631,0.000000,0.101593,0.028046,0.000000,0.165000,0.066000,-0.148000,-0.180000,-0.220000,1.240000,0.767925,Hold,0.958740,0.000000,Hold,-188.000000,2.000000,Suck,707.519531,-2181.818182,Speed,312.011719,-2181.818182,Speed,On,Off0.000000,0,,,,
07:56:00.497 PM 03/17/2016,Teleop Enabled,10,FALSE,0,NO ERROR,-0.000000,0.000000,0.000000,0.000000,TRUE,FALSE,FALSE,FALSE,FALSE,FALSE,Disabled,0.000000,0.000000,0.000000,TRUE,3.123581,0.034775,0.000000,0.147034,0.082611,0.000000,0.048000,0.080000,-0.129000,-0.180000,-0.200000,1.210000,0.745810,Hold,0.958740,0.000000,Hold,-188.000000,2.000000,Suck,708.618164,-2181.818182,Speed,312.011719,-2181.818182,Speed,On,Off0.000000,0,,,,
07:56:00.597 PM 03/17/2016,Teleop Enabled,9,FALSE,0,NO ERROR,-0.000000,0.000000,0.000000,0.000000,TRUE,FALSE,FALSE,FALSE,FALSE,FALSE,Disabled,0.000000,0.000000,0.000000,TRUE,3.129562,0.038956,0.000000,0.128708,0.087097,0.000000,0.051000,0.038000,-0.100000,-0.180000,-0.180000,1.240000,0.749562,Hold,0.958496,0.000000,Hold,-188.000000,2.000000,Suck,709.716797,-2181.818182,Speed,310.913086,-2181.818182,Speed,On,Off0.000000,0,,,,
07:56:00.697 PM 03/17/2016,Teleop Enabled,10,FALSE,0,NO ERROR,-0.000000,0.000000,0.000000,0.000000,TRUE,FALSE,FALSE,FALSE,FALSE,FALSE,Disabled,0.000000,0.000000,0.000000,TRUE,3.134918,0.042374,0.000000,0.115189,0.064148,0.000000,-0.204000,-0.119000,0.191000,-0.180000,-0.190000,1.220000,0.747066,Hold,0.958740,0.000000,Hold,-188.000000,2.000000,Suck,709.716797,-2181.818182,Speed,312.011719,-2181.818182,Speed,On,Off0.000000,0,,,,
07:56:00.797 PM 03/17/2016,Teleop Enabled,11,FALSE,0,NO ERROR,-0.000000,0.000000,0.000000,0.000000,TRUE,FALSE,FALSE,FALSE,FALSE,FALSE,Disabled,0.000000,0.000000,0.000000,TRUE,3.138824,0.043579,0.000000,0.061752,0.004364,0.000000,-0.144000,-0.206000,0.007000,-0.180000,-0.190000,1.270000,0.750684,Hold,0.958496,0.000000,Hold,-189.000000,2.000000,Suck,710.815430,-2181.818182,Speed,312.011719,-2181.818182,Speed,On,Off0.000000,0,,,,
07:56:00.897 PM 03/17/2016,Teleop Enabled,9,FALSE,0,NO ERROR,-0.000000,0.000000,0.000000,0.000000,TRUE,FALSE,FALSE,FALSE,FALSE,FALSE,Disabled,0.000000,0.000000,0.000000,TRUE,3.140228,0.041199,0.000000,0.005356,-0.070419,0.000000,0.114000,-0.011000,-0.103000,-0.180000,-0.210000,1.240000,0.763497,Hold,0.958496,0.000000,Hold,-189.000000,2.000000,Suck,711.914062,-2181.818182,Speed,312.011719,-2181.818182,Speed,On,Off0.000000,0,,,,
07:56:00.997 PM 03/17/2016,Teleop Enabled,10,FALSE,0,NO ERROR,-0.000000,0.000000,0.000000,0.000000,TRUE,FALSE,FALSE,FALSE,FALSE,FALSE,Disabled,0.000000,0.000000,0.000000,TRUE,3.141632,0.037308,0.000000,0.024536,-0.085373,0.000000,0.214000,-0.012000,-0.165000,-0.180000,-0.220000,1.250000,0.763776,Hold,0.958496,0.000000,Hold,-189.000000,2.000000,Suck,711.914062,-2181.818182,Speed,312.011719,-2181.818182,Speed,On,Off0.000000,0,,,,
07:56:01.097 PM 03/17/2016,Teleop Enabled,9,FALSE,0,NO ERROR,-0.000000,0.000000,0.000000,0.000000,TRUE,FALSE,FALSE,FALSE,FALSE,FALSE,Disabled,0.000000,0.000000,0.000000,TRUE,3.144455,0.033401,0.000000,0.050476,-0.076172,0.000000,0.131000,0.102000,-0.184000,-0.180000,-0.240000,1.210000,0.753727,Hold,0.958496,0.000000,Hold,-189.000000,2.000000,Suck,711.914062,-2181.818182,Speed,312.011719,-2181.818182,Speed,On,Off0.000000,0,,,,
07:56:01.197 PM 03/17/2016,Teleop Enabled,9,FALSE,0,NO ERROR,-0.000000,0.000000,0.000000,0.000000,TRUE,FALSE,FALSE,FALSE,FALSE,FALSE,Disabled,0.000000,0.000000,0.000000,TRUE,3.147568,0.030762,0.000000,0.065018,-0.030716,0.000000,0.099000,0.143000,0.045000,-0.180000,-0.270000,1.210000,0.752677,Hold,0.958252,0.000000,Hold,-189.000000,2.000000,Suck,711.914062,-2181.818182,Speed,312.011719,-2181.818182,Speed,On,Off0.000000,0,,,,
07:56:01.298 PM 03/17/2016,Teleop Enabled,9,FALSE,0,NO ERROR,-0.000000,0.000000,0.000000,0.000000,TRUE,FALSE,FALSE,FALSE,FALSE,FALSE,Disabled,0.000000,0.000000,0.000000,TRUE,3.153030,0.032684,0.000000,0.110641,0.074585,0.000000,-0.087000,0.084000,0.119000,-0.190000,-0.210000,1.230000,0.758034,Hold,0.958252,0.000000,Hold,-189.000000,2.000000,Suck,711.914062,-2181.818182,Speed,310.913086,-2181.818182,Speed,On,Off0.000000,0,,,,
07:56:01.398 PM 03/17/2016,Teleop Enabled,8,FALSE,0,NO ERROR,-0.000000,0.000000,0.000000,0.000000,TRUE,FALSE,FALSE,FALSE,FALSE,FALSE,Disabled,0.000000,0.000000,0.000000,TRUE,3.157852,0.037033,0.000000,0.081268,0.092499,0.000000,-0.155000,-0.039000,0.202000,-0.190000,-0.170000,1.250000,0.758303,Hold,0.958252,0.000000,Hold,-189.000000,2.000000,Suck,711.914062,-2181.818182,Speed,312.011719,-2181.818182,Speed,On,Off0.000000,0,,,,
07:56:01.498 PM 03/17/2016,Teleop Enabled,10,FALSE,0,NO ERROR,-0.000000,0.000000,0.000000,0.000000,TRUE,FALSE,FALSE,FALSE,FALSE,FALSE,Disabled,0.000000,0.000000,0.000000,TRUE,3.161102,0.041199,0.000000,0.049744,0.070633,0.000000,-0.075000,-0.105000,0.102000,-0.190000,-0.210000,1.230000,0.766441,Hold,0.958008,0.000000,Hold,-189.000000,2.000000,Suck,711.914062,-2181.818182,Speed,312.011719,-2181.818182,Speed,On,Off0.000000,0,,,,
07:56:01.598 PM 03/17/2016,Teleop Enabled,9,FALSE,0,NO ERROR,-0.000000,0.000000,0.000000,0.000000,TRUE,FALSE,FALSE,FALSE,FALSE,FALSE,Disabled,0.000000,0.000000,0.000000,TRUE,3.163712,0.044022,0.000000,0.030609,0.023529,0.000000,0.133000,0.108000,0.043000,-0.190000,-0.200000,1.250000,0.746467,Hold,0.958008,0.000000,Hold,-189.000000,2.000000,Suck,711.914062,-2181.818182,Speed,312.011719,-2181.818182,Speed,On,Off0.000000,0,,,,
07:56:01.698 PM 03/17/2016,Teleop Enabled,9,FALSE,0,NO ERROR,-0.000000,0.000000,0.000000,0.000000,TRUE,FALSE,FALSE,FALSE,FALSE,FALSE,Disabled,0.000000,0.000000,0.000000,TRUE,3.164642,0.043961,0.000000,-0.003632,-0.033035,0.000000,0.000000,-0.002000,0.046000,-0.190000,-0.220000,1.230000,0.747548,Hold,0.957764,0.000000,Hold,-189.000000,2.000000,Suck,713.012695,-2181.818182,Speed,312.011719,-2181.818182,Speed,On,Off0.000000,0,,,,
07:56:01.799 PM 03/17/2016,Teleop Enabled,10,FALSE,0,NO ERROR,-0.000000,0.000000,0.000000,0.000000,TRUE,FALSE,FALSE,FALSE,FALSE,FALSE,Disabled,0.000000,0.000000,0.000000,TRUE,3.164322,0.040329,0.000000,0.021530,-0.088776,0.000000,0.182000,0.004000,-0.086000,-0.200000,-0.210000,1.260000,0.740239,Hold,0.957764,0.000000,Hold,-189.000000,2.000000,Suck,713.012695,-2181.818182,Speed,312.011719,-2181.818182,Speed,On,Off0.000000,0,,,,
07:56:01.899 PM 03/17/2016,Teleop Enabled,11,FALSE,0,NO ERROR,-0.000000,0.000000,0.000000,0.000000,TRUE,FALSE,FALSE,FALSE,FALSE,FALSE,Disabled,0.000000,0.000000,0.000000,TRUE,3.165375,0.034897,0.000000,0.047195,-0.111923,0.000000,-0.215000,-0.061000,0.130000,-0.190000,-0.230000,1.250000,0.756833,Hold,0.957764,0.000000,Hold,-189.000000,2.000000,Suck,713.012695,-2181.818182,Speed,312.011719,-2181.818182,Speed,On,Off0.000000,0,,,,
07:56:02.001 PM 03/17/2016,Teleop Enabled,10,FALSE,0,NO ERROR,-0.000000,0.000000,0.000000,0.000000,TRUE,FALSE,FALSE,FALSE,FALSE,FALSE,Disabled,0.000000,0.000000,0.000000,TRUE,3.166901,0.029694,0.000000,0.039810,-0.081329,0.000000,-0.101000,-0.006000,-0.059000,-0.200000,-0.200000,1.250000,0.772672,Hold,0.957520,0.000000,Hold,-189.000000,2.000000,Suck,713.012695,-2181.818182,Speed,312.011719,-2181.818182,Speed,On,Off0.000000,0,,,,
07:56:02.102 PM 03/17/2016,Teleop Enabled,9,FALSE,0,NO ERROR,-0.000000,0.000000,0.000000,0.000000,TRUE,FALSE,FALSE,FALSE,FALSE,FALSE,Disabled,0.000000,0.000000,0.000000,TRUE,3.168930,0.027771,0.000000,0.040451,-0.002487,0.000000,0.050000,0.094000,-0.116000,-0.200000,-0.250000,1.230000,0.775887,Hold,0.957275,0.000000,Hold,-189.000000,2.000000,Suck,711.914062,-2181.818182,Speed,310.913086,-2181.818182,Speed,On,Off0.000000,0,,,,
07:56:02.202 PM 03/17/2016,Teleop Enabled,10,FALSE,0,NO ERROR,-0.000000,0.000000,0.000000,0.000000,TRUE,FALSE,FALSE,FALSE,FALSE,FALSE,Disabled,0.000000,0.000000,0.000000,TRUE,3.172058,0.030121,0.000000,0.055283,0.066544,0.000000,0.147000,0.034000,-0.151000,-0.210000,-0.220000,1.250000,0.760736,Hold,0.957275,0.000000,Hold,-189.000000,2.000000,Suck,710.815430,-2181.818182,Speed,312.011719,-2181.818182,Speed,On,Off0.000000,0,,,,
07:56:02.302 PM 03/17/2016,Teleop Enabled,10,FALSE,0,NO ERROR,-0.000000,0.000000,0.000000,0.000000,TRUE,FALSE,FALSE,FALSE,FALSE,FALSE,Disabled,0.000000,0.000000,0.000000,TRUE,3.175400,0.033966,0.000000,0.046204,0.067886,0.000000,0.140000,0.049000,-0.044000,-0.200000,-0.280000,1.240000,0.757635,Hold,0.957275,0.000000,Hold,-189.000000,2.000000,Suck,710.815430,-2181.818182,Speed,312.011719,-2181.818182,Speed,On,Off0.000000,0,,,,
07:56:02.402 PM 03/17/2016,Teleop Enabled,10,FALSE,0,NO ERROR,-0.000000,0.000000,0.000000,0.000000,TRUE,FALSE,FALSE,FALSE,FALSE,FALSE,Disabled,0.000000,0.000000,0.000000,TRUE,3.177368,0.037643,0.000000,0.020874,0.062866,0.000000,0.142000,0.071000,-0.030000,-0.200000,-0.290000,1.260000,0.750660,Hold,0.957031,0.000000,Hold,-189.000000,2.000000,Suck,710.815430,-2181.818182,Speed,312.011719,-2181.818182,Speed,On,Off0.000000,0,,,,
07:56:02.503 PM 03/17/2016,Teleop Enabled,10,FALSE,0,NO ERROR,-0.000000,0.000000,0.000000,0.000000,TRUE,FALSE,FALSE,FALSE,FALSE,FALSE,Disabled,0.000000,0.000000,0.000000,TRUE,3.179169,0.040710,0.000000,0.043198,0.039719,0.000000,0.142000,0.071000,-0.030000,-0.200000,-0.260000,1.280000,0.747273,Hold,0.957031,0.000000,Hold,-189.000000,2.000000,Suck,710.815430,-2181.818182,Speed,312.011719,-2181.818182,Speed,On,Off0.000000,0,,,,
07:56:02.604 PM 03/17/2016,Teleop Enabled,9,FALSE,0,NO ERROR,-0.000000,0.000000,0.000000,0.000000,TRUE,FALSE,FALSE,FALSE,FALSE,FALSE,Disabled,0.000000,0.000000,0.000000,TRUE,3.180237,0.040131,0.000000,0.004196,-0.047760,0.000000,-0.275000,-0.204000,0.058000,-0.200000,-0.260000,1.280000,0.758316,Hold,0.956787,0.000000,Hold,-189.000000,2.000000,Suck,710.815430,-2181.818182,Speed,312.011719,-2181.818182,Speed,On,Off0.000000,0,,,,
07:56:02.704 PM 03/17/2016,Teleop Enabled,9,FALSE,0,NO ERROR,-0.000000,0.000000,0.000000,0.000000,TRUE,FALSE,FALSE,FALSE,FALSE,FALSE,Disabled,0.000000,0.000000,0.000000,TRUE,3.180603,0.036087,0.000000,0.008774,-0.091751,0.000000,-0.085000,-0.168000,0.003000,-0.210000,-0.200000,1.300000,0.745228,Hold,0.956787,0.000000,Hold,-189.000000,2.000000,Suck,710.815430,-2181.818182,Speed,313.110352,-2181.818182,Speed,On,Off0.000000,0,,,,
07:56:02.805 PM 03/17/2016,Teleop Enabled,11,FALSE,0,NO ERROR,-0.000000,0.000000,0.000000,0.000000,TRUE,FALSE,FALSE,FALSE,FALSE,FALSE,Disabled,0.000000,0.000000,0.000000,TRUE,3.182251,0.030762,0.000000,0.031799,-0.112457,0.000000,-0.072000,0.048000,0.007000,-0.210000,-0.210000,1.280000,0.762478,Hold,0.956543,0.000000,Hold,-189.000000,2.000000,Suck,711.914062,-2181.818182,Speed,312.011719,-2181.818182,Speed,On,Off0.000000,0,,,,
07:56:02.906 PM 03/17/2016,Teleop Enabled,11,FALSE,0,NO ERROR,-0.000000,-0.006417,0.000000,0.000000,TRUE,FALSE,FALSE,FALSE,FALSE,FALSE,Disabled,0.000000,0.000000,0.000000,TRUE,3.184982,0.026215,0.000000,0.036789,-0.083282,0.000000,-0.072000,0.048000,0.007000,-0.220000,-0.210000,1.280000,0.778765,Hold,0.956299,0.000000,Hold,-189.000000,2.000000,Suck,711.914062,-2181.818182,Speed,312.011719,-2181.818182,Speed,On,Off0.000000,0,,,,
07:56:03.006 PM 03/17/2016,Teleop Enabled,10,FALSE,0,NO ERROR,-0.000000,-0.006417,0.000000,0.000000,TRUE,FALSE,FALSE,FALSE,FALSE,FALSE,Disabled,0.000000,0.000000,0.000000,TRUE,3.188171,0.024719,0.000000,0.058624,0.001129,0.000000,0.163000,0.215000,0.040000,-0.210000,-0.250000,1.260000,0.764723,Hold,0.956299,0.000000,Hold,-189.000000,2.000000,Suck,710.815430,-2181.818182,Speed,312.011719,-2181.818182,Speed,On,Off0.000000,0,,,,
07:56:03.106 PM 03/17/2016,Teleop Enabled,10,FALSE,0,NO ERROR,-0.000000,-0.006417,0.000000,0.000000,TRUE,FALSE,FALSE,FALSE,FALSE,FALSE,Disabled,0.000000,0.000000,0.000000,TRUE,3.192459,0.027786,0.000000,0.105408,0.090363,0.000000,0.163000,0.215000,0.040000,-0.210000,-0.250000,1.270000,0.777157,Hold,0.956299,0.000000,Hold,-189.000000,2.000000,Suck,710.815430,-2181.818182,Speed,312.011719,-2181.818182,Speed,On,Off0.000000,0,,,,
07:56:03.206 PM 03/17/2016,Teleop Enabled,9,FALSE,0,NO ERROR,-0.000000,-0.006417,0.000000,0.000000,TRUE,FALSE,FALSE,FALSE,FALSE,FALSE,Disabled,0.000000,0.000000,0.000000,TRUE,3.197800,0.033279,0.000000,0.114288,0.124512,0.000000,0.025000,0.080000,0.140000,-0.210000,-0.250000,1.270000,0.796715,Hold,0.956055,0.000000,Hold,-189.000000,2.000000,Suck,710.815430,-2181.818182,Speed,312.011719,-2181.818182,Speed,On,Off0.000000,0,,,,
07:56:03.307 PM 03/17/2016,Teleop Enabled,11,FALSE,0,NO ERROR,-0.000000,-0.006417,0.000000,0.000000,TRUE,FALSE,FALSE,FALSE,FALSE,FALSE,Disabled,0.000000,0.000000,0.000000,TRUE,3.197800,0.033279,0.000000,0.114288,0.124512,0.000000,-0.163000,0.000000,0.271000,-0.220000,-0.200000,1.250000,0.794494,Hold,0.955811,0.000000,Hold,-189.000000,2.000000,Suck,710.815430,-2181.818182,Speed,313.110352,-2181.818182,Speed,On,Off0.000000,0,,,,
07:56:03.406 PM 03/17/2016,Teleop Enabled,11,FALSE,0,NO ERROR,-0.000000,-0.006417,0.000000,0.000000,TRUE,FALSE,FALSE,FALSE,FALSE,FALSE,Disabled,0.000000,0.000000,0.000000,TRUE,3.201767,0.039169,0.000000,0.086136,0.126984,0.000000,-0.192000,-0.088000,0.211000,-0.220000,-0.190000,1.260000,0.808189,Hold,0.955811,0.000000,Hold,-189.000000,2.000000,Suck,710.815430,-2181.818182,Speed,312.011719,-2181.818182,Speed,On,Off0.000000,0,,,,
07:56:03.507 PM 03/17/2016,Teleop Enabled,10,FALSE,0,NO ERROR,-0.000000,-0.006417,0.000000,0.000000,TRUE,FALSE,FALSE,FALSE,FALSE,FALSE,Disabled,0.000000,0.000000,0.000000,TRUE,3.205185,0.042191,0.000000,0.037903,-0.030960,0.000000,-0.182000,-0.141000,0.095000,-0.230000,-0.140000,1.280000,0.824369,Hold,0.955566,0.000000,Hold,-189.000000,2.000000,Suck,710.815430,-2181.818182,Speed,312.011719,-2181.818182,Speed,On,Off0.000000,0,,,,
07:56:03.608 PM 03/17/2016,Teleop Enabled,11,FALSE,0,NO ERROR,-0.000000,-0.006417,0.000000,0.000000,TRUE,FALSE,FALSE,FALSE,FALSE,FALSE,Disabled,0.000000,0.000000,0.000000,TRUE,3.207367,0.031342,0.000000,0.021423,-0.153015,0.000000,0.025000,-0.133000,-0.031000,-0.220000,-0.210000,1.260000,0.817212,Hold,0.955566,0.000000,Hold,-189.000000,2.000000,Suck,711.914062,-2181.818182,Speed,312.011719,-2181.818182,Speed,On,Off0.000000,0,,,,
07:56:03.708 PM 03/17/2016,Teleop Enabled,11,FALSE,0,NO ERROR,-0.000000,-0.006417,0.000000,0.000000,TRUE,FALSE,FALSE,FALSE,FALSE,FALSE,Disabled,0.000000,0.000000,0.000000,TRUE,3.207367,0.031342,0.000000,0.021423,-0.153015,0.000000,0.170000,-0.002000,-0.172000,-0.220000,-0.190000,1.260000,0.832837,Hold,0.955322,0.000000,Hold,-189.000000,2.000000,Suck,711.914062,-2181.818182,Speed,313.110352,-2181.818182,Speed,On,Off0.000000,0,,,,
07:56:03.808 PM 03/17/2016,Teleop Enabled,9,FALSE,0,NO ERROR,-0.000000,-0.006417,0.000000,0.000000,TRUE,FALSE,FALSE,FALSE,FALSE,FALSE,Disabled,0.000000,0.000000,0.000000,TRUE,3.210251,0.023102,0.000000,0.090759,-0.166031,0.000000,0.146000,0.006000,-0.142000,-0.220000,-0.190000,1.250000,0.832837,Hold,0.955322,0.000000,Hold,-189.000000,2.000000,Suck,713.012695,-2181.818182,Speed,312.011719,-2181.818182,Speed,On,Off0.000000,0,,,,
07:56:03.909 PM 03/17/2016,Teleop Enabled,9,FALSE,0,NO ERROR,-0.000000,-0.006417,0.000000,0.000000,TRUE,FALSE,FALSE,FALSE,FALSE,FALSE,Disabled,0.000000,0.000000,0.000000,TRUE,3.214493,0.014893,0.000000,0.107574,-0.142288,0.000000,-0.155000,-0.064000,0.073000,-0.220000,-0.180000,1.230000,0.812561,Hold,0.955078,0.000000,Hold,-189.000000,2.000000,Suck,713.012695,-2181.818182,Speed,312.011719,-2181.818182,Speed,On,Off0.000000,0,,,,
07:56:04.009 PM 03/17/2016,Teleop Enabled,11,FALSE,0,NO ERROR,-0.000000,-0.006417,0.000000,0.000000,TRUE,FALSE,FALSE,FALSE,FALSE,FALSE,Disabled,0.000000,0.000000,0.000000,TRUE,3.219391,0.009338,0.000000,0.109726,-0.073944,0.000000,-0.106000,0.023000,0.002000,-0.230000,-0.160000,1.230000,0.813253,Hold,0.955078,0.000000,Hold,-189.000000,2.000000,Suck,714.111328,-2181.818182,Speed,313.110352,-2181.818182,Speed,On,Off0.000000,0,,,,
07:56:04.109 PM 03/17/2016,Teleop Enabled,10,FALSE,0,NO ERROR,-0.000000,-0.006417,0.000000,0.000000,TRUE,FALSE,FALSE,FALSE,FALSE,FALSE,Disabled,0.000000,0.000000,0.000000,TRUE,3.224457,0.007980,0.000000,0.092911,0.002792,0.000000,-0.042000,0.051000,-0.018000,-0.230000,-0.190000,1.220000,0.797086,Hold,0.954834,0.000000,Hold,-189.000000,2.000000,Suck,714.111328,-2181.818182,Speed,312.011719,-2181.818182,Speed,On,Off0.000000,0,,,,
07:56:04.209 PM 03/17/2016,Teleop Enabled,9,FALSE,0,NO ERROR,-0.000000,-0.006417,0.000000,0.000000,TRUE,FALSE,FALSE,FALSE,FALSE,FALSE,Disabled,0.000000,0.000000,0.000000,TRUE,3.229950,0.009506,0.000000,0.099533,0.035049,0.000000,0.135000,0.052000,-0.137000,-0.230000,-0.170000,1.240000,0.797892,Hold,0.954834,0.000000,Hold,-189.000000,2.000000,Suck,715.209961,-2181.818182,Speed,312.011719,-2181.818182,Speed,On,Off0.000000,0,,,,
07:56:04.309 PM 03/17/2016,Teleop Enabled,10,FALSE,0,NO ERROR,-0.000000,-0.006417,0.000000,0.000000,TRUE,FALSE,FALSE,FALSE,FALSE,FALSE,Disabled,0.000000,0.000000,0.000000,TRUE,3.234955,0.011124,0.000000,0.085754,0.014984,0.000000,0.107000,0.093000,0.013000,-0.230000,-0.190000,1.220000,0.793076,Hold,0.954590,0.000000,Hold,-189.000000,2.000000,Suck,715.209961,-2181.818182,Speed,313.110352,-2181.818182,Speed,On,Off0.000000,0,,,,
07:56:04.409 PM 03/17/2016,Teleop Enabled,11,FALSE,0,NO ERROR,-0.000000,-0.006417,0.000000,0.000000,TRUE,FALSE,FALSE,FALSE,FALSE,FALSE,Disabled,0.000000,0.000000,0.000000,TRUE,3.239487,0.011581,0.000000,0.090134,0.000000,0.000000,-0.101000,-0.079000,0.213000,-0.230000,-0.180000,1.260000,0.793606,Hold,0.954346,0.000000,Hold,-189.000000,2.000000,Suck,714.111328,-2181.818182,Speed,312.011719,-2181.818182,Speed,On,Off0.000000,0,,,,
07:56:04.509 PM 03/17/2016,Teleop Enabled,11,FALSE,0,NO ERROR,-0.000000,-0.006417,0.000000,0.000000,TRUE,FALSE,FALSE,FALSE,FALSE,FALSE,Disabled,0.000000,0.000000,0.000000,TRUE,3.241882,0.009338,0.000000,0.041565,-0.069717,0.000000,-0.185000,-0.102000,0.209000,-0.230000,-0.140000,1.270000,0.790762,Hold,0.954346,0.000000,Hold,-189.000000,2.000000,Suck,714.111328,-2181.818182,Speed,313.110352,-2181.818182,Speed,On,Off0.000000,0,,,,
07:56:04.609 PM 03/17/2016,Teleop Enabled,10,FALSE,0,NO ERROR,-0.000000,-0.006417,0.000000,0.000000,TRUE,FALSE,FALSE,FALSE,FALSE,FALSE,Disabled,0.000000,0.000000,0.000000,TRUE,3.242157,0.000687,0.000000,-0.008804,-0.184708,0.000000,-0.008000,-0.090000,-0.017000,-0.240000,-0.150000,1.270000,0.776015,Hold,0.954346,0.000000,Hold,-189.000000,2.000000,Suck,714.111328,-2181.818182,Speed,313.110352,-2181.818182,Speed,On,Off0.000000,0,,,,
07:56:04.709 PM 03/17/2016,Teleop Enabled,11,FALSE,0,NO ERROR,-0.000000,-0.006417,0.000000,0.000000,TRUE,FALSE,FALSE,FALSE,FALSE,FALSE,Disabled,0.000000,0.000000,0.000000,TRUE,3.243622,-0.009155,0.000000,0.032150,-0.209549,0.000000,0.113000,-0.007000,-0.086000,-0.240000,-0.180000,1.290000,0.775860,Hold,0.954346,0.000000,Hold,-189.000000,2.000000,Suck,714.111328,-2181.818182,Speed,312.011719,-2181.818182,Speed,On,Off0.000000,0,,,,
07:56:04.809 PM 03/17/2016,Teleop Enabled,10,FALSE,0,NO ERROR,-0.000000,-0.006417,0.000000,0.000000,TRUE,FALSE,FALSE,FALSE,FALSE,FALSE,Disabled,0.000000,0.000000,0.000000,TRUE,3.246185,-0.019424,0.000000,0.061340,-0.200409,0.000000,0.080000,-0.030000,-0.137000,-0.230000,-0.200000,1.270000,0.762516,Hold,0.953857,0.000000,Hold,-189.000000,2.000000,Suck,714.111328,-2181.818182,Speed,312.011719,-2181.818182,Speed,On,Off0.000000,0,,,,
07:56:04.909 PM 03/17/2016,Teleop Enabled,10,FALSE,0,NO ERROR,-0.000000,-0.006417,0.000000,0.000000,TRUE,FALSE,FALSE,FALSE,FALSE,FALSE,Disabled,0.000000,0.000000,0.000000,TRUE,3.248672,-0.027725,0.000000,0.070007,-0.126099,0.000000,-0.170000,-0.010000,0.061000,-0.240000,-0.180000,1.250000,0.756516,Hold,0.953857,0.000000,Hold,-189.000000,2.000000,Suck,714.111328,-2181.818182,Speed,313.110352,-2181.818182,Speed,On,Off0.000000,0,,,,
07:56:05.009 PM 03/17/2016,Teleop Enabled,10,FALSE,0,NO ERROR,-0.000000,-0.006417,0.000000,0.000000,TRUE,FALSE,FALSE,FALSE,FALSE,FALSE,Disabled,0.000000,0.000000,0.000000,TRUE,3.251678,-0.031479,0.000000,0.083878,-0.025452,0.000000,-0.070000,0.055000,-0.069000,-0.240000,-0.210000,1.250000,0.769167,Hold,0.953613,0.000000,Hold,-189.000000,2.000000,Suck,714.111328,-2181.818182,Speed,312.011719,-2181.818182,Speed,On,Off0.000000,0,,,,
07:56:05.110 PM 03/17/2016,Teleop Enabled,10,FALSE,0,NO ERROR,-0.000000,-0.006417,0.000000,0.000000,TRUE,FALSE,FALSE,FALSE,FALSE,FALSE,Disabled,0.000000,0.000000,0.000000,TRUE,3.256363,-0.030884,0.000000,0.086197,0.032974,0.000000,-0.123000,-0.041000,-0.041000,-0.250000,-0.170000,1.230000,0.748867,Hold,0.953369,0.000000,Hold,-189.000000,2.000000,Suck,714.111328,-2181.818182,Speed,312.011719,-2181.818182,Speed,On,Off0.000000,0,,,,
07:56:05.210 PM 03/17/2016,Teleop Enabled,11,FALSE,0,NO ERROR,-0.000000,-0.006417,0.000000,0.000000,TRUE,FALSE,FALSE,FALSE,FALSE,FALSE,Disabled,0.000000,0.000000,0.000000,TRUE,3.259811,-0.028824,0.000000,0.039413,0.032532,0.000000,0.005000,0.027000,0.065000,-0.250000,-0.250000,1.250000,0.730184,Hold,0.953369,0.000000,Hold,-189.000000,2.000000,Suck,715.209961,-2181.818182,Speed,312.011719,-2181.818182,Speed,On,Off0.000000,0,,,,
07:56:05.311 PM 03/17/2016,Teleop Enabled,11,FALSE,0,NO ERROR,-0.000000,-0.006417,0.000000,0.000000,TRUE,FALSE,FALSE,FALSE,FALSE,FALSE,Disabled,0.000000,0.000000,0.000000,TRUE,3.261490,-0.027008,0.000000,0.024811,0.020737,0.000000,0.072000,0.052000,0.058000,-0.250000,-0.220000,1.260000,0.726486,Hold,0.952881,0.000000,Hold,-189.000000,2.000000,Suck,715.209961,-2181.818182,Speed,313.110352,-2181.818182,Speed,On,Off0.000000,0,,,,
07:56:05.412 PM 03/17/2016,Teleop Enabled,12,FALSE,0,NO ERROR,-0.000000,-0.006417,0.000000,0.000000,TRUE,FALSE,FALSE,FALSE,FALSE,FALSE,Disabled,0.000000,0.000000,0.000000,TRUE,3.262527,-0.026932,0.000000,0.022690,-0.024582,0.000000,-0.217000,-0.107000,0.105000,-0.250000,-0.170000,1.270000,0.739221,Hold,0.952881,0.000000,Hold,-189.000000,2.000000,Suck,715.209961,-2181.818182,Speed,313.110352,-2181.818182,Speed,On,Off0.000000,0,,,,
07:56:05.512 PM 03/17/2016,Teleop Enabled,10,FALSE,0,NO ERROR,-0.000000,-0.006417,0.000000,0.000000,TRUE,FALSE,FALSE,FALSE,FALSE,FALSE,Disabled,0.000000,0.000000,0.000000,TRUE,3.261627,-0.030258,0.000000,-0.023575,-0.090057,0.000000,-0.143000,-0.098000,0.120000,-0.250000,-0.190000,1.250000,0.741320,Hold,0.952637,0.000000,Hold,-189.000000,2.000000,Suck,716.308594,-2181.818182,Speed,312.011719,-2181.818182,Speed,On,Off0.000000,0,,,,
07:56:05.612 PM 03/17/2016,Teleop Enabled,10,FALSE,0,NO ERROR,-0.000000,-0.006417,0.000000,0.000000,TRUE,FALSE,FALSE,FALSE,FALSE,FALSE,Disabled,0.000000,0.000000,0.000000,TRUE,3.259491,-0.036880,0.000000,-0.040604,-0.146881,0.000000,0.061000,-0.039000,0.011000,-0.250000,-0.200000,1.260000,0.777460,Hold,0.952637,0.000000,Hold,-189.000000,2.000000,Suck,717.407227,-2181.818182,Speed,312.011719,-2181.818182,Speed,On,Off0.000000,0,,,,
07:56:05.715 PM 03/17/2016,Teleop Enabled,11,FALSE,0,NO ERROR,-0.000000,-0.006417,0.000000,0.000000,TRUE,FALSE,FALSE,FALSE,FALSE,FALSE,Disabled,0.000000,0.000000,0.000000,TRUE,3.258087,-0.045380,0.000000,-0.040955,-0.188736,0.000000,0.222000,0.066000,-0.093000,-0.250000,-0.260000,1.260000,0.781509,Hold,0.952881,0.000000,Hold,-189.000000,2.000000,Suck,717.407227,-2181.818182,Speed,313.110352,-2181.818182,Speed,On,Off0.000000,0,,,,
07:56:05.815 PM 03/17/2016,Teleop Enabled,9,FALSE,0,NO ERROR,-0.000000,-0.006417,0.000000,0.000000,TRUE,FALSE,FALSE,FALSE,FALSE,FALSE,Disabled,0.000000,0.000000,0.000000,TRUE,3.257980,-0.055725,0.000000,0.024033,-0.149139,0.000000,-0.013000,0.000000,0.039000,-0.260000,-0.260000,1.250000,0.783134,Hold,0.952881,0.000000,Hold,-189.000000,2.000000,Suck,717.407227,-2181.818182,Speed,312.011719,-2181.818182,Speed,On,Off0.000000,0,,,,
07:56:05.917 PM 03/17/2016,Teleop Enabled,10,FALSE,0,NO ERROR,-0.000000,-0.006417,0.000000,0.000000,TRUE,FALSE,FALSE,FALSE,FALSE,FALSE,Disabled,0.000000,0.000000,0.000000,TRUE,3.258789,-0.061584,0.000000,0.026703,-0.084656,0.000000,-0.115000,-0.018000,-0.087000,-0.260000,-0.230000,1.240000,0.768255,Hold,0.952637,0.000000,Hold,-189.000000,2.000000,Suck,717.407227,-2181.818182,Speed,313.110352,-2181.818182,Speed,On,Off0.000000,0,,,,
07:56:06.016 PM 03/17/2016,Teleop Enabled,9,FALSE,0,NO ERROR,-0.000000,-0.006417,0.000000,0.000000,TRUE,FALSE,FALSE,FALSE,FALSE,FALSE,Disabled,0.000000,0.000000,0.000000,TRUE,3.260849,-0.063583,0.000000,0.039612,-0.009003,0.000000,0.142000,0.105000,-0.127000,-0.260000,-0.230000,1.230000,0.769216,Hold,0.953125,0.000000,Hold,-189.000000,2.000000,Suck,717.407227,-2181.818182,Speed,313.110352,-2181.818182,Speed,On,Off0.000000,0,,,,
07:56:06.116 PM 03/17/2016,Teleop Enabled,10,FALSE,0,NO ERROR,-0.000000,-0.006417,0.000000,0.000000,TRUE,FALSE,FALSE,FALSE,FALSE,FALSE,Disabled,0.000000,0.000000,0.000000,TRUE,3.263397,-0.062775,0.000000,0.038437,0.007172,0.000000,0.130000,0.088000,-0.059000,-0.260000,-0.220000,1.250000,0.767105,Hold,0.953125,0.000000,Hold,-189.000000,2.000000,Suck,718.505859,-2181.818182,Speed,313.110352,-2181.818182,Speed,On,Off0.000000,0,,,,
07:56:06.217 PM 03/17/2016,Teleop Enabled,10,FALSE,0,NO ERROR,-0.000000,-0.006417,0.000000,0.000000,TRUE,FALSE,FALSE,FALSE,FALSE,FALSE,Disabled,0.000000,0.000000,0.000000,TRUE,3.264771,-0.061340,0.000000,0.024887,0.034775,0.000000,-0.152000,-0.091000,0.112000,-0.260000,-0.240000,1.260000,0.755607,Hold,0.953125,0.000000,Hold,-189.000000,2.000000,Suck,718.505859,-2181.818182,Speed,312.011719,-2181.818182,Speed,On,Off0.000000,0,,,,
07:56:06.319 PM 03/17/2016,Teleop Enabled,10,FALSE,0,NO ERROR,-0.000000,-0.006417,0.000000,0.000000,TRUE,FALSE,FALSE,FALSE,FALSE,FALSE,Disabled,0.000000,0.000000,0.000000,TRUE,3.265244,-0.060638,0.000000,0.018585,0.011978,0.000000,-0.144000,-0.092000,0.199000,-0.270000,-0.180000,1.290000,0.777120,Hold,0.953125,0.000000,Hold,-189.000000,2.000000,Suck,718.505859,-2181.818182,Speed,312.011719,-2181.818182,Speed,On,Off0.000000,0,,,,
07:56:06.421 PM 03/17/2016,Teleop Enabled,9,FALSE,0,NO ERROR,-0.000000,-0.006417,0.000000,0.000000,TRUE,FALSE,FALSE,FALSE,FALSE,FALSE,Disabled,0.000000,0.000000,0.000000,TRUE,3.265900,-0.061859,0.000000,-0.006409,-0.051361,0.000000,0.080000,-0.017000,0.050000,-0.270000,-0.240000,1.280000,0.773770,Hold,0.953125,0.000000,Hold,-189.000000,2.000000,Suck,719.604492,-2181.818182,Speed,313.110352,-2181.818182,Speed,On,Off0.000000,0,,,,
07:56:06.519 PM 03/17/2016,Teleop Enabled,9,FALSE,0,NO ERROR,-0.000000,-0.006417,0.000000,0.000000,TRUE,FALSE,FALSE,FALSE,FALSE,FALSE,Disabled,0.000000,0.000000,0.000000,TRUE,3.264633,-0.066208,0.000000,-0.045517,-0.118942,0.000000,-0.005000,-0.044000,0.035000,-0.270000,-0.230000,1.320000,0.781495,Hold,0.953125,0.000000,Hold,-189.000000,2.000000,Suck,720.703125,-2181.818182,Speed,313.110352,-2181.818182,Speed,On,Off0.000000,0,,,,
07:56:06.619 PM 03/17/2016,Teleop Enabled,9,FALSE,0,NO ERROR,-0.000000,-0.006417,0.000000,0.000000,TRUE,FALSE,FALSE,FALSE,FALSE,FALSE,Disabled,0.000000,0.000000,0.000000,TRUE,3.262650,-0.073502,0.000000,-0.021790,-0.157364,0.000000,-0.108000,-0.120000,0.084000,-0.270000,-0.180000,1.310000,0.797851,Hold,0.953125,0.000000,Hold,-189.000000,2.000000,Suck,720.703125,-2181.818182,Speed,312.011719,-2181.818182,Speed,On,Off0.000000,0,,,,
07:56:06.719 PM 03/17/2016,Teleop Enabled,10,FALSE,0,NO ERROR,-0.000000,-0.006417,0.000000,0.000000,TRUE,FALSE,FALSE,FALSE,FALSE,FALSE,Disabled,0.000000,0.000000,0.000000,TRUE,3.261993,-0.084854,0.000000,-0.009155,-0.201050,0.000000,0.029000,-0.014000,-0.223000,-0.270000,-0.210000,1.280000,0.811979,Hold,0.953369,0.000000,Hold,-189.000000,2.000000,Suck,720.703125,-2181.818182,Speed,314.208984,-2181.818182,Speed,On,Off0.000000,0,,,,
07:56:06.820 PM 03/17/2016,Teleop Enabled,9,FALSE,0,NO ERROR,-0.000000,-0.006417,0.000000,0.000000,TRUE,FALSE,FALSE,FALSE,FALSE,FALSE,Disabled,0.000000,0.000000,0.000000,TRUE,3.262695,-0.084610,0.000000,0.012115,0.006042,0.000000,0.161000,0.205000,-0.065000,-0.270000,-0.220000,1.250000,0.805559,Hold,0.953369,0.000000,Hold,-189.000000,2.000000,Suck,720.703125,-2181.818182,Speed,314.208984,-2181.818182,Speed,On,Off0.000000,0,,,,
07:56:06.920 PM 03/17/2016,Teleop Enabled,11,FALSE,0,NO ERROR,-0.000000,-0.006417,0.000000,0.000000,TRUE,FALSE,FALSE,FALSE,FALSE,FALSE,Disabled,0.000000,0.000000,0.000000,TRUE,3.265640,-0.080353,0.000000,0.084015,0.120865,0.000000,-0.023000,0.126000,0.139000,-0.270000,-0.230000,1.260000,0.812382,Hold,0.953369,0.000000,Hold,-189.000000,2.000000,Suck,720.703125,-2181.818182,Speed,313.110352,-2181.818182,Speed,On,Off0.000000,0,,,,
07:56:07.021 PM 03/17/2016,Teleop Enabled,10,FALSE,0,NO ERROR,-0.000000,-0.006417,0.000000,0.000000,TRUE,FALSE,FALSE,FALSE,FALSE,FALSE,Disabled,0.000000,0.000000,0.000000,TRUE,3.270523,-0.071747,0.000000,0.116287,0.201370,0.000000,-0.108000,-0.080000,0.048000,-0.280000,-0.200000,1.280000,0.812802,Hold,0.953125,0.000000,Hold,-189.000000,2.000000,Suck,719.604492,-2181.818182,Speed,312.011719,-2181.818182,Speed,On,Off0.000000,0,,,,
07:56:07.122 PM 03/17/2016,Teleop Enabled,10,FALSE,0,NO ERROR,-0.000000,-0.006417,0.000000,0.000000,TRUE,FALSE,FALSE,FALSE,FALSE,FALSE,Disabled,0.000000,0.000000,0.000000,TRUE,3.276688,-0.059998,0.000000,0.101807,0.242432,0.000000,0.080000,0.110000,0.071000,-0.280000,-0.200000,1.270000,0.832658,Hold,0.953369,0.000000,Hold,-189.000000,2.000000,Suck,718.505859,-2181.818182,Speed,313.110352,-2181.818182,Speed,On,Off0.000000,0,,,,
07:56:07.222 PM 03/17/2016,Teleop Enabled,9,FALSE,0,NO ERROR,-0.000000,-0.006417,0.000000,0.000000,TRUE,FALSE,FALSE,FALSE,FALSE,FALSE,Disabled,0.000000,0.000000,0.000000,TRUE,3.281281,-0.047470,0.000000,0.080688,0.245880,0.000000,0.174000,0.053000,-0.091000,-0.280000,-0.200000,1.280000,0.832965,Hold,0.953125,0.000000,Hold,-189.000000,2.000000,Suck,717.407227,-2181.818182,Speed,313.110352,-2181.818182,Speed,On,Off0.000000,0,,,,
07:56:07.323 PM 03/17/2016,Teleop Enabled,10,FALSE,0,NO ERROR,-0.000000,-0.006417,0.000000,0.000000,TRUE,FALSE,FALSE,FALSE,FALSE,FALSE,Disabled,0.000000,0.000000,0.000000,TRUE,3.284302,-0.036011,0.000000,0.065781,0.224411,0.000000,-0.069000,-0.132000,0.109000,-0.280000,-0.160000,1.270000,0.820730,Hold,0.953369,0.000000,Hold,-189.000000,2.000000,Suck,717.407227,-2181.818182,Speed,313.110352,-2181.818182,Speed,On,Off0.000000,0,,,,
07:56:07.423 PM 03/17/2016,Teleop Enabled,11,FALSE,0,NO ERROR,-0.000000,-0.006417,0.000000,0.000000,TRUE,FALSE,FALSE,FALSE,FALSE,FALSE,Disabled,0.000000,0.000000,0.000000,TRUE,3.286438,-0.027313,0.000000,0.031982,0.146591,0.000000,-0.022000,-0.095000,-0.050000,-0.280000,-0.190000,1.270000,0.803868,Hold,0.953369,0.000000,Hold,-189.000000,2.000000,Suck,717.407227,-2181.818182,Speed,313.110352,-2181.818182,Speed,On,Off0.000000,0,,,,
07:56:07.524 PM 03/17/2016,Teleop Enabled,10,FALSE,0,NO ERROR,-0.000000,-0.006417,0.000000,0.000000,TRUE,FALSE,FALSE,FALSE,FALSE,FALSE,Disabled,0.000000,0.000000,0.000000,TRUE,3.286774,-0.022552,0.000000,-0.020477,0.061005,0.000000,-0.083000,-0.100000,0.076000,-0.280000,-0.200000,1.280000,0.787640,Hold,0.953369,0.000000,Hold,-189.000000,2.000000,Suck,717.407227,-2181.818182,Speed,313.110352,-2181.818182,Speed,On,Off0.000000,0,,,,
07:56:07.625 PM 03/17/2016,Teleop Enabled,11,FALSE,0,NO ERROR,-0.000000,-0.006417,0.000000,0.000000,TRUE,FALSE,FALSE,FALSE,FALSE,FALSE,Disabled,0.000000,0.000000,0.000000,TRUE,3.286331,-0.020859,0.000000,-0.010345,0.021164,0.000000,0.048000,0.011000,0.072000,-0.280000,-0.190000,1.290000,0.789692,Hold,0.953369,0.000000,Hold,-189.000000,2.000000,Suck,718.505859,-2181.818182,Speed,313.110352,-2181.818182,Speed,On,Off0.000000,0,,,,
07:56:07.725 PM 03/17/2016,Teleop Enabled,11,FALSE,0,NO ERROR,-0.000000,-0.006417,0.000000,0.000000,TRUE,FALSE,FALSE,FALSE,FALSE,FALSE,Disabled,0.000000,0.000000,0.000000,TRUE,3.286606,-0.020111,0.000000,0.031952,0.017700,0.000000,0.075000,-0.018000,-0.100000,-0.280000,-0.150000,1.310000,0.805259,Hold,0.953369,0.000000,Hold,-189.000000,2.000000,Suck,718.505859,-2181.818182,Speed,313.110352,-2181.818182,Speed,On,Off0.000000,0,,,,
07:56:07.826 PM 03/17/2016,Teleop Enabled,11,FALSE,0,NO ERROR,-0.000000,-0.006417,0.000000,0.000000,TRUE,FALSE,FALSE,FALSE,FALSE,FALSE,Disabled,0.000000,0.000000,0.000000,TRUE,3.287521,-0.019806,0.000000,0.023773,0.006668,0.000000,-0.041000,-0.054000,-0.025000,-0.290000,-0.180000,1.290000,0.824269,Hold,0.953369,0.000000,Hold,-189.000000,2.000000,Suck,718.505859,-2181.818182,Speed,312.011719,-2181.818182,Speed,On,Off0.000000,0,,,,
07:56:07.926 PM 03/17/2016,Teleop Enabled,11,FALSE,0,NO ERROR,-0.000000,-0.006417,0.000000,0.000000,TRUE,FALSE,FALSE,FALSE,FALSE,FALSE,Disabled,0.000000,0.000000,0.000000,TRUE,3.288757,-0.018494,0.000000,0.022079,0.050812,0.000000,0.071000,0.109000,0.122000,-0.290000,-0.180000,1.290000,0.827674,Hold,0.953369,0.000000,Hold,-189.000000,2.000000,Suck,719.604492,-2181.818182,Speed,313.110352,-2181.818182,Speed,On,Off0.000000,0,,,,
07:56:08.026 PM 03/17/2016,Teleop Enabled,10,FALSE,0,NO ERROR,-0.000000,-0.006417,0.000000,0.000000,TRUE,FALSE,FALSE,FALSE,FALSE,FALSE,Disabled,0.000000,0.000000,0.000000,TRUE,3.291595,-0.013687,0.000000,0.071167,0.121521,0.000000,0.096000,0.106000,0.052000,-0.290000,-0.170000,1.270000,0.806368,Hold,0.953369,0.000000,Hold,-189.000000,2.000000,Suck,720.703125,-2181.818182,Speed,313.110352,-2181.818182,Speed,On,Off0.000000,0,,,,
07:56:08.127 PM 03/17/2016,Teleop Enabled,10,FALSE,0,NO ERROR,-0.000000,-0.006417,0.000000,0.000000,TRUE,FALSE,FALSE,FALSE,FALSE,FALSE,Disabled,0.000000,0.000000,0.000000,TRUE,3.296997,-0.003937,0.000000,0.072342,0.179504,0.000000,-0.015000,-0.071000,-0.083000,-0.290000,-0.180000,1.290000,0.792153,Hold,0.953369,0.000000,Hold,-189.000000,2.000000,Suck,720.703125,-2181.818182,Speed,313.110352,-2181.818182,Speed,On,Off0.000000,0,,,,
07:56:08.227 PM 03/17/2016,Teleop Enabled,10,FALSE,0,NO ERROR,-0.000000,-0.006417,0.000000,0.000000,TRUE,FALSE,FALSE,FALSE,FALSE,FALSE,Disabled,0.000000,0.000000,0.000000,TRUE,3.299850,0.006363,0.000000,0.041306,0.172699,0.000000,-0.088000,-0.051000,0.092000,-0.280000,-0.240000,1.280000,0.804478,Hold,0.953369,0.000000,Hold,-189.000000,2.000000,Suck,720.703125,-2181.818182,Speed,313.110352,-2181.818182,Speed,On,Off0.000000,0,,,,
07:56:08.327 PM 03/17/2016,Teleop Enabled,11,FALSE,0,NO ERROR,-0.000000,-0.006417,0.000000,0.000000,TRUE,FALSE,FALSE,FALSE,FALSE,FALSE,Disabled,0.000000,0.000000,0.000000,TRUE,3.301437,0.014709,0.000000,0.038498,0.165909,0.000000,-0.067000,0.004000,0.281000,-0.290000,-0.210000,1.310000,0.800560,Hold,0.953369,0.000000,Hold,-189.000000,2.000000,Suck,720.703125,-2181.818182,Speed,313.110352,-2181.818182,Speed,On,Off0.000000,0,,,,
07:56:08.428 PM 03/17/2016,Teleop Enabled,11,FALSE,0,NO ERROR,-0.000000,-0.006417,0.000000,0.000000,TRUE,FALSE,FALSE,FALSE,FALSE,FALSE,Disabled,0.000000,0.000000,0.000000,TRUE,3.302826,0.021744,0.000000,0.009308,0.076370,0.000000,-0.067000,0.004000,0.281000,-0.290000,-0.220000,1.320000,0.795771,Hold,0.953369,0.000000,Hold,-189.000000,2.000000,Suck,719.604492,-2181.818182,Speed,313.110352,-2181.818182,Speed,On,Off0.000000,0,,,,
07:56:08.528 PM 03/17/2016,Teleop Enabled,10,FALSE,0,NO ERROR,-0.000000,-0.006417,0.000000,0.000000,TRUE,FALSE,FALSE,FALSE,FALSE,FALSE,Disabled,0.000000,0.000000,0.000000,TRUE,3.303299,0.023270,0.000000,-0.006073,0.007950,0.000000,0.155000,-0.075000,-0.106000,-0.290000,-0.250000,1.320000,0.801149,Hold,0.953369,0.000000,Hold,-189.000000,2.000000,Suck,719.604492,-2181.818182,Speed,313.110352,-2181.818182,Speed,On,Off0.000000,0,,,,
07:56:08.628 PM 03/17/2016,Teleop Enabled,10,FALSE,0,NO ERROR,-0.000000,-0.006417,0.000000,0.000000,TRUE,FALSE,FALSE,FALSE,FALSE,FALSE,Disabled,0.000000,0.000000,0.000000,TRUE,3.304443,0.022766,0.000000,0.050552,-0.012207,0.000000,0.158000,0.003000,-0.028000,-0.280000,-0.230000,1.300000,0.785375,Hold,0.953369,0.000000,Hold,-189.000000,2.000000,Suck,719.604492,-2181.818182,Speed,313.110352,-2181.818182,Speed,On,Off0.000000,0,,,,
07:56:08.728 PM 03/17/2016,Teleop Enabled,9,FALSE,0,NO ERROR,-0.000000,-0.006417,0.000000,0.000000,TRUE,FALSE,FALSE,FALSE,FALSE,FALSE,Disabled,0.000000,0.000000,0.000000,TRUE,3.306519,0.022629,0.000000,0.058868,0.007645,0.000000,0.158000,0.003000,-0.028000,-0.290000,-0.220000,1.270000,0.787382,Hold,0.953369,0.000000,Hold,-189.000000,2.000000,Suck,719.604492,-2181.818182,Speed,313.110352,-2181.818182,Speed,On,Off0.000000,0,,,,
07:56:08.828 PM 03/17/2016,Teleop Enabled,11,FALSE,0,NO ERROR,-0.000000,-0.006417,0.000000,0.000000,TRUE,FALSE,FALSE,FALSE,FALSE,FALSE,Disabled,0.000000,0.000000,0.000000,TRUE,3.308975,0.024338,0.000000,0.037827,0.061127,0.000000,0.148000,0.098000,-0.231000,-0.300000,-0.170000,1.270000,0.773464,Hold,0.953369,0.000000,Hold,-189.000000,2.000000,Suck,719.604492,-2181.818182,Speed,313.110352,-2181.818182,Speed,On,Off0.000000,0,,,,
07:56:08.928 PM 03/17/2016,Teleop Enabled,8,FALSE,0,NO ERROR,-0.000000,-0.006417,0.000000,0.000000,TRUE,FALSE,FALSE,FALSE,FALSE,FALSE,Disabled,0.000000,0.000000,0.000000,TRUE,3.311935,0.030655,0.000000,0.063217,0.168823,0.000000,0.160000,0.181000,-0.093000,-0.300000,-0.220000,1.260000,0.769670,Hold,0.953369,0.000000,Hold,-189.000000,2.000000,Suck,718.505859,-2181.818182,Speed,313.110352,-2181.818182,Speed,On,Off0.000000,0,,,,
07:56:09.028 PM 03/17/2016,Teleop Enabled,11,FALSE,0,NO ERROR,-0.000000,-0.006417,0.000000,0.000000,TRUE,FALSE,FALSE,FALSE,FALSE,FALSE,Disabled,0.000000,0.000000,0.000000,TRUE,3.317032,0.042755,0.000000,0.126434,0.283676,0.000000,0.124000,0.167000,0.061000,-0.290000,-0.250000,1.270000,0.791682,Hold,0.953613,0.000000,Hold,-189.000000,2.000000,Suck,719.604492,-2181.818182,Speed,313.110352,-2181.818182,Speed,On,Off0.000000,0,,,,
07:56:09.128 PM 03/17/2016,Teleop Enabled,10,FALSE,0,NO ERROR,-0.000000,-0.006417,0.000000,0.000000,TRUE,FALSE,FALSE,FALSE,FALSE,FALSE,Disabled,0.000000,0.000000,0.000000,TRUE,3.323486,0.058456,0.000000,0.146545,0.336487,0.000000,0.124000,0.167000,0.061000,-0.300000,-0.190000,1.280000,0.821687,Hold,0.953369,0.000000,Hold,-189.000000,2.000000,Suck,719.604492,-2181.818182,Speed,313.110352,-2181.818182,Speed,On,Off0.000000,0,,,,
07:56:09.228 PM 03/17/2016,Teleop Enabled,10,FALSE,0,NO ERROR,-0.000000,-0.006417,0.000000,0.000000,TRUE,FALSE,FALSE,FALSE,FALSE,FALSE,Disabled,0.000000,0.000000,0.000000,TRUE,3.329132,0.075226,0.000000,0.089584,0.334000,0.000000,0.087000,0.021000,0.008000,-0.300000,-0.230000,1.250000,0.834266,Hold,0.953369,0.000000,Hold,-189.000000,2.000000,Suck,719.604492,-2181.818182,Speed,313.110352,-2181.818182,Speed,On,Off0.000000,0,,,,
07:56:09.328 PM 03/17/2016,Teleop Enabled,10,FALSE,0,NO ERROR,-0.000000,-0.006417,0.000000,0.000000,TRUE,FALSE,FALSE,FALSE,FALSE,FALSE,Disabled,0.000000,0.000000,0.000000,TRUE,3.333786,0.091995,0.000000,0.082214,0.332397,0.000000,0.087000,0.021000,0.008000,-0.290000,-0.250000,1.240000,0.834466,Hold,0.953613,0.000000,Hold,-189.000000,2.000000,Suck,720.703125,-2181.818182,Speed,313.110352,-2181.818182,Speed,On,Off0.000000,0,,,,
07:56:09.428 PM 03/17/2016,Teleop Enabled,10,FALSE,0,NO ERROR,-0.000000,-0.006417,0.000000,0.000000,TRUE,FALSE,FALSE,FALSE,FALSE,FALSE,Disabled,0.000000,0.000000,0.000000,TRUE,3.338043,0.107697,0.000000,0.089813,0.296280,0.000000,0.006000,-0.048000,0.096000,-0.290000,-0.240000,1.250000,0.850198,Hold,0.953613,0.000000,Hold,-189.000000,2.000000,Suck,720.703125,-2181.818182,Speed,313.110352,-2181.818182,Speed,On,Off0.000000,0,,,,
07:56:09.528 PM 03/17/2016,Teleop Enabled,12,FALSE,0,NO ERROR,-0.000000,-0.006417,0.000000,0.000000,TRUE,FALSE,FALSE,FALSE,FALSE,FALSE,Disabled,0.000000,0.000000,0.000000,TRUE,3.340576,0.119583,0.000000,0.029160,0.200882,0.000000,0.006000,-0.048000,0.096000,-0.290000,-0.240000,1.250000,0.847417,Hold,0.953369,0.000000,Hold,-189.000000,2.000000,Suck,721.801758,-2181.818182,Speed,313.110352,-2181.818182,Speed,On,Off0.000000,0,,,,
07:56:09.629 PM 03/17/2016,Teleop Enabled,9,FALSE,0,NO ERROR,-0.000000,-0.006417,0.000000,0.000000,TRUE,FALSE,FALSE,FALSE,FALSE,FALSE,Disabled,0.000000,0.000000,0.000000,TRUE,3.341476,0.127609,0.000000,0.010605,0.133163,0.000000,0.152000,-0.014000,-0.148000,-0.300000,-0.240000,1.260000,0.850109,Hold,0.953369,0.000000,Hold,-189.000000,2.000000,Suck,721.801758,-2181.818182,Speed,314.208984,-2181.818182,Speed,On,Off0.000000,0,,,,
07:56:09.729 PM 03/17/2016,Teleop Enabled,11,FALSE,0,NO ERROR,-0.000000,-0.006417,0.000000,0.000000,TRUE,FALSE,FALSE,FALSE,FALSE,FALSE,Disabled,0.000000,0.000000,0.000000,TRUE,3.343674,0.126678,0.000000,0.067963,-0.027512,0.000000,0.152000,-0.014000,-0.148000,-0.300000,-0.240000,1.260000,0.851961,Hold,0.953613,0.000000,Hold,-189.000000,2.000000,Suck,721.801758,-2181.818182,Speed,313.110352,-2181.818182,Speed,On,Off0.000000,0,,,,
07:56:09.829 PM 03/17/2016,Teleop Enabled,10,FALSE,0,NO ERROR,-0.000000,-0.006417,0.000000,0.000000,TRUE,FALSE,FALSE,FALSE,FALSE,FALSE,Disabled,0.000000,0.000000,0.000000,TRUE,3.347015,0.124329,0.000000,0.073303,-0.044128,0.000000,-0.145000,-0.032000,0.087000,-0.300000,-0.240000,1.280000,0.874207,Hold,0.953369,0.000000,Hold,-189.000000,2.000000,Suck,721.801758,-2181.818182,Speed,314.208984,-2181.818182,Speed,On,Off0.000000,0,,,,
07:56:09.929 PM 03/17/2016,Teleop Enabled,10,FALSE,0,NO ERROR,-0.000000,-0.006417,0.000000,0.000000,TRUE,FALSE,FALSE,FALSE,FALSE,FALSE,Disabled,0.000000,0.000000,0.000000,TRUE,3.350464,0.122269,0.000000,0.048813,-0.010208,0.000000,0.019000,0.080000,-0.037000,-0.290000,-0.260000,1.250000,0.881057,Hold,0.953369,0.000000,Hold,-189.000000,2.000000,Suck,721.801758,-2181.818182,Speed,313.110352,-2181.818182,Speed,On,Off0.000000,0,,,,
07:56:10.029 PM 03/17/2016,Teleop Enabled,11,FALSE,0,NO ERROR,-0.000000,-0.006417,0.000000,0.000000,TRUE,FALSE,FALSE,FALSE,FALSE,FALSE,Disabled,0.000000,0.000000,0.000000,TRUE,3.353271,0.124191,0.000000,0.077347,0.076630,0.000000,0.019000,0.080000,-0.037000,-0.290000,-0.260000,1.250000,0.889106,Hold,0.953613,0.000000,Hold,-189.000000,2.000000,Suck,721.801758,-2181.818182,Speed,313.110352,-2181.818182,Speed,On,Off0.000000,0,,,,
07:56:10.129 PM 03/17/2016,Teleop Enabled,10,FALSE,0,NO ERROR,-0.000000,-0.006417,0.000000,0.000000,TRUE,FALSE,FALSE,FALSE,FALSE,FALSE,Disabled,0.000000,0.000000,0.000000,TRUE,3.356583,0.129425,0.000000,0.063217,0.121841,0.000000,0.001000,0.112000,0.162000,-0.290000,-0.270000,1.240000,0.876992,Hold,0.953369,0.000000,Hold,-189.000000,2.000000,Suck,720.703125,-2181.818182,Speed,313.110352,-2181.818182,Speed,On,Off0.000000,0,,,,
07:56:10.229 PM 03/17/2016,Teleop Enabled,11,FALSE,0,NO ERROR,-0.000000,-0.006417,0.000000,0.000000,TRUE,FALSE,FALSE,FALSE,FALSE,FALSE,Disabled,0.000000,0.000000,0.000000,TRUE,3.358749,0.134964,0.000000,0.032959,0.139862,0.000000,-0.132000,-0.061000,0.103000,-0.300000,-0.220000,1.250000,0.885557,Hold,0.953369,0.000000,Hold,-189.000000,2.000000,Suck,719.604492,-2181.818182,Speed,313.110352,-2181.818182,Speed,On,Off0.000000,0,,,,
07:56:10.329 PM 03/17/2016,Teleop Enabled,11,FALSE,0,NO ERROR,-0.000000,-0.006417,0.000000,0.000000,TRUE,FALSE,FALSE,FALSE,FALSE,FALSE,Disabled,0.000000,0.000000,0.000000,TRUE,3.359085,0.141449,0.000000,-0.014771,0.118149,0.000000,0.051000,0.125000,0.052000,-0.300000,-0.260000,1.230000,0.899602,Hold,0.953369,0.000000,Hold,-189.000000,2.000000,Suck,719.604492,-2181.818182,Speed,313.110352,-2181.818182,Speed,On,Off0.000000,0,,,,
07:56:10.430 PM 03/17/2016,Teleop Enabled,11,FALSE,0,NO ERROR,-0.000000,-0.006417,0.000000,0.000000,TRUE,FALSE,FALSE,FALSE,FALSE,FALSE,Disabled,0.000000,0.000000,0.000000,TRUE,3.358765,0.148758,0.000000,0.000748,0.121826,0.000000,-0.102000,0.004000,0.209000,-0.300000,-0.260000,1.230000,0.922323,Hold,0.953613,0.000000,Hold,-189.000000,2.000000,Suck,719.604492,-2181.818182,Speed,313.110352,-2181.818182,Speed,On,Off0.000000,0,,,,
07:56:10.531 PM 03/17/2016,Teleop Enabled,9,FALSE,0,NO ERROR,-0.000000,-0.006417,0.000000,0.000000,TRUE,FALSE,FALSE,FALSE,FALSE,FALSE,Disabled,0.000000,0.000000,0.000000,TRUE,3.358429,0.152847,0.000000,-0.025223,0.049835,0.000000,-0.014000,-0.030000,0.119000,-0.300000,-0.250000,1.250000,0.941743,Hold,0.953369,0.000000,Hold,-189.000000,2.000000,Suck,719.604492,-2181.818182,Speed,314.208984,-2181.818182,Speed,On,Off0.000000,0,,,,
07:56:10.631 PM 03/17/2016,Teleop Enabled,10,FALSE,0,NO ERROR,-0.000000,-0.006417,0.000000,0.000000,TRUE,FALSE,FALSE,FALSE,FALSE,FALSE,Disabled,0.000000,0.000000,0.000000,TRUE,3.355545,0.152740,0.000000,-0.065735,-0.043808,0.000000,-0.174000,-0.145000,0.210000,-0.310000,-0.200000,1.270000,0.923236,Hold,0.953857,0.000000,Hold,-189.000000,2.000000,Suck,719.604492,-2181.818182,Speed,313.110352,-2181.818182,Speed,On,Off0.000000,0,,,,
07:56:10.731 PM 03/17/2016,Teleop Enabled,9,FALSE,0,NO ERROR,-0.000000,-0.006417,0.000000,0.000000,TRUE,FALSE,FALSE,FALSE,FALSE,FALSE,Disabled,0.000000,0.000000,0.000000,TRUE,3.352585,0.149551,0.000000,-0.059235,-0.094040,0.000000,0.109000,-0.016000,-0.006000,-0.300000,-0.300000,1.260000,0.930937,Hold,0.953369,0.000000,Hold,-189.000000,2.000000,Suck,720.703125,-2181.818182,Speed,313.110352,-2181.818182,Speed,On,Off0.000000,0,,,,
07:56:10.831 PM 03/17/2016,Teleop Enabled,9,FALSE,0,NO ERROR,-0.000000,-0.006417,0.000000,0.000000,TRUE,FALSE,FALSE,FALSE,FALSE,FALSE,Disabled,0.000000,0.000000,0.000000,TRUE,3.349213,0.143600,0.000000,-0.050888,-0.128113,0.000000,0.123000,-0.028000,0.007000,-0.310000,-0.250000,1.250000,0.925260,Hold,0.953369,0.000000,Hold,-189.000000,2.000000,Suck,720.703125,-2181.818182,Speed,313.110352,-2181.818182,Speed,On,Off0.000000,0,,,,
07:56:10.933 PM 03/17/2016,Teleop Enabled,10,FALSE,0,NO ERROR,-0.000000,-0.006417,0.000000,0.000000,TRUE,FALSE,FALSE,FALSE,FALSE,FALSE,Disabled,0.000000,0.000000,0.000000,TRUE,3.349213,0.143600,0.000000,-0.050888,-0.128113,0.000000,-0.084000,-0.059000,0.076000,-0.310000,-0.210000,1.260000,0.930661,Hold,0.953613,0.000000,Hold,-189.000000,2.000000,Suck,721.801758,-2181.818182,Speed,313.110352,-2181.818182,Speed,On,Off0.000000,0,,,,
07:56:11.035 PM 03/17/2016,Teleop Enabled,9,FALSE,0,NO ERROR,-0.000000,-0.006417,0.000000,0.000000,TRUE,FALSE,FALSE,FALSE,FALSE,FALSE,Disabled,0.000000,0.000000,0.000000,TRUE,3.345734,0.137955,0.000000,-0.058197,0.000000,0.000000,0.007000,0.091000,0.098000,-0.310000,-0.230000,1.220000,0.935068,Hold,0.953613,0.000000,Hold,-189.000000,2.000000,Suck,721.801758,-2181.818182,Speed,313.110352,-2181.818182,Speed,On,Off0.000000,0,,,,
07:56:11.135 PM 03/17/2016,Teleop Enabled,10,FALSE,0,NO ERROR,-0.000000,-0.006417,0.000000,0.000000,TRUE,FALSE,FALSE,FALSE,FALSE,FALSE,Disabled,0.000000,0.000000,0.000000,TRUE,3.343872,0.139755,0.000000,-0.008789,0.080292,0.000000,-0.094000,0.010000,0.013000,-0.310000,-0.170000,1.260000,0.923091,Hold,0.953613,0.000000,Hold,-189.000000,2.000000,Suck,722.900391,-2181.818182,Speed,313.110352,-2181.818182,Speed,On,Off0.000000,0,,,,
