Time,Robot Mode,Loop Time,Error Status,Error Code,Error Source,Left Motor Output,Left Motor Encoder,Right Motor Output,Right Motor Encoder,Is Level,Is Stalled,Ball Detector Photoeye,Vision Enabled,Vision Teleop Control,Vision Auto Control,Vision Current State,Vision X Output,Vision NavX Error,Vision NavX Target,NavX Connection Status,NavX Displacement X,NavX Displacement Y,NavX Displacement Z,NavX Velocity X,NavX Velocity Y,NavX Velocity Z,NavX Acceleration X,NavX Acceleration Y,NavX Acceleration Z,NavX Pitch,NavX Yaw,NavX Roll,Gyro Angle,Roller Arm State,Roller Arm Actual,Roller Arm Desired,Shooter Arm State,Shooter Arm Actual,Shooter Arm Desired,Shooter State,Actual RPM Left,Desired RPM Left,Control Mode Left,Actual RPM Right,Desired RPM Right,Scaler Motor Output,Auto To Run,Auto Current File,Auto File Status,Auto Current Command,Auto Trimmed Command
08:28:58.532 PM 03/17/2016,Autonomous Disabled,10,FALSE,0,NO ERROR,-0.000000,-0.006417,0.000000,0.006417,TRUE,FALSE,FALSE,FALSE,FALSE,FALSE,Disabled,0.000000,0.000000,0.000000,TRUE,0.000000,0.000000,0.000000,0.000000,0.000000,0.000000,-0.001000,0.000000,0.011000,-0.090000,-0.330000,0.960000,1.271760,Hold,72.928223,286720.000000,Hold,-134714.000000,126976.000000,Suck,0.000000,0.000000,Speed,0.000000,0.000000,Speed,On,Off0.000000,0,,,,
08:28:58.634 PM 03/17/2016,Teleop Enabled,9,FALSE,0,NO ERROR,-0.000000,-0.012833,0.000000,-0.410666,TRUE,FALSE,FALSE,FALSE,FALSE,FALSE,Disabled,0.000000,0.000000,0.000000,TRUE,-1.379288,-5.856674,0.000000,0.000000,0.015839,0.000000,0.007000,0.019000,0.021000,0.000000,-0.170000,1.190000,-0.004620,ResetBack,0.924561,-0.200000,ResetBack,-182.000000,-0.300000,Empty,0.000000,0.000000,Speed,0.000000,0.000000,Speed,On,Off0.000000,0,,,,
08:28:58.734 PM 03/17/2016,Teleop Enabled,9,FALSE,0,NO ERROR,-0.000000,-0.012833,0.000000,-0.410666,TRUE,FALSE,FALSE,FALSE,FALSE,FALSE,Disabled,0.000000,0.000000,0.000000,TRUE,-1.379288,-5.856491,0.000000,0.000000,0.000000,0.000000,-0.006000,0.012000,0.058000,0.000000,-0.180000,1.170000,0.005866,ResetBack,-0.247314,-0.200000,ResetBack,23.000000,-0.300000,Empty,0.000000,0.000000,Speed,0.000000,0.000000,Speed,On,Off0.000000,0,,,,
08:28:58.834 PM 03/17/2016,Teleop Enabled,9,FALSE,0,NO ERROR,-0.000000,-0.012833,0.000000,-0.410666,TRUE,FALSE,FALSE,FALSE,FALSE,FALSE,Disabled,0.000000,0.000000,0.000000,TRUE,-1.379288,-5.856308,0.000000,0.000000,0.000000,0.000000,-0.004000,0.003000,-0.005000,0.000000,-0.180000,1.210000,0.004661,ResetBack,-0.305664,-0.200000,ResetBack,353.000000,-0.300000,Empty,0.000000,0.000000,Speed,0.000000,0.000000,Speed,On,Off0.000000,0,,,,
08:28:58.934 PM 03/17/2016,Teleop Enabled,10,FALSE,0,NO ERROR,-0.000000,-0.012833,0.000000,-0.410666,TRUE,FALSE,FALSE,FALSE,FALSE,FALSE,Disabled,0.000000,0.000000,0.000000,TRUE,-1.379288,-5.856445,0.000000,0.000000,0.000000,0.000000,0.002000,0.001000,0.022000,0.000000,-0.190000,1.150000,-0.007804,Reset,-0.377686,0.000000,ResetBack,353.000000,-0.300000,Empty,0.000000,0.000000,Speed,0.000000,0.000000,Speed,On,Off0.000000,0,,,,
08:28:59.034 PM 03/17/2016,Teleop Enabled,10,FALSE,0,NO ERROR,-0.000000,-0.012833,0.000000,-0.410666,TRUE,FALSE,FALSE,FALSE,FALSE,FALSE,Disabled,0.000000,0.000000,0.000000,TRUE,-1.379288,-5.856445,0.000000,0.000000,0.000000,0.000000,-0.009000,-0.002000,0.029000,0.000000,-0.180000,1.200000,-0.004613,Hold,1.022217,0.000000,ResetBack,353.000000,-0.300000,Empty,0.000000,0.000000,Speed,0.000000,0.000000,Speed,On,Off0.000000,0,,,,
08:28:59.135 PM 03/17/2016,Teleop Enabled,9,FALSE,0,NO ERROR,-0.000000,-0.012833,0.000000,-0.410666,TRUE,FALSE,FALSE,FALSE,FALSE,FALSE,Disabled,0.000000,0.000000,0.000000,TRUE,-1.379288,-5.856445,0.000000,0.000000,0.000000,0.000000,0.005000,0.003000,0.011000,0.000000,-0.180000,1.160000,-0.019175,Hold,0.979980,0.000000,ResetBack,353.000000,-0.300000,Empty,0.000000,0.000000,Speed,0.000000,0.000000,Speed,On,Off0.000000,0,,,,
08:28:59.236 PM 03/17/2016,Teleop Enabled,9,FALSE,0,NO ERROR,-0.000000,-0.012833,0.000000,-0.410666,TRUE,FALSE,FALSE,FALSE,FALSE,FALSE,Disabled,0.000000,0.000000,0.000000,TRUE,-1.379288,-5.856445,0.000000,0.000000,0.000000,0.000000,0.000000,-0.007000,0.020000,0.000000,-0.180000,1.200000,-0.021268,Hold,0.928955,0.000000,ResetBack,353.000000,-0.300000,Empty,0.000000,0.000000,Speed,0.000000,0.000000,Speed,On,Off0.000000,0,,,,
08:28:59.336 PM 03/17/2016,Teleop Enabled,10,FALSE,0,NO ERROR,-0.000000,-0.012833,0.000000,-0.410666,TRUE,FALSE,FALSE,FALSE,FALSE,FALSE,Disabled,0.000000,0.000000,0.000000,TRUE,-1.379288,-5.856445,0.000000,0.000000,0.000000,0.000000,-0.005000,0.000000,0.019000,0.000000,-0.190000,1.180000,-0.020483,Hold,0.928955,0.000000,ResetBack,353.000000,-0.300000,Empty,0.000000,0.000000,Speed,0.000000,0.000000,Speed,On,Off0.000000,0,,,,
08:28:59.436 PM 03/17/2016,Teleop Enabled,10,FALSE,0,NO ERROR,-0.000000,-0.012833,0.000000,-0.410666,TRUE,FALSE,FALSE,FALSE,FALSE,FALSE,Disabled,0.000000,0.000000,0.000000,TRUE,-1.379288,-5.856445,0.000000,0.000000,0.000000,0.000000,-0.002000,-0.001000,0.010000,0.000000,-0.190000,1.190000,-0.006376,Hold,0.928955,0.000000,ResetBack,353.000000,-0.300000,Empty,0.000000,0.000000,Speed,0.000000,0.000000,Speed,On,Off0.000000,0,,,,
08:28:59.538 PM 03/17/2016,Teleop Enabled,10,FALSE,0,NO ERROR,-0.000000,-0.012833,0.000000,-0.410666,TRUE,FALSE,FALSE,FALSE,FALSE,FALSE,Disabled,0.000000,0.000000,0.000000,TRUE,-1.379288,-5.856445,0.000000,0.000000,0.000000,0.000000,0.000000,0.003000,0.010000,0.000000,-0.200000,1.170000,-0.014779,Hold,0.928955,0.000000,ResetBack,353.000000,-0.300000,Empty,0.000000,0.000000,Speed,0.000000,0.000000,Speed,On,Off0.000000,0,,,,
08:28:59.638 PM 03/17/2016,Teleop Enabled,10,FALSE,0,NO ERROR,-0.000000,-0.012833,0.000000,-0.410666,TRUE,FALSE,FALSE,FALSE,FALSE,FALSE,Disabled,0.000000,0.000000,0.000000,TRUE,-1.379288,-5.856445,0.000000,0.000000,0.000000,0.000000,0.002000,0.003000,0.002000,0.000000,-0.190000,1.190000,-0.005804,Hold,0.928955,0.000000,ResetBack,353.000000,-0.300000,Empty,0.000000,0.000000,Speed,0.000000,0.000000,Speed,On,Off0.000000,0,,,,
08:28:59.739 PM 03/17/2016,Teleop Enabled,10,FALSE,0,NO ERROR,-0.000000,-0.012833,0.000000,-0.410666,TRUE,FALSE,FALSE,FALSE,FALSE,FALSE,Disabled,0.000000,0.000000,0.000000,TRUE,-1.379288,-5.856445,0.000000,0.000000,0.000000,0.000000,0.000000,0.001000,0.010000,0.000000,-0.190000,1.190000,-0.002410,Hold,0.928955,0.000000,ResetBack,353.000000,-0.300000,Empty,0.000000,0.000000,Speed,0.000000,0.000000,Speed,On,Off0.000000,0,,,,
08:28:59.839 PM 03/17/2016,Teleop Enabled,10,FALSE,0,NO ERROR,-0.000000,-0.012833,0.000000,-0.410666,TRUE,FALSE,FALSE,FALSE,FALSE,FALSE,Disabled,0.000000,0.000000,0.000000,TRUE,-1.379288,-5.856445,0.000000,0.000000,0.000000,0.000000,0.002000,0.000000,0.005000,0.000000,-0.190000,1.180000,-0.010417,Hold,0.928955,0.000000,Reset,353.000000,2.000000,Suck,0.000000,2181.818182,Speed,0.000000,2181.818182,Speed,On,Off0.000000,0,,,,
08:28:59.939 PM 03/17/2016,Teleop Enabled,10,FALSE,0,NO ERROR,-0.000000,-0.012833,0.000000,-0.410666,TRUE,FALSE,FALSE,FALSE,FALSE,FALSE,Disabled,0.000000,0.000000,0.000000,TRUE,-1.379349,-5.856445,0.000000,-0.005966,0.000000,0.000000,0.035000,0.012000,0.028000,0.000000,-0.210000,1.170000,-0.007408,Hold,0.928955,0.000000,Hold,-273.000000,2.000000,Suck,-9.887695,2181.818182,Speed,-15.380859,2181.818182,Speed,On,Off0.000000,0,,,,
08:29:00.040 PM 03/17/2016,Teleop Enabled,10,FALSE,0,NO ERROR,-0.000000,-0.012833,0.000000,-0.410666,TRUE,FALSE,FALSE,FALSE,FALSE,FALSE,Disabled,0.000000,0.000000,0.000000,TRUE,-1.379532,-5.856522,0.000000,-0.005508,-0.002884,0.000000,-0.003000,0.001000,0.011000,0.000000,-0.180000,1.180000,-0.008507,Hold,0.928955,0.000000,Hold,-321.000000,2.000000,Suck,-105.468750,2181.818182,Speed,-118.652344,2181.818182,Speed,On,Off0.000000,0,,,,
08:29:00.140 PM 03/17/2016,Teleop Enabled,9,FALSE,0,NO ERROR,-0.000000,-0.012833,0.000000,-0.410666,TRUE,FALSE,FALSE,FALSE,FALSE,FALSE,Disabled,0.000000,0.000000,0.000000,TRUE,-1.379639,-5.856934,0.000000,-0.006699,-0.009720,0.000000,-0.031000,-0.004000,-0.032000,0.000000,-0.190000,1.200000,-0.016163,Hold,0.928955,0.000000,Hold,-307.000000,2.000000,Suck,-191.162109,2181.818182,Speed,-225.219727,2181.818182,Speed,On,Off0.000000,0,,,,
08:29:00.240 PM 03/17/2016,Teleop Enabled,10,FALSE,0,NO ERROR,-0.000000,-0.012833,0.000000,-0.410666,TRUE,FALSE,FALSE,FALSE,FALSE,FALSE,Disabled,0.000000,0.000000,0.000000,TRUE,-1.381439,-5.858124,0.000000,-0.048981,-0.028961,0.000000,0.013000,0.001000,-0.041000,0.000000,-0.220000,1.180000,-0.012311,Hold,0.928955,0.000000,Hold,-280.000000,2.000000,Suck,-277.954102,2181.818182,Speed,-293.334961,2181.818182,Speed,On,Off0.000000,0,,,,
08:29:00.341 PM 03/17/2016,Teleop Enabled,10,FALSE,0,NO ERROR,-0.000000,-0.012833,0.000000,-0.410666,TRUE,FALSE,FALSE,FALSE,FALSE,FALSE,Disabled,0.000000,0.000000,0.000000,TRUE,-1.383102,-5.860168,0.000000,-0.039368,-0.071945,0.000000,-0.010000,-0.103000,-0.089000,0.000000,-0.240000,1.180000,-0.027286,Hold,0.928955,0.000000,Hold,-258.000000,2.000000,Suck,-332.885742,2181.818182,Speed,-332.885742,2181.818182,Speed,On,Off0.000000,0,,,,
08:29:00.441 PM 03/17/2016,Teleop Enabled,10,FALSE,0,NO ERROR,-0.000000,-0.012833,0.000000,-0.410666,TRUE,FALSE,FALSE,FALSE,FALSE,FALSE,Disabled,0.000000,0.000000,0.000000,TRUE,-1.383713,-5.866592,0.000000,0.000000,-0.098114,0.000000,0.005000,0.052000,0.079000,0.000000,-0.210000,1.180000,-0.037438,Hold,0.928955,0.000000,Hold,-258.000000,2.000000,Suck,-325.195312,2181.818182,Speed,-318.603516,2181.818182,Speed,On,Off0.000000,0,,,,
08:29:00.542 PM 03/17/2016,Teleop Enabled,10,FALSE,0,NO ERROR,-0.000000,-0.012833,0.000000,-0.410666,TRUE,FALSE,FALSE,FALSE,FALSE,FALSE,Disabled,0.000000,0.000000,0.000000,TRUE,-1.384079,-5.870438,0.000000,-0.017838,-0.064789,0.000000,0.045000,-0.029000,0.010000,0.000000,-0.230000,1.190000,-0.033734,Hold,0.928955,0.000000,Hold,-255.000000,2.000000,Suck,-306.518555,2181.818182,Speed,-307.617188,2181.818182,Speed,On,Off0.000000,0,,,,
08:29:00.642 PM 03/17/2016,Teleop Enabled,9,FALSE,0,NO ERROR,-0.000000,-0.012833,0.000000,-0.410666,TRUE,FALSE,FALSE,FALSE,FALSE,FALSE,Disabled,0.000000,0.000000,0.000000,TRUE,-1.383392,-5.872437,0.000000,0.036224,-0.002579,0.000000,-0.020000,0.021000,0.003000,0.000000,-0.210000,1.190000,-0.037131,Hold,0.928955,0.000000,Hold,-254.000000,2.000000,Suck,-309.814453,2181.818182,Speed,-310.913086,2181.818182,Speed,On,Off0.000000,0,,,,
08:29:00.743 PM 03/17/2016,Teleop Enabled,10,FALSE,0,NO ERROR,-0.000000,-0.012833,0.000000,-0.410666,TRUE,FALSE,FALSE,FALSE,FALSE,FALSE,Disabled,0.000000,0.000000,0.000000,TRUE,-1.382141,-5.873276,0.000000,0.007553,-0.031433,0.000000,-0.035000,-0.020000,-0.015000,0.000000,-0.250000,1.160000,-0.037445,Hold,0.928955,0.000000,Hold,-254.000000,2.000000,Suck,-316.406250,2181.818182,Speed,-315.307617,2181.818182,Speed,On,Off0.000000,0,,,,
08:29:00.844 PM 03/17/2016,Teleop Enabled,10,FALSE,0,NO ERROR,-0.000000,-0.012833,0.000000,-0.410666,TRUE,FALSE,FALSE,FALSE,FALSE,FALSE,Disabled,0.000000,0.000000,0.000000,TRUE,-1.382019,-5.875687,0.000000,0.008148,-0.060699,0.000000,0.021000,-0.075000,0.004000,0.000000,-0.270000,1.170000,-0.048757,Hold,0.928955,0.000000,Hold,-253.000000,2.000000,Suck,-314.208984,2181.818182,Speed,-313.110352,2181.818182,Speed,On,Off0.000000,0,,,,
08:29:00.948 PM 03/17/2016,Teleop Enabled,10,FALSE,0,NO ERROR,-0.000000,-0.012833,0.000000,-0.410666,TRUE,FALSE,FALSE,FALSE,FALSE,FALSE,Disabled,0.000000,0.000000,0.000000,TRUE,-1.381088,-5.879730,0.000000,0.027252,-0.088043,0.000000,0.086000,0.004000,-0.016000,0.000000,-0.260000,1.190000,-0.043786,Hold,0.928955,0.000000,Hold,-253.000000,2.000000,Suck,-312.011719,2181.818182,Speed,-312.011719,2181.818182,Speed,On,Off0.000000,0,,,,
08:29:01.049 PM 03/17/2016,Teleop Enabled,10,FALSE,0,NO ERROR,-0.000000,-0.012833,0.000000,-0.410666,TRUE,FALSE,FALSE,FALSE,FALSE,FALSE,Disabled,0.000000,0.000000,0.000000,TRUE,-1.378098,-5.880371,0.000000,0.045456,-0.028015,0.000000,0.007000,-0.020000,0.057000,0.000000,-0.270000,1.170000,-0.035668,Hold,0.928955,0.000000,Hold,-252.000000,2.000000,Suck,-312.011719,2181.818182,Speed,-313.110352,2181.818182,Speed,On,Off0.000000,0,,,,
08:29:01.150 PM 03/17/2016,Teleop Enabled,3,FALSE,0,NO ERROR,-0.000000,-0.012833,0.000000,-0.410666,TRUE,FALSE,FALSE,FALSE,FALSE,FALSE,Disabled,0.000000,0.000000,0.000000,TRUE,-1.376678,-5.881805,0.000000,0.028976,-0.036026,0.000000,-0.072000,0.055000,0.037000,0.000000,-0.270000,1.150000,-0.033000,Hold,0.928955,0.000000,Hold,-252.000000,2.000000,Suck,-314.208984,2181.818182,Speed,-314.208984,2181.818182,Speed,On,Off0.000000,0,,,,
08:29:01.250 PM 03/17/2016,Teleop Enabled,12,FALSE,0,NO ERROR,-0.000000,-0.012833,0.000000,-0.410666,TRUE,FALSE,FALSE,FALSE,FALSE,FALSE,Disabled,0.000000,0.000000,0.000000,TRUE,-1.377106,-5.882126,0.000000,-0.023087,0.015991,0.000000,0.036000,0.089000,0.107000,0.000000,-0.300000,1.130000,-0.026277,Hold,0.928955,0.000000,Hold,-252.000000,2.000000,Suck,-313.110352,2181.818182,Speed,-313.110352,2181.818182,Speed,On,Off0.000000,0,,,,
08:29:01.350 PM 03/17/2016,Teleop Enabled,9,FALSE,0,NO ERROR,-0.000000,-0.012833,0.000000,-0.410666,TRUE,FALSE,FALSE,FALSE,FALSE,FALSE,Disabled,0.000000,0.000000,0.000000,TRUE,-1.377441,-5.879974,0.000000,0.000000,0.081390,0.000000,0.049000,0.043000,0.057000,0.000000,-0.300000,1.130000,-0.012913,Hold,0.928955,0.000000,Hold,-252.000000,2.000000,Suck,-313.110352,2181.818182,Speed,-312.011719,2181.818182,Speed,On,Off0.000000,0,,,,
08:29:01.450 PM 03/17/2016,Teleop Enabled,11,FALSE,0,NO ERROR,-0.000000,-0.012833,0.000000,-0.410666,TRUE,FALSE,FALSE,FALSE,FALSE,FALSE,Disabled,0.000000,0.000000,0.000000,TRUE,-1.376526,-5.873154,0.000000,0.009949,0.127106,0.000000,-0.043000,-0.025000,0.001000,0.000000,-0.280000,1.120000,-0.000052,Hold,0.928955,0.000000,Hold,-251.000000,2.000000,Suck,-313.110352,2181.818182,Speed,-313.110352,2181.818182,Speed,On,Off0.000000,0,,,,
08:29:01.551 PM 03/17/2016,Teleop Enabled,9,FALSE,0,NO ERROR,-0.000000,-0.012833,0.000000,-0.410666,TRUE,FALSE,FALSE,FALSE,FALSE,FALSE,Disabled,0.000000,0.000000,0.000000,TRUE,-1.376617,-5.868149,0.000000,-0.005219,0.000000,0.000000,0.020000,-0.011000,-0.050000,0.010000,-0.290000,1.140000,0.002303,Hold,0.928955,0.000000,Hold,-251.000000,2.000000,Suck,-313.110352,2181.818182,Speed,-313.110352,2181.818182,Speed,On,Off0.000000,0,,,,
08:29:01.655 PM 03/17/2016,Teleop Enabled,13,FALSE,0,NO ERROR,-0.000000,-0.012833,0.000000,-0.410666,TRUE,FALSE,FALSE,FALSE,FALSE,FALSE,Disabled,0.000000,0.000000,0.000000,TRUE,-1.376282,-5.868408,0.000000,0.020462,0.000000,0.000000,0.039000,-0.043000,-0.130000,0.010000,-0.280000,1.130000,-0.010982,Hold,0.928955,0.000000,Hold,-251.000000,2.000000,Suck,-313.110352,2181.818182,Speed,-312.011719,2181.818182,Speed,On,Off0.000000,0,,,,
08:29:01.754 PM 03/17/2016,Teleop Enabled,11,FALSE,0,NO ERROR,-0.000000,-0.012833,0.000000,-0.410666,TRUE,FALSE,FALSE,FALSE,FALSE,FALSE,Disabled,0.000000,0.000000,0.000000,TRUE,-1.375259,-5.870224,0.000000,0.004639,-0.070587,0.000000,-0.020000,-0.066000,-0.025000,0.010000,-0.280000,1.150000,-0.014951,Hold,0.928955,0.000000,Hold,-251.000000,2.000000,Suck,-313.110352,2181.818182,Speed,-313.110352,2181.818182,Speed,On,Off0.000000,0,,,,
08:29:01.854 PM 03/17/2016,Teleop Enabled,9,FALSE,0,NO ERROR,-0.000000,-0.012833,0.000000,-0.410666,TRUE,FALSE,FALSE,FALSE,FALSE,FALSE,Disabled,0.000000,0.000000,0.000000,TRUE,-1.376144,-5.875824,0.000000,-0.035889,-0.138565,0.000000,-0.024000,0.000000,-0.022000,0.010000,-0.320000,1.130000,-0.010572,Hold,0.928955,0.000000,Hold,-251.000000,2.000000,Suck,-312.011719,2181.818182,Speed,-313.110352,2181.818182,Speed,On,Off0.000000,0,,,,
08:29:01.954 PM 03/17/2016,Teleop Enabled,9,FALSE,0,NO ERROR,-0.000000,-0.012833,0.000000,-0.410666,TRUE,FALSE,FALSE,FALSE,FALSE,FALSE,Disabled,0.000000,0.000000,0.000000,TRUE,-1.377747,-5.877441,0.000000,-0.006271,-0.008316,0.000000,0.045000,-0.007000,0.000000,0.010000,-0.300000,1.160000,-0.021578,Hold,0.928955,0.000000,Hold,-251.000000,2.000000,Suck,-313.110352,2181.818182,Speed,-313.110352,2181.818182,Speed,On,Off0.000000,0,,,,
08:29:02.054 PM 03/17/2016,Teleop Enabled,12,FALSE,0,NO ERROR,-0.000000,-0.012833,0.000000,-0.410666,TRUE,FALSE,FALSE,FALSE,FALSE,FALSE,Disabled,0.000000,0.000000,0.000000,TRUE,-1.376083,-5.878891,0.000000,0.047089,-0.038559,0.000000,0.067000,-0.064000,0.000000,0.010000,-0.320000,1.160000,-0.028535,Hold,0.928955,0.000000,Hold,-251.000000,2.000000,Suck,-313.110352,2181.818182,Speed,-313.110352,2181.818182,Speed,On,Off0.000000,0,,,,
08:29:02.155 PM 03/17/2016,Teleop Enabled,10,FALSE,0,NO ERROR,-0.000000,-0.012833,0.000000,-0.410666,TRUE,FALSE,FALSE,FALSE,FALSE,FALSE,Disabled,0.000000,0.000000,0.000000,TRUE,-1.374176,-5.879883,0.000000,0.040436,0.000000,0.000000,-0.037000,0.015000,0.123000,0.000000,-0.270000,1.150000,-0.026725,Hold,0.928955,0.000000,Hold,-251.000000,2.000000,Suck,-312.011719,2181.818182,Speed,-313.110352,2181.818182,Speed,On,Off0.000000,0,,,,
08:29:02.255 PM 03/17/2016,Teleop Enabled,10,FALSE,0,NO ERROR,-0.000000,-0.012833,0.000000,-0.410666,TRUE,FALSE,FALSE,FALSE,FALSE,FALSE,Disabled,0.000000,0.000000,0.000000,TRUE,-1.372849,-5.879196,0.000000,0.011124,0.028381,0.000000,0.023000,0.049000,0.108000,0.010000,-0.290000,1.180000,-0.045476,Hold,0.928955,0.000000,Hold,-251.000000,2.000000,Suck,-312.011719,2181.818182,Speed,-313.110352,2181.818182,Speed,On,Off0.000000,0,,,,
08:29:02.357 PM 03/17/2016,Teleop Enabled,10,FALSE,0,NO ERROR,-0.000000,-0.012833,0.000000,-0.410666,TRUE,FALSE,FALSE,FALSE,FALSE,FALSE,Disabled,0.000000,0.000000,0.000000,TRUE,-1.371735,-5.875687,0.000000,0.042175,0.111389,0.000000,0.032000,0.081000,0.125000,0.010000,-0.290000,1.140000,-0.045476,Hold,0.928955,0.000000,Hold,-251.000000,2.000000,Suck,-313.110352,2181.818182,Speed,-313.110352,2181.818182,Speed,On,Off0.000000,0,,,,
08:29:02.457 PM 03/17/2016,Teleop Enabled,10,FALSE,0,NO ERROR,-0.000000,-0.012833,0.000000,-0.410666,TRUE,FALSE,FALSE,FALSE,FALSE,FALSE,Disabled,0.000000,0.000000,0.000000,TRUE,-1.368896,-5.866348,0.000000,0.034027,0.172394,0.000000,-0.106000,0.010000,-0.042000,0.000000,-0.250000,1.180000,-0.036422,Hold,0.928955,0.000000,Hold,-251.000000,2.000000,Suck,-313.110352,2181.818182,Speed,-313.110352,2181.818182,Speed,On,Off0.000000,0,,,,
08:29:02.557 PM 03/17/2016,Teleop Enabled,9,FALSE,0,NO ERROR,-0.000000,-0.012833,0.000000,-0.410666,TRUE,FALSE,FALSE,FALSE,FALSE,FALSE,Disabled,0.000000,0.000000,0.000000,TRUE,-1.369156,-5.866379,0.000000,-0.031845,-0.002441,0.000000,0.001000,-0.020000,-0.046000,0.010000,-0.290000,1.190000,-0.014521,Hold,0.928955,0.000000,Hold,-251.000000,2.000000,Suck,-312.011719,2181.818182,Speed,-312.011719,2181.818182,Speed,On,Off0.000000,0,,,,
08:29:02.658 PM 03/17/2016,Teleop Enabled,9,FALSE,0,NO ERROR,-0.000000,-0.012833,0.000000,-0.410666,TRUE,FALSE,FALSE,FALSE,FALSE,FALSE,Disabled,0.000000,0.000000,0.000000,TRUE,-1.369385,-5.866791,0.000000,0.015274,-0.012772,0.000000,0.115000,-0.019000,-0.073000,0.000000,-0.210000,1.220000,-0.015791,Hold,0.928955,0.000000,Hold,-251.000000,2.000000,Suck,-313.110352,2181.818182,Speed,-314.208984,2181.818182,Speed,On,Off0.000000,0,,,,
08:29:02.759 PM 03/17/2016,Teleop Enabled,9,FALSE,0,NO ERROR,-0.000000,-0.012833,0.000000,-0.410666,TRUE,FALSE,FALSE,FALSE,FALSE,FALSE,Disabled,0.000000,0.000000,0.000000,TRUE,-1.368256,-5.868484,0.000000,-0.009216,-0.048752,0.000000,-0.192000,-0.053000,-0.087000,0.000000,-0.250000,1.220000,-0.013116,Hold,0.928955,0.000000,Hold,-251.000000,2.000000,Suck,-313.110352,2181.818182,Speed,-314.208984,2181.818182,Speed,On,Off0.000000,0,,,,
08:29:02.859 PM 03/17/2016,Teleop Enabled,10,FALSE,0,NO ERROR,-0.000000,-0.012833,0.000000,-0.410666,TRUE,FALSE,FALSE,FALSE,FALSE,FALSE,Disabled,0.000000,0.000000,0.000000,TRUE,-1.371994,-5.872787,0.000000,-0.095657,-0.111053,0.000000,-0.013000,0.008000,-0.041000,0.000000,-0.230000,1.210000,-0.022845,Hold,0.928955,0.000000,Hold,-251.000000,2.000000,Suck,-313.110352,2181.818182,Speed,-312.011719,2181.818182,Speed,On,Off0.000000,0,,,,
08:29:02.959 PM 03/17/2016,Teleop Enabled,10,FALSE,0,NO ERROR,-0.000000,-0.012833,0.000000,-0.410666,TRUE,FALSE,FALSE,FALSE,FALSE,FALSE,Disabled,0.000000,0.000000,0.000000,TRUE,-1.372986,-5.878967,0.000000,0.005997,-0.135010,0.000000,-0.001000,-0.014000,0.075000,0.000000,-0.190000,1.260000,-0.019471,Hold,0.928955,208896.000000,Hold,-251.000000,126976.000000,Suck,-313.110352,2181.818182,Speed,-313.110352,2181.818182,Speed,On,Off0.000000,0,,,,
08:29:03.059 PM 03/17/2016,Teleop Enabled,10,FALSE,0,NO ERROR,-0.000000,-0.012833,0.000000,-0.410666,TRUE,FALSE,FALSE,FALSE,FALSE,FALSE,Disabled,0.000000,0.000000,0.000000,TRUE,-1.370850,-5.880402,0.000000,0.069351,0.000641,0.000000,0.016000,0.040000,0.046000,0.000000,-0.200000,1.230000,-0.009825,Hold,4.428223,208896.000000,Hold,-6798.000000,126976.000000,Suck,-312.011719,2181.818182,Speed,-313.110352,2181.818182,Speed,On,Off0.000000,0,,,,
08:29:03.159 PM 03/17/2016,Teleop Enabled,10,FALSE,0,NO ERROR,-0.000000,-0.012833,0.000000,-0.410666,TRUE,FALSE,FALSE,FALSE,FALSE,FALSE,Disabled,0.000000,0.000000,0.000000,TRUE,-1.365982,-5.878647,0.000000,0.114517,0.058136,0.000000,0.058000,-0.008000,-0.065000,0.000000,-0.200000,1.160000,0.002888,Hold,7.695312,208896.000000,Hold,-20898.000000,126976.000000,Suck,-314.208984,2181.818182,Speed,-314.208984,2181.818182,Speed,On,Off0.000000,0,,,,
08:29:03.259 PM 03/17/2016,Teleop Enabled,11,FALSE,0,NO ERROR,-0.000000,-0.012833,0.000000,-0.410666,TRUE,FALSE,FALSE,FALSE,FALSE,FALSE,Disabled,0.000000,0.000000,0.000000,TRUE,-1.357773,-5.874100,0.000000,0.142151,0.091919,0.000000,-0.036000,0.011000,-0.018000,-0.010000,-0.160000,1.280000,-0.005691,Hold,13.047363,208896.000000,Hold,-20898.000000,126976.000000,Suck,-315.307617,2181.818182,Speed,-313.110352,2181.818182,Speed,On,Off0.000000,0,,,,
08:29:03.359 PM 03/17/2016,Teleop Enabled,10,FALSE,0,NO ERROR,-0.000000,-0.012833,0.000000,-0.410666,TRUE,FALSE,FALSE,FALSE,FALSE,FALSE,Disabled,0.000000,0.000000,0.000000,TRUE,-1.352188,-5.873947,0.000000,0.143875,0.003906,0.000000,0.042000,0.007000,0.016000,0.000000,-0.140000,1.230000,0.004606,Hold,19.219482,208896.000000,Hold,-32700.000000,126976.000000,Suck,-314.208984,2181.818182,Speed,-314.208984,2181.818182,Speed,On,Off0.000000,0,,,,
08:29:03.459 PM 03/17/2016,Teleop Enabled,10,FALSE,0,NO ERROR,-0.000000,-0.012833,0.000000,-0.410666,TRUE,FALSE,FALSE,FALSE,FALSE,FALSE,Disabled,0.000000,0.000000,0.000000,TRUE,-1.344482,-5.873413,0.000000,0.161758,0.019653,0.000000,-0.058000,-0.014000,-0.018000,0.000000,-0.100000,1.270000,-0.014531,Hold,26.362061,208896.000000,Hold,-44955.000000,126976.000000,Suck,-314.208984,2181.818182,Speed,-314.208984,2181.818182,Speed,On,Off0.000000,0,,,,
08:29:03.559 PM 03/17/2016,Teleop Enabled,9,FALSE,0,NO ERROR,-0.000000,-0.012833,0.000000,-0.404249,TRUE,FALSE,FALSE,FALSE,FALSE,FALSE,Disabled,0.000000,0.000000,0.000000,TRUE,-1.336243,-5.872910,0.000000,0.136459,-0.015884,0.000000,-0.058000,-0.014000,-0.018000,0.010000,-0.150000,1.410000,-0.023743,Hold,32.779297,208896.000000,Hold,-58087.000000,126976.000000,Suck,-315.307617,2181.818182,Speed,-315.307617,2181.818182,Speed,On,Off0.000000,0,,,,
08:29:03.659 PM 03/17/2016,Teleop Enabled,10,FALSE,0,NO ERROR,-0.000000,-0.012833,0.000000,-0.404249,TRUE,FALSE,FALSE,FALSE,FALSE,FALSE,Disabled,0.000000,0.000000,0.000000,TRUE,-1.330887,-5.874176,0.000000,0.122803,-0.046768,0.000000,0.114000,-0.003000,-0.146000,0.060000,-0.180000,1.180000,0.068132,Hold,45.016113,208896.000000,Hold,-73067.000000,126976.000000,Suck,-314.208984,2181.818182,Speed,-314.208984,2181.818182,Speed,On,Off0.000000,0,,,,
08:29:03.759 PM 03/17/2016,Teleop Enabled,10,FALSE,0,NO ERROR,-0.000000,-0.012833,0.000000,-0.404249,TRUE,FALSE,FALSE,FALSE,FALSE,FALSE,Disabled,0.000000,0.000000,0.000000,TRUE,-1.322525,-5.879028,0.000000,0.130600,-0.124130,0.000000,0.047000,-0.016000,0.041000,0.090000,-0.170000,1.500000,0.078198,Hold,53.876953,208896.000000,Hold,-89540.000000,126976.000000,Suck,-314.208984,2181.818182,Speed,-315.307617,2181.818182,Speed,On,Off0.000000,0,,,,
08:29:03.859 PM 03/17/2016,Teleop Enabled,10,FALSE,0,NO ERROR,-0.000000,-0.012833,0.000000,-0.404249,TRUE,FALSE,FALSE,FALSE,FALSE,FALSE,Disabled,0.000000,0.000000,0.000000,TRUE,-1.316177,-5.884933,0.000000,0.127182,0.000000,0.000000,-0.024000,-0.005000,0.037000,0.210000,-0.210000,1.390000,0.212988,Hold,56.311768,208896.000000,Hold,-105798.000000,126976.000000,Suck,-315.307617,2181.818182,Speed,-314.208984,2181.818182,Speed,On,Off0.000000,0,,,,
08:29:03.959 PM 03/17/2016,Teleop Enabled,10,FALSE,0,NO ERROR,-0.000000,-0.012833,0.000000,-0.404249,TRUE,FALSE,FALSE,FALSE,FALSE,FALSE,Disabled,0.000000,0.000000,0.000000,TRUE,-1.309158,-5.886841,0.000000,0.157089,-0.064362,0.000000,-0.024000,-0.005000,0.037000,0.210000,-0.130000,1.540000,0.205307,Hold,56.090820,208896.000000,Hold,-105798.000000,126976.000000,Suck,-314.208984,2181.818182,Speed,-314.208984,2181.818182,Speed,On,Off0.000000,0,,,,
08:29:04.060 PM 03/17/2016,Teleop Enabled,9,FALSE,0,NO ERROR,-0.000000,-0.012833,0.000000,-0.404249,TRUE,FALSE,FALSE,FALSE,FALSE,FALSE,Disabled,0.000000,0.000000,0.000000,TRUE,-1.299759,-5.891617,0.000000,0.214752,-0.113617,0.000000,0.035000,-0.067000,-0.005000,0.260000,-0.550000,1.350000,0.244477,Hold,55.623779,208896.000000,Hold,-122327.000000,126976.000000,Suck,-314.208984,2181.818182,Speed,-314.208984,2181.818182,Speed,On,Off0.000000,0,,,,
08:29:04.161 PM 03/17/2016,Teleop Enabled,10,FALSE,0,NO ERROR,-0.000000,-0.012833,0.000000,-0.404249,TRUE,FALSE,FALSE,FALSE,FALSE,FALSE,Disabled,0.000000,0.000000,0.000000,TRUE,-1.286346,-5.899277,0.000000,0.236908,-0.117462,0.000000,-0.083000,-0.001000,-0.142000,0.280000,-0.110000,1.330000,0.279887,Hold,55.545654,208896.000000,Hold,-127204.000000,126976.000000,Suck,-314.208984,2181.818182,Speed,-314.208984,2181.818182,Speed,On,Off0.000000,0,,,,
08:29:04.261 PM 03/17/2016,Teleop Enabled,9,FALSE,0,NO ERROR,-0.000000,-0.012833,0.000000,-0.404249,TRUE,FALSE,FALSE,FALSE,FALSE,FALSE,Disabled,0.000000,0.000000,0.000000,TRUE,-1.275772,-5.905823,0.000000,0.203888,-0.133499,0.000000,-0.083000,-0.001000,-0.142000,0.320000,-0.230000,1.150000,0.336324,Hold,55.006592,208896.000000,Hold,-127054.000000,126976.000000,Suck,-313.110352,2181.818182,Speed,-314.208984,2181.818182,Speed,On,Off0.000000,0,,,,
08:29:04.361 PM 03/17/2016,Teleop Enabled,10,FALSE,0,NO ERROR,-0.000000,-0.012833,0.000000,-0.404249,TRUE,FALSE,FALSE,FALSE,FALSE,FALSE,Disabled,0.000000,0.000000,0.000000,TRUE,-1.267548,-5.910736,0.000000,0.201950,-0.113968,0.000000,-0.030000,-0.058000,0.091000,0.290000,-0.170000,1.200000,0.309445,Hold,54.954834,208896.000000,Hold,-127054.000000,126976.000000,Suck,-314.208984,2181.818182,Speed,-314.208984,2181.818182,Speed,On,Off0.000000,0,,,,
08:29:04.461 PM 03/17/2016,Teleop Enabled,10,FALSE,0,NO ERROR,-0.000000,-0.012833,0.000000,-0.404249,TRUE,FALSE,FALSE,FALSE,FALSE,FALSE,Disabled,0.000000,0.000000,0.000000,TRUE,-1.259521,-5.916275,0.000000,0.000000,-0.105011,0.000000,0.033000,0.004000,0.083000,0.280000,-0.120000,1.200000,0.288562,Hold,54.954834,208896.000000,Hold,-127054.000000,126976.000000,Suck,-315.307617,2181.818182,Speed,-314.208984,2181.818182,Speed,On,Off0.000000,0,,,,
08:29:04.562 PM 03/17/2016,Teleop Enabled,10,FALSE,0,NO ERROR,-0.000000,-0.012833,0.000000,-0.404249,TRUE,FALSE,FALSE,FALSE,FALSE,FALSE,Disabled,0.000000,0.000000,0.000000,TRUE,-1.258591,-5.915558,0.000000,0.012222,0.023941,0.000000,0.033000,0.004000,0.083000,0.280000,-0.120000,1.200000,0.300191,Hold,54.955078,208896.000000,Hold,-127054.000000,126976.000000,Suck,-314.208984,2181.818182,Speed,-314.208984,2181.818182,Speed,On,Off0.000000,0,,,,
08:29:04.663 PM 03/17/2016,Teleop Enabled,11,FALSE,0,NO ERROR,-0.000000,-0.012833,0.000000,-0.404249,TRUE,FALSE,FALSE,FALSE,FALSE,FALSE,Disabled,0.000000,0.000000,0.000000,TRUE,-1.258331,-5.912766,0.000000,0.011612,0.082596,0.000000,-0.041000,0.038000,0.073000,0.280000,-0.150000,1.160000,0.286441,Hold,54.955078,208896.000000,Hold,-127054.000000,126976.000000,Suck,-314.208984,2181.818182,Speed,-315.307617,2181.818182,Speed,On,Off0.000000,0,,,,
08:29:04.763 PM 03/17/2016,Teleop Enabled,11,FALSE,0,NO ERROR,-0.000000,-0.012833,0.000000,-0.404249,TRUE,FALSE,FALSE,FALSE,FALSE,FALSE,Disabled,0.000000,0.000000,0.000000,TRUE,-1.258148,-5.906494,0.000000,-0.004105,0.154007,0.000000,-0.032000,0.079000,0.022000,0.270000,-0.200000,1.120000,0.283364,Hold,54.955078,208896.000000,Hold,-127054.000000,126976.000000,Suck,-315.307617,2181.818182,Speed,-315.307617,2181.818182,Speed,On,Off0.000000,0,,,,
08:29:04.864 PM 03/17/2016,Teleop Enabled,11,FALSE,0,NO ERROR,-0.000000,-0.012833,0.000000,-0.404249,TRUE,FALSE,FALSE,FALSE,FALSE,FALSE,Disabled,0.000000,0.000000,0.000000,TRUE,-1.258148,-5.906494,0.000000,-0.004105,0.154007,0.000000,0.049000,0.122000,-0.020000,0.280000,-0.150000,1.120000,0.269480,Hold,54.955078,208896.000000,Hold,-127054.000000,126976.000000,Suck,-315.307617,2181.818182,Speed,-314.208984,2181.818182,Speed,On,Off0.000000,0,,,,
08:29:04.965 PM 03/17/2016,Teleop Enabled,11,FALSE,0,NO ERROR,-0.000000,-0.012833,0.000000,-0.404249,TRUE,FALSE,FALSE,FALSE,FALSE,FALSE,Disabled,0.000000,0.000000,0.000000,TRUE,-1.257782,-5.888474,0.000000,0.029175,-0.005875,0.000000,-0.003000,0.040000,-0.092000,0.270000,-0.170000,1.130000,0.277766,Hold,54.955078,208896.000000,Hold,-127054.000000,126976.000000,Suck,-314.208984,2181.818182,Speed,-314.208984,2181.818182,Speed,On,Off0.000000,0,,,,
08:29:05.066 PM 03/17/2016,Teleop Enabled,11,FALSE,0,NO ERROR,-0.000000,-0.012833,0.000000,-0.404249,TRUE,FALSE,FALSE,FALSE,FALSE,FALSE,Disabled,0.000000,0.000000,0.000000,TRUE,-1.257782,-5.888474,0.000000,0.029175,-0.005875,0.000000,-0.002000,-0.045000,-0.096000,0.270000,-0.180000,1.140000,0.285550,Hold,54.955078,208896.000000,Hold,-127054.000000,126976.000000,Suck,-314.208984,2181.818182,Speed,-314.208984,2181.818182,Speed,On,Off0.000000,0,,,,
08:29:05.167 PM 03/17/2016,Teleop Enabled,9,FALSE,0,NO ERROR,-0.000000,-0.012833,0.000000,-0.404249,TRUE,FALSE,FALSE,FALSE,FALSE,FALSE,Disabled,0.000000,0.000000,0.000000,TRUE,-1.252319,-5.892120,0.000000,0.067917,-0.062759,0.000000,-0.002000,-0.047000,-0.094000,0.270000,-0.150000,1.150000,0.280999,Hold,54.955078,208896.000000,Hold,-127054.000000,126976.000000,Suck,-315.307617,2181.818182,Speed,-315.307617,2181.818182,Speed,On,Off0.000000,0,,,,
08:29:05.268 PM 03/17/2016,Teleop Enabled,10,FALSE,0,NO ERROR,-0.000000,-0.012833,0.000000,-0.404249,TRUE,FALSE,FALSE,FALSE,FALSE,FALSE,Disabled,0.000000,0.000000,0.000000,TRUE,-1.252319,-5.892120,0.000000,0.067917,-0.062759,0.000000,-0.038000,-0.025000,-0.094000,0.260000,-0.110000,1.140000,0.299929,Hold,54.955078,208896.000000,Hold,-127054.000000,126976.000000,Suck,-314.208984,2181.818182,Speed,-314.208984,2181.818182,Speed,On,Off0.000000,0,,,,
08:29:05.369 PM 03/17/2016,Teleop Enabled,11,FALSE,0,NO ERROR,-0.000000,-0.012833,0.000000,-0.404249,TRUE,FALSE,FALSE,FALSE,FALSE,FALSE,Disabled,0.000000,0.000000,0.000000,TRUE,-1.249603,-5.897171,0.000000,0.031525,-0.108002,0.000000,-0.022000,-0.033000,0.001000,0.270000,-0.200000,1.150000,0.299929,Hold,54.955078,208896.000000,Hold,-127054.000000,126976.000000,Suck,-314.208984,2181.818182,Speed,-314.208984,2181.818182,Speed,On,Off0.000000,0,,,,
08:29:05.470 PM 03/17/2016,Teleop Enabled,11,FALSE,0,NO ERROR,-0.000000,-0.012833,0.000000,-0.404249,TRUE,FALSE,FALSE,FALSE,FALSE,FALSE,Disabled,0.000000,0.000000,0.000000,TRUE,-1.247879,-5.904251,0.000000,0.054932,-0.169464,0.000000,0.131000,-0.075000,0.070000,0.270000,-0.210000,1.170000,0.313796,Hold,54.955078,208896.000000,Hold,-127054.000000,126976.000000,Suck,-315.307617,2181.818182,Speed,-314.208984,2181.818182,Speed,On,Off0.000000,0,,,,
08:29:05.570 PM 03/17/2016,Teleop Enabled,10,FALSE,0,NO ERROR,-0.000000,-0.012833,0.000000,-0.404249,TRUE,FALSE,FALSE,FALSE,FALSE,FALSE,Disabled,0.000000,0.000000,0.000000,TRUE,-1.242584,-5.915115,0.000000,0.127762,-0.246567,0.000000,-0.024000,-0.092000,0.034000,0.270000,-0.170000,1.150000,0.308608,Hold,54.955078,208896.000000,Hold,-127054.000000,126976.000000,Suck,-315.307617,2181.818182,Speed,-315.307617,2181.818182,Speed,On,Off0.000000,0,,,,
08:29:05.670 PM 03/17/2016,Teleop Enabled,10,FALSE,0,NO ERROR,-0.000000,-0.012833,0.000000,-0.404249,TRUE,FALSE,FALSE,FALSE,FALSE,FALSE,Disabled,0.000000,0.000000,0.000000,TRUE,-1.236237,-5.928955,0.000000,0.124557,-0.286957,0.000000,-0.051000,-0.003000,0.062000,0.270000,-0.220000,1.130000,0.314233,Hold,54.955078,208896.000000,Hold,-127054.000000,126976.000000,Suck,-314.208984,2181.818182,Speed,-315.307617,2181.818182,Speed,On,Off0.000000,0,,,,
08:29:05.771 PM 03/17/2016,Teleop Enabled,10,FALSE,0,NO ERROR,-0.000000,-0.012833,0.000000,-0.404249,TRUE,FALSE,FALSE,FALSE,FALSE,FALSE,Disabled,0.000000,0.000000,0.000000,TRUE,-1.232285,-5.946487,0.000000,0.017426,-0.284332,0.000000,-0.013000,0.052000,0.070000,0.270000,-0.260000,1.140000,0.314960,Hold,54.955078,208896.000000,Hold,-127054.000000,126976.000000,Suck,-315.307617,2181.818182,Speed,-314.208984,2181.818182,Speed,On,Off0.000000,0,,,,
08:29:05.872 PM 03/17/2016,Teleop Enabled,11,FALSE,0,NO ERROR,-0.000000,-0.012833,0.000000,-0.404249,TRUE,FALSE,FALSE,FALSE,FALSE,FALSE,Disabled,0.000000,0.000000,0.000000,TRUE,-1.232285,-5.960526,0.000000,0.008636,-0.273270,0.000000,0.010000,0.048000,0.014000,0.270000,-0.180000,1.160000,0.309555,Hold,54.955078,208896.000000,Hold,-127054.000000,126976.000000,Suck,-314.208984,2181.818182,Speed,-313.110352,2181.818182,Speed,On,Off0.000000,0,,,,
08:29:05.972 PM 03/17/2016,Teleop Enabled,9,FALSE,0,NO ERROR,-0.000000,-0.012833,0.000000,-0.404249,TRUE,FALSE,FALSE,FALSE,FALSE,FALSE,Disabled,0.000000,0.000000,0.000000,TRUE,-1.230942,-5.971024,0.000000,0.046585,-0.262604,0.000000,-0.001000,0.000000,0.096000,0.260000,-0.150000,1.140000,0.309445,Hold,54.955078,208896.000000,Hold,-127054.000000,126976.000000,Suck,-314.208984,2181.818182,Speed,-314.208984,2181.818182,Speed,On,Off0.000000,0,,,,
08:29:06.073 PM 03/17/2016,Teleop Enabled,10,FALSE,0,NO ERROR,-0.000000,-0.012833,0.000000,-0.404249,TRUE,FALSE,FALSE,FALSE,FALSE,FALSE,Disabled,0.000000,0.000000,0.000000,TRUE,-1.230377,-5.985764,0.000000,-0.005203,-0.223907,0.000000,0.004000,0.057000,0.087000,0.270000,-0.160000,1.130000,0.313672,Hold,54.955078,208896.000000,Hold,-127054.000000,126976.000000,Suck,-314.208984,2181.818182,Speed,-315.307617,2181.818182,Speed,On,Off0.000000,0,,,,
08:29:06.174 PM 03/17/2016,Teleop Enabled,11,FALSE,0,NO ERROR,-0.000000,-0.012833,0.000000,-0.404249,TRUE,FALSE,FALSE,FALSE,FALSE,FALSE,Disabled,0.000000,0.000000,0.000000,TRUE,-1.231995,-5.994537,0.000000,-0.056458,-0.138123,0.000000,-0.040000,0.088000,0.005000,0.260000,-0.150000,1.130000,0.304670,Hold,54.955078,208896.000000,Hold,-127054.000000,126976.000000,Suck,-315.307617,2181.818182,Speed,-314.208984,2181.818182,Speed,On,Off0.000000,0,,,,
08:29:06.274 PM 03/17/2016,Teleop Enabled,11,FALSE,0,NO ERROR,-0.000000,-0.012833,0.000000,-0.404249,TRUE,FALSE,FALSE,FALSE,FALSE,FALSE,Disabled,0.000000,0.000000,0.000000,TRUE,-1.236801,-5.999252,0.000000,-0.116943,-0.068634,0.000000,-0.012000,0.056000,0.007000,0.260000,-0.140000,1.130000,0.298404,Hold,54.955078,208896.000000,Hold,-127054.000000,126976.000000,Suck,-314.208984,2181.818182,Speed,-314.208984,2181.818182,Speed,On,Off0.000000,0,,,,
08:29:06.374 PM 03/17/2016,Teleop Enabled,10,FALSE,0,NO ERROR,-0.000000,-0.012833,0.000000,-0.404249,TRUE,FALSE,FALSE,FALSE,FALSE,FALSE,Disabled,0.000000,0.000000,0.000000,TRUE,-1.238998,-6.001938,0.000000,0.027191,-0.048508,0.000000,0.100000,-0.008000,-0.054000,0.260000,-0.230000,1.120000,0.296105,Hold,54.955078,208896.000000,Hold,-127054.000000,126976.000000,Suck,-314.208984,2181.818182,Speed,-315.307617,2181.818182,Speed,On,Off0.000000,0,,,,
08:29:06.475 PM 03/17/2016,Teleop Enabled,12,FALSE,0,NO ERROR,-0.000000,-0.012833,0.000000,-0.404249,TRUE,FALSE,FALSE,FALSE,FALSE,FALSE,Disabled,0.000000,0.000000,0.000000,TRUE,-1.234573,-6.005051,0.000000,0.125015,-0.080444,0.000000,0.001000,-0.062000,-0.084000,0.250000,-0.190000,1.130000,0.295310,Hold,54.955078,208896.000000,Hold,-127054.000000,126976.000000,Suck,-315.307617,2181.818182,Speed,-314.208984,2181.818182,Speed,On,Off0.000000,0,,,,
08:29:06.576 PM 03/17/2016,Teleop Enabled,10,FALSE,0,NO ERROR,-0.000000,-0.012833,0.000000,-0.404249,TRUE,FALSE,FALSE,FALSE,FALSE,FALSE,Disabled,0.000000,0.000000,0.000000,TRUE,-1.226440,-6.010300,0.000000,0.187653,-0.124252,0.000000,-0.038000,-0.038000,-0.106000,0.250000,-0.140000,1.160000,0.289323,Hold,54.955078,208896.000000,Hold,-127054.000000,126976.000000,Suck,-315.307617,2181.818182,Speed,-313.110352,2181.818182,Speed,On,Off0.000000,0,,,,
08:29:06.677 PM 03/17/2016,Teleop Enabled,9,FALSE,0,NO ERROR,-0.000000,-0.012833,0.000000,-0.404249,TRUE,FALSE,FALSE,FALSE,FALSE,FALSE,Disabled,0.000000,0.000000,0.000000,TRUE,-1.217209,-6.018768,0.000000,0.115143,-0.158722,0.000000,-0.088000,-0.073000,-0.042000,0.250000,-0.170000,1.140000,0.301461,Hold,54.954834,208896.000000,Hold,-127054.000000,126976.000000,Suck,-314.208984,2181.818182,Speed,-314.208984,2181.818182,Speed,On,Off0.000000,0,,,,
08:29:06.777 PM 03/17/2016,Teleop Enabled,11,FALSE,0,NO ERROR,-0.000000,-0.012833,0.000000,-0.404249,TRUE,FALSE,FALSE,FALSE,FALSE,FALSE,Disabled,0.000000,0.000000,0.000000,TRUE,-1.213211,-6.026199,0.000000,0.108078,-0.197296,0.000000,0.059000,-0.065000,0.026000,0.260000,-0.210000,1.150000,0.313400,Hold,54.954834,208896.000000,Hold,-127054.000000,126976.000000,Suck,-314.208984,2181.818182,Speed,-314.208984,2181.818182,Speed,On,Off0.000000,0,,,,
08:29:06.878 PM 03/17/2016,Teleop Enabled,12,FALSE,0,NO ERROR,-0.000000,-0.012833,0.000000,-0.404249,TRUE,FALSE,FALSE,FALSE,FALSE,FALSE,Disabled,0.000000,0.000000,0.000000,TRUE,-1.205109,-6.038574,0.000000,0.207230,-0.284348,0.000000,0.128000,-0.028000,0.067000,0.260000,-0.160000,1.150000,0.318099,Hold,54.954834,208896.000000,Hold,-127054.000000,126976.000000,Suck,-315.307617,2181.818182,Speed,-314.208984,2181.818182,Speed,On,Off0.000000,0,,,,
08:29:06.979 PM 03/17/2016,Teleop Enabled,9,FALSE,0,NO ERROR,-0.000000,-0.012833,0.000000,-0.404249,TRUE,FALSE,FALSE,FALSE,FALSE,FALSE,Disabled,0.000000,0.000000,0.000000,TRUE,-1.188766,-6.053879,0.000000,0.305801,0.000000,0.000000,0.050000,0.014000,0.109000,0.260000,-0.170000,1.150000,0.308333,Hold,54.954834,208896.000000,Hold,-127054.000000,126976.000000,Suck,-314.208984,2181.818182,Speed,-314.208984,2181.818182,Speed,On,Off0.000000,0,,,,
08:29:07.080 PM 03/17/2016,Teleop Enabled,11,FALSE,0,NO ERROR,-0.000000,-0.012833,0.000000,-0.404249,TRUE,FALSE,FALSE,FALSE,FALSE,FALSE,Disabled,0.000000,0.000000,0.000000,TRUE,-1.177429,-6.053558,0.000000,0.260757,0.017853,0.000000,-0.124000,0.053000,0.053000,0.270000,-0.180000,1.140000,0.304346,Hold,54.954834,208896.000000,Hold,-127054.000000,126976.000000,Suck,-314.208984,2181.818182,Speed,-314.208984,2181.818182,Speed,On,Off0.000000,0,,,,
08:29:07.180 PM 03/17/2016,Teleop Enabled,11,FALSE,0,NO ERROR,-0.000000,-0.012833,0.000000,-0.404249,TRUE,FALSE,FALSE,FALSE,FALSE,FALSE,Disabled,0.000000,0.000000,0.000000,TRUE,-1.165115,-6.050537,0.000000,0.184937,0.061920,0.000000,0.014000,0.018000,0.095000,0.260000,-0.170000,1.140000,0.303486,Hold,54.954834,208896.000000,Hold,-127054.000000,126976.000000,Suck,-314.208984,2181.818182,Speed,-314.208984,2181.818182,Speed,On,Off0.000000,0,,,,
08:29:07.282 PM 03/17/2016,Teleop Enabled,11,FALSE,0,NO ERROR,-0.000000,-0.012833,0.000000,-0.404249,TRUE,FALSE,FALSE,FALSE,FALSE,FALSE,Disabled,0.000000,0.000000,0.000000,TRUE,-1.154984,-6.046494,0.000000,0.215454,0.094070,0.000000,0.080000,-0.033000,0.052000,0.270000,-0.170000,1.120000,0.284049,Hold,54.954834,208896.000000,Hold,-127054.000000,126976.000000,Suck,-314.208984,2181.818182,Speed,-313.110352,2181.818182,Speed,On,Off0.000000,0,,,,
08:29:07.382 PM 03/17/2016,Teleop Enabled,10,FALSE,0,NO ERROR,-0.000000,-0.012833,0.000000,-0.404249,TRUE,FALSE,FALSE,FALSE,FALSE,FALSE,Disabled,0.000000,0.000000,0.000000,TRUE,-1.142334,-6.040604,0.000000,0.260834,0.147034,0.000000,-0.022000,0.113000,0.040000,0.260000,-0.180000,1.110000,0.287264,Hold,54.954834,208896.000000,Hold,-127054.000000,126976.000000,Suck,-314.208984,2181.818182,Speed,-313.110352,2181.818182,Speed,On,Off0.000000,0,,,,
08:29:07.483 PM 03/17/2016,Teleop Enabled,9,FALSE,0,NO ERROR,-0.000000,-0.012833,0.000000,-0.404249,TRUE,FALSE,FALSE,FALSE,FALSE,FALSE,Disabled,0.000000,0.000000,0.000000,TRUE,-1.130615,-6.030792,0.000000,0.202133,0.222977,0.000000,-0.048000,0.046000,0.041000,0.270000,-0.170000,1.120000,0.293926,Hold,54.833496,208896.000000,Hold,-127054.000000,126976.000000,Suck,-315.307617,2181.818182,Speed,-314.208984,2181.818182,Speed,On,Off0.000000,0,,,,
08:29:07.585 PM 03/17/2016,Teleop Enabled,10,FALSE,0,NO ERROR,-0.000000,-0.012833,0.000000,-0.404249,TRUE,FALSE,FALSE,FALSE,FALSE,FALSE,Disabled,0.000000,0.000000,0.000000,TRUE,-1.124268,-6.018143,0.000000,0.000000,0.271744,0.000000,-0.054000,-0.058000,-0.117000,0.260000,-0.160000,1.130000,0.279725,Hold,54.833496,208896.000000,Hold,-127054.000000,126976.000000,Suck,-315.307617,2181.818182,Speed,-314.208984,2181.818182,Speed,On,Off0.000000,0,,,,
08:29:07.685 PM 03/17/2016,Teleop Enabled,11,FALSE,0,NO ERROR,-0.000000,-0.012833,0.000000,-0.404249,TRUE,FALSE,FALSE,FALSE,FALSE,FALSE,Disabled,0.000000,0.000000,0.000000,TRUE,-1.124680,-6.005310,0.000000,-0.004196,0.242706,0.000000,0.072000,-0.036000,-0.146000,0.260000,-0.150000,1.130000,0.280599,Hold,54.310547,208896.000000,Hold,-127054.000000,126976.000000,Suck,-314.208984,2181.818182,Speed,-315.307617,2181.818182,Speed,On,Off0.000000,0,,,,
08:29:07.785 PM 03/17/2016,Teleop Enabled,10,FALSE,0,NO ERROR,-0.000000,-0.012833,0.000000,-0.404249,TRUE,FALSE,FALSE,FALSE,FALSE,FALSE,Disabled,0.000000,0.000000,0.000000,TRUE,-1.123169,-5.994263,0.000000,0.058258,0.210464,0.000000,0.048000,-0.031000,-0.112000,0.260000,-0.170000,1.120000,0.293303,Hold,53.685547,208896.000000,Hold,-127054.000000,126976.000000,Suck,-314.208984,2181.818182,Speed,-314.208984,2181.818182,Speed,On,Off0.000000,0,,,,
08:29:07.886 PM 03/17/2016,Teleop Enabled,10,FALSE,0,NO ERROR,-0.000000,-0.012833,0.000000,-0.404249,TRUE,FALSE,FALSE,FALSE,FALSE,FALSE,Disabled,0.000000,0.000000,0.000000,TRUE,-1.118851,-5.982712,0.000000,0.076141,0.191269,0.000000,-0.077000,-0.028000,-0.066000,0.260000,-0.190000,1.120000,0.281033,Hold,53.177490,208896.000000,Hold,-127054.000000,126976.000000,Suck,-315.307617,2181.818182,Speed,-314.208984,2181.818182,Speed,On,Off0.000000,0,,,,
08:29:07.986 PM 03/17/2016,Teleop Enabled,10,FALSE,0,NO ERROR,-0.000000,-0.012833,0.000000,-0.404249,TRUE,FALSE,FALSE,FALSE,FALSE,FALSE,Disabled,0.000000,0.000000,0.000000,TRUE,-1.116379,-5.973541,0.000000,0.025665,0.173309,0.000000,0.029000,-0.042000,-0.048000,0.260000,-0.160000,1.130000,0.291660,Hold,52.794434,208896.000000,Hold,-127054.000000,126976.000000,Suck,-314.208984,2181.818182,Speed,-315.307617,2181.818182,Speed,On,Off0.000000,0,,,,
08:29:08.089 PM 03/17/2016,Teleop Enabled,11,FALSE,0,NO ERROR,-0.000000,-0.012833,0.000000,-0.404249,TRUE,FALSE,FALSE,FALSE,FALSE,FALSE,Disabled,0.000000,0.000000,0.000000,TRUE,-1.114685,-5.965225,0.000000,0.042328,0.095612,0.000000,0.006000,-0.088000,0.041000,0.250000,-0.160000,1.150000,0.310347,Hold,52.384766,208896.000000,Hold,-127054.000000,126976.000000,Suck,-315.307617,2181.818182,Speed,-314.208984,2181.818182,Speed,On,Off0.000000,0,,,,
08:29:08.188 PM 03/17/2016,Teleop Enabled,10,FALSE,0,NO ERROR,-0.000000,-0.012833,0.000000,-0.404249,TRUE,FALSE,FALSE,FALSE,FALSE,FALSE,Disabled,0.000000,0.000000,0.000000,TRUE,-1.112503,-5.962479,0.000000,0.069138,0.054245,0.000000,0.098000,-0.039000,0.041000,0.260000,-0.240000,1.120000,0.295791,Hold,52.083496,208896.000000,Hold,-127054.000000,126976.000000,Suck,-315.307617,2181.818182,Speed,-314.208984,2181.818182,Speed,On,Off0.000000,0,,,,
08:29:08.288 PM 03/17/2016,Teleop Enabled,10,FALSE,0,NO ERROR,-0.000000,-0.012833,0.000000,-0.404249,TRUE,FALSE,FALSE,FALSE,FALSE,FALSE,Disabled,0.000000,0.000000,0.000000,TRUE,-1.105652,-5.960876,0.000000,0.132812,0.016388,0.000000,-0.035000,0.103000,0.090000,0.260000,-0.210000,1.100000,0.282531,Hold,51.935303,208896.000000,Hold,-127054.000000,126976.000000,Suck,-314.208984,2181.818182,Speed,-314.208984,2181.818182,Speed,On,Off0.000000,0,,,,
08:29:08.389 PM 03/17/2016,Teleop Enabled,11,FALSE,0,NO ERROR,-0.000000,-0.012833,0.000000,-0.404249,TRUE,FALSE,FALSE,FALSE,FALSE,FALSE,Disabled,0.000000,0.000000,0.000000,TRUE,-1.099335,-5.958862,0.000000,0.111099,0.055161,0.000000,0.014000,0.026000,0.115000,0.250000,-0.200000,1.120000,0.259218,Hold,51.934814,208896.000000,Hold,-127054.000000,126976.000000,Suck,-314.208984,2181.818182,Speed,-315.307617,2181.818182,Speed,On,Off0.000000,0,,,,
08:29:08.490 PM 03/17/2016,Teleop Enabled,11,FALSE,0,NO ERROR,-0.000000,-0.012833,0.000000,-0.404249,TRUE,FALSE,FALSE,FALSE,FALSE,FALSE,Disabled,0.000000,0.000000,0.000000,TRUE,-1.095474,-5.956253,0.000000,0.065826,0.039978,0.000000,0.056000,0.002000,0.136000,0.250000,-0.250000,1.100000,0.267101,Hold,51.933105,208896.000000,Hold,-127054.000000,126976.000000,Suck,-315.307617,2181.818182,Speed,-314.208984,2181.818182,Speed,On,Off0.000000,0,,,,
08:29:08.591 PM 03/17/2016,Teleop Enabled,11,FALSE,0,NO ERROR,-0.000000,-0.012833,0.000000,-0.404249,TRUE,FALSE,FALSE,FALSE,FALSE,FALSE,Disabled,0.000000,0.000000,0.000000,TRUE,-1.092453,-5.956619,0.000000,0.057739,-0.014328,0.000000,0.065000,0.034000,0.115000,0.250000,-0.270000,1.100000,0.267036,Hold,51.931641,208896.000000,Hold,-127054.000000,126976.000000,Suck,-315.307617,2181.818182,Speed,-315.307617,2181.818182,Speed,On,Off0.000000,0,,,,
08:29:08.692 PM 03/17/2016,Teleop Enabled,10,FALSE,0,NO ERROR,-0.000000,-0.012833,0.000000,-0.404249,TRUE,FALSE,FALSE,FALSE,FALSE,FALSE,Disabled,0.000000,0.000000,0.000000,TRUE,-1.088608,-5.956589,0.000000,0.083282,0.014786,0.000000,0.061000,0.054000,0.041000,0.240000,-0.190000,1.120000,0.258722,Hold,51.931885,208896.000000,Hold,-127054.000000,126976.000000,Suck,-314.208984,2181.818182,Speed,-315.307617,2181.818182,Speed,On,Off0.000000,0,,,,
08:29:08.793 PM 03/17/2016,Teleop Enabled,10,FALSE,0,NO ERROR,-0.000000,-0.012833,0.000000,-0.404249,TRUE,FALSE,FALSE,FALSE,FALSE,FALSE,Disabled,0.000000,0.000000,0.000000,TRUE,-1.083832,-5.954010,0.000000,0.096924,0.076630,0.000000,-0.052000,0.034000,0.026000,0.250000,-0.170000,1.140000,0.254656,Hold,51.931885,208896.000000,Hold,-127054.000000,126976.000000,Suck,-315.307617,2181.818182,Speed,-314.208984,2181.818182,Speed,On,Off0.000000,0,,,,
08:29:08.893 PM 03/17/2016,Teleop Enabled,10,FALSE,0,NO ERROR,-0.000000,-0.012833,0.000000,-0.404249,TRUE,FALSE,FALSE,FALSE,FALSE,FALSE,Disabled,0.000000,0.000000,0.000000,TRUE,-1.080353,-5.949081,0.000000,0.044891,0.118362,0.000000,-0.057000,-0.012000,-0.006000,0.250000,-0.220000,1.110000,0.255610,Hold,51.931885,208896.000000,Hold,-127054.000000,126976.000000,Suck,-315.307617,2181.818182,Speed,-315.307617,2181.818182,Speed,On,Off0.000000,0,,,,
08:29:08.994 PM 03/17/2016,Teleop Enabled,10,FALSE,0,NO ERROR,-0.000000,-0.012833,0.000000,-0.404249,TRUE,FALSE,FALSE,FALSE,FALSE,FALSE,Disabled,0.000000,0.000000,0.000000,TRUE,-1.079437,-5.946762,0.000000,0.009735,-0.012466,0.000000,-0.013000,-0.011000,-0.097000,0.260000,-0.220000,1.130000,0.252522,Hold,51.704590,208896.000000,Hold,-127054.000000,126976.000000,Suck,-314.208984,2181.818182,Speed,-315.307617,2181.818182,Speed,On,Off0.000000,0,,,,
08:29:09.095 PM 03/17/2016,Teleop Enabled,10,FALSE,0,NO ERROR,-0.000000,-0.012833,0.000000,-0.404249,TRUE,FALSE,FALSE,FALSE,FALSE,FALSE,Disabled,0.000000,0.000000,0.000000,TRUE,-1.079254,-5.947296,0.000000,0.010941,-0.017517,0.000000,0.058000,0.014000,-0.059000,0.250000,-0.180000,1.140000,0.268551,Hold,51.276611,208896.000000,Hold,-127054.000000,126976.000000,Suck,-314.208984,2181.818182,Speed,-314.208984,2181.818182,Speed,On,Off0.000000,0,,,,
08:29:09.195 PM 03/17/2016,Teleop Enabled,10,FALSE,0,NO ERROR,-0.000000,-0.012833,0.000000,-0.404249,TRUE,FALSE,TRUE,FALSE,FALSE,FALSE,Disabled,0.000000,0.000000,0.000000,TRUE,-1.074066,-5.947083,0.000000,0.107224,-0.001373,0.000000,0.058000,0.014000,-0.059000,0.240000,-0.200000,1.160000,0.272237,Hold,50.913574,208896.000000,Hold,-127054.000000,126976.000000,Suck,-259.277344,2181.818182,Speed,-264.770508,2181.818182,Speed,On,Off0.000000,0,,,,
08:29:09.296 PM 03/17/2016,Teleop Enabled,10,FALSE,0,NO ERROR,-0.000000,-0.012833,0.000000,-0.404249,TRUE,FALSE,TRUE,FALSE,FALSE,FALSE,Disabled,0.000000,0.000000,0.000000,TRUE,-1.074234,-5.947144,0.000000,0.003021,-0.007751,0.000000,0.015000,-0.038000,-0.005000,0.250000,-0.180000,1.130000,0.286249,Hold,50.710449,208896.000000,Hold,-127054.000000,126976.000000,Suck,-116.455078,2181.818182,Speed,-118.652344,2181.818182,Speed,On,Off0.000000,0,,,,
08:29:09.397 PM 03/17/2016,Teleop Enabled,10,FALSE,0,NO ERROR,-0.000000,-0.012833,0.000000,-0.404249,TRUE,FALSE,TRUE,FALSE,FALSE,FALSE,Disabled,0.000000,0.000000,0.000000,TRUE,-1.073364,-5.948212,0.000000,0.014999,-0.028290,0.000000,-0.050000,0.019000,-0.009000,0.240000,-0.220000,1.100000,0.282944,Hold,50.697266,208896.000000,Hold,-127054.000000,126976.000000,Suck,-215.332031,2181.818182,Speed,-217.529297,2181.818182,Speed,On,Off0.000000,0,,,,
08:29:09.497 PM 03/17/2016,Teleop Enabled,10,FALSE,0,NO ERROR,-0.000000,-0.012833,0.000000,-0.404249,TRUE,FALSE,TRUE,FALSE,FALSE,FALSE,Disabled,0.000000,0.000000,0.000000,TRUE,-1.073181,-5.950363,0.000000,-0.010422,-0.060516,0.000000,-0.049000,-0.057000,-0.075000,0.240000,-0.240000,1.100000,0.282586,Hold,51.375977,208896.000000,Hold,-127054.000000,126976.000000,Suck,-301.025391,2181.818182,Speed,-302.124023,2181.818182,Speed,On,Off0.000000,0,,,,
08:29:09.598 PM 03/17/2016,Teleop Enabled,11,FALSE,0,NO ERROR,-0.000000,-0.012833,0.000000,-0.404249,TRUE,FALSE,TRUE,FALSE,FALSE,FALSE,Disabled,0.000000,0.000000,0.000000,TRUE,-1.074326,-5.953659,0.000000,-0.031555,-0.042145,0.000000,-0.049000,-0.057000,-0.075000,0.240000,-0.220000,1.110000,0.289313,Hold,52.390625,208896.000000,Hold,-127054.000000,126976.000000,Suck,-338.378906,2181.818182,Speed,-336.181641,2181.818182,Speed,On,Off0.000000,0,,,,
08:29:09.698 PM 03/17/2016,Teleop Enabled,11,FALSE,0,NO ERROR,-0.000000,-0.012833,0.000000,-0.404249,TRUE,FALSE,TRUE,FALSE,FALSE,FALSE,Disabled,0.000000,0.000000,0.000000,TRUE,-1.076538,-5.954239,0.000000,-0.039795,0.000000,0.000000,0.033000,-0.012000,-0.077000,0.230000,-0.190000,1.130000,0.273446,Hold,52.838867,208896.000000,Hold,-127054.000000,126976.000000,Suck,-320.800781,2181.818182,Speed,-318.603516,2181.818182,Speed,On,Off0.000000,0,,,,
08:29:09.798 PM 03/17/2016,Teleop Enabled,9,FALSE,0,NO ERROR,-0.000000,-0.012833,0.000000,-0.404249,TRUE,FALSE,TRUE,FALSE,FALSE,FALSE,Disabled,0.000000,0.000000,0.000000,TRUE,-1.077301,-5.954895,0.000000,0.002533,-0.027588,0.000000,0.033000,-0.012000,-0.077000,0.240000,-0.200000,1.160000,0.291705,Hold,52.971436,208896.000000,Hold,-127054.000000,126976.000000,Suck,-307.617188,2181.818182,Speed,-308.715820,2181.818182,Speed,On,Off0.000000,0,,,,
08:29:09.898 PM 03/17/2016,Teleop Enabled,9,FALSE,0,NO ERROR,-0.000000,-0.012833,0.000000,-0.404249,TRUE,FALSE,TRUE,FALSE,FALSE,FALSE,Disabled,0.000000,0.000000,0.000000,TRUE,-1.078613,-5.956863,0.000000,-0.058853,-0.056412,0.000000,-0.105000,-0.107000,-0.098000,0.240000,-0.230000,1.140000,0.293426,Hold,53.606201,208896.000000,Hold,-127054.000000,126976.000000,Suck,-312.011719,2181.818182,Speed,-309.814453,2181.818182,Speed,On,Off0.000000,0,,,,
08:29:09.999 PM 03/17/2016,Teleop Enabled,10,FALSE,0,NO ERROR,-0.000000,-0.012833,0.000000,-0.404249,TRUE,FALSE,TRUE,FALSE,FALSE,FALSE,Disabled,0.000000,0.000000,0.000000,TRUE,-1.083298,-5.961853,0.000000,-0.109360,-0.127853,0.000000,0.042000,-0.141000,-0.013000,0.240000,-0.260000,1.140000,0.307868,Hold,54.184082,208896.000000,Hold,-127054.000000,126976.000000,Suck,-317.504883,2181.818182,Speed,-314.208984,2181.818182,Speed,On,Off0.000000,0,,,,
08:29:10.099 PM 03/17/2016,Teleop Enabled,10,FALSE,0,NO ERROR,-0.000000,-0.012833,0.000000,-0.404249,TRUE,FALSE,TRUE,FALSE,FALSE,FALSE,Disabled,0.000000,0.000000,0.000000,TRUE,-1.088379,-5.974014,0.000000,-0.059341,-0.247849,0.000000,0.042000,-0.141000,-0.013000,0.240000,-0.260000,1.140000,0.319944,Hold,54.278076,208896.000000,Hold,-127054.000000,126976.000000,Suck,-316.406250,2181.818182,Speed,-315.307617,2181.818182,Speed,On,Off0.000000,0,,,,
08:29:10.199 PM 03/17/2016,Teleop Enabled,9,FALSE,0,NO ERROR,-0.000000,-0.012833,0.000000,-0.404249,TRUE,FALSE,TRUE,FALSE,FALSE,FALSE,Disabled,0.000000,0.000000,0.000000,TRUE,-1.089340,-5.987686,0.000000,0.013931,-0.276230,0.000000,0.078000,-0.072000,0.011000,0.250000,-0.290000,1.140000,0.315600,Hold,54.278076,208896.000000,Hold,-127054.000000,126976.000000,Suck,-314.208984,2181.818182,Speed,-314.208984,2181.818182,Speed,On,Off0.000000,0,,,,
08:29:10.300 PM 03/17/2016,Teleop Enabled,10,FALSE,0,NO ERROR,-0.000000,-0.012833,0.000000,-0.404249,TRUE,FALSE,TRUE,FALSE,FALSE,FALSE,Disabled,0.000000,0.000000,0.000000,TRUE,-1.088104,-5.997726,0.000000,0.029388,-0.232574,0.000000,0.068000,0.029000,-0.023000,0.240000,-0.270000,1.140000,0.305458,Hold,54.278076,208896.000000,Hold,-127054.000000,126976.000000,Suck,-314.208984,2181.818182,Speed,-313.110352,2181.818182,Speed,On,Off0.000000,0,,,,
08:29:10.400 PM 03/17/2016,Teleop Enabled,10,FALSE,0,NO ERROR,-0.000000,-0.012833,0.000000,-0.404249,TRUE,FALSE,TRUE,FALSE,FALSE,FALSE,Disabled,0.000000,0.000000,0.000000,TRUE,-1.090195,-6.008896,0.000000,-0.072464,-0.165527,0.000000,-0.014000,0.025000,0.013000,0.250000,-0.220000,1.150000,0.304591,Hold,54.278076,208896.000000,Hold,-127054.000000,126976.000000,Hold,-315.307617,0.000000,Speed,-314.208984,0.000000,Speed,Off,Off0.000000,0,,,,
08:29:10.500 PM 03/17/2016,Teleop Enabled,10,FALSE,0,NO ERROR,-0.000000,-0.012833,0.000000,-0.404249,TRUE,FALSE,TRUE,FALSE,FALSE,FALSE,Disabled,0.000000,0.000000,0.000000,TRUE,-1.094986,-6.015930,0.000000,-0.102936,-0.120285,0.000000,-0.014000,0.025000,0.013000,0.250000,-0.220000,1.150000,0.302649,Hold,54.278076,208896.000000,Hold,-127054.000000,126976.000000,Hold,-312.011719,0.000000,Speed,-309.814453,0.000000,Speed,Off,Off0.000000,0,,,,
08:29:10.601 PM 03/17/2016,Teleop Enabled,10,FALSE,0,NO ERROR,-0.000000,-0.012833,0.000000,-0.404249,TRUE,FALSE,TRUE,FALSE,FALSE,FALSE,Disabled,0.000000,0.000000,0.000000,TRUE,-1.098846,-6.021011,0.000000,0.000000,-0.091888,0.000000,0.055000,0.034000,0.063000,0.250000,-0.250000,1.130000,0.290528,Hold,54.278076,208896.000000,Hold,-127054.000000,126976.000000,Hold,-291.137695,0.000000,Speed,-288.940430,0.000000,Speed,Off,Off0.000000,0,,,,
08:29:10.701 PM 03/17/2016,Teleop Enabled,10,FALSE,0,NO ERROR,-0.000000,-0.012833,0.000000,-0.404249,TRUE,FALSE,TRUE,FALSE,FALSE,FALSE,Disabled,0.000000,0.000000,0.000000,TRUE,-1.098846,-6.021011,0.000000,0.000000,-0.091888,0.000000,0.033000,-0.009000,0.011000,0.260000,-0.260000,1.140000,0.293963,Hold,54.278076,208896.000000,Hold,-127054.000000,126976.000000,Hold,-270.263672,0.000000,Speed,-269.165039,0.000000,Speed,Off,Off0.000000,0,,,,
08:29:10.802 PM 03/17/2016,Teleop Enabled,10,FALSE,0,NO ERROR,-0.000000,-0.012833,0.000000,-0.404249,TRUE,FALSE,TRUE,FALSE,FALSE,FALSE,Disabled,0.000000,0.000000,0.000000,TRUE,-1.101181,-6.024261,0.000000,-0.070816,0.010239,0.000000,0.018000,0.080000,0.054000,0.260000,-0.300000,1.150000,0.282672,Hold,54.278076,208896.000000,Hold,-127054.000000,126976.000000,Hold,-246.093750,0.000000,Speed,-246.093750,0.000000,Speed,Off,Off0.000000,0,,,,
08:29:10.902 PM 03/17/2016,Teleop Enabled,10,FALSE,0,NO ERROR,-0.000000,-0.012833,0.000000,-0.404249,TRUE,FALSE,TRUE,FALSE,FALSE,FALSE,Disabled,0.000000,0.000000,0.000000,TRUE,-1.102783,-6.024826,0.000000,-0.013947,-0.024185,0.000000,0.064000,-0.059000,0.022000,0.250000,-0.280000,1.150000,0.297320,Hold,54.278076,208896.000000,Hold,-127054.000000,126976.000000,Hold,-221.923828,0.000000,Speed,-223.022461,0.000000,Speed,Off,Off0.000000,0,,,,
08:29:11.002 PM 03/17/2016,Teleop Enabled,10,FALSE,0,NO ERROR,-0.000000,-0.012833,0.000000,-0.404249,TRUE,FALSE,TRUE,FALSE,FALSE,FALSE,Disabled,0.000000,0.000000,0.000000,TRUE,-1.103760,-6.026169,0.000000,-0.003052,0.000000,0.000000,-0.046000,-0.016000,-0.031000,0.250000,-0.230000,1.160000,0.307062,Hold,54.278076,208896.000000,Hold,-127054.000000,126976.000000,Hold,-196.655273,0.000000,Speed,-201.049805,0.000000,Speed,Off,Off0.000000,0,,,,
08:29:11.102 PM 03/17/2016,Teleop Enabled,10,FALSE,0,NO ERROR,-0.000000,-0.012833,0.000000,-0.404249,TRUE,FALSE,TRUE,FALSE,FALSE,FALSE,Disabled,0.000000,0.000000,0.000000,TRUE,-1.103760,-6.026169,0.000000,-0.003052,0.000000,0.000000,0.070000,0.004000,0.063000,0.250000,-0.220000,1.150000,0.320564,Hold,54.278076,208896.000000,Hold,-127054.000000,126976.000000,Hold,-172.485352,0.000000,Speed,-179.077148,0.000000,Speed,Off,Off0.000000,0,,,,
08:29:11.202 PM 03/17/2016,Teleop Enabled,9,FALSE,0,NO ERROR,-0.000000,-0.012833,0.000000,-0.404249,TRUE,FALSE,TRUE,FALSE,FALSE,FALSE,Disabled,0.000000,0.000000,0.000000,TRUE,-1.104187,-6.025986,0.000000,-0.023270,0.000000,0.000000,0.056000,0.006000,0.007000,0.260000,-0.270000,1.130000,0.315999,Hold,54.278076,208896.000000,Hold,-127054.000000,126976.000000,Hold,-153.808594,0.000000,Speed,-158.203125,0.000000,Speed,Off,Off0.000000,0,,,,
08:29:11.302 PM 03/17/2016,Teleop Enabled,9,FALSE,0,NO ERROR,-0.000000,-0.012833,0.000000,-0.404249,TRUE,FALSE,TRUE,FALSE,FALSE,FALSE,Disabled,0.000000,0.000000,0.000000,TRUE,-1.104553,-6.025574,0.000000,-0.010132,0.007584,0.000000,-0.005000,-0.048000,0.004000,0.250000,-0.300000,1.140000,0.315314,Hold,54.278076,208896.000000,Hold,-127054.000000,126976.000000,Hold,-130.737305,0.000000,Speed,-137.329102,0.000000,Speed,Off,Off0.000000,0,,,,
08:29:11.404 PM 03/17/2016,Teleop Enabled,10,FALSE,0,NO ERROR,-0.000000,-0.012833,0.000000,-0.404249,TRUE,FALSE,TRUE,FALSE,FALSE,FALSE,Disabled,0.000000,0.000000,0.000000,TRUE,-1.104462,-6.025589,0.000000,0.017273,0.000000,0.000000,0.036000,0.012000,0.035000,0.250000,-0.310000,1.130000,0.315314,Hold,54.278076,208896.000000,Hold,-127054.000000,126976.000000,Hold,-108.764648,0.000000,Speed,-117.553711,0.000000,Speed,Off,Off0.000000,0,,,,
08:29:11.504 PM 03/17/2016,Teleop Enabled,10,FALSE,0,NO ERROR,-0.000000,-0.012833,0.000000,-0.404249,TRUE,FALSE,TRUE,FALSE,FALSE,FALSE,Disabled,0.000000,0.000000,0.000000,TRUE,-1.102432,-6.025543,0.000000,0.038574,0.003708,0.000000,-0.029000,-0.023000,0.012000,0.250000,-0.320000,1.150000,0.326372,Hold,54.278076,208896.000000,Hold,-127054.000000,126976.000000,Hold,-87.890625,0.000000,Speed,-101.074219,0.000000,Speed,Off,Off0.000000,0,,,,
08:29:11.605 PM 03/17/2016,Teleop Enabled,10,FALSE,0,NO ERROR,-0.000000,-0.012833,0.000000,-0.404249,TRUE,FALSE,TRUE,FALSE,FALSE,FALSE,Disabled,0.000000,0.000000,0.000000,TRUE,-1.100723,-6.025238,0.000000,0.042282,0.010773,0.000000,0.029000,-0.003000,0.002000,0.250000,-0.340000,1.120000,0.317011,Hold,54.278076,208896.000000,Hold,-127054.000000,126976.000000,LowGoal,-65.917969,-2181.818182,Speed,-81.298828,-2181.818182,Speed,Off,Off0.000000,0,,,,
08:29:11.706 PM 03/17/2016,Teleop Enabled,10,FALSE,0,NO ERROR,-0.000000,-0.012833,0.000000,-0.404249,TRUE,FALSE,TRUE,FALSE,FALSE,FALSE,Disabled,0.000000,0.000000,0.000000,TRUE,-1.097809,-6.025238,0.000000,0.064835,0.000000,0.000000,0.032000,0.004000,0.025000,0.250000,-0.360000,1.120000,0.330317,Hold,54.278809,208896.000000,Hold,-127054.000000,126976.000000,LowGoal,-36.254883,-2181.818182,Speed,-38.452148,-2181.818182,Speed,Off,Off0.000000,0,,,,
08:29:11.807 PM 03/17/2016,Teleop Enabled,6,FALSE,0,NO ERROR,-0.000000,-0.012833,0.000000,-0.404249,TRUE,FALSE,TRUE,FALSE,FALSE,FALSE,Disabled,0.000000,0.000000,0.000000,TRUE,-1.096344,-6.025436,0.000000,0.004852,0.001953,0.000000,0.046000,0.055000,0.031000,0.250000,-0.310000,1.110000,0.333271,Hold,54.278809,208896.000000,Hold,-127054.000000,126976.000000,LowGoal,72.509766,-2181.818182,Speed,61.523438,-2181.818182,Speed,Off,Off0.000000,0,,,,
