Time,Robot Mode,Loop Time,Error Status,Error Code,Error Source,Left Motor Output,Left Motor Encoder,Right Motor Output,Right Motor Encoder,Is Level,Is Stalled,Ball Detector Photoeye,Vision Enabled,Vision Teleop Control,Vision Auto Control,Vision Current State,Vision X Output,Vision NavX Error,Vision NavX Target,NavX Connection Status,NavX Displacement X,NavX Displacement Y,NavX Displacement Z,NavX Velocity X,NavX Velocity Y,NavX Velocity Z,NavX Acceleration X,NavX Acceleration Y,NavX Acceleration Z,NavX Pitch,NavX Yaw,NavX Roll,Gyro Angle,Roller Arm State,Roller Arm Actual,Roller Arm Desired,Shooter Arm State,Shooter Arm Actual,Shooter Arm Desired,Shooter State,Actual RPM Left,Desired RPM Left,Control Mode Left,Actual RPM Right,Desired RPM Right,Scaler Motor Output,Auto To Run,Auto Current File,Auto File Status,Auto Current Command,Auto Trimmed Command
02:02:35.747 PM 03/19/2016,Teleop Enabled,10,FALSE,0,NO ERROR,-0.000000,0.000000,0.000000,0.000000,TRUE,TRUE,TRUE,FALSE,FALSE,FALSE,Disabled,0.000000,0.000000,0.000000,TRUE,-0.002151,0.001358,0.000000,0.000000,0.000000,0.000000,0.000000,0.000000,0.016000,-0.010000,-0.650000,2.290000,-0.071526,ResetBack,0.000000,-0.200000,ResetBack,0.000000,-0.300000,LowGoal,0.000000,-1454.545455,Speed,0.000000,-1454.545455,Speed,Off,Off0.000000,0,,,,
02:02:35.848 PM 03/19/2016,Teleop Enabled,9,FALSE,0,NO ERROR,-0.000000,0.000000,0.000000,0.000000,TRUE,TRUE,TRUE,FALSE,FALSE,FALSE,Disabled,0.000000,0.000000,0.000000,TRUE,-0.002151,0.001495,0.000000,0.000000,0.008911,0.000000,-0.006000,0.008000,0.076000,-0.010000,-0.640000,2.290000,-0.072796,ResetBack,-0.608887,-0.200000,ResetBack,0.000000,-0.300000,LowGoal,0.000000,0.000000,Speed,0.000000,0.000000,Speed,Off,Off0.000000,0,,,,
02:02:35.948 PM 03/19/2016,Teleop Enabled,10,FALSE,0,NO ERROR,-0.000000,-0.006417,0.000000,-0.032083,TRUE,FALSE,TRUE,FALSE,FALSE,FALSE,Disabled,0.000000,0.000000,0.000000,TRUE,-0.000809,0.002533,0.000000,0.033875,0.021286,0.000000,-0.056000,0.008000,0.019000,0.000000,-0.580000,2.300000,-0.052134,ResetBack,-1.250732,-0.200000,ResetBack,1121.000000,-0.300000,LowGoal,187.500000,0.000000,Speed,135.000000,0.000000,Speed,Off,Off0.000000,0,,,,
02:02:36.048 PM 03/19/2016,Teleop Enabled,11,FALSE,0,NO ERROR,-0.000000,-0.006417,0.000000,-0.038500,TRUE,FALSE,TRUE,FALSE,FALSE,FALSE,Disabled,0.000000,0.000000,0.000000,TRUE,-0.000076,0.003433,0.000000,0.009750,0.012177,0.000000,-0.049000,-0.003000,0.033000,0.000000,-0.680000,2.310000,-0.065901,ResetBack,-1.250977,-0.200000,ResetBack,7137.000000,-0.300000,LowGoal,255.000000,-1454.545455,Speed,150.000000,-1454.545455,Speed,Off,Off0.000000,0,,,,
02:02:36.148 PM 03/19/2016,Teleop Enabled,10,FALSE,0,NO ERROR,-0.000000,0.000000,0.000000,-0.012833,TRUE,FALSE,TRUE,FALSE,FALSE,FALSE,Disabled,0.000000,0.000000,0.000000,TRUE,0.000153,0.003708,0.000000,0.012772,0.007996,0.000000,0.050000,0.032000,0.028000,0.000000,-0.640000,2.270000,-0.057797,Reset,-1.223389,0.000000,ResetBack,14276.000000,-0.300000,LowGoal,90.000000,-1454.545455,Speed,90.000000,-1454.545455,Speed,Off,Off0.000000,0,,,,
02:02:36.249 PM 03/19/2016,Teleop Enabled,10,FALSE,0,NO ERROR,-0.000000,0.006417,0.000000,-0.006417,TRUE,FALSE,TRUE,FALSE,FALSE,FALSE,Disabled,0.000000,0.000000,0.000000,TRUE,0.002457,0.005081,0.000000,0.066742,0.036774,0.000000,-0.060000,-0.001000,-0.008000,0.000000,-0.620000,2.350000,-0.054606,Hold,0.917480,0.000000,ResetBack,19923.000000,-0.300000,LowGoal,570.000000,-1454.545455,Speed,735.000000,-1454.545455,Speed,Off,Off0.000000,0,,,,
02:02:36.349 PM 03/19/2016,Teleop Enabled,10,FALSE,0,NO ERROR,-0.000000,0.000000,0.000000,-0.019250,TRUE,FALSE,TRUE,FALSE,FALSE,FALSE,Disabled,0.000000,0.000000,0.000000,TRUE,0.006134,0.004639,0.000000,0.089798,-0.021255,0.000000,0.068000,-0.006000,0.008000,0.000000,-0.570000,2.390000,-0.050826,Hold,0.952637,0.000000,ResetBack,19923.000000,-0.300000,LowGoal,1237.500000,-1454.545455,Speed,1372.500000,-1454.545455,Speed,Off,Off0.000000,0,,,,
02:02:36.450 PM 03/19/2016,Teleop Enabled,9,FALSE,0,NO ERROR,-0.000000,0.000000,0.000000,-0.025667,TRUE,FALSE,TRUE,FALSE,FALSE,FALSE,Disabled,0.000000,0.000000,0.000000,TRUE,0.008957,0.003708,0.000000,0.044693,-0.005951,0.000000,0.060000,0.044000,0.006000,-0.010000,-0.680000,2.370000,-0.056847,Hold,0.941895,0.000000,ResetBack,25789.000000,-0.300000,LowGoal,1522.500000,-1454.545455,Speed,1537.500000,-1454.545455,Speed,Off,Off0.000000,0,,,,
02:02:36.550 PM 03/19/2016,Teleop Enabled,11,FALSE,0,NO ERROR,-0.000000,0.000000,0.000000,-0.025667,TRUE,FALSE,TRUE,FALSE,FALSE,FALSE,Disabled,0.000000,0.000000,0.000000,TRUE,0.011826,0.003616,0.000000,0.060623,-0.008133,0.000000,-0.029000,-0.078000,0.000000,-0.010000,-0.560000,2.320000,-0.062544,Hold,0.941895,0.000000,ResetBack,33760.000000,-0.300000,LowGoal,1402.500000,-1454.545455,Speed,1320.000000,-1454.545455,Speed,Off,Off0.000000,0,,,,
02:02:36.652 PM 03/19/2016,Teleop Enabled,11,FALSE,0,NO ERROR,-0.000000,0.000000,0.000000,-0.025667,TRUE,FALSE,TRUE,FALSE,FALSE,FALSE,Disabled,0.000000,0.000000,0.000000,TRUE,0.015228,0.002975,0.000000,0.045624,-0.004883,0.000000,-0.004000,-0.001000,0.034000,0.000000,-0.520000,2.390000,-0.063501,Hold,0.941895,0.000000,ResetBack,42358.000000,-0.300000,LowGoal,1260.000000,-1454.545455,Speed,1282.500000,-1454.545455,Speed,Off,Off0.000000,0,,,,
02:02:36.753 PM 03/19/2016,Teleop Enabled,11,FALSE,0,NO ERROR,-0.000000,0.000000,0.000000,-0.025667,TRUE,FALSE,TRUE,FALSE,FALSE,FALSE,Disabled,0.000000,0.000000,0.000000,TRUE,0.017792,0.003036,0.000000,0.045502,0.001617,0.000000,-0.021000,-0.033000,-0.001000,-0.010000,-0.520000,2.390000,-0.067787,Hold,0.941895,0.000000,ResetBack,51268.000000,-0.300000,LowGoal,1320.000000,-1454.545455,Speed,1357.500000,-1454.545455,Speed,Off,Off0.000000,0,,,,
02:02:36.853 PM 03/19/2016,Teleop Enabled,10,FALSE,0,NO ERROR,-0.000000,0.000000,0.000000,-0.025667,TRUE,FALSE,TRUE,FALSE,FALSE,FALSE,Disabled,0.000000,0.000000,0.000000,TRUE,0.020157,0.002823,0.000000,0.045456,0.001541,0.000000,-0.023000,0.002000,0.021000,-0.010000,-0.550000,2.340000,-0.066868,Hold,0.941895,0.000000,ResetBack,60635.000000,-0.300000,LowGoal,1372.500000,-1454.545455,Speed,1372.500000,-1454.545455,Speed,Off,Off0.000000,0,,,,
02:02:36.953 PM 03/19/2016,Teleop Enabled,10,FALSE,0,NO ERROR,-0.000000,0.000000,0.000000,-0.019250,TRUE,FALSE,TRUE,FALSE,FALSE,FALSE,Disabled,0.000000,0.000000,0.000000,TRUE,0.022125,0.002563,0.000000,0.028748,-0.011917,0.000000,-0.023000,0.002000,0.021000,-0.030000,-0.420000,2.320000,-0.064269,Hold,0.941895,0.000000,ResetBack,70620.000000,-0.300000,LowGoal,1342.500000,-1454.545455,Speed,1350.000000,-1454.545455,Speed,Off,Off0.000000,0,,,,
02:02:37.054 PM 03/19/2016,Teleop Enabled,9,FALSE,0,NO ERROR,-0.000000,0.032083,0.000000,0.019250,TRUE,FALSE,TRUE,FALSE,FALSE,FALSE,Disabled,0.000000,0.000000,0.000000,TRUE,0.023361,0.002655,0.000000,0.049225,0.014938,0.000000,-0.059000,-0.002000,-0.084000,-0.030000,-0.450000,2.340000,-0.099421,Hold,0.941895,0.000000,Reset,70620.000000,2.000000,LowGoal,1327.500000,-1454.545455,Speed,1342.500000,-1454.545455,Speed,Off,Off0.000000,0,,,,
02:02:37.154 PM 03/19/2016,Teleop Enabled,11,FALSE,0,NO ERROR,-0.000000,0.019250,0.000000,0.000000,TRUE,FALSE,TRUE,FALSE,FALSE,FALSE,Disabled,0.000000,0.000000,0.000000,TRUE,0.025970,0.002411,0.000000,0.047379,0.004868,0.000000,0.006000,-0.058000,-0.017000,-0.020000,-0.420000,2.340000,-0.090360,Hold,0.941895,0.000000,Hold,68.000000,2.000000,LowGoal,1335.000000,-1454.545455,Speed,1357.500000,-1454.545455,Speed,Off,Off0.000000,0,,,,
02:02:37.255 PM 03/19/2016,Teleop Enabled,10,FALSE,0,NO ERROR,-0.000000,0.019250,0.000000,-0.025667,TRUE,FALSE,TRUE,FALSE,FALSE,FALSE,Disabled,0.000000,0.000000,0.000000,TRUE,0.027664,0.002792,0.000000,0.000000,0.021347,0.000000,-0.073000,-0.052000,0.010000,-0.020000,-0.490000,2.410000,-0.093799,Hold,0.941895,0.000000,Hold,-152.000000,2.000000,LowGoal,1350.000000,-1454.545455,Speed,1350.000000,-1454.545455,Speed,Off,Off0.000000,0,,,,
02:02:37.355 PM 03/19/2016,Teleop Enabled,10,FALSE,0,NO ERROR,-0.000000,0.019250,0.000000,-0.025667,TRUE,FALSE,TRUE,FALSE,FALSE,FALSE,Disabled,0.000000,0.000000,0.000000,TRUE,0.027023,0.003464,0.000000,-0.013824,0.018143,0.000000,-0.010000,-0.014000,0.074000,-0.020000,-0.560000,2.340000,-0.077671,Hold,0.941895,0.000000,Hold,-152.000000,2.000000,LowGoal,1342.500000,-1454.545455,Speed,1350.000000,-1454.545455,Speed,Off,Off0.000000,0,,,,
02:02:37.455 PM 03/19/2016,Teleop Enabled,10,FALSE,0,NO ERROR,-0.000000,0.019250,0.000000,-0.025667,TRUE,FALSE,TRUE,FALSE,FALSE,FALSE,Disabled,0.000000,0.000000,0.000000,TRUE,0.025604,0.004379,0.000000,-0.026108,0.016953,0.000000,0.021000,0.093000,0.047000,-0.020000,-0.520000,2.380000,-0.086832,Hold,0.941895,0.000000,Hold,-152.000000,2.000000,LowGoal,1342.500000,-1454.545455,Speed,1357.500000,-1454.545455,Speed,Off,Off0.000000,0,,,,
02:02:37.555 PM 03/19/2016,Teleop Enabled,9,FALSE,0,NO ERROR,-0.000000,0.019250,0.000000,-0.025667,TRUE,FALSE,TRUE,FALSE,FALSE,FALSE,Disabled,0.000000,0.000000,0.000000,TRUE,0.024323,0.005234,0.000000,-0.033920,0.022644,0.000000,-0.020000,0.010000,0.031000,-0.020000,-0.520000,2.380000,-0.074521,Hold,0.941895,0.000000,Hold,-152.000000,2.000000,LowGoal,1342.500000,-1454.545455,Speed,1357.500000,-1454.545455,Speed,Off,Off0.000000,0,,,,
02:02:37.656 PM 03/19/2016,Teleop Enabled,9,FALSE,0,NO ERROR,-0.000000,0.019250,0.000000,-0.025667,TRUE,FALSE,TRUE,FALSE,FALSE,FALSE,Disabled,0.000000,0.000000,0.000000,TRUE,0.022018,0.006348,0.000000,-0.036667,0.016129,0.000000,-0.092000,0.038000,0.053000,-0.020000,-0.520000,2.400000,-0.063357,Hold,0.941895,0.000000,Hold,-152.000000,2.000000,LowGoal,1342.500000,-1454.545455,Speed,1357.500000,-1454.545455,Speed,Off,Off0.000000,0,,,,
02:02:37.757 PM 03/19/2016,Teleop Enabled,10,FALSE,0,NO ERROR,-0.000000,0.019250,0.000000,-0.025667,TRUE,FALSE,TRUE,FALSE,FALSE,FALSE,Disabled,0.000000,0.000000,0.000000,TRUE,0.019913,0.007553,0.000000,-0.045685,0.024429,0.000000,-0.092000,0.038000,0.053000,-0.020000,-0.520000,2.400000,-0.047191,Hold,0.941895,0.000000,Hold,-152.000000,2.000000,LowGoal,1335.000000,-1454.545455,Speed,1350.000000,-1454.545455,Speed,Off,Off0.000000,0,,,,
02:02:37.859 PM 03/19/2016,Teleop Enabled,10,FALSE,0,NO ERROR,-0.000000,0.019250,0.000000,-0.025667,TRUE,FALSE,TRUE,FALSE,FALSE,FALSE,Disabled,0.000000,0.000000,0.000000,TRUE,0.018036,0.007904,0.000000,-0.033112,-0.013947,0.000000,0.023000,0.008000,0.039000,-0.020000,-0.490000,2.340000,-0.063377,Hold,0.941895,0.000000,Hold,-152.000000,2.000000,LowGoal,1350.000000,-1454.545455,Speed,1350.000000,-1454.545455,Speed,Off,Off0.000000,0,,,,
02:02:37.958 PM 03/19/2016,Teleop Enabled,9,FALSE,0,NO ERROR,-0.000000,0.019250,0.000000,-0.025667,TRUE,FALSE,TRUE,FALSE,FALSE,FALSE,Disabled,0.000000,0.000000,0.000000,TRUE,0.015228,0.008194,0.000000,-0.066727,0.013275,0.000000,0.073000,-0.040000,0.015000,-0.020000,-0.570000,2.340000,-0.066428,Hold,0.941895,0.000000,Hold,-152.000000,2.000000,LowGoal,1342.500000,-1454.545455,Speed,1350.000000,-1454.545455,Speed,Off,Off0.000000,0,,,,
02:02:38.062 PM 03/19/2016,Teleop Enabled,10,FALSE,0,NO ERROR,-0.000000,0.019250,0.000000,-0.025667,TRUE,FALSE,TRUE,FALSE,FALSE,FALSE,Disabled,0.000000,0.000000,0.000000,TRUE,0.011963,0.007874,0.000000,-0.055557,-0.016678,0.000000,0.129000,0.007000,-0.009000,-0.020000,-0.570000,2.340000,-0.081372,Hold,0.941895,0.000000,Hold,-152.000000,2.000000,LowGoal,1342.500000,-1454.545455,Speed,1357.500000,-1454.545455,Speed,Off,Off0.000000,0,,,,
02:02:38.160 PM 03/19/2016,Teleop Enabled,9,FALSE,0,NO ERROR,-0.000000,0.019250,0.000000,-0.025667,TRUE,FALSE,TRUE,FALSE,FALSE,FALSE,Disabled,0.000000,0.000000,0.000000,TRUE,0.008423,0.007095,0.000000,-0.084793,-0.003769,0.000000,0.129000,0.007000,-0.009000,-0.020000,-0.520000,2.300000,-0.078848,Hold,0.941895,0.000000,Hold,-152.000000,2.000000,LowGoal,1342.500000,-1454.545455,Speed,1350.000000,-1454.545455,Speed,Off,Off0.000000,0,,,,
02:02:38.260 PM 03/19/2016,Teleop Enabled,10,FALSE,0,NO ERROR,-0.000000,0.019250,0.000000,-0.025667,TRUE,FALSE,TRUE,FALSE,FALSE,FALSE,Disabled,0.000000,0.000000,0.000000,TRUE,0.004196,0.006256,0.000000,-0.081863,-0.034714,0.000000,0.101000,-0.075000,0.093000,-0.010000,-0.610000,2.260000,-0.080339,Hold,0.941895,0.000000,Hold,-152.000000,2.000000,LowGoal,1350.000000,-1454.545455,Speed,1357.500000,-1454.545455,Speed,Off,Off0.000000,0,,,,
02:02:38.361 PM 03/19/2016,Teleop Enabled,10,FALSE,0,NO ERROR,-0.000000,0.019250,0.000000,-0.025667,TRUE,FALSE,TRUE,FALSE,FALSE,FALSE,Disabled,0.000000,0.000000,0.000000,TRUE,0.000092,0.005280,0.000000,-0.083282,-0.015549,0.000000,0.101000,-0.075000,0.093000,-0.010000,-0.610000,2.260000,-0.086298,Hold,0.941895,0.000000,Hold,-152.000000,2.000000,LowGoal,1350.000000,-1454.545455,Speed,1357.500000,-1454.545455,Speed,Off,Off0.000000,0,,,,
02:02:38.463 PM 03/19/2016,Teleop Enabled,11,FALSE,0,NO ERROR,-0.000000,0.019250,0.000000,-0.025667,TRUE,FALSE,TRUE,FALSE,FALSE,FALSE,Disabled,0.000000,0.000000,0.000000,TRUE,0.000046,0.004852,0.000000,0.006058,0.004318,0.000000,-0.008000,0.035000,0.018000,-0.010000,-0.630000,2.270000,-0.094588,Hold,0.941895,0.000000,Hold,-152.000000,2.000000,LowGoal,1342.500000,-1454.545455,Speed,1350.000000,-1454.545455,Speed,Off,Off0.000000,0,,,,
02:02:38.564 PM 03/19/2016,Teleop Enabled,10,FALSE,0,NO ERROR,-0.000000,0.019250,0.000000,-0.025667,TRUE,FALSE,TRUE,FALSE,FALSE,FALSE,Disabled,0.000000,0.000000,0.000000,TRUE,0.000275,0.005249,0.000000,-0.001312,0.021057,0.000000,0.026000,-0.046000,-0.109000,-0.010000,-0.590000,2.290000,-0.103662,Hold,0.941895,0.000000,Hold,-152.000000,2.000000,LowGoal,1350.000000,-1454.545455,Speed,1350.000000,-1454.545455,Speed,Off,Off0.000000,0,,,,
02:02:38.665 PM 03/19/2016,Teleop Enabled,10,FALSE,0,NO ERROR,-0.000000,0.019250,0.000000,-0.025667,TRUE,FALSE,TRUE,FALSE,FALSE,FALSE,Disabled,0.000000,0.000000,0.000000,TRUE,0.000412,0.005295,0.000000,0.014709,-0.017242,0.000000,0.068000,0.006000,0.075000,-0.010000,-0.650000,2.320000,-0.116827,Hold,0.941895,0.000000,Hold,-152.000000,2.000000,LowGoal,1335.000000,-1454.545455,Speed,1357.500000,-1454.545455,Speed,Off,Off0.000000,0,,,,
02:02:38.766 PM 03/19/2016,Teleop Enabled,9,FALSE,0,NO ERROR,-0.000000,0.019250,0.000000,-0.025667,TRUE,FALSE,TRUE,FALSE,FALSE,FALSE,Disabled,0.000000,0.000000,0.000000,TRUE,0.000793,0.004929,0.000000,-0.001572,0.005707,0.000000,-0.002000,-0.048000,0.030000,-0.010000,-0.600000,2.340000,-0.118252,Hold,0.941895,0.000000,Hold,-152.000000,2.000000,LowGoal,1342.500000,-1454.545455,Speed,1350.000000,-1454.545455,Speed,Off,Off0.000000,0,,,,
02:02:38.866 PM 03/19/2016,Teleop Enabled,10,FALSE,0,NO ERROR,-0.000000,0.019250,0.000000,-0.025667,TRUE,FALSE,TRUE,FALSE,FALSE,FALSE,Disabled,0.000000,0.000000,0.000000,TRUE,0.000778,0.005219,0.000000,0.011627,0.000946,0.000000,0.003000,0.101000,-0.005000,-0.010000,-0.650000,2.360000,-0.127526,Hold,0.941895,0.000000,Hold,-152.000000,2.000000,LowGoal,1342.500000,-1454.545455,Speed,1350.000000,-1454.545455,Speed,Off,Off0.000000,0,,,,
02:02:38.967 PM 03/19/2016,Teleop Enabled,10,FALSE,0,NO ERROR,-0.000000,0.019250,0.000000,-0.025667,TRUE,FALSE,TRUE,FALSE,FALSE,FALSE,Disabled,0.000000,0.000000,0.000000,TRUE,0.000778,0.005219,0.000000,0.011627,0.000946,0.000000,0.026000,-0.021000,0.086000,-0.020000,-0.610000,2.390000,-0.128122,Hold,0.941895,0.000000,Hold,-152.000000,2.000000,LowGoal,1350.000000,-1454.545455,Speed,1357.500000,-1454.545455,Speed,Off,Off0.000000,0,,,,
02:02:39.067 PM 03/19/2016,Teleop Enabled,11,FALSE,0,NO ERROR,-0.000000,0.019250,0.000000,-0.025667,TRUE,FALSE,TRUE,FALSE,FALSE,FALSE,Disabled,0.000000,0.000000,0.000000,TRUE,0.001450,0.004166,0.000000,0.006149,-0.006866,0.000000,0.011000,-0.058000,0.063000,-0.010000,-0.610000,2.340000,-0.131051,Hold,0.941895,0.000000,Hold,-152.000000,2.000000,LowGoal,1342.500000,-1454.545455,Speed,1350.000000,-1454.545455,Speed,Off,Off0.000000,0,,,,
02:02:39.167 PM 03/19/2016,Teleop Enabled,10,FALSE,0,NO ERROR,-0.000000,0.019250,0.000000,-0.025667,TRUE,FALSE,TRUE,FALSE,FALSE,FALSE,Disabled,0.000000,0.000000,0.000000,TRUE,0.001450,0.004166,0.000000,0.006149,-0.006866,0.000000,-0.054000,-0.011000,0.031000,-0.010000,-0.560000,2.380000,-0.131051,Hold,0.941895,0.000000,Hold,-152.000000,2.000000,LowGoal,1350.000000,-1454.545455,Speed,1357.500000,-1454.545455,Speed,Off,Off0.000000,0,,,,
02:02:39.267 PM 03/19/2016,Teleop Enabled,10,FALSE,0,NO ERROR,-0.000000,0.019250,0.000000,-0.025667,TRUE,FALSE,TRUE,FALSE,FALSE,FALSE,Disabled,0.000000,0.000000,0.000000,TRUE,0.001434,0.003738,0.000000,-0.007050,0.001892,0.000000,0.086000,0.054000,0.082000,-0.010000,-0.540000,2.340000,-0.125282,Hold,0.941895,0.000000,Hold,-152.000000,2.000000,LowGoal,1342.500000,-1454.545455,Speed,1350.000000,-1454.545455,Speed,Off,Off0.000000,0,,,,
02:02:39.368 PM 03/19/2016,Teleop Enabled,10,FALSE,0,NO ERROR,-0.000000,0.019250,0.000000,-0.025667,TRUE,FALSE,TRUE,FALSE,FALSE,FALSE,Disabled,0.000000,0.000000,0.000000,TRUE,0.001770,0.004532,0.000000,-0.003067,0.010498,0.000000,-0.044000,-0.033000,0.001000,-0.010000,-0.560000,2.340000,-0.129368,Hold,0.941895,0.000000,Hold,-152.000000,2.000000,LowGoal,1342.500000,-1454.545455,Speed,1350.000000,-1454.545455,Speed,Off,Off0.000000,0,,,,
02:02:39.469 PM 03/19/2016,Teleop Enabled,9,FALSE,0,NO ERROR,-0.000000,0.019250,0.000000,-0.025667,TRUE,FALSE,TRUE,FALSE,FALSE,FALSE,Disabled,0.000000,0.000000,0.000000,TRUE,0.001129,0.004593,0.000000,-0.013428,0.012115,0.000000,0.072000,0.033000,0.046000,-0.010000,-0.540000,2.280000,-0.136102,Hold,0.941895,0.000000,Hold,-152.000000,2.000000,LowGoal,1350.000000,-1454.545455,Speed,1350.000000,-1454.545455,Speed,Off,Off0.000000,0,,,,
02:02:39.568 PM 03/19/2016,Teleop Enabled,11,FALSE,0,NO ERROR,-0.000000,0.019250,0.000000,-0.025667,TRUE,FALSE,TRUE,FALSE,FALSE,FALSE,Disabled,0.000000,0.000000,0.000000,TRUE,0.001328,0.005859,0.000000,0.007858,0.016983,0.000000,-0.062000,-0.018000,-0.020000,-0.020000,-0.490000,2.330000,-0.137399,Hold,0.941895,0.000000,Hold,-153.000000,2.000000,LowGoal,1350.000000,-1454.545455,Speed,1350.000000,-1454.545455,Speed,Off,Off0.000000,0,,,,
02:02:39.669 PM 03/19/2016,Teleop Enabled,11,FALSE,0,NO ERROR,-0.000000,0.019250,0.000000,-0.025667,TRUE,FALSE,TRUE,FALSE,FALSE,FALSE,Disabled,0.000000,0.000000,0.000000,TRUE,0.000961,0.005661,0.000000,-0.017776,0.002655,0.000000,0.046000,0.026000,0.101000,-0.020000,-0.550000,2.320000,-0.143513,Hold,0.941895,0.000000,Hold,-153.000000,2.000000,LowGoal,1350.000000,-1454.545455,Speed,1350.000000,-1454.545455,Speed,Off,Off0.000000,0,,,,
02:02:39.769 PM 03/19/2016,Teleop Enabled,11,FALSE,0,NO ERROR,-0.000000,0.019250,0.000000,-0.025667,TRUE,FALSE,TRUE,FALSE,FALSE,FALSE,Disabled,0.000000,0.000000,0.000000,TRUE,0.000610,0.006500,0.000000,0.006241,0.021942,0.000000,-0.059000,-0.097000,-0.025000,-0.020000,-0.520000,2.370000,-0.153208,Hold,0.941895,0.000000,Hold,-153.000000,2.000000,LowGoal,1342.500000,-1454.545455,Speed,1350.000000,-1454.545455,Speed,Off,Off0.000000,0,,,,
02:02:39.869 PM 03/19/2016,Teleop Enabled,10,FALSE,0,NO ERROR,-0.000000,0.019250,0.000000,-0.025667,TRUE,FALSE,TRUE,FALSE,FALSE,FALSE,Disabled,0.000000,0.000000,0.000000,TRUE,0.000534,0.006577,0.000000,-0.006134,0.000992,0.000000,-0.056000,-0.032000,0.010000,-0.020000,-0.530000,2.360000,-0.156285,Hold,0.941895,0.000000,Hold,-153.000000,2.000000,LowGoal,1350.000000,-1454.545455,Speed,1350.000000,-1454.545455,Speed,Off,Off0.000000,0,,,,
02:02:39.969 PM 03/19/2016,Teleop Enabled,10,FALSE,0,NO ERROR,-0.000000,0.019250,0.000000,-0.025667,TRUE,FALSE,TRUE,FALSE,FALSE,FALSE,Disabled,0.000000,0.000000,0.000000,TRUE,-0.000229,0.007507,0.000000,-0.011108,0.013901,0.000000,0.000000,0.042000,-0.013000,-0.020000,-0.530000,2.380000,-0.159304,Hold,0.941895,0.000000,Hold,-153.000000,2.000000,LowGoal,1342.500000,-1454.545455,Speed,1350.000000,-1454.545455,Speed,Off,Off0.000000,0,,,,
02:02:40.069 PM 03/19/2016,Teleop Enabled,10,FALSE,0,NO ERROR,-0.000000,0.019250,0.000000,-0.025667,TRUE,FALSE,TRUE,FALSE,FALSE,FALSE,Disabled,0.000000,0.000000,0.000000,TRUE,-0.000534,0.007843,0.000000,0.001434,-0.001770,0.000000,-0.042000,0.034000,-0.036000,-0.020000,-0.580000,2.360000,-0.150350,Hold,0.941895,0.000000,Hold,-153.000000,2.000000,LowGoal,1350.000000,-1454.545455,Speed,1357.500000,-1454.545455,Speed,Off,Off0.000000,0,,,,
02:02:40.169 PM 03/19/2016,Teleop Enabled,10,FALSE,0,NO ERROR,-0.000000,0.019250,0.000000,-0.025667,TRUE,FALSE,TRUE,FALSE,FALSE,FALSE,Disabled,0.000000,0.000000,0.000000,TRUE,-0.001160,0.008255,0.000000,-0.018524,0.002716,0.000000,0.043000,0.053000,0.082000,-0.020000,-0.530000,2.390000,-0.163522,Hold,0.941895,0.000000,Hold,-153.000000,2.000000,LowGoal,1342.500000,-1454.545455,Speed,1350.000000,-1454.545455,Speed,Off,Off0.000000,0,,,,
02:02:40.270 PM 03/19/2016,Teleop Enabled,10,FALSE,0,NO ERROR,-0.000000,0.019250,0.000000,-0.025667,TRUE,FALSE,TRUE,FALSE,FALSE,FALSE,Disabled,0.000000,0.000000,0.000000,TRUE,-0.001419,0.008316,0.000000,0.000000,-0.000015,0.000000,-0.011000,-0.071000,-0.010000,-0.020000,-0.560000,2.400000,-0.161029,Hold,0.941895,0.000000,Hold,-153.000000,2.000000,LowGoal,1350.000000,-1454.545455,Speed,1350.000000,-1454.545455,Speed,Off,Off0.000000,0,,,,
02:02:40.370 PM 03/19/2016,Teleop Enabled,10,FALSE,0,NO ERROR,-0.000000,0.019250,0.000000,-0.025667,TRUE,FALSE,TRUE,FALSE,FALSE,FALSE,Disabled,0.000000,0.000000,0.000000,TRUE,-0.002289,0.008591,0.000000,-0.027832,0.011398,0.000000,0.029000,0.075000,-0.003000,-0.020000,-0.610000,2.380000,-0.142432,Hold,0.941895,0.000000,Hold,-153.000000,2.000000,LowGoal,1350.000000,-1454.545455,Speed,1357.500000,-1454.545455,Speed,Off,Off0.000000,0,,,,
02:02:40.470 PM 03/19/2016,Teleop Enabled,10,FALSE,0,NO ERROR,-0.000000,0.019250,0.000000,-0.025667,TRUE,FALSE,TRUE,FALSE,FALSE,FALSE,Disabled,0.000000,0.000000,0.000000,TRUE,-0.002914,0.009155,0.000000,0.000000,0.000320,0.000000,0.017000,0.000000,-0.012000,-0.020000,-0.580000,2.380000,-0.123605,Hold,0.941895,0.000000,Hold,-153.000000,2.000000,LowGoal,1350.000000,-1454.545455,Speed,1357.500000,-1454.545455,Speed,Off,Off0.000000,0,,,,
02:02:40.570 PM 03/19/2016,Teleop Enabled,10,FALSE,0,NO ERROR,-0.000000,0.019250,0.000000,-0.025667,TRUE,FALSE,TRUE,FALSE,FALSE,FALSE,Disabled,0.000000,0.000000,0.000000,TRUE,-0.003036,0.009460,0.000000,-0.003372,-0.000153,0.000000,-0.079000,-0.040000,0.063000,-0.020000,-0.550000,2.340000,-0.108675,Hold,0.941895,0.000000,Hold,-153.000000,2.000000,LowGoal,1350.000000,-1454.545455,Speed,1350.000000,-1454.545455,Speed,Off,Off0.000000,0,,,,
02:02:40.670 PM 03/19/2016,Teleop Enabled,10,FALSE,0,NO ERROR,-0.000000,0.019250,0.000000,-0.025667,TRUE,FALSE,TRUE,FALSE,FALSE,FALSE,Disabled,0.000000,0.000000,0.000000,TRUE,-0.003448,0.009064,0.000000,-0.014496,-0.007660,0.000000,0.009000,-0.080000,-0.010000,-0.020000,-0.600000,2.330000,-0.105026,Hold,0.941895,0.000000,Hold,-153.000000,2.000000,LowGoal,1350.000000,-1454.545455,Speed,1357.500000,-1454.545455,Speed,Off,Off0.000000,0,,,,
02:02:40.769 PM 03/19/2016,Teleop Enabled,11,FALSE,0,NO ERROR,-0.000000,0.019250,0.000000,-0.025667,TRUE,FALSE,TRUE,FALSE,FALSE,FALSE,Disabled,0.000000,0.000000,0.000000,TRUE,-0.003586,0.009018,0.000000,0.006332,-0.006271,0.000000,0.067000,0.083000,0.013000,-0.020000,-0.600000,2.310000,-0.101390,Hold,0.941895,0.000000,Hold,-154.000000,2.000000,LowGoal,1350.000000,-1454.545455,Speed,1365.000000,-1454.545455,Speed,Off,Off0.000000,0,,,,
02:02:40.870 PM 03/19/2016,Teleop Enabled,9,FALSE,0,NO ERROR,-0.000000,0.019250,0.000000,-0.025667,TRUE,FALSE,TRUE,FALSE,FALSE,FALSE,Disabled,0.000000,0.000000,0.000000,TRUE,-0.003281,0.009354,0.000000,0.005630,0.006241,0.000000,-0.069000,0.072000,0.011000,-0.020000,-0.550000,2.330000,-0.084508,Hold,0.941895,0.000000,Hold,-154.000000,2.000000,LowGoal,1350.000000,-1454.545455,Speed,1357.500000,-1454.545455,Speed,Off,Off0.000000,0,,,,
02:02:40.970 PM 03/19/2016,Teleop Enabled,10,FALSE,0,NO ERROR,-0.000000,0.019250,0.000000,-0.025667,TRUE,FALSE,TRUE,FALSE,FALSE,FALSE,Disabled,0.000000,0.000000,0.000000,TRUE,-0.003204,0.009766,0.000000,-0.000946,0.010376,0.000000,0.092000,-0.029000,0.057000,-0.020000,-0.610000,2.370000,-0.099562,Hold,0.941895,0.000000,Hold,-154.000000,2.000000,LowGoal,1350.000000,-1454.545455,Speed,1357.500000,-1454.545455,Speed,Off,Off0.000000,0,,,,
02:02:41.071 PM 03/19/2016,Teleop Enabled,9,FALSE,0,NO ERROR,-0.000000,0.019250,0.000000,-0.025667,TRUE,FALSE,TRUE,FALSE,FALSE,FALSE,Disabled,0.000000,0.000000,0.000000,TRUE,-0.002609,0.010040,0.000000,0.019684,0.000153,0.000000,0.076000,0.034000,-0.034000,-0.010000,-0.630000,2.360000,-0.090512,Hold,0.941895,0.000000,Hold,-154.000000,2.000000,LowGoal,1350.000000,-1454.545455,Speed,1365.000000,-1454.545455,Speed,Off,Off0.000000,0,,,,
02:02:41.172 PM 03/19/2016,Teleop Enabled,10,FALSE,0,NO ERROR,-0.000000,0.019250,0.000000,-0.025667,TRUE,FALSE,TRUE,FALSE,FALSE,FALSE,Disabled,0.000000,0.000000,0.000000,TRUE,-0.002106,0.010208,0.000000,0.020523,-0.005814,0.000000,-0.036000,-0.016000,-0.045000,-0.020000,-0.570000,2.310000,-0.080387,Hold,0.941895,0.000000,Hold,-154.000000,2.000000,LowGoal,1357.500000,-1454.545455,Speed,1357.500000,-1454.545455,Speed,Off,Off0.000000,0,,,,
02:02:41.272 PM 03/19/2016,Teleop Enabled,10,FALSE,0,NO ERROR,-0.000000,0.019250,0.000000,-0.025667,TRUE,FALSE,TRUE,FALSE,FALSE,FALSE,Disabled,0.000000,0.000000,0.000000,TRUE,-0.000763,0.009811,0.000000,0.035263,-0.001160,0.000000,-0.035000,0.036000,0.017000,-0.020000,-0.570000,2.290000,-0.075031,Hold,0.941895,0.000000,Hold,-154.000000,2.000000,LowGoal,1350.000000,-1454.545455,Speed,1357.500000,-1454.545455,Speed,Off,Off0.000000,0,,,,
02:02:41.372 PM 03/19/2016,Teleop Enabled,10,FALSE,0,NO ERROR,-0.000000,0.019250,0.000000,-0.025667,TRUE,FALSE,TRUE,FALSE,FALSE,FALSE,Disabled,0.000000,0.000000,0.000000,TRUE,0.000351,0.009827,0.000000,0.021133,-0.008942,0.000000,0.072000,-0.112000,0.017000,-0.020000,-0.580000,2.270000,-0.064768,Hold,0.941895,0.000000,HighGoal,-154.000000,69632.000000,HighGoal,1357.500000,-3272.727273,Speed,1357.500000,-3272.727273,Speed,Off,Off0.000000,0,,,,
02:02:41.473 PM 03/19/2016,Teleop Enabled,11,FALSE,0,NO ERROR,-0.000000,0.019250,0.000000,-0.025667,TRUE,FALSE,TRUE,FALSE,FALSE,FALSE,Disabled,0.000000,0.000000,0.000000,TRUE,0.002243,0.008408,0.000000,0.048126,-0.025681,0.000000,0.061000,0.023000,-0.026000,-0.020000,-0.510000,2.240000,-0.066651,Hold,0.941895,0.000000,Hold,-6185.000000,69632.000000,HighGoal,1335.000000,-3272.727273,Speed,1327.500000,-3272.727273,Speed,Off,Off0.000000,0,,,,
02:02:41.575 PM 03/19/2016,Teleop Enabled,10,FALSE,0,NO ERROR,-0.000000,0.019250,0.000000,-0.025667,TRUE,FALSE,TRUE,FALSE,FALSE,FALSE,Disabled,0.000000,0.000000,0.000000,TRUE,0.005280,0.007690,0.000000,0.063385,-0.004181,0.000000,-0.027000,-0.061000,-0.039000,-0.030000,-0.470000,2.260000,-0.073905,Hold,0.941895,0.000000,HighGoal,-6185.000000,69632.000000,HighGoal,1650.000000,-3272.727273,Speed,1672.500000,-3272.727273,Speed,Off,Off0.000000,0,,,,
02:02:41.675 PM 03/19/2016,Teleop Enabled,9,FALSE,0,NO ERROR,-0.000000,0.019250,0.000000,-0.025667,TRUE,FALSE,TRUE,FALSE,FALSE,FALSE,Disabled,0.000000,0.000000,0.000000,TRUE,0.008072,0.007401,0.000000,0.033752,0.018967,0.000000,-0.036000,0.088000,0.031000,-0.020000,-0.490000,2.230000,-0.069701,Hold,0.941895,0.000000,Hold,-16991.000000,69632.000000,HighGoal,2100.000000,-3272.727273,Speed,2182.500000,-3272.727273,Speed,Off,Off0.000000,0,,,,
02:02:41.775 PM 03/19/2016,Teleop Enabled,11,FALSE,0,NO ERROR,-0.000000,0.019250,0.000000,-0.025667,TRUE,FALSE,TRUE,FALSE,FALSE,FALSE,Disabled,0.000000,0.000000,0.000000,TRUE,0.008087,0.011093,0.000000,-0.030960,0.093857,0.000000,0.228000,-0.327000,0.029000,-0.030000,-0.560000,2.290000,-0.088274,Hold,0.941895,0.000000,Hold,-16991.000000,69632.000000,HighGoal,2100.000000,-3272.727273,Speed,2602.500000,-3272.727273,Speed,Off,Off0.000000,0,,,,
02:02:41.876 PM 03/19/2016,Teleop Enabled,9,FALSE,0,NO ERROR,-0.000000,0.038500,0.000000,0.006417,TRUE,FALSE,TRUE,FALSE,FALSE,FALSE,Disabled,0.000000,0.000000,0.000000,TRUE,0.008301,0.011932,0.000000,-0.000809,0.016403,0.000000,0.027000,-0.083000,0.074000,-0.020000,-0.510000,2.260000,-0.065656,Hold,0.941895,0.000000,Hold,-27354.000000,69632.000000,HighGoal,2707.500000,-3272.727273,Speed,2602.500000,-3272.727273,Speed,Off,Off0.000000,0,,,,
02:02:41.977 PM 03/19/2016,Teleop Enabled,9,FALSE,0,NO ERROR,-0.000000,0.032083,0.000000,0.006417,TRUE,FALSE,TRUE,FALSE,FALSE,FALSE,Disabled,0.000000,0.000000,0.000000,TRUE,0.010269,0.011917,0.000000,0.051895,0.006638,0.000000,-0.242000,0.086000,-0.130000,-0.030000,-0.450000,2.200000,-0.067615,Hold,0.941895,0.000000,Hold,-36804.000000,69632.000000,HighGoal,2707.500000,-3272.727273,Speed,2947.500000,-3272.727273,Speed,Off,Off0.000000,0,,,,
02:02:42.077 PM 03/19/2016,Teleop Enabled,11,FALSE,0,NO ERROR,-0.000000,0.032083,0.000000,0.006417,TRUE,FALSE,TRUE,FALSE,FALSE,FALSE,Disabled,0.000000,0.000000,0.000000,TRUE,0.010757,0.012207,0.000000,-0.012695,-0.009918,0.000000,0.074000,-0.004000,-0.001000,-0.030000,-0.490000,2.240000,-0.080232,Hold,0.941895,0.000000,Hold,-47895.000000,69632.000000,HighGoal,2962.500000,-3272.727273,Speed,3165.000000,-3272.727273,Speed,Off,Off0.000000,0,,,,
02:02:42.178 PM 03/19/2016,Teleop Enabled,10,FALSE,0,NO ERROR,-0.000000,0.025667,0.000000,0.000000,TRUE,FALSE,TRUE,FALSE,FALSE,FALSE,Disabled,0.000000,0.000000,0.000000,TRUE,0.009705,0.013626,0.000000,0.000305,0.048233,0.000000,-0.254000,-0.043000,-0.308000,-0.010000,-0.630000,2.270000,-0.051301,Hold,0.941895,0.000000,Hold,-59783.000000,69632.000000,HighGoal,3180.000000,-3272.727273,Speed,3277.500000,-3272.727273,Speed,Off,Off0.000000,0,,,,
02:02:42.278 PM 03/19/2016,Teleop Enabled,10,FALSE,0,NO ERROR,-0.000000,-0.147583,0.000000,-0.230999,TRUE,FALSE,TRUE,FALSE,FALSE,FALSE,Disabled,0.000000,0.000000,0.000000,TRUE,0.010056,0.012970,0.000000,0.017548,-0.058487,0.000000,0.213000,0.180000,0.113000,0.020000,-0.610000,2.230000,-0.008892,Hold,0.941895,0.000000,Hold,-71192.000000,69632.000000,HighGoal,3247.500000,-3272.727273,Speed,3232.500000,-3272.727273,Speed,Off,Off0.000000,0,,,,
02:02:42.379 PM 03/19/2016,Teleop Enabled,9,FALSE,0,NO ERROR,-0.000000,-0.211750,0.000000,-0.307999,TRUE,FALSE,TRUE,FALSE,FALSE,FALSE,Disabled,0.000000,0.000000,0.000000,TRUE,0.008606,0.011307,0.000000,-0.059341,-0.013855,0.000000,-0.027000,0.097000,-0.001000,0.020000,-0.730000,2.240000,-0.041892,Hold,0.941895,0.000000,Hold,-69534.000000,69632.000000,HighGoal,3180.000000,-3272.727273,Speed,3210.000000,-3272.727273,Speed,Off,Off0.000000,0,,,,
02:02:42.479 PM 03/19/2016,Teleop Enabled,10,FALSE,0,NO ERROR,-0.000000,-0.109083,0.000000,-0.128333,TRUE,FALSE,TRUE,FALSE,FALSE,FALSE,Disabled,0.000000,0.000000,0.000000,TRUE,0.006088,0.012390,0.000000,-0.036819,0.027466,0.000000,0.000000,-0.127000,-0.128000,0.030000,-0.960000,2.260000,-0.029368,Hold,0.941895,0.000000,Hold,-69534.000000,69632.000000,HighGoal,3157.500000,-3272.727273,Speed,3217.500000,-3272.727273,Speed,Off,Off0.000000,0,,,,
02:02:42.579 PM 03/19/2016,Teleop Enabled,10,FALSE,0,NO ERROR,-0.000000,-0.077000,0.000000,-0.064167,TRUE,FALSE,TRUE,FALSE,FALSE,FALSE,Disabled,0.000000,0.000000,0.000000,TRUE,0.006195,0.009583,0.000000,0.007294,-0.083420,0.000000,0.079000,-0.071000,-0.046000,-0.020000,-0.610000,2.270000,-0.067560,Hold,0.941895,0.000000,Hold,-69792.000000,69632.000000,HighGoal,3180.000000,-3272.727273,Speed,3217.500000,-3272.727273,Speed,Off,Off0.000000,0,,,,
02:02:42.679 PM 03/19/2016,Teleop Enabled,10,FALSE,0,NO ERROR,-0.000000,-0.057750,0.000000,-0.044917,TRUE,FALSE,TRUE,FALSE,FALSE,FALSE,Disabled,0.000000,0.000000,0.000000,TRUE,0.005249,0.006821,0.000000,-0.039139,-0.024597,0.000000,-0.160000,0.193000,-0.108000,0.000000,-0.580000,2.280000,-0.053508,Hold,0.941895,0.000000,Hold,-69721.000000,69632.000000,HighGoal,3187.500000,-3272.727273,Speed,3232.500000,-3272.727273,Speed,Off,Off0.000000,0,,,,
02:02:42.779 PM 03/19/2016,Teleop Enabled,9,FALSE,0,NO ERROR,-0.000000,-0.057750,0.000000,-0.064167,TRUE,FALSE,TRUE,FALSE,FALSE,FALSE,Disabled,0.000000,0.000000,0.000000,TRUE,0.003494,0.006195,0.000000,-0.044373,-0.019012,0.000000,-0.096000,-0.029000,-0.007000,-0.010000,-0.660000,2.290000,-0.045356,Hold,0.941895,0.000000,Hold,-69721.000000,69632.000000,HighGoal,3180.000000,-3272.727273,Speed,3225.000000,-3272.727273,Speed,Off,Off0.000000,0,,,,
02:02:42.879 PM 03/19/2016,Teleop Enabled,9,FALSE,0,NO ERROR,-0.000000,-0.057750,0.000000,-0.064167,TRUE,FALSE,TRUE,FALSE,FALSE,FALSE,Disabled,0.000000,0.000000,0.000000,TRUE,0.002548,0.003067,0.000000,-0.001541,-0.068069,0.000000,0.057000,0.189000,0.074000,-0.010000,-0.670000,2.260000,-0.043913,Hold,0.941895,0.000000,Hold,-69721.000000,69632.000000,HighGoal,3180.000000,-3272.727273,Speed,3217.500000,-3272.727273,Speed,Off,Off0.000000,0,,,,
02:02:42.980 PM 03/19/2016,Teleop Enabled,9,FALSE,0,NO ERROR,-0.000000,-0.057750,0.000000,-0.064167,TRUE,FALSE,TRUE,FALSE,FALSE,FALSE,Disabled,0.000000,0.000000,0.000000,TRUE,0.001785,-0.000046,0.000000,-0.026276,-0.056274,0.000000,0.030000,0.243000,0.073000,0.000000,-0.690000,2.180000,-0.055074,Hold,0.941895,0.000000,Hold,-69721.000000,69632.000000,HighGoal,3187.500000,-3272.727273,Speed,3225.000000,-3272.727273,Speed,Off,Off0.000000,0,,,,
02:02:43.081 PM 03/19/2016,Teleop Enabled,10,FALSE,0,NO ERROR,-0.000000,-0.057750,0.000000,-0.064167,TRUE,FALSE,TRUE,FALSE,FALSE,FALSE,Disabled,0.000000,0.000000,0.000000,TRUE,0.000580,-0.000946,0.000000,-0.025803,0.019714,0.000000,0.197000,0.137000,0.146000,-0.010000,-0.650000,2.220000,-0.050616,Hold,0.941895,0.000000,Hold,-69721.000000,69632.000000,HighGoal,3187.500000,-3272.727273,Speed,3232.500000,-3272.727273,Speed,Off,Off0.000000,0,,,,
02:02:43.181 PM 03/19/2016,Teleop Enabled,11,FALSE,0,NO ERROR,-0.000000,-0.057750,0.000000,-0.064167,TRUE,FALSE,TRUE,FALSE,FALSE,FALSE,Disabled,0.000000,0.000000,0.000000,TRUE,-0.002213,-0.001450,0.000000,-0.069061,-0.060852,0.000000,-0.242000,-0.446000,-0.365000,-0.010000,-0.630000,2.240000,-0.046203,Hold,0.941895,0.000000,Hold,-69721.000000,69632.000000,HighGoal,3187.500000,-3272.727273,Speed,3225.000000,-3272.727273,Speed,Off,On0.000000,0,,,,
02:02:43.282 PM 03/19/2016,Teleop Enabled,10,FALSE,0,NO ERROR,-0.000000,-0.057750,0.000000,-0.051333,TRUE,FALSE,TRUE,FALSE,FALSE,FALSE,Disabled,0.000000,0.000000,0.000000,TRUE,-0.004639,-0.007553,0.000000,-0.057068,-0.126251,0.000000,0.066000,-0.110000,0.114000,0.000000,-0.920000,2.250000,-0.053793,Hold,0.941895,0.000000,Hold,-69721.000000,69632.000000,Shoot,3180.000000,-3272.727273,Speed,3217.500000,-3272.727273,Speed,On,On0.000000,0,,,,
02:02:43.382 PM 03/19/2016,Teleop Enabled,11,FALSE,0,NO ERROR,-0.000000,-0.038500,0.000000,-0.044917,TRUE,FALSE,FALSE,FALSE,FALSE,FALSE,Disabled,0.000000,0.000000,0.000000,TRUE,-0.004745,-0.013428,0.000000,0.063400,-0.109833,0.000000,0.000000,-0.047000,0.055000,-0.020000,-0.620000,2.240000,-0.068913,Hold,0.941895,0.000000,Hold,-69721.000000,69632.000000,Shoot,2505.000000,-3272.727273,Speed,2317.500000,-3272.727273,Speed,On,On0.000000,0,,,,
02:02:43.483 PM 03/19/2016,Teleop Enabled,11,FALSE,0,NO ERROR,-0.000000,-0.038500,0.000000,-0.051333,TRUE,FALSE,FALSE,FALSE,FALSE,FALSE,Disabled,0.000000,0.000000,0.000000,TRUE,-0.000381,-0.017609,0.000000,0.070358,0.006393,0.000000,0.000000,-0.047000,0.055000,-0.010000,-0.620000,2.220000,-0.072590,Hold,0.941895,0.000000,Hold,-69738.000000,69632.000000,Shoot,1852.500000,-3272.727273,Speed,2077.500000,-3272.727273,Speed,On,On0.000000,0,,,,
02:02:43.583 PM 03/19/2016,Teleop Enabled,11,FALSE,0,NO ERROR,-0.000000,-0.038500,0.000000,-0.070583,TRUE,FALSE,FALSE,FALSE,FALSE,FALSE,Disabled,0.000000,0.000000,0.000000,TRUE,0.000885,-0.012955,0.000000,0.033752,0.072479,0.000000,-0.071000,0.117000,-0.009000,-0.010000,-0.620000,2.260000,-0.068831,Hold,0.941895,0.000000,Hold,-69737.000000,69632.000000,Shoot,2265.000000,-3272.727273,Speed,2512.500000,-3272.727273,Speed,On,On0.000000,0,,,,
02:02:43.685 PM 03/19/2016,Teleop Enabled,11,FALSE,0,NO ERROR,-0.000000,-0.038500,0.000000,-0.077000,TRUE,FALSE,FALSE,FALSE,FALSE,FALSE,Disabled,0.000000,0.000000,0.000000,TRUE,0.001389,-0.009308,0.000000,0.022507,0.071182,0.000000,0.132000,-0.081000,0.119000,-0.010000,-0.700000,2.280000,-0.087586,Hold,0.941895,0.000000,Hold,-69737.000000,69632.000000,Shoot,2610.000000,-3272.727273,Speed,2805.000000,-3272.727273,Speed,On,On0.000000,0,,,,
02:02:43.785 PM 03/19/2016,Teleop Enabled,10,FALSE,0,NO ERROR,-0.000000,-0.038500,0.000000,-0.077000,TRUE,FALSE,FALSE,FALSE,FALSE,FALSE,Disabled,0.000000,0.000000,0.000000,TRUE,0.002441,-0.005447,0.000000,0.020477,0.106094,0.000000,-0.194000,-0.099000,-0.083000,-0.010000,-0.680000,2.320000,-0.084112,Hold,0.941895,0.000000,Hold,-69736.000000,69632.000000,Shoot,2932.500000,-3272.727273,Speed,3105.000000,-3272.727273,Speed,On,On0.000000,0,,,,
02:02:43.886 PM 03/19/2016,Teleop Enabled,10,FALSE,0,NO ERROR,-0.000000,-0.038500,0.000000,-0.077000,TRUE,FALSE,FALSE,FALSE,FALSE,FALSE,Disabled,0.000000,0.000000,0.000000,TRUE,0.002838,0.002380,0.000000,0.005402,0.160400,0.000000,-0.046000,0.263000,0.061000,-0.010000,-0.640000,2.340000,-0.070063,Hold,0.941895,0.000000,Hold,-69736.000000,69632.000000,Shoot,3120.000000,-3272.727273,Speed,3277.500000,-3272.727273,Speed,On,On0.000000,0,,,,
02:02:43.987 PM 03/19/2016,Teleop Enabled,10,FALSE,0,NO ERROR,-0.000000,-0.038500,0.000000,-0.077000,TRUE,FALSE,FALSE,FALSE,FALSE,FALSE,Disabled,0.000000,0.000000,0.000000,TRUE,0.002258,0.012512,0.000000,-0.019943,0.183762,0.000000,0.107000,-0.133000,-0.096000,-0.010000,-0.660000,2.380000,-0.045466,Hold,0.941895,0.000000,Hold,-69735.000000,69632.000000,Shoot,3262.500000,-3272.727273,Speed,3240.000000,-3272.727273,Speed,On,On0.000000,0,,,,
02:02:44.088 PM 03/19/2016,Teleop Enabled,10,FALSE,0,NO ERROR,-0.000000,-0.038500,0.000000,-0.077000,TRUE,FALSE,FALSE,FALSE,FALSE,FALSE,Disabled,0.000000,0.000000,0.000000,TRUE,0.001892,0.018280,0.000000,0.000000,0.094833,0.000000,0.005000,-0.012000,0.016000,-0.010000,-0.680000,2.280000,-0.042467,Hold,0.941895,0.000000,Hold,-69734.000000,69632.000000,Shoot,3217.500000,-3272.727273,Speed,3195.000000,-3272.727273,Speed,On,On0.000000,0,,,,
02:02:44.189 PM 03/19/2016,Teleop Enabled,11,FALSE,0,NO ERROR,-0.000000,-0.038500,0.000000,-0.077000,TRUE,FALSE,FALSE,FALSE,FALSE,FALSE,Disabled,0.000000,0.000000,0.000000,TRUE,0.001953,0.025879,0.000000,0.001938,0.194305,0.000000,0.005000,-0.012000,0.016000,-0.010000,-0.660000,2.340000,-0.042540,Hold,0.941895,0.000000,Hold,-69734.000000,69632.000000,Shoot,3172.500000,-3272.727273,Speed,3217.500000,-3272.727273,Speed,On,On0.000000,0,,,,
02:02:44.289 PM 03/19/2016,Teleop Enabled,10,FALSE,0,NO ERROR,-0.000000,-0.038500,0.000000,-0.077000,TRUE,FALSE,FALSE,FALSE,FALSE,FALSE,Disabled,0.000000,0.000000,0.000000,TRUE,0.004105,0.036270,0.000000,0.051025,0.134918,0.000000,0.037000,0.046000,0.098000,-0.010000,-0.680000,2.380000,-0.048027,Hold,0.941895,0.000000,Hold,-69734.000000,69632.000000,Shoot,3187.500000,-3272.727273,Speed,3225.000000,-3272.727273,Speed,On,On0.000000,0,,,,
02:02:44.391 PM 03/19/2016,Teleop Enabled,10,FALSE,0,NO ERROR,-0.000000,-0.038500,0.000000,-0.077000,TRUE,FALSE,FALSE,FALSE,FALSE,FALSE,Disabled,0.000000,0.000000,0.000000,TRUE,0.005157,0.041092,0.000000,0.019806,0.121918,0.000000,0.038000,-0.238000,-0.002000,-0.010000,-0.680000,2.380000,-0.052107,Hold,0.941895,0.000000,Hold,-69733.000000,69632.000000,Shoot,3202.500000,-3272.727273,Speed,3202.500000,-3272.727273,Speed,On,On0.000000,0,,,,
02:02:44.492 PM 03/19/2016,Teleop Enabled,9,FALSE,0,NO ERROR,-0.000000,-0.038500,0.000000,-0.077000,TRUE,FALSE,FALSE,FALSE,FALSE,FALSE,Disabled,0.000000,0.000000,0.000000,TRUE,0.005966,0.048813,0.000000,0.014389,0.165253,0.000000,0.103000,0.085000,0.140000,-0.010000,-0.680000,2.370000,-0.081806,Hold,0.941895,0.000000,Hold,-69733.000000,69632.000000,Shoot,3195.000000,-3272.727273,Speed,3195.000000,-3272.727273,Speed,On,Off0.000000,0,,,,
02:02:44.593 PM 03/19/2016,Teleop Enabled,10,FALSE,0,NO ERROR,-0.000000,-0.038500,0.000000,-0.077000,TRUE,FALSE,FALSE,FALSE,FALSE,FALSE,Disabled,0.000000,0.000000,0.000000,TRUE,0.008270,0.057571,0.000000,0.071091,0.180710,0.000000,-0.067000,-0.230000,-0.074000,-0.010000,-0.650000,2.380000,-0.070717,Hold,0.941895,0.000000,Hold,-69733.000000,69632.000000,Dwell,3180.000000,-3272.727273,Speed,3210.000000,-3272.727273,Speed,On,Off0.000000,0,,,,
02:02:44.692 PM 03/19/2016,Teleop Enabled,10,FALSE,0,NO ERROR,-0.000000,-0.038500,0.000000,-0.077000,TRUE,FALSE,FALSE,FALSE,FALSE,FALSE,Disabled,0.000000,0.000000,0.000000,TRUE,0.010330,0.065018,0.000000,0.022675,0.130417,0.000000,-0.054000,0.144000,0.035000,-0.010000,-0.660000,2.350000,-0.083599,Hold,0.941895,0.000000,Hold,-69732.000000,69632.000000,Dwell,3187.500000,-3272.727273,Speed,3202.500000,-3272.727273,Speed,On,Off0.000000,0,,,,
02:02:44.793 PM 03/19/2016,Teleop Enabled,10,FALSE,0,NO ERROR,-0.000000,-0.038500,0.000000,-0.077000,TRUE,FALSE,FALSE,FALSE,FALSE,FALSE,Disabled,0.000000,0.000000,0.000000,TRUE,0.011414,0.071869,0.000000,0.030991,0.150162,0.000000,0.162000,0.068000,0.156000,-0.010000,-0.680000,2.380000,-0.082649,Hold,0.941895,0.000000,Hold,-69732.000000,69632.000000,Dwell,3202.500000,-3272.727273,Speed,3210.000000,-3272.727273,Speed,On,Off0.000000,0,,,,
02:02:44.892 PM 03/19/2016,Teleop Enabled,10,FALSE,0,NO ERROR,-0.000000,-0.038500,0.000000,-0.077000,TRUE,FALSE,FALSE,FALSE,FALSE,FALSE,Disabled,0.000000,0.000000,0.000000,TRUE,0.014435,0.079514,0.000000,0.066727,0.146912,0.000000,-0.103000,-0.219000,-0.006000,-0.010000,-0.620000,2.370000,-0.080855,Hold,0.941895,0.000000,Hold,-69731.000000,69632.000000,Dwell,3202.500000,-3272.727273,Speed,3217.500000,-3272.727273,Speed,On,Off0.000000,0,,,,
02:02:44.993 PM 03/19/2016,Teleop Enabled,10,FALSE,0,NO ERROR,-0.000000,-0.038500,0.000000,-0.077000,TRUE,FALSE,FALSE,FALSE,FALSE,FALSE,Disabled,0.000000,0.000000,0.000000,TRUE,0.016861,0.086594,0.000000,0.026123,0.072906,0.000000,-0.103000,-0.219000,-0.006000,-0.010000,-0.630000,2.330000,-0.068610,Hold,0.941895,0.000000,Hold,-69731.000000,69632.000000,Dwell,3195.000000,-3272.727273,Speed,3217.500000,-3272.727273,Speed,On,Off0.000000,0,,,,
02:02:45.093 PM 03/19/2016,Teleop Enabled,9,FALSE,0,NO ERROR,-0.000000,-0.038500,0.000000,-0.077000,TRUE,FALSE,FALSE,FALSE,FALSE,FALSE,Disabled,0.000000,0.000000,0.000000,TRUE,0.017014,0.090012,0.000000,0.007950,0.097870,0.000000,-0.114000,0.058000,-0.081000,-0.010000,-0.630000,2.330000,-0.052506,Hold,0.941895,0.000000,Hold,-69730.000000,69632.000000,Dwell,3195.000000,-3272.727273,Speed,3217.500000,-3272.727273,Speed,On,Off0.000000,0,,,,
02:02:45.193 PM 03/19/2016,Teleop Enabled,10,FALSE,0,NO ERROR,-0.000000,-0.038500,0.000000,-0.077000,TRUE,FALSE,FALSE,FALSE,FALSE,FALSE,Disabled,0.000000,0.000000,0.000000,TRUE,0.017365,0.097290,0.000000,-0.003098,0.133316,0.000000,0.206000,0.194000,0.115000,-0.010000,-0.630000,2.340000,-0.052771,Hold,0.941895,0.000000,Hold,-69730.000000,69632.000000,Dwell,3195.000000,-3272.727273,Speed,3225.000000,-3272.727273,Speed,On,Off0.000000,0,,,,
02:02:45.294 PM 03/19/2016,Teleop Enabled,10,FALSE,0,NO ERROR,-0.000000,-0.038500,0.000000,-0.077000,TRUE,FALSE,FALSE,FALSE,FALSE,FALSE,Disabled,0.000000,0.000000,0.000000,TRUE,0.019257,0.100189,0.000000,0.058899,0.009796,0.000000,0.073000,0.169000,0.149000,-0.020000,-0.680000,2.220000,-0.072900,Hold,0.941895,0.000000,Hold,-69729.000000,69632.000000,Dwell,3195.000000,-3272.727273,Speed,3225.000000,-3272.727273,Speed,On,Off0.000000,0,,,,
02:02:45.395 PM 03/19/2016,Teleop Enabled,11,FALSE,0,NO ERROR,-0.000000,-0.038500,0.000000,-0.077000,TRUE,FALSE,FALSE,FALSE,FALSE,FALSE,Disabled,0.000000,0.000000,0.000000,TRUE,0.023041,0.101303,0.000000,0.079666,0.069839,0.000000,0.073000,0.169000,0.149000,-0.020000,-0.670000,2.220000,-0.090298,Hold,0.941895,0.000000,Hold,-69729.000000,69632.000000,Dwell,3195.000000,-3272.727273,Speed,3225.000000,-3272.727273,Speed,On,Off0.000000,0,,,,
02:02:45.495 PM 03/19/2016,Teleop Enabled,10,FALSE,0,NO ERROR,-0.000000,-0.038500,0.000000,-0.077000,TRUE,FALSE,FALSE,FALSE,FALSE,FALSE,Disabled,0.000000,0.000000,0.000000,TRUE,0.025482,0.106873,0.000000,0.023483,0.110657,0.000000,-0.259000,0.152000,-0.057000,-0.020000,-0.670000,2.220000,-0.113147,Hold,0.941895,208896.000000,Hold,-69728.000000,143360.000000,Dwell,3195.000000,-3272.727273,Speed,3225.000000,-3272.727273,Speed,On,Off0.000000,0,,,,
02:02:45.595 PM 03/19/2016,Teleop Enabled,10,FALSE,0,NO ERROR,-0.000000,-0.032083,0.000000,-0.044917,TRUE,FALSE,FALSE,FALSE,FALSE,FALSE,Disabled,0.000000,0.000000,0.000000,TRUE,0.025665,0.110229,0.000000,-0.003525,0.040649,0.000000,0.222000,0.058000,0.056000,-0.020000,-0.670000,2.180000,-0.118662,Hold,3.761963,208896.000000,Hold,-75047.000000,143360.000000,Dwell,3202.500000,-3272.727273,Speed,3217.500000,-3272.727273,Speed,On,Off0.000000,0,,,,
02:02:45.695 PM 03/19/2016,Teleop Enabled,9,FALSE,0,NO ERROR,-0.000000,0.051333,0.000000,0.025667,TRUE,FALSE,FALSE,FALSE,FALSE,FALSE,Disabled,0.000000,0.000000,0.000000,TRUE,0.028976,0.111649,0.000000,0.107986,0.039673,0.000000,0.096000,-0.010000,0.290000,-0.020000,-0.580000,2.170000,-0.160478,Hold,7.035889,208896.000000,Hold,-88081.000000,143360.000000,Dwell,3195.000000,-3272.727273,Speed,3210.000000,-3272.727273,Speed,On,Off0.000000,0,,,,
02:02:45.795 PM 03/19/2016,Teleop Enabled,9,FALSE,0,NO ERROR,-0.000000,0.038500,0.000000,-0.038500,TRUE,FALSE,FALSE,FALSE,FALSE,FALSE,Disabled,0.000000,0.000000,0.000000,TRUE,0.028976,0.111649,0.000000,0.107986,0.039673,0.000000,0.134000,-0.043000,-0.109000,-0.060000,-0.630000,2.110000,-0.148354,Hold,11.799316,208896.000000,Hold,-88081.000000,143360.000000,Empty,3195.000000,0.000000,Speed,3210.000000,0.000000,Speed,On,Off0.000000,0,,,,
02:02:45.895 PM 03/19/2016,Teleop Enabled,10,FALSE,0,NO ERROR,-0.000000,0.019250,0.000000,-0.070583,TRUE,FALSE,FALSE,FALSE,FALSE,FALSE,Disabled,0.000000,0.000000,0.000000,TRUE,0.039291,0.118027,0.000000,0.070343,0.062057,0.000000,0.139000,-0.022000,0.091000,-0.040000,-0.530000,2.150000,-0.153252,Hold,17.703369,208896.000000,Hold,-104400.000000,143360.000000,Empty,3172.500000,0.000000,Speed,3180.000000,0.000000,Speed,On,Off0.000000,0,,,,
02:02:45.995 PM 03/19/2016,Teleop Enabled,10,FALSE,0,NO ERROR,-0.000000,0.019250,0.000000,-0.070583,TRUE,FALSE,FALSE,FALSE,FALSE,FALSE,Disabled,0.000000,0.000000,0.000000,TRUE,0.039291,0.118027,0.000000,0.070343,0.062057,0.000000,0.124000,-0.258000,-0.012000,-0.040000,-0.690000,2.200000,-0.153683,Hold,25.040039,208896.000000,Hold,-121607.000000,143360.000000,Empty,2932.500000,0.000000,Speed,2932.500000,0.000000,Speed,On,Off0.000000,0,,,,
02:02:46.095 PM 03/19/2016,Teleop Enabled,11,FALSE,0,NO ERROR,-0.000000,-0.006417,0.000000,-0.083416,TRUE,FALSE,FALSE,FALSE,FALSE,FALSE,Disabled,0.000000,0.000000,0.000000,TRUE,0.048019,0.122375,0.000000,0.143555,-0.023468,0.000000,-0.118000,0.303000,0.027000,-0.040000,-0.730000,2.120000,-0.180614,Hold,31.851318,208896.000000,Hold,-140304.000000,143360.000000,Empty,2685.000000,0.000000,Speed,2640.000000,0.000000,Speed,On,Off0.000000,0,,,,
02:02:46.195 PM 03/19/2016,Teleop Enabled,10,FALSE,0,NO ERROR,-0.000000,-0.006417,0.000000,-0.070583,TRUE,FALSE,FALSE,FALSE,FALSE,FALSE,Disabled,0.000000,0.000000,0.000000,TRUE,0.048019,0.122375,0.000000,0.143555,-0.023468,0.000000,-0.147000,0.112000,0.349000,-0.060000,-0.160000,2.130000,-0.180614,Hold,41.984131,208896.000000,Hold,-143874.000000,143360.000000,Empty,2370.000000,0.000000,Speed,2355.000000,0.000000,Speed,On,Off0.000000,0,,,,
02:02:46.295 PM 03/19/2016,Teleop Enabled,10,FALSE,0,NO ERROR,-0.000000,-0.006417,0.000000,-0.070583,TRUE,FALSE,FALSE,FALSE,FALSE,FALSE,Disabled,0.000000,0.000000,0.000000,TRUE,0.053757,0.118835,0.000000,0.100082,-0.108032,0.000000,-0.005000,-0.055000,-0.242000,-0.100000,-0.620000,2.160000,-0.214836,Hold,52.518555,208896.000000,Hold,-143612.000000,143360.000000,Empty,2070.000000,0.000000,Speed,2145.000000,0.000000,Speed,On,Off0.000000,0,,,,
02:02:46.395 PM 03/19/2016,Teleop Enabled,7,FALSE,0,NO ERROR,-0.000000,-0.012833,0.000000,-0.083416,TRUE,FALSE,FALSE,FALSE,FALSE,FALSE,Disabled,0.000000,0.000000,0.000000,TRUE,0.058212,0.113876,0.000000,0.089340,-0.089233,0.000000,0.052000,-0.041000,-0.076000,-0.090000,-0.810000,2.250000,-0.227636,Hold,57.119385,208896.000000,Hold,-143457.000000,143360.000000,Empty,1785.000000,0.000000,Speed,1890.000000,0.000000,Speed,On,Off0.000000,0,,,,
02:02:46.497 PM 03/19/2016,Teleop Enabled,11,FALSE,0,NO ERROR,-0.000000,-0.006417,0.000000,-0.083416,TRUE,FALSE,FALSE,FALSE,FALSE,FALSE,Disabled,0.000000,0.000000,0.000000,TRUE,0.060852,0.109390,0.000000,0.038849,-0.113419,0.000000,0.066000,0.029000,0.000000,-0.070000,-0.950000,2.230000,-0.173205,Hold,56.932617,208896.000000,Hold,-143457.000000,143360.000000,Empty,1492.500000,0.000000,Speed,1642.500000,0.000000,Speed,On,Off0.000000,0,,,,
02:02:46.596 PM 03/19/2016,Teleop Enabled,9,FALSE,0,NO ERROR,-0.527559,-0.006417,0.527559,-0.083416,TRUE,FALSE,FALSE,FALSE,FALSE,FALSE,Disabled,0.000000,0.000000,0.000000,TRUE,0.062408,0.104813,0.000000,-0.005646,-0.072540,0.000000,0.094000,-0.030000,-0.055000,-0.080000,-0.660000,2.240000,-0.190084,Hold,56.022705,208896.000000,Hold,-143380.000000,143360.000000,Empty,1230.000000,0.000000,Speed,1395.000000,0.000000,Speed,On,Off0.000000,0,,,,
02:02:46.698 PM 03/19/2016,Teleop Enabled,12,FALSE,0,NO ERROR,-0.590551,0.115500,0.590551,0.032083,TRUE,FALSE,FALSE,FALSE,FALSE,FALSE,Disabled,0.000000,0.000000,0.000000,TRUE,0.062241,0.100952,0.000000,-0.000061,-0.072250,0.000000,-0.002000,0.040000,-0.169000,-0.060000,-0.630000,2.200000,-0.177281,Hold,55.893311,208896.000000,Hold,-143379.000000,143360.000000,Empty,952.500000,0.000000,Speed,1155.000000,0.000000,Speed,On,Off0.000000,0,,,,
02:02:46.798 PM 03/19/2016,Teleop Enabled,9,FALSE,0,NO ERROR,-0.598425,2.078995,0.598425,-1.886496,FALSE,FALSE,FALSE,FALSE,FALSE,FALSE,Disabled,0.000000,0.000000,0.000000,TRUE,0.066010,0.105804,0.000000,0.225204,0.262817,0.000000,-0.111000,-0.138000,0.021000,4.460000,0.280000,3.390000,4.200651,Hold,55.882324,208896.000000,Hold,-143379.000000,143360.000000,Empty,667.500000,0.000000,Speed,937.500000,0.000000,Speed,On,Off0.000000,0,,,,
02:02:46.898 PM 03/19/2016,Teleop Enabled,10,FALSE,0,NO ERROR,-0.393701,5.165405,0.393701,-4.825322,FALSE,FALSE,FALSE,FALSE,FALSE,FALSE,Disabled,0.000000,0.000000,0.000000,TRUE,0.084015,0.121628,0.000000,0.379379,0.284821,0.000000,0.172000,-0.059000,-0.017000,15.770000,0.470000,3.780000,15.158313,Hold,55.767090,208896.000000,Hold,-143379.000000,143360.000000,Empty,480.000000,0.000000,Speed,720.000000,0.000000,Speed,On,On0.000000,0,,,,
02:02:46.998 PM 03/19/2016,Teleop Enabled,11,FALSE,0,NO ERROR,-0.000000,8.546980,0.000000,-8.155564,FALSE,FALSE,FALSE,FALSE,FALSE,FALSE,Disabled,0.000000,0.000000,0.000000,TRUE,0.105637,0.132858,0.000000,0.438004,0.162140,0.000000,-0.109000,-0.301000,-0.081000,29.720000,0.390000,4.070000,28.721369,Hold,55.532959,208896.000000,Hold,-143379.000000,143360.000000,Suck,217.500000,2181.818182,Speed,495.000000,2181.818182,Speed,On,On0.000000,0,,,,
02:02:47.098 PM 03/19/2016,Teleop Enabled,13,FALSE,0,NO ERROR,-0.000000,9.272062,0.000000,-9.522311,TRUE,FALSE,FALSE,FALSE,FALSE,FALSE,Disabled,0.000000,0.000000,0.000000,TRUE,0.119873,0.131516,0.000000,0.281433,-0.121216,0.000000,-0.386000,0.036000,-0.540000,38.540000,-0.970000,2.330000,37.215595,Hold,55.753662,208896.000000,Hold,-143379.000000,143360.000000,Suck,67.500000,2181.818182,Speed,165.000000,2181.818182,Speed,On,On0.000000,0,,,,
02:02:47.199 PM 03/19/2016,Teleop Enabled,9,FALSE,0,NO ERROR,-0.000000,8.469980,0.000000,-9.862394,TRUE,FALSE,FALSE,FALSE,FALSE,FALSE,Disabled,0.000000,0.000000,0.000000,TRUE,0.123459,0.127563,0.000000,-0.065704,-0.044296,0.000000,-0.305000,-0.022000,-0.002000,37.340000,-1.550000,1.790000,36.094402,Hold,55.721924,208896.000000,Hold,-143379.000000,143360.000000,Suck,-532.500000,2181.818182,Speed,-502.500000,2181.818182,Speed,On,On0.000000,0,,,,
02:02:47.301 PM 03/19/2016,Teleop Enabled,10,FALSE,0,NO ERROR,0.299213,8.348064,-0.299213,-9.855977,TRUE,FALSE,FALSE,FALSE,FALSE,FALSE,Disabled,0.000000,0.000000,0.000000,TRUE,0.118942,0.129730,0.000000,-0.054535,0.109039,0.000000,0.032000,-0.001000,-0.091000,36.790000,-1.070000,2.390000,35.573533,Hold,55.722412,208896.000000,Hold,-143379.000000,143360.000000,Suck,-1245.000000,2181.818182,Speed,-1267.500000,2181.818182,Speed,On,On0.000000,0,,,,
02:02:47.402 PM 03/19/2016,Teleop Enabled,10,FALSE,0,NO ERROR,-0.000000,7.821898,0.000000,-9.291312,TRUE,FALSE,FALSE,FALSE,FALSE,FALSE,Disabled,0.000000,0.000000,0.000000,TRUE,0.113297,0.133591,0.000000,-0.191864,0.060745,0.000000,0.139000,0.006000,-0.002000,36.360000,-1.510000,1.620000,35.071147,Hold,55.927490,208896.000000,Hold,-143379.000000,143360.000000,Suck,-1807.500000,2181.818182,Speed,-1882.500000,2181.818182,Speed,On,On0.000000,0,,,,
02:02:47.502 PM 03/19/2016,Teleop Enabled,10,FALSE,0,NO ERROR,-0.000000,7.468983,0.000000,-8.803646,TRUE,FALSE,FALSE,FALSE,FALSE,FALSE,Disabled,0.000000,0.000000,0.000000,TRUE,0.106079,0.138397,0.000000,-0.084152,0.138321,0.000000,0.010000,-0.038000,0.029000,33.000000,-1.090000,2.070000,32.266343,Hold,55.806885,208896.000000,Hold,-143379.000000,143360.000000,Suck,-2212.500000,2181.818182,Speed,-2272.500000,2181.818182,Speed,On,On0.000000,0,,,,
02:02:47.605 PM 03/19/2016,Teleop Enabled,11,FALSE,0,NO ERROR,-0.000000,7.379149,0.000000,-8.758730,TRUE,FALSE,FALSE,FALSE,FALSE,FALSE,Disabled,0.000000,0.000000,0.000000,TRUE,0.104111,0.145645,0.000000,-0.016510,0.169296,0.000000,0.023000,0.006000,-0.077000,32.430000,-0.860000,2.090000,31.366166,Hold,55.742432,208896.000000,Hold,-143379.000000,143360.000000,Suck,-2257.500000,2181.818182,Speed,-2227.500000,2181.818182,Speed,On,On0.000000,0,,,,
02:02:47.706 PM 03/19/2016,Teleop Enabled,10,FALSE,0,NO ERROR,-0.000000,7.379149,0.000000,-8.765146,TRUE,FALSE,FALSE,FALSE,FALSE,FALSE,Disabled,0.000000,0.000000,0.000000,TRUE,0.103897,0.155334,0.000000,0.007553,0.190170,0.000000,0.004000,0.003000,-0.060000,32.670000,-0.960000,2.170000,31.572620,Hold,55.742432,208896.000000,Hold,-143379.000000,143360.000000,Suck,-2100.000000,2181.818182,Speed,-2130.000000,2181.818182,Speed,On,On0.000000,0,,,,
02:02:47.805 PM 03/19/2016,Teleop Enabled,9,FALSE,0,NO ERROR,-0.000000,7.379149,0.000000,-8.765146,TRUE,FALSE,FALSE,FALSE,FALSE,FALSE,Disabled,0.000000,0.000000,0.000000,TRUE,0.104523,0.164551,0.000000,0.005096,0.167221,0.000000,0.003000,-0.002000,0.057000,32.670000,-0.840000,2.180000,31.578592,Hold,55.726318,208896.000000,Hold,-143379.000000,143360.000000,Suck,-2085.000000,2181.818182,Speed,-2130.000000,2181.818182,Speed,On,On0.000000,0,,,,
02:02:47.906 PM 03/19/2016,Teleop Enabled,10,FALSE,0,NO ERROR,-0.000000,7.379149,0.000000,-8.765146,TRUE,FALSE,FALSE,FALSE,FALSE,FALSE,Disabled,0.000000,0.000000,0.000000,TRUE,0.103607,0.166550,0.000000,-0.046692,0.026245,0.000000,-0.090000,0.026000,0.071000,32.670000,-0.790000,2.190000,31.577177,Hold,55.726318,208896.000000,Hold,-143379.000000,143360.000000,Suck,-2137.500000,2181.818182,Speed,-2167.500000,2181.818182,Speed,On,On0.000000,0,,,,
02:02:48.008 PM 03/19/2016,Teleop Enabled,10,FALSE,0,NO ERROR,-0.000000,7.379149,0.000000,-8.765146,TRUE,FALSE,FALSE,FALSE,FALSE,FALSE,Disabled,0.000000,0.000000,0.000000,TRUE,0.098572,0.168945,0.000000,-0.138672,0.000000,0.000000,-0.050000,0.011000,-0.026000,32.670000,-0.830000,2.230000,31.591581,Hold,55.726318,208896.000000,Hold,-143379.000000,143360.000000,Suck,-2145.000000,2181.818182,Speed,-2167.500000,2181.818182,Speed,On,On0.000000,0,,,,
02:02:48.108 PM 03/19/2016,Teleop Enabled,10,FALSE,0,NO ERROR,-0.000000,7.379149,0.000000,-8.765146,TRUE,FALSE,FALSE,FALSE,FALSE,FALSE,Disabled,0.000000,0.000000,0.000000,TRUE,0.086929,0.170120,0.000000,-0.229599,0.033463,0.000000,-0.086000,0.067000,-0.113000,32.680000,-0.810000,2.250000,31.589440,Hold,55.726074,208896.000000,Hold,-143379.000000,143360.000000,Suck,-2130.000000,2181.818182,Speed,-2152.500000,2181.818182,Speed,On,On0.000000,0,,,,
02:02:48.209 PM 03/19/2016,Teleop Enabled,9,FALSE,0,NO ERROR,-0.000000,7.379149,0.000000,-8.765146,TRUE,FALSE,FALSE,FALSE,FALSE,FALSE,Disabled,0.000000,0.000000,0.000000,TRUE,0.074738,0.172668,0.000000,-0.247665,0.054657,0.000000,-0.096000,0.012000,-0.034000,32.690000,-0.800000,2.170000,31.589044,Hold,55.725830,208896.000000,Hold,-143379.000000,143360.000000,Suck,-2130.000000,2181.818182,Speed,-2152.500000,2181.818182,Speed,On,On0.000000,0,,,,
02:02:48.309 PM 03/19/2016,Teleop Enabled,11,FALSE,0,NO ERROR,-0.000000,7.379149,0.000000,-8.765146,TRUE,FALSE,FALSE,FALSE,FALSE,FALSE,Disabled,0.000000,0.000000,0.000000,TRUE,0.069534,0.175156,0.000000,0.000000,0.068344,0.000000,0.009000,-0.024000,-0.099000,32.680000,-0.740000,2.190000,31.587354,Hold,55.725830,208896.000000,Hold,-143379.000000,143360.000000,Suck,-2137.500000,2181.818182,Speed,-2160.000000,2181.818182,Speed,On,On0.000000,0,,,,
02:02:48.409 PM 03/19/2016,Teleop Enabled,10,FALSE,0,NO ERROR,-0.000000,7.379149,0.000000,-8.765146,TRUE,FALSE,FALSE,FALSE,FALSE,FALSE,Disabled,0.000000,0.000000,0.000000,TRUE,0.068634,0.178391,0.000000,-0.026108,0.062576,0.000000,-0.024000,-0.092000,-0.085000,32.670000,-0.720000,2.230000,31.588503,Hold,55.725342,208896.000000,Hold,-143379.000000,143360.000000,Suck,-2137.500000,2181.818182,Speed,-2160.000000,2181.818182,Speed,On,On0.000000,0,,,,
02:02:48.509 PM 03/19/2016,Teleop Enabled,10,FALSE,0,NO ERROR,-0.000000,7.379149,0.000000,-8.765146,TRUE,FALSE,FALSE,FALSE,FALSE,FALSE,Disabled,0.000000,0.000000,0.000000,TRUE,0.066025,0.179886,0.000000,-0.048798,0.002258,0.000000,-0.049000,-0.097000,0.045000,32.670000,-0.740000,2.270000,31.570995,Hold,55.725098,208896.000000,Hold,-143379.000000,143360.000000,Suck,-2130.000000,2181.818182,Speed,-2160.000000,2181.818182,Speed,On,On0.000000,0,,,,
02:02:48.610 PM 03/19/2016,Teleop Enabled,11,FALSE,0,NO ERROR,-0.000000,7.379149,0.000000,-8.765146,TRUE,FALSE,FALSE,FALSE,FALSE,FALSE,Disabled,0.000000,0.000000,0.000000,TRUE,0.062012,0.178406,0.000000,-0.094467,-0.052551,0.000000,0.060000,-0.078000,0.003000,32.660000,-0.680000,2.190000,31.558777,Hold,55.724854,208896.000000,Hold,-143379.000000,143360.000000,Suck,-2130.000000,2181.818182,Speed,-2152.500000,2181.818182,Speed,On,On0.000000,0,,,,
02:02:48.710 PM 03/19/2016,Teleop Enabled,10,FALSE,0,NO ERROR,-0.000000,7.379149,0.000000,-8.765146,TRUE,FALSE,FALSE,FALSE,FALSE,FALSE,Disabled,0.000000,0.000000,0.000000,TRUE,0.056702,0.173981,0.000000,-0.112076,-0.094254,0.000000,0.020000,0.022000,0.059000,32.650000,-0.670000,2.170000,31.555968,Hold,55.724609,208896.000000,Hold,-143379.000000,143360.000000,Suck,-2137.500000,2181.818182,Speed,-2152.500000,2181.818182,Speed,On,On0.000000,0,,,,
02:02:48.811 PM 03/19/2016,Teleop Enabled,10,FALSE,0,NO ERROR,-0.000000,7.379149,0.000000,-8.765146,TRUE,FALSE,FALSE,FALSE,FALSE,FALSE,Disabled,0.000000,0.000000,0.000000,TRUE,0.051285,0.167313,0.000000,-0.088577,-0.145126,0.000000,-0.123000,-0.038000,0.071000,32.650000,-0.660000,2.240000,31.557383,Hold,55.719971,208896.000000,Hold,-143379.000000,143360.000000,Suck,-2137.500000,2181.818182,Speed,-2160.000000,2181.818182,Speed,On,On0.000000,0,,,,
02:02:48.911 PM 03/19/2016,Teleop Enabled,11,FALSE,0,NO ERROR,-0.000000,7.379149,0.000000,-8.765146,TRUE,FALSE,FALSE,FALSE,FALSE,FALSE,Disabled,0.000000,0.000000,0.000000,TRUE,0.046249,0.159714,0.000000,-0.087677,-0.146011,0.000000,-0.061000,-0.007000,0.068000,32.650000,-0.680000,2.230000,31.555149,Hold,55.719971,208896.000000,Hold,-143379.000000,143360.000000,Suck,-2130.000000,2181.818182,Speed,-2160.000000,2181.818182,Speed,On,On0.000000,0,,,,
02:02:49.011 PM 03/19/2016,Teleop Enabled,10,FALSE,0,NO ERROR,-0.000000,7.379149,0.000000,-8.765146,TRUE,FALSE,FALSE,FALSE,FALSE,FALSE,Disabled,0.000000,0.000000,0.000000,TRUE,0.041855,0.160110,0.000000,-0.067093,0.015869,0.000000,0.083000,-0.017000,0.031000,32.660000,-0.680000,2.210000,31.534259,Hold,55.719971,208896.000000,Hold,-143379.000000,143360.000000,Suck,-2130.000000,2181.818182,Speed,-2152.500000,2181.818182,Speed,On,On0.000000,0,,,,
