Time,Robot Mode,Loop Time,Error Status,Error Code,Error Source,Left Motor Output,Left Motor Encoder,Right Motor Output,Right Motor Encoder,Is Level,Is Stalled,Ball Detector Photoeye,Vision Enabled,Vision Teleop Control,Vision Auto Control,Vision Current State,Vision X Output,Vision NavX Error,Vision NavX Target,NavX Connection Status,NavX Displacement X,NavX Displacement Y,NavX Displacement Z,NavX Velocity X,NavX Velocity Y,NavX Velocity Z,NavX Acceleration X,NavX Acceleration Y,NavX Acceleration Z,NavX Pitch,NavX Yaw,NavX Roll,Gyro Angle,Roller Arm State,Roller Arm Actual,Roller Arm Desired,Shooter Arm State,Shooter Arm Actual,Shooter Arm Desired,Shooter State,Actual RPM Left,Desired RPM Left,Control Mode Left,Actual RPM Right,Desired RPM Right,Scaler Motor Output,Auto To Run,Auto Current File,Auto File Status,Auto Current Command,Auto Trimmed Command
09:43:40.430 AM 03/20/2016,Autonomous Disabled,11,FALSE,0,NO ERROR,-1.283403,-151.888561,-0.606361,-118.355140,FALSE,FALSE,FALSE,FALSE,FALSE,FALSE,Disabled,-0.100000,3.715625,-13.645625,TRUE,7.737473,-7.326721,0.000000,-1.448685,1.007126,0.000000,0.245000,-0.145000,0.111000,-76.350000,1.700000,4.210000,-59.468480,Hold,55.255859,208896.000000,Hold,-143473.000000,143360.000000,Suck,-2167.500000,2181.818182,Speed,-2152.500000,2181.818182,Speed,Off,On0.000000,0,,,,
09:43:40.531 AM 03/20/2016,Teleop Disabled,10,FALSE,0,NO ERROR,-1.283403,0.000000,-0.606361,0.000000,TRUE,FALSE,FALSE,FALSE,FALSE,FALSE,Disabled,-0.100000,3.715625,-13.645625,TRUE,6.871521,-7.452545,0.000000,0.000000,0.000000,0.000000,0.245000,-0.145000,0.111000,-0.010000,-0.030000,2.430000,-20.386953,ResetBack,1.237061,-0.200000,ResetBack,-9783.000000,-0.300000,Empty,0.000000,0.000000,Speed,0.000000,0.000000,Speed,Off,Off0.000000,0,,,,
09:43:40.632 AM 03/20/2016,Teleop Disabled,9,FALSE,0,NO ERROR,-1.283403,0.000000,-0.606361,0.000000,TRUE,FALSE,FALSE,FALSE,FALSE,FALSE,Disabled,-0.100000,3.715625,-13.645625,TRUE,6.871521,-7.452545,0.000000,0.000000,0.000000,0.000000,-0.001000,0.001000,0.016000,-0.010000,-0.030000,2.430000,0.003005,ResetBack,1.237061,-0.200000,ResetBack,-9783.000000,-0.300000,Empty,0.000000,0.000000,Speed,0.000000,0.000000,Speed,Off,Off0.000000,0,,,,
09:43:40.736 AM 03/20/2016,Teleop Disabled,11,FALSE,0,NO ERROR,-1.283403,0.000000,-0.606361,0.000000,TRUE,FALSE,FALSE,FALSE,FALSE,FALSE,Disabled,-0.100000,3.715625,-13.645625,TRUE,6.871521,-7.452545,0.000000,0.000000,0.000000,0.000000,0.001000,0.000000,0.019000,-0.010000,-0.030000,2.430000,0.015443,ResetBack,1.237061,-0.200000,ResetBack,-9783.000000,-0.300000,Empty,0.000000,0.000000,Speed,0.000000,0.000000,Speed,Off,Off0.000000,0,,,,
09:43:40.836 AM 03/20/2016,Teleop Disabled,10,FALSE,0,NO ERROR,-1.283403,0.000000,-0.606361,0.000000,TRUE,FALSE,FALSE,FALSE,FALSE,FALSE,Disabled,-0.100000,3.715625,-13.645625,TRUE,6.871521,-7.452545,0.000000,0.000000,0.000000,0.000000,-0.001000,0.000000,0.015000,-0.010000,-0.030000,2.430000,0.020714,ResetBack,1.237061,-0.200000,ResetBack,-9783.000000,-0.300000,Empty,0.000000,0.000000,Speed,0.000000,0.000000,Speed,Off,Off0.000000,0,,,,
09:43:40.936 AM 03/20/2016,Teleop Disabled,10,FALSE,0,NO ERROR,-1.283403,0.000000,-0.606361,0.000000,TRUE,FALSE,FALSE,FALSE,FALSE,FALSE,Disabled,-0.100000,3.715625,-13.645625,TRUE,6.871521,-7.452545,0.000000,0.000000,0.000000,0.000000,-0.001000,0.000000,0.015000,-0.010000,-0.030000,2.420000,0.026807,ResetBack,1.237061,-0.200000,ResetBack,-9783.000000,-0.300000,Empty,0.000000,0.000000,Speed,0.000000,0.000000,Speed,Off,Off0.000000,0,,,,
09:43:41.035 AM 03/20/2016,Teleop Disabled,10,FALSE,0,NO ERROR,-1.283403,0.000000,-0.606361,0.000000,TRUE,FALSE,FALSE,FALSE,FALSE,FALSE,Disabled,-0.100000,3.715625,-13.645625,TRUE,6.871521,-7.452545,0.000000,0.000000,0.000000,0.000000,0.001000,0.000000,0.020000,-0.010000,-0.030000,2.420000,0.035772,ResetBack,1.237061,-0.200000,ResetBack,-9783.000000,-0.300000,Empty,0.000000,0.000000,Speed,0.000000,0.000000,Speed,Off,Off0.000000,0,,,,
09:43:41.135 AM 03/20/2016,Teleop Disabled,10,FALSE,0,NO ERROR,-1.283403,0.000000,-0.606361,0.000000,TRUE,FALSE,FALSE,FALSE,FALSE,FALSE,Disabled,-0.100000,3.715625,-13.645625,TRUE,6.871521,-7.452545,0.000000,0.000000,0.000000,0.000000,0.001000,0.000000,0.020000,-0.010000,-0.030000,2.430000,0.033049,ResetBack,1.237061,-0.200000,ResetBack,-9783.000000,-0.300000,Empty,0.000000,0.000000,Speed,0.000000,0.000000,Speed,Off,Off0.000000,0,,,,
09:43:41.236 AM 03/20/2016,Teleop Disabled,10,FALSE,0,NO ERROR,-1.283403,0.000000,-0.606361,0.000000,TRUE,FALSE,FALSE,FALSE,FALSE,FALSE,Disabled,-0.100000,3.715625,-13.645625,TRUE,6.871521,-7.452545,0.000000,0.000000,0.000000,0.000000,-0.002000,0.001000,0.017000,-0.010000,-0.030000,2.420000,0.031000,ResetBack,1.237061,-0.200000,ResetBack,-9783.000000,-0.300000,Empty,0.000000,0.000000,Speed,0.000000,0.000000,Speed,Off,Off0.000000,0,,,,
09:43:41.337 AM 03/20/2016,Teleop Disabled,10,FALSE,0,NO ERROR,-1.283403,0.000000,-0.606361,0.000000,TRUE,FALSE,FALSE,FALSE,FALSE,FALSE,Disabled,-0.100000,3.715625,-13.645625,TRUE,6.871521,-7.452545,0.000000,0.000000,0.000000,0.000000,0.002000,0.001000,0.019000,-0.010000,-0.030000,2.430000,0.022711,ResetBack,1.237061,-0.200000,ResetBack,-9783.000000,-0.300000,Empty,0.000000,0.000000,Speed,0.000000,0.000000,Speed,Off,Off0.000000,0,,,,
09:43:41.438 AM 03/20/2016,Teleop Disabled,10,FALSE,0,NO ERROR,-1.283403,0.000000,-0.606361,0.000000,TRUE,FALSE,FALSE,FALSE,FALSE,FALSE,Disabled,-0.100000,3.715625,-13.645625,TRUE,6.871521,-7.452545,0.000000,0.000000,0.000000,0.000000,0.004000,0.000000,0.020000,-0.010000,-0.040000,2.420000,0.017041,ResetBack,1.237061,-0.200000,ResetBack,-9783.000000,-0.300000,Empty,0.000000,0.000000,Speed,0.000000,0.000000,Speed,Off,Off0.000000,0,,,,
09:43:41.539 AM 03/20/2016,Teleop Disabled,9,FALSE,0,NO ERROR,-1.283403,0.000000,-0.606361,0.000000,TRUE,FALSE,FALSE,FALSE,FALSE,FALSE,Disabled,-0.100000,3.715625,-13.645625,TRUE,6.871521,-7.452545,0.000000,0.000000,0.000000,0.000000,0.000000,0.000000,0.019000,-0.010000,-0.040000,2.420000,0.017041,ResetBack,1.237061,-0.200000,ResetBack,-9783.000000,-0.300000,Empty,0.000000,0.000000,Speed,0.000000,0.000000,Speed,Off,Off0.000000,0,,,,
09:43:41.642 AM 03/20/2016,Teleop Disabled,9,FALSE,0,NO ERROR,-1.283403,0.000000,-0.606361,0.000000,TRUE,FALSE,FALSE,FALSE,FALSE,FALSE,Disabled,-0.100000,3.715625,-13.645625,TRUE,6.871521,-7.452545,0.000000,0.000000,0.000000,0.000000,0.000000,0.003000,0.021000,-0.010000,-0.030000,2.430000,0.021674,ResetBack,1.237061,-0.200000,ResetBack,-9783.000000,-0.300000,Empty,0.000000,0.000000,Speed,0.000000,0.000000,Speed,Off,On0.000000,0,,,,
09:43:41.741 AM 03/20/2016,Teleop Disabled,10,FALSE,0,NO ERROR,-1.283403,0.000000,-0.606361,0.000000,TRUE,FALSE,FALSE,FALSE,FALSE,FALSE,Disabled,-0.100000,3.715625,-13.645625,TRUE,6.871521,-7.452545,0.000000,0.000000,0.000000,0.000000,0.000000,0.000000,0.022000,-0.010000,-0.040000,2.420000,0.009946,ResetBack,1.237061,-0.200000,ResetBack,-9783.000000,-0.300000,Suck,0.000000,2181.818182,Speed,0.000000,2181.818182,Speed,Off,On0.000000,0,,,,
09:43:41.842 AM 03/20/2016,Teleop Disabled,9,FALSE,0,NO ERROR,-1.283403,0.000000,-0.606361,0.000000,TRUE,FALSE,FALSE,FALSE,FALSE,FALSE,Disabled,-0.100000,3.715625,-13.645625,TRUE,6.871521,-7.452545,0.000000,0.000000,0.000000,0.000000,0.000000,-0.002000,0.021000,-0.010000,-0.040000,2.430000,0.008414,ResetBack,1.237061,-0.200000,ResetBack,-9783.000000,-0.300000,Suck,0.000000,2181.818182,Speed,0.000000,2181.818182,Speed,Off,On0.000000,0,,,,
09:43:41.943 AM 03/20/2016,Teleop Disabled,9,FALSE,0,NO ERROR,-1.283403,0.000000,-0.606361,0.000000,TRUE,FALSE,FALSE,FALSE,FALSE,FALSE,Disabled,-0.100000,3.715625,-13.645625,TRUE,6.871521,-7.452545,0.000000,0.000000,0.000000,0.000000,-0.001000,0.000000,0.024000,-0.010000,-0.040000,2.420000,0.001384,ResetBack,1.237061,-0.200000,ResetBack,-9783.000000,-0.300000,Suck,0.000000,2181.818182,Speed,0.000000,2181.818182,Speed,Off,On0.000000,0,,,,
09:43:42.044 AM 03/20/2016,Teleop Disabled,9,FALSE,0,NO ERROR,-1.283403,0.000000,-0.606361,0.000000,TRUE,FALSE,FALSE,FALSE,FALSE,FALSE,Disabled,-0.100000,3.715625,-13.645625,TRUE,6.871521,-7.452545,0.000000,0.000000,0.000000,0.000000,0.000000,0.000000,0.017000,-0.010000,-0.040000,2.420000,0.004926,ResetBack,1.237061,-0.200000,ResetBack,-9783.000000,-0.300000,Suck,0.000000,2181.818182,Speed,0.000000,2181.818182,Speed,Off,On0.000000,0,,,,
09:43:42.145 AM 03/20/2016,Teleop Disabled,10,FALSE,0,NO ERROR,-1.283403,0.000000,-0.606361,0.000000,TRUE,FALSE,FALSE,FALSE,FALSE,FALSE,Disabled,-0.100000,3.715625,-13.645625,TRUE,6.871521,-7.452545,0.000000,0.000000,0.000000,0.000000,0.000000,0.001000,0.022000,-0.010000,-0.040000,2.420000,0.008138,ResetBack,1.237061,-0.200000,ResetBack,-9783.000000,-0.300000,Suck,0.000000,2181.818182,Speed,0.000000,2181.818182,Speed,Off,On0.000000,0,,,,
09:43:42.245 AM 03/20/2016,Teleop Disabled,10,FALSE,0,NO ERROR,-1.283403,0.000000,-0.606361,0.000000,TRUE,TRUE,FALSE,FALSE,FALSE,FALSE,Disabled,-0.100000,3.715625,-13.645625,TRUE,6.871521,-7.452545,0.000000,0.000000,0.000000,0.000000,0.000000,0.000000,0.023000,-0.010000,-0.040000,2.420000,0.006727,ResetBack,1.237061,-0.200000,ResetBack,-9783.000000,-0.300000,Suck,0.000000,2181.818182,Speed,0.000000,2181.818182,Speed,Off,On0.000000,0,,,,
09:43:42.345 AM 03/20/2016,Teleop Disabled,9,FALSE,0,NO ERROR,-1.283403,0.000000,-0.606361,0.000000,TRUE,TRUE,FALSE,FALSE,FALSE,FALSE,Disabled,-0.100000,3.715625,-13.645625,TRUE,6.871521,-7.452545,0.000000,0.000000,0.000000,0.000000,-0.001000,0.001000,0.020000,-0.010000,-0.030000,2.430000,-0.002389,ResetBack,1.237061,-0.200000,ResetBack,-9783.000000,-0.300000,Suck,0.000000,0.000000,Speed,0.000000,0.000000,Speed,Off,On0.000000,0,,,,
09:43:42.445 AM 03/20/2016,Teleop Disabled,9,FALSE,0,NO ERROR,-1.283403,0.000000,-0.606361,0.000000,TRUE,FALSE,FALSE,FALSE,FALSE,FALSE,Disabled,-0.100000,3.715625,-13.645625,TRUE,6.871521,-7.452545,0.000000,0.000000,0.000000,0.000000,0.003000,0.001000,0.020000,-0.010000,-0.030000,2.430000,0.006183,ResetBack,1.237061,-0.200000,ResetBack,-9783.000000,-0.300000,Suck,0.000000,0.000000,Speed,0.000000,0.000000,Speed,Off,On0.000000,0,,,,
09:43:42.545 AM 03/20/2016,Teleop Disabled,11,FALSE,0,NO ERROR,-1.283403,0.000000,-0.606361,0.000000,TRUE,FALSE,FALSE,FALSE,FALSE,FALSE,Disabled,-0.100000,3.715625,-13.645625,TRUE,6.871521,-7.452545,0.000000,0.000000,0.000000,0.000000,0.000000,0.001000,0.022000,-0.010000,-0.030000,2.430000,0.010021,ResetBack,1.237061,-0.200000,ResetBack,-9783.000000,-0.300000,Suck,0.000000,2181.818182,Speed,0.000000,2181.818182,Speed,Off,On0.000000,0,,,,
09:43:42.645 AM 03/20/2016,Teleop Disabled,9,FALSE,0,NO ERROR,-1.283403,0.000000,-0.606361,0.000000,TRUE,FALSE,FALSE,FALSE,FALSE,FALSE,Disabled,-0.100000,3.715625,-13.645625,TRUE,6.871521,-7.452545,0.000000,0.000000,0.000000,0.000000,0.000000,0.000000,0.020000,-0.010000,-0.030000,2.440000,0.002961,ResetBack,1.237061,-0.200000,ResetBack,-9783.000000,-0.300000,Suck,0.000000,2181.818182,Speed,0.000000,2181.818182,Speed,Off,On0.000000,0,,,,
09:43:42.745 AM 03/20/2016,Teleop Disabled,9,FALSE,0,NO ERROR,-1.283403,0.000000,-0.606361,0.000000,TRUE,FALSE,FALSE,FALSE,FALSE,FALSE,Disabled,-0.100000,3.715625,-13.645625,TRUE,6.871521,-7.452545,0.000000,0.000000,0.000000,0.000000,0.002000,-0.001000,0.022000,-0.010000,-0.030000,2.440000,0.008434,ResetBack,1.237061,-0.200000,ResetBack,-9783.000000,-0.300000,Suck,0.000000,2181.818182,Speed,0.000000,2181.818182,Speed,Off,On0.000000,0,,,,
09:43:42.846 AM 03/20/2016,Teleop Disabled,11,FALSE,0,NO ERROR,-1.283403,0.000000,-0.606361,0.000000,TRUE,FALSE,FALSE,FALSE,FALSE,FALSE,Disabled,-0.100000,3.715625,-13.645625,TRUE,6.871521,-7.452545,0.000000,0.000000,0.000000,0.000000,-0.001000,0.000000,0.022000,-0.010000,-0.030000,2.440000,0.006754,ResetBack,1.237061,-0.200000,ResetBack,-9783.000000,-0.300000,Suck,0.000000,2181.818182,Speed,0.000000,2181.818182,Speed,Off,On0.000000,0,,,,
09:43:42.946 AM 03/20/2016,Teleop Disabled,10,FALSE,0,NO ERROR,-1.283403,0.000000,-0.606361,0.000000,TRUE,FALSE,FALSE,FALSE,FALSE,FALSE,Disabled,-0.100000,3.715625,-13.645625,TRUE,6.871521,-7.452545,0.000000,0.000000,0.000000,0.000000,0.000000,0.000000,0.016000,-0.010000,-0.040000,2.430000,0.010538,ResetBack,1.237061,-0.200000,ResetBack,-9783.000000,-0.300000,Suck,0.000000,2181.818182,Speed,0.000000,2181.818182,Speed,Off,On0.000000,0,,,,
09:43:43.047 AM 03/20/2016,Teleop Disabled,10,FALSE,0,NO ERROR,-1.283403,0.000000,-0.606361,0.000000,TRUE,TRUE,FALSE,FALSE,FALSE,FALSE,Disabled,-0.100000,3.715625,-13.645625,TRUE,6.871521,-7.452545,0.000000,0.000000,0.000000,0.000000,0.000000,-0.001000,0.019000,-0.010000,-0.040000,2.430000,0.018321,ResetBack,1.237061,-0.200000,ResetBack,-9783.000000,-0.300000,Suck,0.000000,2181.818182,Speed,0.000000,2181.818182,Speed,Off,On0.000000,0,,,,
09:43:43.147 AM 03/20/2016,Teleop Disabled,11,FALSE,0,NO ERROR,-1.283403,0.000000,-0.606361,0.000000,TRUE,TRUE,FALSE,FALSE,FALSE,FALSE,Disabled,-0.100000,3.715625,-13.645625,TRUE,6.871521,-7.452545,0.000000,0.000000,0.000000,0.000000,0.000000,0.000000,0.020000,-0.010000,-0.040000,2.430000,0.024225,ResetBack,1.237061,-0.200000,ResetBack,-9783.000000,-0.300000,Suck,0.000000,2181.818182,Speed,0.000000,2181.818182,Speed,Off,On0.000000,0,,,,
09:43:43.248 AM 03/20/2016,Teleop Disabled,9,FALSE,0,NO ERROR,-1.283403,0.000000,-0.606361,0.000000,TRUE,FALSE,FALSE,FALSE,FALSE,FALSE,Disabled,-0.100000,3.715625,-13.645625,TRUE,6.871521,-7.452545,0.000000,0.000000,0.000000,0.000000,0.000000,0.000000,0.023000,-0.010000,-0.030000,2.440000,0.019037,ResetBack,1.237061,-0.200000,ResetBack,-9783.000000,-0.300000,Suck,0.000000,0.000000,Speed,0.000000,0.000000,Speed,Off,On0.000000,0,,,,
09:43:43.350 AM 03/20/2016,Teleop Disabled,11,FALSE,0,NO ERROR,-1.283403,0.000000,-0.606361,0.000000,TRUE,FALSE,FALSE,FALSE,FALSE,FALSE,Disabled,-0.100000,3.715625,-13.645625,TRUE,6.871521,-7.452545,0.000000,0.000000,0.000000,0.000000,0.001000,-0.001000,0.021000,-0.010000,-0.030000,2.440000,0.029995,ResetBack,1.237061,-0.200000,ResetBack,-9783.000000,-0.300000,Suck,0.000000,2181.818182,Speed,0.000000,2181.818182,Speed,Off,On0.000000,0,,,,
09:43:43.450 AM 03/20/2016,Teleop Disabled,11,FALSE,0,NO ERROR,-1.283403,0.000000,-0.606361,0.000000,TRUE,FALSE,FALSE,FALSE,FALSE,FALSE,Disabled,-0.100000,3.715625,-13.645625,TRUE,6.871521,-7.452545,0.000000,0.000000,0.000000,0.000000,0.000000,-0.001000,0.020000,-0.010000,-0.030000,2.440000,0.034388,ResetBack,1.237061,-0.200000,ResetBack,-9783.000000,-0.300000,Suck,0.000000,2181.818182,Speed,0.000000,2181.818182,Speed,Off,On0.000000,0,,,,
09:43:43.550 AM 03/20/2016,Teleop Disabled,11,FALSE,0,NO ERROR,-1.283403,0.000000,-0.606361,0.000000,TRUE,FALSE,FALSE,FALSE,FALSE,FALSE,Disabled,-0.100000,3.715625,-13.645625,TRUE,6.871521,-7.452545,0.000000,0.000000,0.000000,0.000000,0.002000,0.001000,0.019000,-0.010000,-0.040000,2.430000,0.024852,ResetBack,1.237061,-0.200000,ResetBack,-9783.000000,-0.300000,Suck,0.000000,2181.818182,Speed,0.000000,2181.818182,Speed,Off,On0.000000,0,,,,
09:43:43.651 AM 03/20/2016,Teleop Disabled,9,FALSE,0,NO ERROR,-1.283403,0.000000,-0.606361,0.000000,TRUE,FALSE,FALSE,FALSE,FALSE,FALSE,Disabled,-0.100000,3.715625,-13.645625,TRUE,6.871521,-7.452545,0.000000,0.000000,0.000000,0.000000,0.000000,-0.003000,0.019000,-0.010000,-0.040000,2.430000,0.026873,ResetBack,1.237061,-0.200000,ResetBack,-9783.000000,-0.300000,Suck,0.000000,2181.818182,Speed,0.000000,2181.818182,Speed,Off,On0.000000,0,,,,
09:43:43.753 AM 03/20/2016,Teleop Disabled,10,FALSE,0,NO ERROR,-1.283403,0.000000,-0.606361,0.000000,TRUE,FALSE,FALSE,FALSE,FALSE,FALSE,Disabled,-0.100000,3.715625,-13.645625,TRUE,6.871521,-7.452545,0.000000,0.000000,0.000000,0.000000,-0.001000,0.001000,0.024000,-0.010000,-0.040000,2.430000,0.020204,ResetBack,1.237061,-0.200000,ResetBack,-9783.000000,-0.300000,Suck,0.000000,2181.818182,Speed,0.000000,2181.818182,Speed,Off,On0.000000,0,,,,
09:43:43.854 AM 03/20/2016,Teleop Disabled,10,FALSE,0,NO ERROR,-1.283403,0.000000,-0.606361,0.000000,TRUE,TRUE,FALSE,FALSE,FALSE,FALSE,Disabled,-0.100000,3.715625,-13.645625,TRUE,6.871521,-7.452545,0.000000,0.000000,0.000000,0.000000,-0.001000,0.001000,0.020000,-0.010000,-0.030000,2.430000,0.023829,ResetBack,1.237061,-0.200000,ResetBack,-9783.000000,-0.300000,Suck,0.000000,2181.818182,Speed,0.000000,2181.818182,Speed,Off,On0.000000,0,,,,
09:43:43.955 AM 03/20/2016,Teleop Disabled,10,FALSE,0,NO ERROR,-1.283403,0.000000,-0.606361,0.000000,TRUE,TRUE,FALSE,FALSE,FALSE,FALSE,Disabled,-0.100000,3.715625,-13.645625,TRUE,6.871521,-7.452545,0.000000,0.000000,0.000000,0.000000,-0.001000,0.000000,0.023000,-0.010000,-0.040000,2.430000,0.022356,ResetBack,1.237061,-0.200000,ResetBack,-9783.000000,-0.300000,Suck,0.000000,0.000000,Speed,0.000000,0.000000,Speed,Off,On0.000000,0,,,,
09:43:44.056 AM 03/20/2016,Teleop Disabled,10,FALSE,0,NO ERROR,-1.283403,0.000000,-0.606361,0.000000,TRUE,FALSE,FALSE,FALSE,FALSE,FALSE,Disabled,-0.100000,3.715625,-13.645625,TRUE,6.871521,-7.452545,0.000000,0.000000,0.000000,0.000000,0.000000,0.000000,0.021000,-0.010000,-0.040000,2.430000,0.037025,ResetBack,1.237061,-0.200000,ResetBack,-9783.000000,-0.300000,Suck,0.000000,0.000000,Speed,0.000000,0.000000,Speed,Off,On0.000000,0,,,,
09:43:44.157 AM 03/20/2016,Teleop Disabled,9,FALSE,0,NO ERROR,-1.283403,0.000000,-0.606361,0.000000,TRUE,FALSE,FALSE,FALSE,FALSE,FALSE,Disabled,-0.100000,3.715625,-13.645625,TRUE,6.871521,-7.452545,0.000000,0.000000,0.000000,0.000000,0.000000,0.000000,0.020000,-0.010000,-0.040000,2.430000,0.046812,ResetBack,1.237061,-0.200000,ResetBack,-9783.000000,-0.300000,Suck,0.000000,0.000000,Speed,0.000000,0.000000,Speed,Off,On0.000000,0,,,,
09:43:44.259 AM 03/20/2016,Teleop Disabled,9,FALSE,0,NO ERROR,-1.283403,0.000000,-0.606361,0.000000,TRUE,FALSE,FALSE,FALSE,FALSE,FALSE,Disabled,-0.100000,3.715625,-13.645625,TRUE,6.871521,-7.452545,0.000000,0.000000,0.000000,0.000000,0.000000,0.000000,0.018000,-0.010000,-0.030000,2.430000,0.043204,ResetBack,1.237061,-0.200000,ResetBack,-9783.000000,-0.300000,Suck,0.000000,2181.818182,Speed,0.000000,2181.818182,Speed,Off,On0.000000,0,,,,
09:43:44.360 AM 03/20/2016,Teleop Disabled,11,FALSE,0,NO ERROR,-1.283403,0.000000,-0.606361,0.000000,TRUE,FALSE,FALSE,FALSE,FALSE,FALSE,Disabled,-0.100000,3.715625,-13.645625,TRUE,6.871521,-7.452545,0.000000,0.000000,0.000000,0.000000,0.000000,0.000000,0.021000,-0.010000,-0.030000,2.430000,0.046554,ResetBack,1.237061,-0.200000,ResetBack,-9783.000000,-0.300000,Suck,0.000000,2181.818182,Speed,0.000000,2181.818182,Speed,Off,On0.000000,0,,,,
09:43:44.461 AM 03/20/2016,Teleop Disabled,10,FALSE,0,NO ERROR,-1.283403,0.000000,-0.606361,0.000000,TRUE,FALSE,FALSE,FALSE,FALSE,FALSE,Disabled,-0.100000,3.715625,-13.645625,TRUE,6.871521,-7.452545,0.000000,0.000000,0.000000,0.000000,0.000000,0.000000,0.018000,-0.010000,-0.030000,2.430000,0.045166,ResetBack,1.237061,-0.200000,ResetBack,-9783.000000,-0.300000,Suck,0.000000,2181.818182,Speed,0.000000,2181.818182,Speed,Off,On0.000000,0,,,,
09:43:44.562 AM 03/20/2016,Teleop Disabled,10,FALSE,0,NO ERROR,-1.283403,0.000000,-0.606361,0.000000,TRUE,FALSE,FALSE,FALSE,FALSE,FALSE,Disabled,-0.100000,3.715625,-13.645625,TRUE,6.871521,-7.452545,0.000000,0.000000,0.000000,0.000000,0.000000,0.000000,0.017000,0.000000,-0.040000,2.430000,0.053676,ResetBack,1.237061,-0.200000,ResetBack,-9783.000000,-0.300000,Suck,0.000000,2181.818182,Speed,0.000000,2181.818182,Speed,Off,On0.000000,0,,,,
09:43:44.663 AM 03/20/2016,Teleop Disabled,9,FALSE,0,NO ERROR,-1.283403,0.000000,-0.606361,0.000000,TRUE,FALSE,FALSE,FALSE,FALSE,FALSE,Disabled,-0.100000,3.715625,-13.645625,TRUE,6.871521,-7.452545,0.000000,0.000000,0.000000,0.000000,0.000000,-0.001000,0.015000,-0.010000,-0.040000,2.430000,0.046588,ResetBack,1.237061,-0.200000,ResetBack,-9783.000000,-0.300000,Suck,0.000000,2181.818182,Speed,0.000000,2181.818182,Speed,Off,On0.000000,0,,,,
09:43:44.764 AM 03/20/2016,Teleop Disabled,10,FALSE,0,NO ERROR,-1.283403,0.000000,-0.606361,0.000000,TRUE,TRUE,FALSE,FALSE,FALSE,FALSE,Disabled,-0.100000,3.715625,-13.645625,TRUE,6.871521,-7.452545,0.000000,0.000000,0.000000,0.000000,0.002000,0.000000,0.023000,-0.010000,-0.040000,2.420000,0.036856,ResetBack,1.237061,-0.200000,ResetBack,-9783.000000,-0.300000,Suck,0.000000,2181.818182,Speed,0.000000,2181.818182,Speed,Off,On0.000000,0,,,,
09:43:44.863 AM 03/20/2016,Teleop Disabled,9,FALSE,0,NO ERROR,-1.283403,0.000000,-0.606361,0.000000,TRUE,TRUE,FALSE,FALSE,FALSE,FALSE,Disabled,-0.100000,3.715625,-13.645625,TRUE,6.871521,-7.452545,0.000000,0.000000,0.000000,0.000000,0.002000,0.000000,0.020000,-0.010000,-0.040000,2.430000,0.038147,ResetBack,1.237061,-0.200000,ResetBack,-9783.000000,-0.300000,Suck,0.000000,0.000000,Speed,0.000000,0.000000,Speed,Off,On0.000000,0,,,,
09:43:44.964 AM 03/20/2016,Teleop Disabled,9,FALSE,0,NO ERROR,-1.283403,0.000000,-0.606361,0.000000,TRUE,FALSE,FALSE,FALSE,FALSE,FALSE,Disabled,-0.100000,3.715625,-13.645625,TRUE,6.871521,-7.452545,0.000000,0.000000,0.000000,0.000000,0.000000,-0.001000,0.019000,-0.010000,-0.040000,2.430000,0.047914,ResetBack,1.237061,-0.200000,ResetBack,-9783.000000,-0.300000,Suck,0.000000,0.000000,Speed,0.000000,0.000000,Speed,Off,On0.000000,0,,,,
09:43:45.064 AM 03/20/2016,Teleop Disabled,10,FALSE,0,NO ERROR,-1.283403,0.000000,-0.606361,0.000000,TRUE,FALSE,FALSE,FALSE,FALSE,FALSE,Disabled,-0.100000,3.715625,-13.645625,TRUE,6.871521,-7.452545,0.000000,0.000000,0.000000,0.000000,0.001000,-0.002000,0.019000,-0.010000,-0.040000,2.430000,0.049397,ResetBack,1.237061,-0.200000,ResetBack,-9783.000000,-0.300000,Suck,0.000000,2181.818182,Speed,0.000000,2181.818182,Speed,Off,On0.000000,0,,,,
09:43:45.164 AM 03/20/2016,Teleop Disabled,10,FALSE,0,NO ERROR,-1.283403,0.000000,-0.606361,0.000000,TRUE,FALSE,FALSE,FALSE,FALSE,FALSE,Disabled,-0.100000,3.715625,-13.645625,TRUE,6.871521,-7.452545,0.000000,0.000000,0.000000,0.000000,0.000000,0.000000,0.020000,-0.010000,-0.040000,2.430000,0.026756,ResetBack,1.237061,-0.200000,ResetBack,-9783.000000,-0.300000,Suck,0.000000,2181.818182,Speed,0.000000,2181.818182,Speed,Off,On0.000000,0,,,,
09:43:45.264 AM 03/20/2016,Teleop Disabled,10,FALSE,0,NO ERROR,-1.283403,0.000000,-0.606361,0.000000,TRUE,FALSE,FALSE,FALSE,FALSE,FALSE,Disabled,-0.100000,3.715625,-13.645625,TRUE,6.871521,-7.452545,0.000000,0.000000,0.000000,0.000000,-0.001000,0.000000,0.024000,-0.010000,-0.040000,2.430000,0.021585,ResetBack,1.237061,-0.200000,ResetBack,-9783.000000,-0.300000,Suck,0.000000,2181.818182,Speed,0.000000,2181.818182,Speed,Off,On0.000000,0,,,,
09:43:45.365 AM 03/20/2016,Teleop Disabled,9,FALSE,0,NO ERROR,-1.283403,0.000000,-0.606361,0.000000,TRUE,FALSE,FALSE,FALSE,FALSE,FALSE,Disabled,-0.100000,3.715625,-13.645625,TRUE,6.871521,-7.452545,0.000000,0.000000,0.000000,0.000000,0.000000,0.000000,0.020000,-0.020000,-0.040000,2.430000,0.015340,ResetBack,1.237061,-0.200000,ResetBack,-9783.000000,-0.300000,Suck,0.000000,2181.818182,Speed,0.000000,2181.818182,Speed,Off,On0.000000,0,,,,
09:43:45.466 AM 03/20/2016,Teleop Disabled,10,FALSE,0,NO ERROR,-1.283403,0.000000,-0.606361,0.000000,TRUE,FALSE,FALSE,FALSE,FALSE,FALSE,Disabled,-0.100000,3.715625,-13.645625,TRUE,6.871521,-7.452545,0.000000,0.000000,0.000000,0.000000,0.000000,-0.001000,0.021000,-0.020000,-0.040000,2.430000,0.022180,ResetBack,1.237061,-0.200000,ResetBack,-9783.000000,-0.300000,Suck,0.000000,2181.818182,Speed,0.000000,2181.818182,Speed,Off,On0.000000,0,,,,
09:43:45.566 AM 03/20/2016,Teleop Disabled,10,FALSE,0,NO ERROR,-1.283403,0.000000,-0.606361,0.000000,TRUE,TRUE,FALSE,FALSE,FALSE,FALSE,Disabled,-0.100000,3.715625,-13.645625,TRUE,6.871521,-7.452545,0.000000,0.000000,0.000000,0.000000,0.000000,-0.001000,0.019000,-0.020000,-0.040000,2.420000,0.047294,ResetBack,1.237061,-0.200000,ResetBack,-9783.000000,-0.300000,Suck,0.000000,2181.818182,Speed,0.000000,2181.818182,Speed,Off,On0.000000,0,,,,
09:43:45.666 AM 03/20/2016,Teleop Disabled,11,FALSE,0,NO ERROR,-1.283403,0.000000,-0.606361,0.000000,TRUE,TRUE,FALSE,FALSE,FALSE,FALSE,Disabled,-0.100000,3.715625,-13.645625,TRUE,6.871521,-7.452545,0.000000,0.000000,0.000000,0.000000,0.000000,0.002000,0.020000,-0.020000,-0.040000,2.420000,0.039545,ResetBack,1.237061,-0.200000,ResetBack,-9783.000000,-0.300000,Suck,0.000000,0.000000,Speed,0.000000,0.000000,Speed,Off,On0.000000,0,,,,
09:43:45.766 AM 03/20/2016,Teleop Disabled,10,FALSE,0,NO ERROR,-1.283403,0.000000,-0.606361,0.000000,TRUE,FALSE,FALSE,FALSE,FALSE,FALSE,Disabled,-0.100000,3.715625,-13.645625,TRUE,6.871521,-7.452545,0.000000,0.000000,0.000000,0.000000,0.001000,0.000000,0.021000,-0.020000,-0.040000,2.430000,0.050254,ResetBack,1.237061,-0.200000,ResetBack,-9783.000000,-0.300000,Suck,0.000000,0.000000,Speed,0.000000,0.000000,Speed,Off,On0.000000,0,,,,
09:43:45.867 AM 03/20/2016,Teleop Disabled,11,FALSE,0,NO ERROR,-1.283403,0.000000,-0.606361,0.000000,TRUE,FALSE,FALSE,FALSE,FALSE,FALSE,Disabled,-0.100000,3.715625,-13.645625,TRUE,6.871521,-7.452545,0.000000,0.000000,0.000000,0.000000,0.001000,-0.002000,0.018000,-0.020000,-0.040000,2.430000,0.040805,ResetBack,1.237061,-0.200000,ResetBack,-9783.000000,-0.300000,Suck,0.000000,2181.818182,Speed,0.000000,2181.818182,Speed,Off,On0.000000,0,,,,
09:43:45.968 AM 03/20/2016,Teleop Disabled,9,FALSE,0,NO ERROR,-1.283403,0.000000,-0.606361,0.000000,TRUE,FALSE,FALSE,FALSE,FALSE,FALSE,Disabled,-0.100000,3.715625,-13.645625,TRUE,6.871521,-7.452545,0.000000,0.000000,0.000000,0.000000,0.003000,0.001000,0.020000,-0.020000,-0.040000,2.420000,0.043001,ResetBack,1.237061,-0.200000,ResetBack,-9783.000000,-0.300000,Suck,0.000000,2181.818182,Speed,0.000000,2181.818182,Speed,Off,On0.000000,0,,,,
09:43:46.068 AM 03/20/2016,Teleop Disabled,11,FALSE,0,NO ERROR,-1.283403,0.000000,-0.606361,0.000000,TRUE,FALSE,FALSE,FALSE,FALSE,FALSE,Disabled,-0.100000,3.715625,-13.645625,TRUE,6.871521,-7.452545,0.000000,0.000000,0.000000,0.000000,0.000000,0.000000,0.018000,-0.020000,-0.030000,2.420000,0.032236,ResetBack,1.237061,-0.200000,ResetBack,-9783.000000,-0.300000,Suck,0.000000,2181.818182,Speed,0.000000,2181.818182,Speed,Off,On0.000000,0,,,,
09:43:46.168 AM 03/20/2016,Teleop Disabled,11,FALSE,0,NO ERROR,-1.283403,0.000000,-0.606361,0.000000,TRUE,FALSE,FALSE,FALSE,FALSE,FALSE,Disabled,-0.100000,3.715625,-13.645625,TRUE,6.871521,-7.452545,0.000000,0.000000,0.000000,0.000000,0.000000,0.002000,0.019000,-0.020000,-0.030000,2.420000,0.040481,ResetBack,1.237061,-0.200000,ResetBack,-9783.000000,-0.300000,Suck,0.000000,2181.818182,Speed,0.000000,2181.818182,Speed,Off,On0.000000,0,,,,
09:43:46.268 AM 03/20/2016,Teleop Disabled,11,FALSE,0,NO ERROR,-1.283403,0.000000,-0.606361,0.000000,TRUE,FALSE,FALSE,FALSE,FALSE,FALSE,Disabled,-0.100000,3.715625,-13.645625,TRUE,6.871521,-7.452545,0.000000,0.000000,0.000000,0.000000,0.000000,0.002000,0.021000,-0.020000,-0.030000,2.420000,0.042116,ResetBack,1.237061,-0.200000,ResetBack,-9783.000000,-0.300000,Suck,0.000000,2181.818182,Speed,0.000000,2181.818182,Speed,Off,On0.000000,0,,,,
09:43:46.369 AM 03/20/2016,Teleop Disabled,10,FALSE,0,NO ERROR,-1.283403,0.000000,-0.606361,0.000000,TRUE,TRUE,FALSE,FALSE,FALSE,FALSE,Disabled,-0.100000,3.715625,-13.645625,TRUE,6.871521,-7.452545,0.000000,0.000000,0.000000,0.000000,0.000000,0.001000,0.022000,-0.020000,-0.030000,2.420000,0.052155,ResetBack,1.237061,-0.200000,ResetBack,-9783.000000,-0.300000,Suck,0.000000,2181.818182,Speed,0.000000,2181.818182,Speed,Off,On0.000000,0,,,,
09:43:46.469 AM 03/20/2016,Teleop Disabled,10,FALSE,0,NO ERROR,-1.283403,0.000000,-0.606361,0.000000,TRUE,TRUE,FALSE,FALSE,FALSE,FALSE,Disabled,-0.100000,3.715625,-13.645625,TRUE,6.871521,-7.452545,0.000000,0.000000,0.000000,0.000000,0.001000,-0.003000,0.017000,-0.020000,-0.030000,2.420000,0.060207,ResetBack,1.237061,-0.200000,ResetBack,-9783.000000,-0.300000,Suck,0.000000,0.000000,Speed,0.000000,0.000000,Speed,Off,On0.000000,0,,,,
09:43:46.569 AM 03/20/2016,Teleop Disabled,10,FALSE,0,NO ERROR,-1.283403,0.000000,-0.606361,0.000000,TRUE,FALSE,FALSE,FALSE,FALSE,FALSE,Disabled,-0.100000,3.715625,-13.645625,TRUE,6.871521,-7.452545,0.000000,0.000000,0.000000,0.000000,-0.002000,0.001000,0.021000,-0.020000,-0.020000,2.410000,0.054076,ResetBack,1.237061,-0.200000,ResetBack,-9783.000000,-0.300000,Suck,0.000000,0.000000,Speed,0.000000,0.000000,Speed,Off,On0.000000,0,,,,
09:43:46.669 AM 03/20/2016,Teleop Disabled,9,FALSE,0,NO ERROR,-1.283403,0.000000,-0.606361,0.000000,TRUE,FALSE,FALSE,FALSE,FALSE,FALSE,Disabled,-0.100000,3.715625,-13.645625,TRUE,6.871521,-7.452545,0.000000,0.000000,0.000000,0.000000,0.000000,0.000000,0.013000,-0.030000,-0.020000,2.420000,0.054568,ResetBack,1.237061,-0.200000,ResetBack,-9783.000000,-0.300000,Suck,0.000000,2181.818182,Speed,0.000000,2181.818182,Speed,Off,On0.000000,0,,,,
09:43:46.769 AM 03/20/2016,Teleop Disabled,10,FALSE,0,NO ERROR,-1.283403,0.000000,-0.606361,0.000000,TRUE,FALSE,FALSE,FALSE,FALSE,FALSE,Disabled,-0.100000,3.715625,-13.645625,TRUE,6.871521,-7.452545,0.000000,0.000000,0.000000,0.000000,0.000000,0.000000,0.023000,-0.030000,-0.020000,2.420000,0.057828,ResetBack,1.237061,-0.200000,ResetBack,-9783.000000,-0.300000,Suck,0.000000,2181.818182,Speed,0.000000,2181.818182,Speed,Off,On0.000000,0,,,,
09:43:46.869 AM 03/20/2016,Teleop Disabled,10,FALSE,0,NO ERROR,-1.283403,0.000000,-0.606361,0.000000,TRUE,FALSE,FALSE,FALSE,FALSE,FALSE,Disabled,-0.100000,3.715625,-13.645625,TRUE,6.871521,-7.452545,0.000000,0.000000,0.000000,0.000000,0.000000,-0.001000,0.018000,-0.030000,-0.020000,2.420000,0.034883,ResetBack,1.237061,-0.200000,ResetBack,-9783.000000,-0.300000,Suck,0.000000,2181.818182,Speed,0.000000,2181.818182,Speed,Off,On0.000000,0,,,,
09:43:46.969 AM 03/20/2016,Teleop Disabled,11,FALSE,0,NO ERROR,-1.283403,0.000000,-0.606361,0.000000,TRUE,FALSE,FALSE,FALSE,FALSE,FALSE,Disabled,-0.100000,3.715625,-13.645625,TRUE,6.871521,-7.452545,0.000000,0.000000,0.000000,0.000000,0.001000,-0.001000,0.018000,-0.040000,-0.020000,2.420000,0.034481,ResetBack,1.237061,-0.200000,ResetBack,-9783.000000,-0.300000,Suck,0.000000,2181.818182,Speed,0.000000,2181.818182,Speed,Off,On0.000000,0,,,,
09:43:47.069 AM 03/20/2016,Teleop Disabled,10,FALSE,0,NO ERROR,-1.283403,0.000000,-0.606361,0.000000,TRUE,FALSE,FALSE,FALSE,FALSE,FALSE,Disabled,-0.100000,3.715625,-13.645625,TRUE,6.871521,-7.452545,0.000000,0.000000,0.000000,0.000000,0.001000,-0.001000,0.018000,-0.040000,-0.020000,2.420000,0.031978,ResetBack,1.237061,-0.200000,ResetBack,-9783.000000,-0.300000,Suck,0.000000,2181.818182,Speed,0.000000,2181.818182,Speed,Off,On0.000000,0,,,,
09:43:47.170 AM 03/20/2016,Teleop Disabled,11,FALSE,0,NO ERROR,-1.283403,0.000000,-0.606361,0.000000,TRUE,TRUE,FALSE,FALSE,FALSE,FALSE,Disabled,-0.100000,3.715625,-13.645625,TRUE,6.871521,-7.452545,0.000000,0.000000,0.000000,0.000000,0.000000,0.001000,0.021000,-0.040000,-0.020000,2.420000,0.023499,ResetBack,1.237061,-0.200000,ResetBack,-9783.000000,-0.300000,Suck,0.000000,2181.818182,Speed,0.000000,2181.818182,Speed,Off,On0.000000,0,,,,
09:43:47.270 AM 03/20/2016,Teleop Disabled,10,FALSE,0,NO ERROR,-1.283403,0.000000,-0.606361,0.000000,TRUE,TRUE,FALSE,FALSE,FALSE,FALSE,Disabled,-0.100000,3.715625,-13.645625,TRUE,6.871521,-7.452545,0.000000,0.000000,0.000000,0.000000,0.000000,0.000000,0.017000,-0.050000,-0.020000,2.430000,0.019932,ResetBack,1.237061,-0.200000,ResetBack,-9783.000000,-0.300000,Suck,0.000000,0.000000,Speed,0.000000,0.000000,Speed,Off,On0.000000,0,,,,
09:43:47.370 AM 03/20/2016,Teleop Disabled,9,FALSE,0,NO ERROR,-1.283403,0.000000,-0.606361,0.000000,TRUE,FALSE,FALSE,FALSE,FALSE,FALSE,Disabled,-0.100000,3.715625,-13.645625,TRUE,6.871521,-7.452545,0.000000,0.000000,0.000000,0.000000,0.001000,-0.002000,0.021000,-0.050000,-0.010000,2.420000,0.018817,ResetBack,1.237061,-0.200000,ResetBack,-9783.000000,-0.300000,Suck,0.000000,0.000000,Speed,0.000000,0.000000,Speed,Off,On0.000000,0,,,,
09:43:47.470 AM 03/20/2016,Teleop Disabled,9,FALSE,0,NO ERROR,-1.283403,0.000000,-0.606361,0.000000,TRUE,FALSE,FALSE,FALSE,FALSE,FALSE,Disabled,-0.100000,3.715625,-13.645625,TRUE,6.871521,-7.452545,0.000000,0.000000,0.000000,0.000000,-0.001000,-0.001000,0.019000,-0.050000,-0.010000,2.430000,0.015109,ResetBack,1.237061,-0.200000,ResetBack,-9783.000000,-0.300000,Suck,0.000000,2181.818182,Speed,0.000000,2181.818182,Speed,Off,On0.000000,0,,,,
09:43:47.570 AM 03/20/2016,Teleop Disabled,11,FALSE,0,NO ERROR,-1.283403,0.000000,-0.606361,0.000000,TRUE,FALSE,FALSE,FALSE,FALSE,FALSE,Disabled,-0.100000,3.715625,-13.645625,TRUE,6.871521,-7.452545,0.000000,0.000000,0.000000,0.000000,0.000000,0.000000,0.020000,-0.050000,-0.010000,2.430000,0.024163,ResetBack,1.237061,-0.200000,ResetBack,-9783.000000,-0.300000,Suck,0.000000,2181.818182,Speed,0.000000,2181.818182,Speed,Off,On0.000000,0,,,,
09:43:47.671 AM 03/20/2016,Teleop Disabled,10,FALSE,0,NO ERROR,-1.283403,0.000000,-0.606361,0.000000,TRUE,FALSE,FALSE,FALSE,FALSE,FALSE,Disabled,-0.100000,3.715625,-13.645625,TRUE,6.871521,-7.452545,0.000000,0.000000,0.000000,0.000000,0.000000,0.000000,0.020000,-0.050000,-0.010000,2.430000,0.034253,ResetBack,1.237061,-0.200000,ResetBack,-9783.000000,-0.300000,Suck,0.000000,2181.818182,Speed,0.000000,2181.818182,Speed,Off,On0.000000,0,,,,
09:43:47.772 AM 03/20/2016,Teleop Disabled,10,FALSE,0,NO ERROR,-1.283403,0.000000,-0.606361,0.000000,TRUE,FALSE,FALSE,FALSE,FALSE,FALSE,Disabled,-0.100000,3.715625,-13.645625,TRUE,6.871521,-7.452545,0.000000,0.000000,0.000000,0.000000,0.000000,0.000000,0.020000,-0.050000,-0.010000,2.430000,0.044609,ResetBack,1.237061,-0.200000,ResetBack,-9783.000000,-0.300000,Suck,0.000000,2181.818182,Speed,0.000000,2181.818182,Speed,Off,On0.000000,0,,,,
09:43:47.872 AM 03/20/2016,Teleop Disabled,9,FALSE,0,NO ERROR,-1.283403,0.000000,-0.606361,0.000000,TRUE,FALSE,FALSE,FALSE,FALSE,FALSE,Disabled,-0.100000,3.715625,-13.645625,TRUE,6.871521,-7.452545,0.000000,0.000000,0.000000,0.000000,0.000000,0.000000,0.024000,-0.050000,-0.010000,2.430000,0.051404,ResetBack,1.237061,-0.200000,ResetBack,-9783.000000,-0.300000,Suck,0.000000,2181.818182,Speed,0.000000,2181.818182,Speed,Off,On0.000000,0,,,,
09:43:47.972 AM 03/20/2016,Teleop Disabled,10,FALSE,0,NO ERROR,-1.283403,0.000000,-0.606361,0.000000,TRUE,FALSE,FALSE,FALSE,FALSE,FALSE,Disabled,-0.100000,3.715625,-13.645625,TRUE,6.871521,-7.452545,0.000000,0.000000,0.000000,0.000000,0.000000,0.000000,0.024000,-0.050000,-0.010000,2.430000,0.051339,ResetBack,1.237061,-0.200000,ResetBack,-9783.000000,-0.300000,Suck,0.000000,2181.818182,Speed,0.000000,2181.818182,Speed,Off,On0.000000,0,,,,
09:43:48.073 AM 03/20/2016,Teleop Disabled,9,FALSE,0,NO ERROR,-1.283403,0.000000,-0.606361,0.000000,TRUE,TRUE,FALSE,FALSE,FALSE,FALSE,Disabled,-0.100000,3.715625,-13.645625,TRUE,6.871521,-7.452545,0.000000,0.000000,0.000000,0.000000,0.000000,-0.001000,0.019000,-0.050000,-0.010000,2.440000,0.044120,ResetBack,1.237061,-0.200000,ResetBack,-9783.000000,-0.300000,Suck,0.000000,2181.818182,Speed,0.000000,2181.818182,Speed,Off,On0.000000,0,,,,
09:43:48.173 AM 03/20/2016,Teleop Disabled,9,FALSE,0,NO ERROR,-1.283403,0.000000,-0.606361,0.000000,TRUE,TRUE,FALSE,FALSE,FALSE,FALSE,Disabled,-0.100000,3.715625,-13.645625,TRUE,6.871521,-7.452545,0.000000,0.000000,0.000000,0.000000,0.000000,-0.001000,0.019000,-0.050000,-0.010000,2.430000,0.049549,ResetBack,1.237061,-0.200000,ResetBack,-9783.000000,-0.300000,Suck,0.000000,0.000000,Speed,0.000000,0.000000,Speed,Off,On0.000000,0,,,,
09:43:48.273 AM 03/20/2016,Teleop Disabled,10,FALSE,0,NO ERROR,-1.283403,0.000000,-0.606361,0.000000,TRUE,FALSE,FALSE,FALSE,FALSE,FALSE,Disabled,-0.100000,3.715625,-13.645625,TRUE,6.871521,-7.452545,0.000000,0.000000,0.000000,0.000000,0.002000,0.001000,0.016000,-0.050000,-0.010000,2.430000,0.063336,ResetBack,1.237061,-0.200000,ResetBack,-9783.000000,-0.300000,Suck,0.000000,0.000000,Speed,0.000000,0.000000,Speed,Off,On0.000000,0,,,,
09:43:48.373 AM 03/20/2016,Teleop Disabled,11,FALSE,0,NO ERROR,-1.283403,0.000000,-0.606361,0.000000,TRUE,FALSE,FALSE,FALSE,FALSE,FALSE,Disabled,-0.100000,3.715625,-13.645625,TRUE,6.871521,-7.452545,0.000000,0.000000,0.000000,0.000000,0.000000,0.000000,0.017000,-0.050000,0.000000,2.440000,0.067175,ResetBack,1.237061,-0.200000,ResetBack,-9783.000000,-0.300000,Suck,0.000000,2181.818182,Speed,0.000000,2181.818182,Speed,Off,On0.000000,0,,,,
09:43:48.473 AM 03/20/2016,Teleop Disabled,10,FALSE,0,NO ERROR,-1.283403,0.000000,-0.606361,0.000000,TRUE,FALSE,FALSE,FALSE,FALSE,FALSE,Disabled,-0.100000,3.715625,-13.645625,TRUE,6.871521,-7.452545,0.000000,0.000000,0.000000,0.000000,0.003000,0.000000,0.019000,-0.050000,-0.010000,2.440000,0.079991,ResetBack,1.237061,-0.200000,ResetBack,-9783.000000,-0.300000,Suck,0.000000,2181.818182,Speed,0.000000,2181.818182,Speed,Off,On0.000000,0,,,,
09:43:48.573 AM 03/20/2016,Teleop Disabled,11,FALSE,0,NO ERROR,-1.283403,0.000000,-0.606361,0.000000,TRUE,FALSE,FALSE,FALSE,FALSE,FALSE,Disabled,-0.100000,3.715625,-13.645625,TRUE,6.871521,-7.452545,0.000000,0.000000,0.000000,0.000000,0.000000,0.000000,0.018000,-0.050000,-0.010000,2.440000,0.077013,ResetBack,1.237061,-0.200000,ResetBack,-9783.000000,-0.300000,Suck,0.000000,2181.818182,Speed,0.000000,2181.818182,Speed,Off,On0.000000,0,,,,
09:43:48.674 AM 03/20/2016,Teleop Disabled,10,FALSE,0,NO ERROR,-1.283403,0.000000,-0.606361,0.000000,TRUE,FALSE,FALSE,FALSE,FALSE,FALSE,Disabled,-0.100000,3.715625,-13.645625,TRUE,6.871521,-7.452545,0.000000,0.000000,0.000000,0.000000,-0.001000,0.000000,0.020000,-0.050000,-0.010000,2.440000,0.073543,ResetBack,1.237061,-0.200000,ResetBack,-9783.000000,-0.300000,Suck,0.000000,2181.818182,Speed,0.000000,2181.818182,Speed,Off,On0.000000,0,,,,
09:43:48.773 AM 03/20/2016,Teleop Disabled,9,FALSE,0,NO ERROR,-1.283403,0.000000,-0.606361,0.000000,TRUE,FALSE,FALSE,FALSE,FALSE,FALSE,Disabled,-0.100000,3.715625,-13.645625,TRUE,6.871521,-7.452545,0.000000,0.000000,0.000000,0.000000,0.000000,0.000000,0.019000,-0.060000,-0.010000,2.440000,0.083155,ResetBack,1.237061,-0.200000,ResetBack,-9783.000000,-0.300000,Suck,0.000000,2181.818182,Speed,0.000000,2181.818182,Speed,Off,On0.000000,0,,,,
09:43:48.873 AM 03/20/2016,Teleop Disabled,9,FALSE,0,NO ERROR,-1.283403,0.000000,-0.606361,0.000000,TRUE,TRUE,FALSE,FALSE,FALSE,FALSE,Disabled,-0.100000,3.715625,-13.645625,TRUE,6.871521,-7.452545,0.000000,0.000000,0.000000,0.000000,-0.001000,0.001000,0.020000,-0.060000,-0.020000,2.430000,0.097899,ResetBack,1.237061,-0.200000,ResetBack,-9783.000000,-0.300000,Suck,0.000000,2181.818182,Speed,0.000000,2181.818182,Speed,Off,On0.000000,0,,,,
09:43:48.973 AM 03/20/2016,Teleop Disabled,9,FALSE,0,NO ERROR,-1.283403,0.000000,-0.606361,0.000000,TRUE,TRUE,FALSE,FALSE,FALSE,FALSE,Disabled,-0.100000,3.715625,-13.645625,TRUE,6.871521,-7.452545,0.000000,0.000000,0.000000,0.000000,0.000000,0.001000,0.022000,-0.060000,-0.020000,2.430000,0.089386,ResetBack,1.237061,-0.200000,ResetBack,-9783.000000,-0.300000,Suck,0.000000,0.000000,Speed,0.000000,0.000000,Speed,Off,On0.000000,0,,,,
09:43:49.074 AM 03/20/2016,Teleop Disabled,11,FALSE,0,NO ERROR,-1.283403,0.000000,-0.606361,0.000000,TRUE,FALSE,FALSE,FALSE,FALSE,FALSE,Disabled,-0.100000,3.715625,-13.645625,TRUE,6.871521,-7.452545,0.000000,0.000000,0.000000,0.000000,0.000000,0.001000,0.021000,-0.060000,-0.020000,2.430000,0.082263,ResetBack,1.237061,-0.200000,ResetBack,-9783.000000,-0.300000,Suck,0.000000,0.000000,Speed,0.000000,0.000000,Speed,Off,On0.000000,0,,,,
09:43:49.175 AM 03/20/2016,Teleop Disabled,9,FALSE,0,NO ERROR,-1.283403,0.000000,-0.606361,0.000000,TRUE,FALSE,FALSE,FALSE,FALSE,FALSE,Disabled,-0.100000,3.715625,-13.645625,TRUE,6.871521,-7.452545,0.000000,0.000000,0.000000,0.000000,0.000000,0.000000,0.019000,-0.060000,-0.020000,2.430000,0.059880,ResetBack,1.237061,-0.200000,ResetBack,-9783.000000,-0.300000,Suck,0.000000,2181.818182,Speed,0.000000,2181.818182,Speed,Off,On0.000000,0,,,,
09:43:49.276 AM 03/20/2016,Teleop Disabled,9,FALSE,0,NO ERROR,-1.283403,0.000000,-0.606361,0.000000,TRUE,FALSE,FALSE,FALSE,FALSE,FALSE,Disabled,-0.100000,3.715625,-13.645625,TRUE,6.871521,-7.452545,0.000000,0.000000,0.000000,0.000000,0.002000,0.001000,0.017000,-0.060000,-0.020000,2.430000,0.059880,ResetBack,1.237061,-0.200000,ResetBack,-9783.000000,-0.300000,Suck,0.000000,2181.818182,Speed,0.000000,2181.818182,Speed,Off,On0.000000,0,,,,
09:43:49.376 AM 03/20/2016,Teleop Disabled,9,FALSE,0,NO ERROR,-1.283403,0.000000,-0.606361,0.000000,TRUE,FALSE,FALSE,FALSE,FALSE,FALSE,Disabled,-0.100000,3.715625,-13.645625,TRUE,6.871521,-7.452545,0.000000,0.000000,0.000000,0.000000,0.000000,0.002000,0.020000,-0.060000,-0.020000,2.430000,0.043331,ResetBack,1.237061,-0.200000,ResetBack,-9783.000000,-0.300000,Suck,0.000000,2181.818182,Speed,0.000000,2181.818182,Speed,Off,On0.000000,0,,,,
09:43:49.477 AM 03/20/2016,Teleop Disabled,10,FALSE,0,NO ERROR,-1.283403,0.000000,-0.606361,0.000000,TRUE,FALSE,FALSE,FALSE,FALSE,FALSE,Disabled,-0.100000,3.715625,-13.645625,TRUE,6.871521,-7.452545,0.000000,0.000000,0.000000,0.000000,0.000000,-0.001000,0.018000,-0.060000,-0.020000,2.430000,0.032026,ResetBack,1.237061,-0.200000,ResetBack,-9783.000000,-0.300000,Suck,0.000000,2181.818182,Speed,0.000000,2181.818182,Speed,Off,On0.000000,0,,,,
09:43:49.580 AM 03/20/2016,Teleop Disabled,9,FALSE,0,NO ERROR,-1.283403,0.000000,-0.606361,0.000000,TRUE,FALSE,FALSE,FALSE,FALSE,FALSE,Disabled,-0.100000,3.715625,-13.645625,TRUE,6.871521,-7.452545,0.000000,0.000000,0.000000,0.000000,0.000000,0.001000,0.023000,-0.060000,-0.020000,2.430000,0.032408,ResetBack,1.237061,-0.200000,ResetBack,-9783.000000,-0.300000,Suck,0.000000,2181.818182,Speed,0.000000,2181.818182,Speed,Off,On0.000000,0,,,,
09:43:49.680 AM 03/20/2016,Teleop Disabled,10,FALSE,0,NO ERROR,-1.283403,0.000000,-0.606361,0.000000,TRUE,TRUE,FALSE,FALSE,FALSE,FALSE,Disabled,-0.100000,3.715625,-13.645625,TRUE,6.871521,-7.452545,0.000000,0.000000,0.000000,0.000000,0.000000,0.000000,0.018000,-0.060000,-0.020000,2.430000,0.024841,ResetBack,1.237061,-0.200000,ResetBack,-9783.000000,-0.300000,Suck,0.000000,2181.818182,Speed,0.000000,2181.818182,Speed,Off,On0.000000,0,,,,
09:43:49.780 AM 03/20/2016,Teleop Disabled,10,FALSE,0,NO ERROR,-1.283403,0.000000,-0.606361,0.000000,TRUE,TRUE,FALSE,FALSE,FALSE,FALSE,Disabled,-0.100000,3.715625,-13.645625,TRUE,6.871521,-7.452545,0.000000,0.000000,0.000000,0.000000,-0.001000,0.002000,0.021000,-0.060000,-0.020000,2.430000,0.037510,ResetBack,1.237061,-0.200000,ResetBack,-9783.000000,-0.300000,Suck,0.000000,0.000000,Speed,0.000000,0.000000,Speed,Off,On0.000000,0,,,,
09:43:49.880 AM 03/20/2016,Teleop Disabled,10,FALSE,0,NO ERROR,-1.283403,0.000000,-0.606361,0.000000,TRUE,FALSE,FALSE,FALSE,FALSE,FALSE,Disabled,-0.100000,3.715625,-13.645625,TRUE,6.871521,-7.452545,0.000000,0.000000,0.000000,0.000000,0.000000,-0.002000,0.022000,-0.060000,-0.020000,2.430000,0.035510,ResetBack,1.237061,-0.200000,ResetBack,-9783.000000,-0.300000,Suck,0.000000,0.000000,Speed,0.000000,0.000000,Speed,Off,On0.000000,0,,,,
09:43:49.980 AM 03/20/2016,Teleop Disabled,9,FALSE,0,NO ERROR,-1.283403,0.000000,-0.606361,0.000000,TRUE,FALSE,FALSE,FALSE,FALSE,FALSE,Disabled,-0.100000,3.715625,-13.645625,TRUE,6.871521,-7.452545,0.000000,0.000000,0.000000,0.000000,0.000000,0.002000,0.021000,-0.060000,-0.020000,2.430000,0.041538,ResetBack,1.237061,-0.200000,ResetBack,-9783.000000,-0.300000,Suck,0.000000,0.000000,Speed,0.000000,0.000000,Speed,Off,On0.000000,0,,,,
09:43:50.082 AM 03/20/2016,Teleop Disabled,9,FALSE,0,NO ERROR,-1.283403,0.000000,-0.606361,0.000000,TRUE,FALSE,FALSE,FALSE,FALSE,FALSE,Disabled,-0.100000,3.715625,-13.645625,TRUE,6.871521,-7.452545,0.000000,0.000000,0.000000,0.000000,0.000000,0.002000,0.026000,-0.070000,-0.020000,2.420000,0.038395,ResetBack,1.237061,-0.200000,ResetBack,-9783.000000,-0.300000,Suck,0.000000,2181.818182,Speed,0.000000,2181.818182,Speed,Off,On0.000000,0,,,,
09:43:50.182 AM 03/20/2016,Teleop Disabled,9,FALSE,0,NO ERROR,-1.283403,0.000000,-0.606361,0.000000,TRUE,FALSE,FALSE,FALSE,FALSE,FALSE,Disabled,-0.100000,3.715625,-13.645625,TRUE,6.871521,-7.452545,0.000000,0.000000,0.000000,0.000000,0.000000,0.000000,0.023000,-0.070000,-0.030000,2.430000,0.045538,ResetBack,1.237061,-0.200000,ResetBack,-9783.000000,-0.300000,Suck,0.000000,2181.818182,Speed,0.000000,2181.818182,Speed,Off,On0.000000,0,,,,
09:43:50.283 AM 03/20/2016,Teleop Disabled,10,FALSE,0,NO ERROR,-1.283403,0.000000,-0.606361,0.000000,TRUE,FALSE,FALSE,FALSE,FALSE,FALSE,Disabled,-0.100000,3.715625,-13.645625,TRUE,6.871521,-7.452545,0.000000,0.000000,0.000000,0.000000,0.001000,-0.001000,0.019000,-0.070000,-0.030000,2.430000,0.031744,ResetBack,1.237061,-0.200000,ResetBack,-9783.000000,-0.300000,Suck,0.000000,2181.818182,Speed,0.000000,2181.818182,Speed,Off,On0.000000,0,,,,
09:43:50.385 AM 03/20/2016,Teleop Disabled,10,FALSE,0,NO ERROR,-1.283403,0.000000,-0.606361,0.000000,TRUE,FALSE,FALSE,FALSE,FALSE,FALSE,Disabled,-0.100000,3.715625,-13.645625,TRUE,6.871521,-7.452545,0.000000,0.000000,0.000000,0.000000,0.001000,0.000000,0.016000,-0.070000,-0.030000,2.430000,0.041280,ResetBack,1.237061,-0.200000,ResetBack,-9783.000000,-0.300000,Suck,0.000000,2181.818182,Speed,0.000000,2181.818182,Speed,Off,On0.000000,0,,,,
09:43:50.485 AM 03/20/2016,Teleop Disabled,11,FALSE,0,NO ERROR,-1.283403,0.000000,-0.606361,0.000000,TRUE,FALSE,FALSE,FALSE,FALSE,FALSE,Disabled,-0.100000,3.715625,-13.645625,TRUE,6.871521,-7.452545,0.000000,0.000000,0.000000,0.000000,-0.001000,0.000000,0.020000,-0.070000,-0.030000,2.430000,0.036742,ResetBack,1.237061,-0.200000,ResetBack,-9783.000000,-0.300000,Suck,0.000000,2181.818182,Speed,0.000000,2181.818182,Speed,Off,On0.000000,0,,,,
09:43:50.587 AM 03/20/2016,Teleop Disabled,9,FALSE,0,NO ERROR,-1.283403,0.000000,-0.606361,0.000000,TRUE,TRUE,FALSE,FALSE,FALSE,FALSE,Disabled,-0.100000,3.715625,-13.645625,TRUE,6.871521,-7.452545,0.000000,0.000000,0.000000,0.000000,0.000000,-0.002000,0.022000,-0.070000,-0.030000,2.430000,0.034553,ResetBack,1.237061,-0.200000,ResetBack,-9783.000000,-0.300000,Suck,0.000000,2181.818182,Speed,0.000000,2181.818182,Speed,Off,On0.000000,0,,,,
09:43:50.689 AM 03/20/2016,Teleop Disabled,9,FALSE,0,NO ERROR,-1.283403,0.000000,-0.606361,0.000000,TRUE,TRUE,FALSE,FALSE,FALSE,FALSE,Disabled,-0.100000,3.715625,-13.645625,TRUE,6.871521,-7.452545,0.000000,0.000000,0.000000,0.000000,0.001000,0.000000,0.015000,-0.070000,-0.030000,2.420000,0.028270,ResetBack,1.237061,-0.200000,ResetBack,-9783.000000,-0.300000,Suck,0.000000,0.000000,Speed,0.000000,0.000000,Speed,Off,On0.000000,0,,,,
09:43:50.789 AM 03/20/2016,Teleop Disabled,10,FALSE,0,NO ERROR,-1.283403,0.000000,-0.606361,0.000000,TRUE,FALSE,FALSE,FALSE,FALSE,FALSE,Disabled,-0.100000,3.715625,-13.645625,TRUE,6.871521,-7.452545,0.000000,0.000000,0.000000,0.000000,0.000000,0.002000,0.019000,-0.070000,-0.030000,2.420000,0.021726,ResetBack,1.237061,-0.200000,ResetBack,-9783.000000,-0.300000,Suck,0.000000,0.000000,Speed,0.000000,0.000000,Speed,Off,On0.000000,0,,,,
09:43:50.891 AM 03/20/2016,Teleop Disabled,11,FALSE,0,NO ERROR,-1.283403,0.000000,-0.606361,0.000000,TRUE,FALSE,FALSE,FALSE,FALSE,FALSE,Disabled,-0.100000,3.715625,-13.645625,TRUE,6.871521,-7.452545,0.000000,0.000000,0.000000,0.000000,-0.001000,0.000000,0.018000,-0.070000,-0.030000,2.420000,0.000358,ResetBack,1.237061,-0.200000,ResetBack,-9783.000000,-0.300000,Suck,0.000000,2181.818182,Speed,0.000000,2181.818182,Speed,Off,On0.000000,0,,,,
09:43:50.992 AM 03/20/2016,Teleop Disabled,10,FALSE,0,NO ERROR,-1.283403,0.000000,-0.606361,0.000000,TRUE,FALSE,FALSE,FALSE,FALSE,FALSE,Disabled,-0.100000,3.715625,-13.645625,TRUE,6.871521,-7.452545,0.000000,0.000000,0.000000,0.000000,0.000000,0.002000,0.022000,-0.070000,-0.030000,2.420000,-0.003160,ResetBack,1.237061,-0.200000,ResetBack,-9783.000000,-0.300000,Suck,0.000000,2181.818182,Speed,0.000000,2181.818182,Speed,Off,On0.000000,0,,,,
09:43:51.092 AM 03/20/2016,Teleop Disabled,10,FALSE,0,NO ERROR,-1.283403,0.000000,-0.606361,0.000000,TRUE,FALSE,FALSE,FALSE,FALSE,FALSE,Disabled,-0.100000,3.715625,-13.645625,TRUE,6.871521,-7.452545,0.000000,0.000000,0.000000,0.000000,-0.001000,0.000000,0.017000,-0.070000,-0.030000,2.430000,-0.014910,ResetBack,1.237061,-0.200000,ResetBack,-9783.000000,-0.300000,Suck,0.000000,2181.818182,Speed,0.000000,2181.818182,Speed,Off,On0.000000,0,,,,
09:43:51.192 AM 03/20/2016,Teleop Disabled,10,FALSE,0,NO ERROR,-1.283403,0.000000,-0.606361,0.000000,TRUE,FALSE,FALSE,FALSE,FALSE,FALSE,Disabled,-0.100000,3.715625,-13.645625,TRUE,6.871521,-7.452545,0.000000,0.000000,0.000000,0.000000,0.000000,-0.002000,0.021000,-0.070000,-0.030000,2.430000,-0.013364,ResetBack,1.237061,-0.200000,ResetBack,-9783.000000,-0.300000,Suck,0.000000,2181.818182,Speed,0.000000,2181.818182,Speed,Off,On0.000000,0,,,,
09:43:51.292 AM 03/20/2016,Teleop Disabled,10,FALSE,0,NO ERROR,-1.283403,0.000000,-0.606361,0.000000,TRUE,FALSE,FALSE,FALSE,FALSE,FALSE,Disabled,-0.100000,3.715625,-13.645625,TRUE,6.871521,-7.452545,0.000000,0.000000,0.000000,0.000000,0.002000,0.001000,0.017000,-0.070000,-0.030000,2.430000,-0.023829,ResetBack,1.237061,-0.200000,ResetBack,-9783.000000,-0.300000,Suck,0.000000,2181.818182,Speed,0.000000,2181.818182,Speed,Off,On0.000000,0,,,,
09:43:51.392 AM 03/20/2016,Teleop Disabled,9,FALSE,0,NO ERROR,-1.283403,0.000000,-0.606361,0.000000,TRUE,TRUE,FALSE,FALSE,FALSE,FALSE,Disabled,-0.100000,3.715625,-13.645625,TRUE,6.871521,-7.452545,0.000000,0.000000,0.000000,0.000000,0.000000,0.000000,0.018000,-0.080000,-0.030000,2.430000,-0.005219,ResetBack,1.237061,-0.200000,ResetBack,-9783.000000,-0.300000,Suck,0.000000,2181.818182,Speed,0.000000,2181.818182,Speed,Off,On0.000000,0,,,,
09:43:51.492 AM 03/20/2016,Teleop Disabled,10,FALSE,0,NO ERROR,-1.283403,0.000000,-0.606361,0.000000,TRUE,TRUE,FALSE,FALSE,FALSE,FALSE,Disabled,-0.100000,3.715625,-13.645625,TRUE,6.871521,-7.452545,0.000000,0.000000,0.000000,0.000000,0.001000,0.000000,0.021000,-0.080000,-0.030000,2.430000,0.009267,ResetBack,1.237061,-0.200000,ResetBack,-9783.000000,-0.300000,Suck,0.000000,0.000000,Speed,0.000000,0.000000,Speed,Off,On0.000000,0,,,,
09:43:51.593 AM 03/20/2016,Teleop Disabled,11,FALSE,0,NO ERROR,-1.283403,0.000000,-0.606361,0.000000,TRUE,FALSE,FALSE,FALSE,FALSE,FALSE,Disabled,-0.100000,3.715625,-13.645625,TRUE,6.871521,-7.452545,0.000000,0.000000,0.000000,0.000000,0.000000,-0.001000,0.020000,-0.080000,-0.030000,2.430000,0.005181,ResetBack,1.237061,-0.200000,ResetBack,-9783.000000,-0.300000,Suck,0.000000,0.000000,Speed,0.000000,0.000000,Speed,Off,On0.000000,0,,,,
09:43:51.692 AM 03/20/2016,Teleop Disabled,11,FALSE,0,NO ERROR,-1.283403,0.000000,-0.606361,0.000000,TRUE,FALSE,FALSE,FALSE,FALSE,FALSE,Disabled,-0.100000,3.715625,-13.645625,TRUE,6.871521,-7.452545,0.000000,0.000000,0.000000,0.000000,0.001000,0.001000,0.020000,-0.080000,-0.030000,2.440000,0.011643,ResetBack,1.237061,-0.200000,ResetBack,-9783.000000,-0.300000,Suck,0.000000,2181.818182,Speed,0.000000,2181.818182,Speed,Off,On0.000000,0,,,,
09:43:51.792 AM 03/20/2016,Teleop Disabled,10,FALSE,0,NO ERROR,-1.283403,0.000000,-0.606361,0.000000,TRUE,FALSE,FALSE,FALSE,FALSE,FALSE,Disabled,-0.100000,3.715625,-13.645625,TRUE,6.871521,-7.452545,0.000000,0.000000,0.000000,0.000000,0.001000,0.000000,0.020000,-0.080000,-0.030000,2.440000,0.005143,ResetBack,1.237061,-0.200000,ResetBack,-9783.000000,-0.300000,Suck,0.000000,2181.818182,Speed,0.000000,2181.818182,Speed,Off,On0.000000,0,,,,
09:43:51.892 AM 03/20/2016,Teleop Disabled,11,FALSE,0,NO ERROR,-1.283403,0.000000,-0.606361,0.000000,TRUE,FALSE,FALSE,FALSE,FALSE,FALSE,Disabled,-0.100000,3.715625,-13.645625,TRUE,6.871521,-7.452545,0.000000,0.000000,0.000000,0.000000,0.000000,0.000000,0.019000,-0.080000,-0.030000,2.440000,0.005604,ResetBack,1.237061,-0.200000,ResetBack,-9783.000000,-0.300000,Suck,0.000000,2181.818182,Speed,0.000000,2181.818182,Speed,Off,On0.000000,0,,,,
09:43:51.992 AM 03/20/2016,Teleop Disabled,11,FALSE,0,NO ERROR,-1.283403,0.000000,-0.606361,0.000000,TRUE,FALSE,FALSE,FALSE,FALSE,FALSE,Disabled,-0.100000,3.715625,-13.645625,TRUE,6.871521,-7.452545,0.000000,0.000000,0.000000,0.000000,0.000000,0.000000,0.021000,-0.080000,-0.030000,2.440000,-0.004795,ResetBack,1.237061,-0.200000,ResetBack,-9783.000000,-0.300000,Suck,0.000000,2181.818182,Speed,0.000000,2181.818182,Speed,Off,On0.000000,0,,,,
09:43:52.092 AM 03/20/2016,Teleop Disabled,9,FALSE,0,NO ERROR,-1.283403,0.000000,-0.606361,0.000000,TRUE,FALSE,FALSE,FALSE,FALSE,FALSE,Disabled,-0.100000,3.715625,-13.645625,TRUE,6.871521,-7.452545,0.000000,0.000000,0.000000,0.000000,0.001000,-0.001000,0.018000,-0.080000,-0.030000,2.440000,-0.007863,ResetBack,1.237061,-0.200000,ResetBack,-9783.000000,-0.300000,Suck,0.000000,2181.818182,Speed,0.000000,2181.818182,Speed,Off,On0.000000,0,,,,
09:43:52.192 AM 03/20/2016,Teleop Disabled,11,FALSE,0,NO ERROR,-1.283403,0.000000,-0.606361,0.000000,TRUE,TRUE,FALSE,FALSE,FALSE,FALSE,Disabled,-0.100000,3.715625,-13.645625,TRUE,6.871521,-7.452545,0.000000,0.000000,0.000000,0.000000,0.001000,-0.001000,0.019000,-0.080000,-0.030000,2.430000,-0.020153,ResetBack,1.237061,-0.200000,ResetBack,-9783.000000,-0.300000,Suck,0.000000,2181.818182,Speed,0.000000,2181.818182,Speed,Off,On0.000000,0,,,,
09:43:52.292 AM 03/20/2016,Teleop Disabled,11,FALSE,0,NO ERROR,-1.283403,0.000000,-0.606361,0.000000,TRUE,TRUE,FALSE,FALSE,FALSE,FALSE,Disabled,-0.100000,3.715625,-13.645625,TRUE,6.871521,-7.452545,0.000000,0.000000,0.000000,0.000000,0.001000,0.000000,0.017000,-0.080000,-0.030000,2.430000,-0.023213,ResetBack,1.237061,-0.200000,ResetBack,-9783.000000,-0.300000,Suck,0.000000,0.000000,Speed,0.000000,0.000000,Speed,Off,On0.000000,0,,,,
09:43:52.392 AM 03/20/2016,Teleop Disabled,11,FALSE,0,NO ERROR,-1.283403,0.000000,-0.606361,0.000000,TRUE,FALSE,FALSE,FALSE,FALSE,FALSE,Disabled,-0.100000,3.715625,-13.645625,TRUE,6.871521,-7.452545,0.000000,0.000000,0.000000,0.000000,-0.001000,-0.001000,0.018000,-0.080000,-0.030000,2.440000,-0.030336,ResetBack,1.237061,-0.200000,ResetBack,-9783.000000,-0.300000,Suck,0.000000,0.000000,Speed,0.000000,0.000000,Speed,Off,On0.000000,0,,,,
09:43:52.492 AM 03/20/2016,Teleop Disabled,10,FALSE,0,NO ERROR,-1.283403,0.000000,-0.606361,0.000000,TRUE,FALSE,FALSE,FALSE,FALSE,FALSE,Disabled,-0.100000,3.715625,-13.645625,TRUE,6.871521,-7.452545,0.000000,0.000000,0.000000,0.000000,0.001000,-0.001000,0.018000,-0.090000,-0.030000,2.430000,-0.041524,ResetBack,1.237061,-0.200000,ResetBack,-9783.000000,-0.300000,Suck,0.000000,2181.818182,Speed,0.000000,2181.818182,Speed,Off,On0.000000,0,,,,
09:43:52.592 AM 03/20/2016,Teleop Disabled,10,FALSE,0,NO ERROR,-1.283403,0.000000,-0.606361,0.000000,TRUE,FALSE,FALSE,FALSE,FALSE,FALSE,Disabled,-0.100000,3.715625,-13.645625,TRUE,6.871521,-7.452545,0.000000,0.000000,0.000000,0.000000,-0.003000,0.000000,0.021000,-0.090000,-0.030000,2.440000,-0.047421,ResetBack,1.237061,-0.200000,ResetBack,-9783.000000,-0.300000,Suck,0.000000,2181.818182,Speed,0.000000,2181.818182,Speed,Off,On0.000000,0,,,,
09:43:52.692 AM 03/20/2016,Teleop Disabled,10,FALSE,0,NO ERROR,-1.283403,0.000000,-0.606361,0.000000,TRUE,FALSE,FALSE,FALSE,FALSE,FALSE,Disabled,-0.100000,3.715625,-13.645625,TRUE,6.871521,-7.452545,0.000000,0.000000,0.000000,0.000000,-0.001000,0.000000,0.020000,-0.090000,-0.030000,2.430000,-0.052592,ResetBack,1.237061,-0.200000,ResetBack,-9783.000000,-0.300000,Suck,0.000000,2181.818182,Speed,0.000000,2181.818182,Speed,Off,On0.000000,0,,,,
09:43:52.792 AM 03/20/2016,Teleop Disabled,10,FALSE,0,NO ERROR,-1.283403,0.000000,-0.606361,0.000000,TRUE,FALSE,FALSE,FALSE,FALSE,FALSE,Disabled,-0.100000,3.715625,-13.645625,TRUE,6.871521,-7.452545,0.000000,0.000000,0.000000,0.000000,0.000000,0.000000,0.015000,-0.090000,-0.030000,2.430000,-0.056434,ResetBack,1.237061,-0.200000,ResetBack,-9783.000000,-0.300000,Suck,0.000000,2181.818182,Speed,0.000000,2181.818182,Speed,Off,On0.000000,0,,,,
09:43:52.892 AM 03/20/2016,Teleop Disabled,10,FALSE,0,NO ERROR,-1.283403,0.000000,-0.606361,0.000000,TRUE,FALSE,FALSE,FALSE,FALSE,FALSE,Disabled,-0.100000,3.715625,-13.645625,TRUE,6.871521,-7.452545,0.000000,0.000000,0.000000,0.000000,0.003000,0.002000,0.017000,-0.090000,-0.030000,2.430000,-0.058596,ResetBack,1.237061,-0.200000,ResetBack,-9783.000000,-0.300000,Suck,0.000000,2181.818182,Speed,0.000000,2181.818182,Speed,Off,On0.000000,0,,,,
09:43:52.992 AM 03/20/2016,Teleop Disabled,10,FALSE,0,NO ERROR,-1.283403,0.000000,-0.606361,0.000000,TRUE,TRUE,FALSE,FALSE,FALSE,FALSE,Disabled,-0.100000,3.715625,-13.645625,TRUE,6.871521,-7.452545,0.000000,0.000000,0.000000,0.000000,0.000000,0.000000,0.022000,-0.090000,-0.040000,2.440000,-0.045917,ResetBack,1.237061,-0.200000,ResetBack,-9783.000000,-0.300000,Suck,0.000000,2181.818182,Speed,0.000000,2181.818182,Speed,Off,On0.000000,0,,,,
09:43:53.093 AM 03/20/2016,Teleop Disabled,11,FALSE,0,NO ERROR,-1.283403,0.000000,-0.606361,0.000000,TRUE,TRUE,FALSE,FALSE,FALSE,FALSE,Disabled,-0.100000,3.715625,-13.645625,TRUE,6.871521,-7.452545,0.000000,0.000000,0.000000,0.000000,0.000000,0.000000,0.023000,-0.090000,-0.040000,2.440000,-0.040942,ResetBack,1.237061,-0.200000,ResetBack,-9783.000000,-0.300000,Suck,0.000000,0.000000,Speed,0.000000,0.000000,Speed,Off,On0.000000,0,,,,
09:43:53.193 AM 03/20/2016,Teleop Disabled,11,FALSE,0,NO ERROR,-1.283403,0.000000,-0.606361,0.000000,TRUE,FALSE,FALSE,FALSE,FALSE,FALSE,Disabled,-0.100000,3.715625,-13.645625,TRUE,6.871521,-7.452545,0.000000,0.000000,0.000000,0.000000,-0.001000,0.002000,0.024000,-0.100000,-0.040000,2.440000,-0.024043,ResetBack,1.237061,-0.200000,ResetBack,-9783.000000,-0.300000,Suck,0.000000,0.000000,Speed,0.000000,0.000000,Speed,Off,On0.000000,0,,,,
09:43:53.294 AM 03/20/2016,Teleop Disabled,10,FALSE,0,NO ERROR,-1.283403,0.000000,-0.606361,0.000000,TRUE,FALSE,FALSE,FALSE,FALSE,FALSE,Disabled,-0.100000,3.715625,-13.645625,TRUE,6.871521,-7.452545,0.000000,0.000000,0.000000,0.000000,0.000000,0.000000,0.023000,-0.100000,-0.030000,2.440000,-0.025007,ResetBack,1.237061,-0.200000,ResetBack,-9783.000000,-0.300000,Suck,0.000000,2181.818182,Speed,0.000000,2181.818182,Speed,Off,On0.000000,0,,,,
09:43:53.393 AM 03/20/2016,Teleop Disabled,11,FALSE,0,NO ERROR,-1.283403,0.000000,-0.606361,0.000000,TRUE,FALSE,FALSE,FALSE,FALSE,FALSE,Disabled,-0.100000,3.715625,-13.645625,TRUE,6.871521,-7.452545,0.000000,0.000000,0.000000,0.000000,-0.001000,0.000000,0.020000,-0.090000,-0.030000,2.440000,-0.022473,ResetBack,1.237061,-0.200000,ResetBack,-9783.000000,-0.300000,Suck,0.000000,2181.818182,Speed,0.000000,2181.818182,Speed,Off,On0.000000,0,,,,
09:43:53.493 AM 03/20/2016,Teleop Disabled,11,FALSE,0,NO ERROR,-1.283403,0.000000,-0.606361,0.000000,TRUE,FALSE,FALSE,FALSE,FALSE,FALSE,Disabled,-0.100000,3.715625,-13.645625,TRUE,6.871521,-7.452545,0.000000,0.000000,0.000000,0.000000,0.002000,0.000000,0.020000,-0.090000,-0.030000,2.440000,-0.020497,ResetBack,1.237061,-0.200000,ResetBack,-9783.000000,-0.300000,Suck,0.000000,2181.818182,Speed,0.000000,2181.818182,Speed,Off,On0.000000,0,,,,
09:43:53.594 AM 03/20/2016,Teleop Disabled,11,FALSE,0,NO ERROR,-1.283403,0.000000,-0.606361,0.000000,TRUE,FALSE,FALSE,FALSE,FALSE,FALSE,Disabled,-0.100000,3.715625,-13.645625,TRUE,6.871521,-7.452545,0.000000,0.000000,0.000000,0.000000,-0.001000,0.001000,0.023000,-0.100000,-0.030000,2.450000,-0.021044,ResetBack,1.237061,-0.200000,ResetBack,-9783.000000,-0.300000,Suck,0.000000,2181.818182,Speed,0.000000,2181.818182,Speed,Off,On0.000000,0,,,,
09:43:53.693 AM 03/20/2016,Teleop Disabled,10,FALSE,0,NO ERROR,-1.283403,0.000000,-0.606361,0.000000,TRUE,FALSE,FALSE,FALSE,FALSE,FALSE,Disabled,-0.100000,3.715625,-13.645625,TRUE,6.871521,-7.452545,0.000000,0.000000,0.000000,0.000000,0.000000,-0.003000,0.023000,-0.100000,-0.030000,2.440000,-0.017998,ResetBack,1.237061,-0.200000,ResetBack,-9783.000000,-0.300000,Suck,0.000000,2181.818182,Speed,0.000000,2181.818182,Speed,Off,On0.000000,0,,,,
09:43:53.793 AM 03/20/2016,Teleop Disabled,10,FALSE,0,NO ERROR,-1.283403,0.000000,-0.606361,0.000000,TRUE,TRUE,FALSE,FALSE,FALSE,FALSE,Disabled,-0.100000,3.715625,-13.645625,TRUE,6.871521,-7.452545,0.000000,0.000000,0.000000,0.000000,0.000000,0.003000,0.020000,-0.110000,-0.030000,2.440000,-0.026009,ResetBack,1.237061,-0.200000,ResetBack,-9783.000000,-0.300000,Suck,0.000000,2181.818182,Speed,0.000000,2181.818182,Speed,Off,On0.000000,0,,,,
