Time,Robot Mode,Loop Time,Error Status,Error Code,Error Source,Left Motor Output,Left Motor Encoder,Right Motor Output,Right Motor Encoder,Is Level,Is Stalled,Ball Detector Photoeye,Vision Enabled,Vision Teleop Control,Vision Auto Control,Vision Current State,Vision X Output,Vision NavX Error,Vision NavX Target,NavX Connection Status,NavX Displacement X,NavX Displacement Y,NavX Displacement Z,NavX Velocity X,NavX Velocity Y,NavX Velocity Z,NavX Acceleration X,NavX Acceleration Y,NavX Acceleration Z,NavX Pitch,NavX Yaw,NavX Roll,Gyro Angle,Roller Arm State,Roller Arm Actual,Roller Arm Desired,Shooter Arm State,Shooter Arm Actual,Shooter Arm Desired,Shooter State,Actual RPM Left,Desired RPM Left,Control Mode Left,Actual RPM Right,Desired RPM Right,Scaler Motor Output,Auto To Run,Auto Current File,Auto File Status,Auto Current Command,Auto Trimmed Command
08:18:36.195 PM 03/17/2016,Teleop Enabled,11,FALSE,0,NO ERROR,-0.000000,0.000000,0.000000,0.000000,TRUE,FALSE,FALSE,FALSE,FALSE,FALSE,Disabled,0.000000,0.000000,0.000000,TRUE,-0.569473,-6.916992,0.000000,0.000000,0.000000,0.000000,-0.004000,0.028000,-0.003000,0.000000,-0.710000,0.450000,-0.106234,ResetBack,0.959961,-0.200000,ResetBack,-26139.000000,-0.300000,Empty,0.000000,0.000000,Speed,0.000000,0.000000,Speed,On,Off0.000000,0,,,,
08:18:36.297 PM 03/17/2016,Teleop Enabled,11,FALSE,0,NO ERROR,-0.000000,-0.006417,0.000000,-0.461999,TRUE,FALSE,FALSE,FALSE,FALSE,FALSE,Disabled,0.000000,0.000000,0.000000,TRUE,-0.569839,-6.916809,0.000000,-0.015778,0.000000,0.000000,0.004000,-0.014000,0.050000,0.000000,-0.700000,0.460000,-0.109167,ResetBack,-0.173584,-0.200000,ResetBack,-26139.000000,-0.300000,Empty,0.000000,0.000000,Speed,0.000000,0.000000,Speed,On,Off0.000000,0,,,,
08:18:36.397 PM 03/17/2016,Teleop Enabled,11,FALSE,0,NO ERROR,-0.000000,0.000000,0.000000,-0.461999,TRUE,FALSE,FALSE,FALSE,FALSE,FALSE,Disabled,0.000000,0.000000,0.000000,TRUE,-0.570526,-6.917023,0.000000,-0.018723,-0.001938,0.000000,-0.064000,0.045000,-0.081000,0.000000,-0.790000,0.490000,-0.129953,ResetBack,-0.284668,-0.200000,ResetBack,-16245.000000,-0.300000,Empty,0.000000,0.000000,Speed,0.000000,0.000000,Speed,On,Off0.000000,0,,,,
08:18:36.497 PM 03/17/2016,Teleop Enabled,10,FALSE,0,NO ERROR,-0.000000,0.000000,0.000000,-0.461999,TRUE,FALSE,FALSE,FALSE,FALSE,FALSE,Disabled,0.000000,0.000000,0.000000,TRUE,-0.570847,-6.917328,0.000000,0.000000,-0.008255,0.000000,0.017000,-0.007000,-0.053000,0.000000,-0.820000,0.470000,-0.132890,ResetBack,-0.284668,-0.200000,ResetBack,-5915.000000,-0.300000,Empty,0.000000,0.000000,Speed,0.000000,0.000000,Speed,On,Off0.000000,0,,,,
08:18:36.598 PM 03/17/2016,Teleop Enabled,11,FALSE,0,NO ERROR,-0.000000,0.000000,0.000000,-0.461999,TRUE,FALSE,FALSE,FALSE,FALSE,FALSE,Disabled,0.000000,0.000000,0.000000,TRUE,-0.570847,-6.917679,0.000000,0.000000,0.000000,0.000000,0.012000,-0.008000,0.004000,0.000000,-0.730000,0.490000,-0.153573,Reset,-0.284668,0.000000,ResetBack,-977.000000,-0.300000,Empty,0.000000,0.000000,Speed,0.000000,0.000000,Speed,On,Off0.000000,0,,,,
08:18:36.698 PM 03/17/2016,Teleop Enabled,10,FALSE,0,NO ERROR,-0.000000,0.000000,0.000000,-0.461999,TRUE,FALSE,FALSE,FALSE,FALSE,FALSE,Disabled,0.000000,0.000000,0.000000,TRUE,-0.570938,-6.917679,0.000000,-0.006607,0.000000,0.000000,0.012000,-0.008000,0.004000,0.000000,-0.740000,0.480000,-0.152078,Hold,1.151611,0.000000,ResetBack,5.000000,-0.300000,Suck,0.000000,2181.818182,Speed,0.000000,2181.818182,Speed,On,Off0.000000,0,,,,
08:18:36.799 PM 03/17/2016,Teleop Enabled,10,FALSE,0,NO ERROR,-0.000000,0.000000,0.000000,-0.461999,TRUE,FALSE,FALSE,FALSE,FALSE,FALSE,Disabled,0.000000,0.000000,0.000000,TRUE,-0.571533,-6.917633,0.000000,-0.010773,0.003815,0.000000,-0.032000,0.019000,0.023000,0.000000,-0.800000,0.520000,-0.147001,Hold,1.101562,0.000000,ResetBack,5.000000,-0.300000,Suck,-5.493164,2181.818182,Speed,-6.591797,2181.818182,Speed,On,Off0.000000,0,,,,
08:18:36.899 PM 03/17/2016,Teleop Enabled,10,FALSE,0,NO ERROR,-0.000000,0.000000,0.000000,-0.461999,TRUE,FALSE,FALSE,FALSE,FALSE,FALSE,Disabled,0.000000,0.000000,0.000000,TRUE,-0.572327,-6.917160,0.000000,-0.008224,0.009491,0.000000,0.023000,0.022000,0.018000,0.000000,-0.800000,0.520000,-0.168097,Hold,1.017822,0.000000,ResetBack,1.000000,-0.300000,Suck,-102.172852,2181.818182,Speed,-105.468750,2181.818182,Speed,On,Off0.000000,0,,,,
08:18:36.999 PM 03/17/2016,Teleop Enabled,10,FALSE,0,NO ERROR,-0.000000,0.000000,0.000000,-0.461999,TRUE,FALSE,FALSE,FALSE,FALSE,FALSE,Disabled,0.000000,0.000000,0.000000,TRUE,-0.571548,-6.917816,0.000000,0.010727,-0.029465,0.000000,-0.095000,-0.067000,-0.037000,-0.030000,-0.790000,0.450000,-0.186717,Hold,0.988770,0.000000,ResetBack,1.000000,-0.300000,Suck,-218.627930,2181.818182,Speed,-219.726562,2181.818182,Speed,On,Off0.000000,0,,,,
08:18:37.100 PM 03/17/2016,Teleop Enabled,11,FALSE,0,NO ERROR,-0.000000,0.000000,0.000000,-0.461999,TRUE,FALSE,FALSE,FALSE,FALSE,FALSE,Disabled,0.000000,0.000000,0.000000,TRUE,-0.571030,-6.921021,0.000000,0.047226,-0.096283,0.000000,-0.095000,-0.067000,-0.037000,-0.030000,-0.790000,0.450000,-0.198229,Hold,0.986084,0.000000,ResetBack,1.000000,-0.300000,Suck,-307.617188,2181.818182,Speed,-306.518555,2181.818182,Speed,On,Off0.000000,0,,,,
08:18:37.200 PM 03/17/2016,Teleop Enabled,11,FALSE,0,NO ERROR,-0.000000,0.000000,0.000000,-0.461999,TRUE,FALSE,FALSE,FALSE,FALSE,FALSE,Disabled,0.000000,0.000000,0.000000,TRUE,-0.569946,-6.925034,0.000000,0.013031,-0.068985,0.000000,0.016000,-0.058000,0.061000,-0.020000,-0.810000,0.470000,-0.218509,Hold,0.962402,0.000000,ResetBack,4.000000,-0.300000,Suck,-338.378906,2181.818182,Speed,-335.083008,2181.818182,Speed,On,Off0.000000,0,,,,
08:18:37.301 PM 03/17/2016,Teleop Enabled,10,FALSE,0,NO ERROR,-0.000000,0.000000,0.000000,-0.461999,TRUE,FALSE,FALSE,FALSE,FALSE,FALSE,Disabled,0.000000,0.000000,0.000000,TRUE,-0.569946,-6.925034,0.000000,0.013031,-0.068985,0.000000,-0.092000,0.074000,0.105000,-0.020000,-0.700000,0.450000,-0.225229,Hold,0.944092,0.000000,ResetBack,11.000000,-0.300000,Suck,-314.208984,2181.818182,Speed,-313.110352,2181.818182,Speed,On,Off0.000000,0,,,,
08:18:37.401 PM 03/17/2016,Teleop Enabled,9,FALSE,0,NO ERROR,-0.000000,0.000000,0.000000,-0.461999,TRUE,FALSE,FALSE,FALSE,FALSE,FALSE,Disabled,0.000000,0.000000,0.000000,TRUE,-0.573151,-6.928864,0.000000,-0.038895,-0.045731,0.000000,0.060000,-0.043000,0.015000,-0.020000,-0.730000,0.490000,-0.237506,Hold,0.944092,0.000000,ResetBack,14.000000,-0.300000,Suck,-303.222656,2181.818182,Speed,-303.222656,2181.818182,Speed,On,Off0.000000,0,,,,
08:18:37.504 PM 03/17/2016,Teleop Enabled,10,FALSE,0,NO ERROR,-0.000000,0.000000,0.000000,-0.455582,TRUE,FALSE,FALSE,FALSE,FALSE,FALSE,Disabled,0.000000,0.000000,0.000000,TRUE,-0.573151,-6.928864,0.000000,-0.038895,-0.045731,0.000000,-0.015000,-0.029000,-0.010000,-0.030000,-0.760000,0.500000,-0.269346,Hold,0.944092,0.000000,Reset,14.000000,2.000000,Suck,-309.814453,2181.818182,Speed,-308.715820,2181.818182,Speed,On,Off0.000000,0,,,,
08:18:37.604 PM 03/17/2016,Teleop Enabled,11,FALSE,0,NO ERROR,-0.000000,0.000000,0.000000,-0.455582,TRUE,FALSE,FALSE,FALSE,FALSE,FALSE,Disabled,0.000000,0.000000,0.000000,TRUE,-0.574188,-6.931961,0.000000,0.002289,-0.059891,0.000000,0.088000,-0.006000,-0.026000,-0.040000,-0.790000,0.510000,-0.280042,Hold,0.944092,0.000000,Hold,-88.000000,2.000000,Suck,-315.307617,2181.818182,Speed,-314.208984,2181.818182,Speed,On,Off0.000000,0,,,,
08:18:37.706 PM 03/17/2016,Teleop Enabled,11,FALSE,0,NO ERROR,-0.000000,0.000000,0.000000,-0.455582,TRUE,FALSE,FALSE,FALSE,FALSE,FALSE,Disabled,0.000000,0.000000,0.000000,TRUE,-0.569550,-6.931152,0.000000,0.030182,0.017715,0.000000,0.001000,0.046000,-0.102000,-0.040000,-0.740000,0.520000,-0.276451,Hold,0.944092,0.000000,Hold,-198.000000,2.000000,Suck,-313.110352,2181.818182,Speed,-313.110352,2181.818182,Speed,On,Off0.000000,0,,,,
08:18:37.806 PM 03/17/2016,Teleop Enabled,10,FALSE,0,NO ERROR,-0.000000,0.000000,0.000000,-0.455582,TRUE,FALSE,FALSE,FALSE,FALSE,FALSE,Disabled,0.000000,0.000000,0.000000,TRUE,-0.568924,-6.929520,0.000000,0.012619,0.049179,0.000000,0.020000,0.027000,0.018000,-0.040000,-0.770000,0.500000,-0.295440,Hold,0.944092,0.000000,Hold,-198.000000,2.000000,Suck,-312.011719,2181.818182,Speed,-310.913086,2181.818182,Speed,On,Off0.000000,0,,,,
08:18:37.906 PM 03/17/2016,Teleop Enabled,9,FALSE,0,NO ERROR,-0.000000,0.000000,0.000000,-0.455582,TRUE,FALSE,FALSE,FALSE,FALSE,FALSE,Disabled,0.000000,0.000000,0.000000,TRUE,-0.568024,-6.926376,0.000000,0.001984,0.078049,0.000000,0.070000,-0.005000,0.035000,-0.040000,-0.720000,0.500000,-0.309975,Hold,0.944092,0.000000,Hold,-198.000000,2.000000,Suck,-312.011719,2181.818182,Speed,-312.011719,2181.818182,Speed,On,Off0.000000,0,,,,
08:18:38.006 PM 03/17/2016,Teleop Enabled,9,FALSE,0,NO ERROR,-0.000000,0.000000,0.000000,-0.455582,TRUE,FALSE,FALSE,FALSE,FALSE,FALSE,Disabled,0.000000,0.000000,0.000000,TRUE,-0.568024,-6.926376,0.000000,0.001984,0.078049,0.000000,0.012000,0.007000,-0.002000,-0.040000,-0.760000,0.520000,-0.322778,Hold,0.944092,0.000000,Hold,-198.000000,2.000000,Suck,-313.110352,2181.818182,Speed,-312.011719,2181.818182,Speed,On,Off0.000000,0,,,,
08:18:38.107 PM 03/17/2016,Teleop Enabled,11,FALSE,0,NO ERROR,-0.000000,0.000000,0.000000,-0.455582,TRUE,FALSE,FALSE,FALSE,FALSE,FALSE,Disabled,0.000000,0.000000,0.000000,TRUE,-0.569733,-6.921341,0.000000,-0.042465,0.075012,0.000000,0.059000,-0.019000,0.030000,-0.050000,-0.690000,0.450000,-0.337364,Hold,0.944092,0.000000,Hold,-198.000000,2.000000,Suck,-312.011719,2181.818182,Speed,-312.011719,2181.818182,Speed,On,Off0.000000,0,,,,
08:18:38.208 PM 03/17/2016,Teleop Enabled,9,FALSE,0,NO ERROR,-0.000000,0.000000,0.000000,-0.455582,TRUE,FALSE,FALSE,FALSE,FALSE,FALSE,Disabled,0.000000,0.000000,0.000000,TRUE,-0.571075,-6.918015,0.000000,-0.009506,0.060028,0.000000,0.000000,0.015000,0.035000,-0.050000,-0.660000,0.490000,-0.354759,Hold,0.944092,0.000000,Hold,-198.000000,2.000000,Suck,-312.011719,2181.818182,Speed,-312.011719,2181.818182,Speed,On,Off0.000000,0,,,,
08:18:38.309 PM 03/17/2016,Teleop Enabled,10,FALSE,0,NO ERROR,-0.000000,0.000000,0.000000,-0.455582,TRUE,FALSE,FALSE,FALSE,FALSE,FALSE,Disabled,0.000000,0.000000,0.000000,TRUE,-0.571625,-6.915970,0.000000,0.001083,0.008530,0.000000,0.016000,-0.048000,-0.024000,-0.050000,-0.740000,0.470000,-0.347103,Hold,0.944092,0.000000,Hold,-198.000000,2.000000,Suck,-313.110352,2181.818182,Speed,-312.011719,2181.818182,Speed,On,Off0.000000,0,,,,
08:18:38.410 PM 03/17/2016,Teleop Enabled,9,FALSE,0,NO ERROR,-0.000000,0.000000,0.000000,-0.455582,TRUE,FALSE,FALSE,FALSE,FALSE,FALSE,Disabled,0.000000,0.000000,0.000000,TRUE,-0.570724,-6.917175,0.000000,0.025421,-0.041931,0.000000,-0.010000,-0.004000,0.027000,-0.040000,-0.570000,0.430000,-0.359155,Hold,0.944092,0.000000,Hold,-198.000000,2.000000,Suck,-313.110352,2181.818182,Speed,-312.011719,2181.818182,Speed,On,Off0.000000,0,,,,
08:18:38.511 PM 03/17/2016,Teleop Enabled,9,FALSE,0,NO ERROR,-0.000000,0.000000,0.000000,-0.455582,TRUE,FALSE,FALSE,FALSE,FALSE,FALSE,Disabled,0.000000,0.000000,0.000000,TRUE,-0.569382,-6.920380,0.000000,0.041443,-0.074295,0.000000,0.078000,0.038000,-0.017000,-0.050000,-0.730000,0.480000,-0.359155,Hold,0.944092,0.000000,Hold,-198.000000,2.000000,Suck,-312.011719,2181.818182,Speed,-312.011719,2181.818182,Speed,On,Off0.000000,0,,,,
08:18:38.612 PM 03/17/2016,Teleop Enabled,8,FALSE,0,NO ERROR,-0.000000,0.000000,0.000000,-0.455582,TRUE,FALSE,FALSE,FALSE,FALSE,FALSE,Disabled,0.000000,0.000000,0.000000,TRUE,-0.566071,-6.924179,0.000000,0.082977,-0.084045,0.000000,0.003000,0.024000,-0.139000,-0.040000,-0.600000,0.430000,-0.367930,Hold,0.944092,0.000000,Hold,-198.000000,2.000000,Suck,-313.110352,2181.818182,Speed,-312.011719,2181.818182,Speed,On,Off0.000000,0,,,,
08:18:38.712 PM 03/17/2016,Teleop Enabled,7,FALSE,0,NO ERROR,-0.000000,0.000000,0.000000,-0.455582,TRUE,FALSE,FALSE,FALSE,FALSE,FALSE,Disabled,0.000000,0.000000,0.000000,TRUE,-0.563400,-6.926758,0.000000,0.028763,0.000000,0.000000,-0.070000,0.001000,0.038000,-0.050000,-0.710000,0.500000,-0.360570,Hold,0.944092,0.000000,Hold,-198.000000,2.000000,Suck,-313.110352,2181.818182,Speed,-312.011719,2181.818182,Speed,On,Off0.000000,0,,,,
08:18:38.812 PM 03/17/2016,Teleop Enabled,6,FALSE,0,NO ERROR,-0.000000,0.000000,0.000000,-0.455582,TRUE,FALSE,FALSE,FALSE,FALSE,FALSE,Disabled,0.000000,0.000000,0.000000,TRUE,-0.562836,-6.926727,0.000000,0.027832,0.002701,0.000000,-0.011000,-0.022000,0.020000,-0.040000,-0.790000,0.470000,-0.364918,Hold,0.944092,0.000000,Hold,-198.000000,2.000000,Suck,-312.011719,2181.818182,Speed,-312.011719,2181.818182,Speed,On,Off0.000000,0,,,,
08:18:38.912 PM 03/17/2016,Teleop Enabled,11,FALSE,0,NO ERROR,-0.000000,0.000000,0.000000,-0.455582,TRUE,FALSE,FALSE,FALSE,FALSE,FALSE,Disabled,0.000000,0.000000,0.000000,TRUE,-0.561371,-6.926300,0.000000,0.013458,0.023682,0.000000,-0.144000,0.064000,0.044000,-0.040000,-0.760000,0.530000,-0.383766,Hold,0.944092,0.000000,Hold,-198.000000,2.000000,Suck,-312.011719,2181.818182,Speed,-313.110352,2181.818182,Speed,On,Off0.000000,0,,,,
08:18:39.012 PM 03/17/2016,Teleop Enabled,10,FALSE,0,NO ERROR,-0.000000,0.000000,0.000000,-0.455582,TRUE,FALSE,FALSE,FALSE,FALSE,FALSE,Disabled,0.000000,0.000000,0.000000,TRUE,-0.562958,-6.924347,0.000000,-0.038086,0.031509,0.000000,0.025000,-0.051000,0.049000,-0.040000,-0.780000,0.490000,-0.405334,Hold,0.944092,0.000000,Hold,-198.000000,2.000000,Suck,-313.110352,2181.818182,Speed,-312.011719,2181.818182,Speed,On,Off0.000000,0,,,,
08:18:39.112 PM 03/17/2016,Teleop Enabled,9,FALSE,0,NO ERROR,-0.000000,0.000000,0.000000,-0.455582,TRUE,FALSE,FALSE,FALSE,FALSE,FALSE,Disabled,0.000000,0.000000,0.000000,TRUE,-0.562622,-6.923859,0.000000,0.048065,-0.000412,0.000000,0.047000,0.025000,0.031000,-0.040000,-0.610000,0.450000,-0.410232,Hold,0.944092,0.000000,Hold,-198.000000,2.000000,Suck,-313.110352,2181.818182,Speed,-312.011719,2181.818182,Speed,On,Off0.000000,0,,,,
08:18:39.212 PM 03/17/2016,Teleop Enabled,10,FALSE,0,NO ERROR,-0.000000,0.000000,0.000000,-0.455582,TRUE,FALSE,FALSE,FALSE,FALSE,FALSE,Disabled,0.000000,0.000000,0.000000,TRUE,-0.559525,-6.924347,0.000000,0.034317,-0.018784,0.000000,-0.044000,-0.068000,-0.003000,-0.040000,-0.750000,0.520000,-0.392314,Hold,0.944092,0.000000,Hold,-198.000000,2.000000,Suck,-313.110352,2181.818182,Speed,-312.011719,2181.818182,Speed,On,Off0.000000,0,,,,
08:18:39.313 PM 03/17/2016,Teleop Enabled,10,FALSE,0,NO ERROR,-0.000000,0.000000,0.000000,-0.455582,TRUE,FALSE,FALSE,FALSE,FALSE,FALSE,Disabled,0.000000,0.000000,0.000000,TRUE,-0.557861,-6.926743,0.000000,0.000000,-0.059082,0.000000,0.045000,0.020000,-0.042000,-0.040000,-0.640000,0.450000,-0.398920,Hold,0.944092,0.000000,Hold,-198.000000,2.000000,Suck,-312.011719,2181.818182,Speed,-312.011719,2181.818182,Speed,On,Off0.000000,0,,,,
08:18:39.412 PM 03/17/2016,Teleop Enabled,10,FALSE,0,NO ERROR,-0.000000,0.000000,0.000000,-0.455582,TRUE,FALSE,FALSE,FALSE,FALSE,FALSE,Disabled,0.000000,0.000000,0.000000,TRUE,-0.556854,-6.929550,0.000000,0.032349,0.000000,0.000000,-0.003000,0.020000,-0.017000,-0.050000,-0.710000,0.510000,-0.404969,Hold,0.944092,0.000000,Hold,-198.000000,2.000000,Suck,-312.011719,2181.818182,Speed,-312.011719,2181.818182,Speed,On,Off0.000000,0,,,,
08:18:39.512 PM 03/17/2016,Teleop Enabled,9,FALSE,0,NO ERROR,-0.000000,0.000000,0.000000,-0.455582,TRUE,FALSE,FALSE,FALSE,FALSE,FALSE,Disabled,0.000000,0.000000,0.000000,TRUE,-0.554550,-6.929276,0.000000,0.054260,0.007202,0.000000,0.015000,0.015000,-0.103000,-0.050000,-0.700000,0.460000,-0.393033,Hold,0.944092,0.000000,Hold,-198.000000,2.000000,Suck,-312.011719,2181.818182,Speed,-313.110352,2181.818182,Speed,On,Off0.000000,0,,,,
08:18:39.613 PM 03/17/2016,Teleop Enabled,10,FALSE,0,NO ERROR,-0.000000,0.000000,0.000000,-0.455582,TRUE,FALSE,FALSE,FALSE,FALSE,FALSE,Disabled,0.000000,0.000000,0.000000,TRUE,-0.552307,-6.928207,0.000000,0.026062,0.047287,0.000000,-0.035000,0.087000,0.015000,-0.050000,-0.700000,0.510000,-0.393447,Hold,0.944092,0.000000,Hold,-198.000000,2.000000,Suck,-312.011719,2181.818182,Speed,-312.011719,2181.818182,Speed,On,Off0.000000,0,,,,
08:18:39.714 PM 03/17/2016,Teleop Enabled,13,FALSE,0,NO ERROR,-0.000000,0.000000,0.000000,-0.455582,TRUE,FALSE,FALSE,FALSE,FALSE,FALSE,Disabled,0.000000,0.000000,0.000000,TRUE,-0.552917,-6.924606,0.000000,-0.025330,0.080093,0.000000,0.045000,0.037000,0.087000,-0.050000,-0.740000,0.470000,-0.393691,Hold,0.944092,0.000000,Hold,-198.000000,2.000000,Suck,-313.110352,2181.818182,Speed,-312.011719,2181.818182,Speed,On,Off0.000000,0,,,,
08:18:39.814 PM 03/17/2016,Teleop Enabled,11,FALSE,0,NO ERROR,-0.000000,0.000000,0.000000,-0.455582,TRUE,FALSE,FALSE,FALSE,FALSE,FALSE,Disabled,0.000000,0.000000,0.000000,TRUE,-0.553543,-6.922791,0.000000,-0.021881,0.012512,0.000000,-0.045000,0.034000,0.049000,-0.050000,-0.630000,0.460000,-0.385157,Hold,0.944092,0.000000,Hold,-198.000000,2.000000,Suck,-313.110352,2181.818182,Speed,-312.011719,2181.818182,Speed,On,Off0.000000,0,,,,
08:18:39.914 PM 03/17/2016,Teleop Enabled,9,FALSE,0,NO ERROR,-0.000000,0.000000,0.000000,-0.455582,TRUE,FALSE,FALSE,FALSE,FALSE,FALSE,Disabled,0.000000,0.000000,0.000000,TRUE,-0.556763,-6.920258,0.000000,-0.098831,0.072159,0.000000,-0.038000,-0.033000,0.076000,-0.050000,-0.740000,0.510000,-0.404174,Hold,0.944092,0.000000,Hold,-198.000000,2.000000,Suck,-313.110352,2181.818182,Speed,-312.011719,2181.818182,Speed,On,Off0.000000,0,,,,
08:18:40.016 PM 03/17/2016,Teleop Enabled,10,FALSE,0,NO ERROR,-0.000000,0.000000,0.000000,-0.455582,TRUE,FALSE,FALSE,FALSE,FALSE,FALSE,Disabled,0.000000,0.000000,0.000000,TRUE,-0.560608,-6.917236,0.000000,-0.031982,0.051056,0.000000,0.047000,-0.007000,-0.006000,-0.060000,-0.600000,0.450000,-0.402735,Hold,0.944092,0.000000,Hold,-198.000000,2.000000,Suck,-312.011719,2181.818182,Speed,-312.011719,2181.818182,Speed,On,Off0.000000,0,,,,
08:18:40.117 PM 03/17/2016,Teleop Enabled,10,FALSE,0,NO ERROR,-0.000000,0.000000,0.000000,-0.455582,TRUE,FALSE,FALSE,FALSE,FALSE,FALSE,Disabled,0.000000,0.000000,0.000000,TRUE,-0.560471,-6.914673,0.000000,0.001648,0.041428,0.000000,-0.028000,0.008000,0.019000,-0.050000,-0.700000,0.510000,-0.397461,Hold,0.944092,0.000000,Hold,-198.000000,2.000000,Suck,-312.011719,2181.818182,Speed,-312.011719,2181.818182,Speed,On,Off0.000000,0,,,,
08:18:40.218 PM 03/17/2016,Teleop Enabled,10,FALSE,0,NO ERROR,-0.000000,0.000000,0.000000,-0.455582,TRUE,FALSE,FALSE,FALSE,FALSE,FALSE,Disabled,0.000000,0.000000,0.000000,TRUE,-0.560776,-6.914047,0.000000,-0.006821,-0.000671,0.000000,0.015000,-0.030000,0.003000,-0.050000,-0.690000,0.460000,-0.403998,Hold,0.944092,0.000000,Hold,-198.000000,2.000000,Suck,-313.110352,2181.818182,Speed,-313.110352,2181.818182,Speed,On,Off0.000000,0,,,,
08:18:40.318 PM 03/17/2016,Teleop Enabled,10,FALSE,0,NO ERROR,-0.000000,0.000000,0.000000,-0.455582,TRUE,FALSE,FALSE,FALSE,FALSE,FALSE,Disabled,0.000000,0.000000,0.000000,TRUE,-0.559570,-6.915482,0.000000,0.037643,-0.041107,0.000000,0.060000,-0.033000,-0.004000,-0.050000,-0.650000,0.510000,-0.436303,Hold,0.944092,0.000000,Hold,-198.000000,2.000000,Suck,-312.011719,2181.818182,Speed,-313.110352,2181.818182,Speed,On,Off0.000000,0,,,,
08:18:40.418 PM 03/17/2016,Teleop Enabled,11,FALSE,0,NO ERROR,-0.000000,0.000000,0.000000,-0.455582,TRUE,FALSE,FALSE,FALSE,FALSE,FALSE,Disabled,0.000000,0.000000,0.000000,TRUE,-0.556686,-6.917191,0.000000,0.066818,0.000000,0.000000,-0.001000,0.000000,-0.046000,-0.050000,-0.760000,0.520000,-0.458690,Hold,0.944092,0.000000,Hold,-198.000000,2.000000,Suck,-313.110352,2181.818182,Speed,-313.110352,2181.818182,Speed,On,Off0.000000,0,,,,
08:18:40.518 PM 03/17/2016,Teleop Enabled,11,FALSE,0,NO ERROR,-0.000000,0.000000,0.000000,-0.455582,TRUE,FALSE,FALSE,FALSE,FALSE,FALSE,Disabled,0.000000,0.000000,0.000000,TRUE,-0.553360,-6.916687,0.000000,0.061081,0.031143,0.000000,-0.091000,0.091000,-0.061000,-0.060000,-0.600000,0.480000,-0.450077,Hold,0.944092,0.000000,Hold,-198.000000,2.000000,Suck,-313.110352,2181.818182,Speed,-313.110352,2181.818182,Speed,On,Off0.000000,0,,,,
08:18:40.618 PM 03/17/2016,Teleop Enabled,12,FALSE,0,NO ERROR,-0.000000,0.000000,0.000000,-0.455582,TRUE,FALSE,FALSE,FALSE,FALSE,FALSE,Disabled,0.000000,0.000000,0.000000,TRUE,-0.553085,-6.913544,0.000000,-0.032867,0.074112,0.000000,-0.057000,0.031000,0.026000,-0.050000,-0.730000,0.550000,-0.456263,Hold,0.944092,0.000000,Hold,-198.000000,2.000000,Suck,-313.110352,2181.818182,Speed,-313.110352,2181.818182,Speed,On,Off0.000000,0,,,,
08:18:40.718 PM 03/17/2016,Teleop Enabled,9,FALSE,0,NO ERROR,-0.000000,0.000000,0.000000,-0.455582,TRUE,FALSE,FALSE,FALSE,FALSE,FALSE,Disabled,0.000000,0.000000,0.000000,TRUE,-0.555237,-6.909515,0.000000,-0.024857,0.077606,0.000000,0.021000,-0.002000,0.027000,-0.060000,-0.610000,0.470000,-0.451898,Hold,0.944092,0.000000,Hold,-198.000000,126976.000000,Suck,-313.110352,2181.818182,Speed,-313.110352,2181.818182,Speed,On,Off0.000000,0,,,,
08:18:40.819 PM 03/17/2016,Teleop Enabled,11,FALSE,0,NO ERROR,-0.000000,0.000000,0.000000,-0.455582,TRUE,FALSE,FALSE,FALSE,FALSE,FALSE,Disabled,0.000000,0.000000,0.000000,TRUE,-0.557205,-6.904572,0.000000,-0.068207,0.111481,0.000000,-0.067000,0.056000,0.043000,-0.060000,-0.590000,0.480000,-0.478450,Hold,0.944092,208896.000000,Hold,-198.000000,126976.000000,Suck,-313.110352,2181.818182,Speed,-312.011719,2181.818182,Speed,On,Off0.000000,0,,,,
08:18:40.919 PM 03/17/2016,Teleop Enabled,10,FALSE,0,NO ERROR,-0.000000,0.000000,0.000000,-0.455582,TRUE,FALSE,FALSE,FALSE,FALSE,FALSE,Disabled,0.000000,0.000000,0.000000,TRUE,-0.562042,-6.899063,0.000000,-0.090942,0.097763,0.000000,-0.001000,-0.104000,0.013000,-0.060000,-0.600000,0.430000,-0.471737,Hold,4.331543,208896.000000,Hold,-11567.000000,126976.000000,Suck,-314.208984,2181.818182,Speed,-312.011719,2181.818182,Speed,On,Off0.000000,0,,,,
08:18:41.021 PM 03/17/2016,Teleop Enabled,10,FALSE,0,NO ERROR,-0.000000,0.000000,0.000000,-0.455582,TRUE,FALSE,FALSE,FALSE,FALSE,FALSE,Disabled,0.000000,0.000000,0.000000,TRUE,-0.566437,-6.896973,0.000000,-0.098236,0.008820,0.000000,-0.029000,0.023000,0.009000,-0.050000,-0.570000,0.480000,-0.477018,Hold,8.403564,208896.000000,Hold,-11567.000000,126976.000000,Suck,-315.307617,2181.818182,Speed,-314.208984,2181.818182,Speed,On,Off0.000000,0,,,,
08:18:41.122 PM 03/17/2016,Teleop Enabled,11,FALSE,0,NO ERROR,-0.000000,0.000000,0.000000,-0.455582,TRUE,FALSE,FALSE,FALSE,FALSE,FALSE,Disabled,0.000000,0.000000,0.000000,TRUE,-0.572739,-6.898056,0.000000,-0.139786,-0.058105,0.000000,-0.077000,-0.062000,0.037000,-0.050000,-0.630000,0.540000,-0.504435,Hold,12.800049,208896.000000,Hold,-25513.000000,126976.000000,Suck,-315.307617,2181.818182,Speed,-313.110352,2181.818182,Speed,On,Off0.000000,0,,,,
08:18:41.224 PM 03/17/2016,Teleop Enabled,9,FALSE,0,NO ERROR,-0.000000,0.000000,0.000000,-0.455582,TRUE,FALSE,FALSE,FALSE,FALSE,FALSE,Disabled,0.000000,0.000000,0.000000,TRUE,-0.581284,-6.901566,0.000000,-0.187729,-0.062500,0.000000,0.175000,0.074000,0.087000,-0.020000,-0.660000,0.460000,-0.477338,Hold,20.419678,208896.000000,Hold,-37534.000000,126976.000000,Suck,-314.208984,2181.818182,Speed,-313.110352,2181.818182,Speed,On,Off0.000000,0,,,,
08:18:41.324 PM 03/17/2016,Teleop Enabled,9,FALSE,0,NO ERROR,-0.000000,0.000000,0.000000,-0.455582,TRUE,FALSE,FALSE,FALSE,FALSE,FALSE,Disabled,0.000000,0.000000,0.000000,TRUE,-0.588013,-6.903717,0.000000,-0.116547,-0.034912,0.000000,0.028000,0.044000,0.012000,-0.010000,-0.670000,0.570000,-0.459464,Hold,27.923584,208896.000000,Hold,-51140.000000,126976.000000,Suck,-314.208984,2181.818182,Speed,-314.208984,2181.818182,Speed,On,Off0.000000,0,,,,
08:18:41.424 PM 03/17/2016,Teleop Enabled,9,FALSE,0,NO ERROR,-0.000000,0.000000,0.000000,-0.455582,TRUE,FALSE,FALSE,FALSE,FALSE,FALSE,Disabled,0.000000,0.000000,0.000000,TRUE,-0.594223,-6.903229,0.000000,-0.129349,0.047211,0.000000,0.067000,0.045000,0.073000,-0.050000,-1.270000,0.780000,-0.521926,Hold,34.460205,208896.000000,Hold,-65256.000000,126976.000000,Suck,-314.208984,2181.818182,Speed,-314.208984,2181.818182,Speed,On,Off0.000000,0,,,,
08:18:41.524 PM 03/17/2016,Teleop Enabled,10,FALSE,0,NO ERROR,-0.000000,0.000000,0.000000,-0.455582,TRUE,FALSE,FALSE,FALSE,FALSE,FALSE,Disabled,0.000000,0.000000,0.000000,TRUE,-0.603119,-6.897247,0.000000,-0.175491,0.143570,0.000000,-0.283000,0.077000,0.049000,-0.050000,-2.750000,0.820000,-0.525135,Hold,44.533936,208896.000000,Hold,-82243.000000,126976.000000,Suck,-314.208984,2181.818182,Speed,-314.208984,2181.818182,Speed,On,Off0.000000,0,,,,
08:18:41.624 PM 03/17/2016,Teleop Enabled,9,FALSE,0,NO ERROR,-0.000000,0.000000,0.000000,-0.455582,FALSE,FALSE,FALSE,FALSE,FALSE,FALSE,Disabled,0.000000,0.000000,0.000000,TRUE,-0.613586,-6.886978,0.000000,-0.191528,0.226242,0.000000,0.444000,0.024000,-0.178000,-0.050000,-5.880000,1.350000,-0.572294,Hold,53.451904,208896.000000,Hold,-82243.000000,126976.000000,Suck,-315.307617,2181.818182,Speed,-314.208984,2181.818182,Speed,On,Off0.000000,0,,,,
08:18:41.724 PM 03/17/2016,Teleop Enabled,11,FALSE,0,NO ERROR,-0.000000,-0.006417,0.000000,-0.455582,FALSE,FALSE,FALSE,FALSE,FALSE,FALSE,Disabled,0.000000,0.000000,0.000000,TRUE,-0.620468,-6.874725,0.000000,-0.132980,0.236267,0.000000,-0.021000,-0.027000,-0.318000,-0.100000,-7.520000,0.950000,-0.584598,Hold,56.645508,208896.000000,Hold,-98201.000000,126976.000000,Suck,-314.208984,2181.818182,Speed,-315.307617,2181.818182,Speed,On,Off0.000000,0,,,,
08:18:41.824 PM 03/17/2016,Teleop Enabled,10,FALSE,0,NO ERROR,-0.000000,0.000000,0.000000,-0.455582,FALSE,FALSE,FALSE,FALSE,FALSE,FALSE,Disabled,0.000000,0.000000,0.000000,TRUE,-0.628265,-6.863129,0.000000,-0.149277,0.213486,0.000000,0.064000,0.177000,-0.042000,-0.200000,-4.960000,1.740000,-0.765756,Hold,56.618896,208896.000000,Hold,-115933.000000,126976.000000,Suck,-314.208984,2181.818182,Speed,-314.208984,2181.818182,Speed,On,Off0.000000,0,,,,
08:18:41.924 PM 03/17/2016,Teleop Enabled,10,FALSE,0,NO ERROR,-0.000000,0.000000,0.000000,-0.455582,FALSE,FALSE,FALSE,FALSE,FALSE,FALSE,Disabled,0.000000,0.000000,0.000000,TRUE,-0.633698,-6.848938,0.000000,-0.081116,0.328827,0.000000,-0.180000,-0.053000,0.121000,-0.170000,-5.450000,1.170000,-0.710196,Hold,55.635986,208896.000000,Hold,-127886.000000,126976.000000,Suck,-314.208984,2181.818182,Speed,-314.208984,2181.818182,Speed,On,Off0.000000,0,,,,
08:18:42.024 PM 03/17/2016,Teleop Enabled,10,FALSE,0,NO ERROR,-0.000000,0.000000,0.000000,-0.455582,FALSE,FALSE,FALSE,FALSE,FALSE,FALSE,Disabled,0.000000,0.000000,0.000000,TRUE,-0.640869,-6.829453,0.000000,-0.099670,0.318268,0.000000,-0.026000,-0.018000,0.056000,-0.290000,-5.550000,1.540000,-0.831781,Hold,55.546631,208896.000000,Hold,-126928.000000,126976.000000,Suck,-314.208984,2181.818182,Speed,-313.110352,2181.818182,Speed,On,Off0.000000,0,,,,
08:18:42.124 PM 03/17/2016,Teleop Enabled,10,FALSE,0,NO ERROR,-0.000000,0.000000,0.000000,-0.455582,FALSE,FALSE,FALSE,FALSE,FALSE,FALSE,Disabled,0.000000,0.000000,0.000000,TRUE,-0.644241,-6.817825,0.000000,-0.072403,0.271744,0.000000,0.064000,-0.069000,0.125000,-0.380000,-5.910000,1.330000,-0.906780,Hold,55.507080,208896.000000,Hold,-127086.000000,126976.000000,Suck,-314.208984,2181.818182,Speed,-314.208984,2181.818182,Speed,On,Off0.000000,0,,,,
08:18:42.225 PM 03/17/2016,Teleop Enabled,9,FALSE,0,NO ERROR,-0.000000,0.000000,0.000000,-0.455582,FALSE,FALSE,FALSE,FALSE,FALSE,FALSE,Disabled,0.000000,0.000000,0.000000,TRUE,-0.646103,-6.806808,0.000000,-0.016769,0.192200,0.000000,0.058000,-0.087000,0.063000,-0.330000,-5.670000,1.350000,-0.868568,Hold,55.436279,208896.000000,Hold,-127065.000000,126976.000000,Suck,-315.307617,2181.818182,Speed,-314.208984,2181.818182,Speed,On,Off0.000000,0,,,,
08:18:42.326 PM 03/17/2016,Teleop Enabled,10,FALSE,0,NO ERROR,-0.000000,0.000000,0.000000,-0.455582,FALSE,FALSE,FALSE,FALSE,FALSE,FALSE,Disabled,0.000000,0.000000,0.000000,TRUE,-0.645874,-6.800476,0.000000,0.003036,0.000000,0.000000,-0.122000,0.008000,0.039000,-0.340000,-5.810000,1.370000,-0.867683,Hold,55.208496,208896.000000,Hold,-127065.000000,126976.000000,Suck,-315.307617,2181.818182,Speed,-314.208984,2181.818182,Speed,On,Off0.000000,0,,,,
08:18:42.426 PM 03/17/2016,Teleop Enabled,9,FALSE,0,NO ERROR,-0.000000,0.000000,0.000000,-0.455582,FALSE,FALSE,FALSE,FALSE,FALSE,FALSE,Disabled,0.000000,0.000000,0.000000,TRUE,-0.648895,-6.800735,0.000000,-0.098175,-0.011810,0.000000,0.006000,-0.039000,0.051000,-0.340000,-5.560000,1.370000,-0.849162,Hold,55.208496,208896.000000,Hold,-127065.000000,126976.000000,Suck,-314.208984,2181.818182,Speed,-314.208984,2181.818182,Speed,On,Off0.000000,0,,,,
08:18:42.527 PM 03/17/2016,Teleop Enabled,10,FALSE,0,NO ERROR,-0.000000,0.000000,0.000000,-0.455582,FALSE,FALSE,FALSE,FALSE,FALSE,FALSE,Disabled,0.000000,0.000000,0.000000,TRUE,-0.654709,-6.802841,0.000000,-0.085846,-0.054672,0.000000,-0.003000,-0.008000,0.031000,-0.360000,-5.590000,1.350000,-0.857125,Hold,55.208496,208896.000000,Hold,-127065.000000,126976.000000,Suck,-314.208984,2181.818182,Speed,-314.208984,2181.818182,Speed,On,Off0.000000,0,,,,
08:18:42.627 PM 03/17/2016,Teleop Enabled,10,FALSE,0,NO ERROR,-0.000000,0.000000,0.000000,-0.455582,FALSE,FALSE,FALSE,FALSE,FALSE,FALSE,Disabled,0.000000,0.000000,0.000000,TRUE,-0.657333,-6.805008,0.000000,-0.026901,0.000000,0.000000,-0.023000,-0.012000,-0.048000,-0.380000,-5.360000,1.350000,-0.875897,Hold,55.208496,208896.000000,Hold,-127065.000000,126976.000000,Suck,-315.307617,2181.818182,Speed,-314.208984,2181.818182,Speed,On,Off0.000000,0,,,,
08:18:42.728 PM 03/17/2016,Teleop Enabled,10,FALSE,0,NO ERROR,-0.000000,0.000000,0.000000,-0.455582,FALSE,FALSE,FALSE,FALSE,FALSE,FALSE,Disabled,0.000000,0.000000,0.000000,TRUE,-0.658127,-6.804108,0.000000,-0.016891,0.037964,0.000000,-0.081000,0.053000,-0.024000,-0.320000,-4.300000,1.240000,-0.852329,Hold,55.208496,208896.000000,Hold,-127065.000000,126976.000000,Suck,-315.307617,2181.818182,Speed,-314.208984,2181.818182,Speed,On,Off0.000000,0,,,,
08:18:42.828 PM 03/17/2016,Teleop Enabled,10,FALSE,0,NO ERROR,-0.000000,0.000000,0.000000,-0.455582,TRUE,FALSE,FALSE,FALSE,FALSE,FALSE,Disabled,0.000000,0.000000,0.000000,TRUE,-0.660400,-6.800812,0.000000,-0.077820,0.087509,0.000000,-0.124000,0.014000,-0.020000,-0.150000,-1.380000,0.820000,-0.688470,Hold,55.208496,208896.000000,Hold,-127065.000000,126976.000000,Suck,-315.307617,2181.818182,Speed,-314.208984,2181.818182,Speed,On,Off0.000000,0,,,,
08:18:42.928 PM 03/17/2016,Teleop Enabled,10,FALSE,0,NO ERROR,-0.000000,0.000000,0.000000,-0.455582,TRUE,FALSE,FALSE,FALSE,FALSE,FALSE,Disabled,0.000000,0.000000,0.000000,TRUE,-0.661026,-6.792831,0.000000,0.053467,0.196182,0.000000,-0.068000,-0.035000,0.020000,-0.130000,-0.390000,1.430000,-0.640254,Hold,54.995605,208896.000000,Hold,-127065.000000,126976.000000,Suck,-315.307617,2181.818182,Speed,-314.208984,2181.818182,Speed,On,Off0.000000,0,,,,
08:18:43.029 PM 03/17/2016,Teleop Enabled,10,FALSE,0,NO ERROR,-0.000000,0.000000,0.000000,-0.455582,TRUE,FALSE,FALSE,FALSE,FALSE,FALSE,Disabled,0.000000,0.000000,0.000000,TRUE,-0.658264,-6.781799,0.000000,0.061279,0.246506,0.000000,0.035000,0.033000,-0.032000,-0.020000,-0.570000,1.560000,-0.542829,Hold,54.676514,208896.000000,Hold,-127035.000000,126976.000000,Suck,-314.208984,2181.818182,Speed,-314.208984,2181.818182,Speed,On,Off0.000000,0,,,,
08:18:43.129 PM 03/17/2016,Teleop Enabled,11,FALSE,0,NO ERROR,-0.000000,0.000000,0.000000,-0.455582,TRUE,FALSE,FALSE,FALSE,FALSE,FALSE,Disabled,0.000000,0.000000,0.000000,TRUE,-0.654327,-6.767639,0.000000,0.083908,0.305771,0.000000,0.067000,0.028000,-0.184000,0.050000,-0.620000,0.400000,-0.459100,Hold,54.678955,208896.000000,Hold,-127042.000000,126976.000000,Suck,-314.208984,2181.818182,Speed,-314.208984,2181.818182,Speed,On,Off0.000000,0,,,,
08:18:43.230 PM 03/17/2016,Teleop Enabled,10,FALSE,0,NO ERROR,-0.000000,0.000000,0.000000,-0.455582,TRUE,FALSE,FALSE,FALSE,FALSE,FALSE,Disabled,0.000000,0.000000,0.000000,TRUE,-0.650711,-6.751572,0.000000,0.057419,0.327545,0.000000,-0.036000,0.008000,0.066000,-0.010000,-0.300000,1.270000,-0.547801,Hold,54.709717,208896.000000,Hold,-127043.000000,126976.000000,Suck,-314.208984,2181.818182,Speed,-314.208984,2181.818182,Speed,On,Off0.000000,0,,,,
08:18:43.331 PM 03/17/2016,Teleop Enabled,10,FALSE,0,NO ERROR,-0.000000,0.000000,0.000000,-0.455582,TRUE,FALSE,FALSE,FALSE,FALSE,FALSE,Disabled,0.000000,0.000000,0.000000,TRUE,-0.647873,-6.734741,0.000000,0.050552,0.343536,0.000000,0.093000,-0.023000,0.097000,0.050000,-0.500000,0.700000,-0.473489,Hold,54.709717,208896.000000,Hold,-127043.000000,126976.000000,Suck,-315.307617,2181.818182,Speed,-315.307617,2181.818182,Speed,On,Off0.000000,0,,,,
08:18:43.432 PM 03/17/2016,Teleop Enabled,10,FALSE,0,NO ERROR,-0.000000,0.000000,0.000000,-0.455582,TRUE,FALSE,FALSE,FALSE,FALSE,FALSE,Disabled,0.000000,0.000000,0.000000,TRUE,-0.644226,-6.718048,0.000000,0.087418,0.326340,0.000000,-0.001000,-0.036000,0.049000,0.060000,-0.510000,0.850000,-0.466962,Hold,54.709717,208896.000000,Hold,-127043.000000,126976.000000,Suck,-315.307617,2181.818182,Speed,-315.307617,2181.818182,Speed,On,Off0.000000,0,,,,
08:18:43.534 PM 03/17/2016,Teleop Enabled,11,FALSE,0,NO ERROR,-0.000000,0.000000,0.000000,-0.455582,TRUE,FALSE,FALSE,FALSE,FALSE,FALSE,Disabled,0.000000,0.000000,0.000000,TRUE,-0.642273,-6.700165,0.000000,0.040863,0.275864,0.000000,-0.055000,0.051000,0.050000,0.040000,-0.430000,1.020000,-0.479824,Hold,54.709717,208896.000000,Hold,-127045.000000,126976.000000,Suck,-315.307617,2181.818182,Speed,-314.208984,2181.818182,Speed,On,Off0.000000,0,,,,
08:18:43.634 PM 03/17/2016,Teleop Enabled,11,FALSE,0,NO ERROR,-0.000000,0.000000,0.000000,-0.455582,TRUE,FALSE,FALSE,FALSE,FALSE,FALSE,Disabled,0.000000,0.000000,0.000000,TRUE,-0.640717,-6.686462,0.000000,0.017166,0.264923,0.000000,0.011000,-0.025000,0.043000,0.070000,-0.510000,0.840000,-0.463086,Hold,54.709717,208896.000000,Hold,-127045.000000,126976.000000,Suck,-315.307617,2181.818182,Speed,-314.208984,2181.818182,Speed,On,Off0.000000,0,,,,
08:18:43.734 PM 03/17/2016,Teleop Enabled,11,FALSE,0,NO ERROR,-0.000000,0.000000,0.000000,-0.455582,TRUE,FALSE,FALSE,FALSE,FALSE,FALSE,Disabled,0.000000,0.000000,0.000000,TRUE,-0.640717,-6.673752,0.000000,-0.019012,0.246124,0.000000,0.011000,-0.025000,0.043000,0.050000,-0.460000,1.250000,-0.481046,Hold,54.666748,208896.000000,Hold,-127045.000000,126976.000000,Suck,-315.307617,2181.818182,Speed,-314.208984,2181.818182,Speed,On,Off0.000000,0,,,,
08:18:43.834 PM 03/17/2016,Teleop Enabled,11,FALSE,0,NO ERROR,-0.000000,0.000000,0.000000,-0.455582,TRUE,FALSE,FALSE,FALSE,FALSE,FALSE,Disabled,0.000000,0.000000,0.000000,TRUE,-0.642136,-6.663116,0.000000,-0.024857,0.189972,0.000000,-0.005000,-0.013000,0.048000,0.050000,-0.380000,1.480000,-0.503505,Hold,53.363281,208896.000000,Hold,-127045.000000,126976.000000,Suck,-315.307617,2181.818182,Speed,-315.307617,2181.818182,Speed,On,Off0.000000,0,,,,
08:18:43.934 PM 03/17/2016,Teleop Enabled,11,FALSE,0,NO ERROR,-0.000000,0.000000,0.000000,-0.455582,TRUE,FALSE,FALSE,FALSE,FALSE,FALSE,Disabled,0.000000,0.000000,0.000000,TRUE,-0.643143,-6.654785,0.000000,0.000000,0.147827,0.000000,0.069000,0.003000,0.037000,0.050000,-0.380000,1.480000,-0.517554,Hold,51.974609,208896.000000,Hold,-127045.000000,126976.000000,Suck,-314.208984,2181.818182,Speed,-314.208984,2181.818182,Speed,On,Off0.000000,0,,,,
08:18:44.034 PM 03/17/2016,Teleop Enabled,10,FALSE,0,NO ERROR,-0.000000,0.000000,0.000000,-0.455582,TRUE,FALSE,FALSE,FALSE,FALSE,FALSE,Disabled,0.000000,0.000000,0.000000,TRUE,-0.643524,-6.652832,0.000000,-0.012054,0.028656,0.000000,0.069000,0.003000,0.037000,0.040000,-0.360000,1.460000,-0.507509,Hold,49.699219,208896.000000,Hold,-127045.000000,126976.000000,Suck,-314.208984,2181.818182,Speed,-314.208984,2181.818182,Speed,On,Off0.000000,0,,,,
08:18:44.135 PM 03/17/2016,Teleop Enabled,11,FALSE,0,NO ERROR,-0.000000,0.000000,0.000000,-0.455582,TRUE,FALSE,FALSE,FALSE,FALSE,FALSE,Disabled,0.000000,0.000000,0.000000,TRUE,-0.643524,-6.652832,0.000000,-0.012054,0.028656,0.000000,0.005000,0.062000,-0.081000,0.020000,-0.420000,0.830000,-0.532567,Hold,50.401855,208896.000000,Hold,-127045.000000,126976.000000,Suck,-315.307617,2181.818182,Speed,-315.307617,2181.818182,Speed,On,Off0.000000,0,,,,
08:18:44.235 PM 03/17/2016,Teleop Enabled,11,FALSE,0,NO ERROR,-0.000000,0.000000,0.000000,-0.455582,TRUE,FALSE,TRUE,FALSE,FALSE,FALSE,Disabled,0.000000,0.000000,0.000000,TRUE,-0.644180,-6.649979,0.000000,-0.027878,0.075882,0.000000,-0.034000,-0.061000,-0.018000,0.020000,-0.420000,0.830000,-0.520425,Hold,51.511475,208896.000000,Hold,-127045.000000,126976.000000,Suck,-273.559570,2181.818182,Speed,-259.277344,2181.818182,Speed,On,Off0.000000,0,,,,
08:18:44.336 PM 03/17/2016,Teleop Enabled,10,FALSE,0,NO ERROR,-0.000000,0.000000,0.000000,-0.455582,TRUE,FALSE,TRUE,FALSE,FALSE,FALSE,Disabled,0.000000,0.000000,0.000000,TRUE,-0.645035,-6.647430,0.000000,-0.013168,0.030472,0.000000,-0.024000,0.021000,-0.035000,0.030000,-0.550000,0.600000,-0.530632,Hold,54.274414,208896.000000,Hold,-127049.000000,126976.000000,Suck,-109.863281,2181.818182,Speed,-112.060547,2181.818182,Speed,On,Off0.000000,0,,,,
08:18:44.435 PM 03/17/2016,Teleop Enabled,9,FALSE,0,NO ERROR,-0.000000,0.000000,0.000000,-0.455582,TRUE,FALSE,TRUE,FALSE,FALSE,FALSE,Disabled,0.000000,0.000000,0.000000,TRUE,-0.645599,-6.645554,0.000000,-0.009460,0.048813,0.000000,-0.094000,-0.016000,0.014000,0.030000,-0.610000,0.570000,-0.534495,Hold,55.297119,208896.000000,Hold,-127051.000000,126976.000000,Suck,-194.458008,2181.818182,Speed,-199.951172,2181.818182,Speed,On,Off0.000000,0,,,,
08:18:44.537 PM 03/17/2016,Teleop Enabled,11,FALSE,0,NO ERROR,-0.000000,0.000000,0.000000,-0.455582,TRUE,FALSE,TRUE,FALSE,FALSE,FALSE,Disabled,0.000000,0.000000,0.000000,TRUE,-0.647644,-6.645004,0.000000,-0.037598,-0.016663,0.000000,0.027000,0.040000,0.010000,0.020000,-0.570000,0.620000,-0.544286,Hold,55.295654,208896.000000,Hold,-127058.000000,126976.000000,Suck,-293.334961,2181.818182,Speed,-295.532227,2181.818182,Speed,On,Off0.000000,0,,,,
08:18:44.637 PM 03/17/2016,Teleop Enabled,12,FALSE,0,NO ERROR,-0.000000,0.000000,0.000000,-0.455582,TRUE,FALSE,TRUE,FALSE,FALSE,FALSE,Disabled,0.000000,0.000000,0.000000,TRUE,-0.649017,-6.644577,0.000000,-0.041046,0.029007,0.000000,-0.020000,0.011000,-0.116000,0.030000,-0.530000,0.670000,-0.529958,Hold,55.295410,208896.000000,Hold,-127058.000000,126976.000000,Suck,-342.773438,2181.818182,Speed,-339.477539,2181.818182,Speed,On,Off0.000000,0,,,,
08:18:44.738 PM 03/17/2016,Teleop Enabled,9,FALSE,0,NO ERROR,-0.000000,0.000000,0.000000,-0.455582,TRUE,FALSE,TRUE,FALSE,FALSE,FALSE,Disabled,0.000000,0.000000,0.000000,TRUE,-0.651535,-6.643906,0.000000,-0.027267,-0.020370,0.000000,0.107000,-0.117000,0.052000,0.020000,-0.600000,0.550000,-0.552183,Hold,55.295410,208896.000000,Hold,-127058.000000,126976.000000,Suck,-324.096680,2181.818182,Speed,-321.899414,2181.818182,Speed,On,Off0.000000,0,,,,
08:18:44.840 PM 03/17/2016,Teleop Enabled,10,FALSE,0,NO ERROR,-0.000000,0.000000,0.000000,-0.455582,TRUE,FALSE,TRUE,FALSE,FALSE,FALSE,Disabled,0.000000,0.000000,0.000000,TRUE,-0.649506,-6.647171,0.000000,0.026932,0.000000,0.000000,-0.191000,0.001000,-0.018000,0.020000,-0.560000,0.590000,-0.562979,Hold,55.295166,208896.000000,Hold,-127058.000000,126976.000000,Suck,-306.518555,2181.818182,Speed,-307.617188,2181.818182,Speed,On,Off0.000000,0,,,,
08:18:44.940 PM 03/17/2016,Teleop Enabled,10,FALSE,0,NO ERROR,-0.000000,0.000000,0.000000,-0.455582,TRUE,FALSE,TRUE,FALSE,FALSE,FALSE,Disabled,0.000000,0.000000,0.000000,TRUE,-0.650070,-6.646591,0.000000,0.012253,0.000275,0.000000,0.158000,-0.037000,0.000000,0.020000,-0.610000,0.600000,-0.583428,Hold,55.295166,208896.000000,Hold,-127058.000000,126976.000000,Suck,-314.208984,2181.818182,Speed,-312.011719,2181.818182,Speed,On,Off0.000000,0,,,,
08:18:45.040 PM 03/17/2016,Teleop Enabled,10,FALSE,0,NO ERROR,-0.000000,0.000000,0.000000,-0.455582,TRUE,FALSE,TRUE,FALSE,FALSE,FALSE,Disabled,0.000000,0.000000,0.000000,TRUE,-0.647873,-6.647598,0.000000,0.075928,-0.035706,0.000000,0.043000,-0.033000,-0.106000,0.020000,-0.660000,0.550000,-0.589872,Hold,55.295166,208896.000000,Hold,-127058.000000,126976.000000,Suck,-319.702148,2181.818182,Speed,-317.504883,2181.818182,Speed,On,Off0.000000,0,,,,
08:18:45.140 PM 03/17/2016,Teleop Enabled,11,FALSE,0,NO ERROR,-0.000000,0.000000,0.000000,-0.455582,TRUE,FALSE,TRUE,FALSE,FALSE,FALSE,Disabled,0.000000,0.000000,0.000000,TRUE,-0.640884,-6.649261,0.000000,0.142609,-0.010483,0.000000,0.066000,0.031000,-0.030000,0.020000,-0.690000,0.540000,-0.586925,Hold,55.295166,208896.000000,Hold,-127058.000000,126976.000000,Suck,-316.406250,2181.818182,Speed,-316.406250,2181.818182,Speed,On,Off0.000000,0,,,,
08:18:45.241 PM 03/17/2016,Teleop Enabled,9,FALSE,0,NO ERROR,-0.000000,0.000000,0.000000,-0.455582,TRUE,FALSE,TRUE,FALSE,FALSE,FALSE,Disabled,0.000000,0.000000,0.000000,TRUE,-0.634109,-6.649506,0.000000,0.177261,-0.001022,0.000000,-0.047000,0.065000,-0.015000,0.010000,-0.680000,0.520000,-0.585128,Hold,55.294922,208896.000000,Hold,-127058.000000,126976.000000,Suck,-314.208984,2181.818182,Speed,-314.208984,2181.818182,Speed,On,Off0.000000,0,,,,
08:18:45.341 PM 03/17/2016,Teleop Enabled,9,FALSE,0,NO ERROR,-0.000000,0.000000,0.000000,-0.455582,TRUE,FALSE,TRUE,FALSE,FALSE,FALSE,Disabled,0.000000,0.000000,0.000000,TRUE,-0.627289,-6.647995,0.000000,0.055466,0.041092,0.000000,-0.102000,0.079000,-0.096000,0.010000,-0.650000,0.530000,-0.609371,Hold,55.294922,208896.000000,Hold,-127058.000000,126976.000000,Suck,-316.406250,2181.818182,Speed,-314.208984,2181.818182,Speed,On,Off0.000000,0,,,,
08:18:45.442 PM 03/17/2016,Teleop Enabled,9,FALSE,0,NO ERROR,-0.000000,0.000000,0.000000,-0.455582,TRUE,FALSE,TRUE,FALSE,FALSE,FALSE,Disabled,0.000000,0.000000,0.000000,TRUE,-0.627060,-6.644745,0.000000,-0.016266,0.074402,0.000000,-0.063000,0.022000,0.000000,0.000000,-0.670000,0.530000,-0.609371,Hold,55.294922,208896.000000,Hold,-127058.000000,126976.000000,Hold,-317.504883,0.000000,Speed,-315.307617,0.000000,Speed,Off,Off0.000000,0,,,,
08:18:45.542 PM 03/17/2016,Teleop Enabled,8,FALSE,0,NO ERROR,-0.000000,0.000000,0.000000,-0.455582,TRUE,FALSE,TRUE,FALSE,FALSE,FALSE,Disabled,0.000000,0.000000,0.000000,TRUE,-0.628769,-6.640839,0.000000,-0.045761,0.072998,0.000000,0.002000,0.013000,0.051000,0.000000,-0.700000,0.490000,-0.621072,Hold,55.294922,208896.000000,Hold,-127058.000000,126976.000000,Hold,-313.110352,0.000000,Speed,-312.011719,0.000000,Speed,Off,Off0.000000,0,,,,
08:18:45.644 PM 03/17/2016,Teleop Enabled,10,FALSE,0,NO ERROR,-0.000000,0.000000,0.000000,-0.455582,TRUE,FALSE,TRUE,FALSE,FALSE,FALSE,Disabled,0.000000,0.000000,0.000000,TRUE,-0.629196,-6.639023,0.000000,0.030701,0.000000,0.000000,0.000000,-0.076000,0.005000,0.000000,-0.740000,0.530000,-0.622528,Hold,55.294922,208896.000000,Hold,-127058.000000,126976.000000,Hold,-291.137695,0.000000,Speed,-296.630859,0.000000,Speed,Off,Off0.000000,0,,,,
08:18:45.744 PM 03/17/2016,Teleop Enabled,10,FALSE,0,NO ERROR,-0.000000,0.000000,0.000000,-0.455582,TRUE,FALSE,TRUE,FALSE,FALSE,FALSE,Disabled,0.000000,0.000000,0.000000,TRUE,-0.628174,-6.639740,0.000000,0.017303,-0.020386,0.000000,0.092000,-0.042000,-0.014000,0.010000,-0.720000,0.540000,-0.634663,Hold,55.294922,208896.000000,Hold,-127058.000000,126976.000000,Hold,-270.263672,0.000000,Speed,-263.671875,0.000000,Speed,Off,Off0.000000,0,,,,
08:18:45.844 PM 03/17/2016,Teleop Enabled,9,FALSE,0,NO ERROR,-0.000000,0.000000,0.000000,-0.455582,TRUE,FALSE,TRUE,FALSE,FALSE,FALSE,Disabled,0.000000,0.000000,0.000000,TRUE,-0.627075,-6.640961,0.000000,0.007584,-0.019958,0.000000,0.128000,-0.003000,0.019000,0.010000,-0.730000,0.560000,-0.638381,Hold,55.294922,208896.000000,Hold,-127058.000000,126976.000000,Hold,-238.403320,0.000000,Speed,-238.403320,0.000000,Speed,Off,Off0.000000,0,,,,
08:18:45.944 PM 03/17/2016,Teleop Enabled,8,FALSE,0,NO ERROR,-0.000000,0.000000,0.000000,-0.455582,TRUE,FALSE,TRUE,FALSE,FALSE,FALSE,Disabled,0.000000,0.000000,0.000000,TRUE,-0.626434,-6.641174,0.000000,0.006134,0.000000,0.000000,-0.002000,-0.029000,0.005000,0.020000,-0.660000,0.490000,-0.625175,Hold,55.294922,208896.000000,Hold,-127058.000000,126976.000000,Hold,-214.233398,0.000000,Speed,-213.134766,0.000000,Speed,Off,Off0.000000,0,,,,
08:18:46.044 PM 03/17/2016,Teleop Enabled,9,FALSE,0,NO ERROR,-0.000000,0.000000,0.000000,-0.455582,TRUE,FALSE,TRUE,FALSE,FALSE,FALSE,Disabled,0.000000,0.000000,0.000000,TRUE,-0.625519,-6.641403,0.000000,0.025497,-0.001205,0.000000,0.060000,-0.024000,0.064000,0.010000,-0.660000,0.480000,-0.644168,Hold,55.294922,208896.000000,Hold,-127058.000000,126976.000000,Hold,-194.458008,0.000000,Speed,-188.964844,0.000000,Speed,Off,Off0.000000,0,,,,
08:18:46.144 PM 03/17/2016,Teleop Enabled,10,FALSE,0,NO ERROR,-0.000000,0.000000,0.000000,-0.455582,TRUE,FALSE,TRUE,FALSE,FALSE,FALSE,Disabled,0.000000,0.000000,0.000000,TRUE,-0.624054,-6.641617,0.000000,0.017288,-0.001801,0.000000,-0.024000,-0.011000,0.015000,0.020000,-0.740000,0.520000,-0.649242,Hold,55.294678,208896.000000,Hold,-127058.000000,126976.000000,Hold,-170.288086,0.000000,Speed,-170.288086,0.000000,Speed,Off,Off0.000000,0,,,,
08:18:46.245 PM 03/17/2016,Teleop Enabled,10,FALSE,0,NO ERROR,-0.000000,0.000000,0.000000,-0.455582,TRUE,FALSE,TRUE,FALSE,FALSE,FALSE,Disabled,0.000000,0.000000,0.000000,TRUE,-0.623596,-6.641617,0.000000,-0.005203,0.007797,0.000000,-0.055000,-0.021000,-0.015000,0.020000,-0.680000,0.530000,-0.654100,Hold,55.294678,208896.000000,Hold,-127058.000000,126976.000000,Hold,-147.216797,0.000000,Speed,-146.118164,0.000000,Speed,Off,Off0.000000,0,,,,
08:18:46.346 PM 03/17/2016,Teleop Enabled,7,FALSE,0,NO ERROR,-0.000000,0.000000,0.000000,-0.455582,TRUE,FALSE,TRUE,FALSE,FALSE,FALSE,Disabled,0.000000,0.000000,0.000000,TRUE,-0.623810,-6.641617,0.000000,-0.009262,-0.001663,0.000000,0.049000,0.014000,0.024000,0.020000,-0.720000,0.530000,-0.657897,Hold,55.294678,208896.000000,Hold,-127058.000000,126976.000000,Hold,-124.145508,0.000000,Speed,-123.046875,0.000000,Speed,Off,Off0.000000,0,,,,
08:18:46.446 PM 03/17/2016,Teleop Enabled,7,FALSE,0,NO ERROR,-0.000000,0.000000,0.000000,-0.455582,TRUE,FALSE,TRUE,FALSE,FALSE,FALSE,Disabled,0.000000,0.000000,0.000000,TRUE,-0.624634,-6.641678,0.000000,-0.026443,0.004364,0.000000,-0.048000,0.020000,-0.006000,0.020000,-0.720000,0.540000,-0.655917,Hold,55.294678,208896.000000,Hold,-127058.000000,126976.000000,Hold,-106.567383,0.000000,Speed,-99.975586,0.000000,Speed,Off,Off0.000000,0,,,,
08:18:46.548 PM 03/17/2016,Teleop Enabled,9,FALSE,0,NO ERROR,-0.000000,0.000000,0.000000,-0.455582,TRUE,FALSE,TRUE,FALSE,FALSE,FALSE,Disabled,0.000000,0.000000,0.000000,TRUE,-0.626022,-6.641296,0.000000,-0.021454,-0.004669,0.000000,0.018000,-0.004000,0.000000,0.020000,-0.730000,0.550000,-0.670362,Hold,55.294678,208896.000000,Hold,-127058.000000,126976.000000,Hold,-84.594727,0.000000,Speed,-82.397461,0.000000,Speed,Off,Off0.000000,0,,,,
08:18:46.650 PM 03/17/2016,Teleop Enabled,10,FALSE,0,NO ERROR,-0.000000,0.000000,0.000000,-0.455582,TRUE,FALSE,TRUE,FALSE,FALSE,FALSE,Disabled,0.000000,0.000000,0.000000,TRUE,-0.626785,-6.641571,0.000000,0.000000,-0.006531,0.000000,-0.004000,0.015000,0.019000,0.020000,-0.730000,0.530000,-0.674414,Hold,55.294678,208896.000000,Hold,-127058.000000,126976.000000,LowGoal,-63.720703,-2181.818182,Speed,-62.622070,-2181.818182,Speed,Off,Off0.000000,0,,,,
08:18:46.751 PM 03/17/2016,Teleop Enabled,10,FALSE,0,NO ERROR,-0.000000,0.000000,0.000000,-0.455582,TRUE,FALSE,TRUE,FALSE,FALSE,FALSE,Disabled,0.000000,0.000000,0.000000,TRUE,-0.627213,-6.641525,0.000000,-0.012207,0.000000,0.000000,0.010000,0.013000,-0.036000,0.010000,-0.700000,0.520000,-0.660961,Hold,55.294678,208896.000000,Hold,-127058.000000,126976.000000,LowGoal,-30.761719,-2181.818182,Speed,-29.663086,-2181.818182,Speed,Off,Off0.000000,0,,,,
08:18:46.852 PM 03/17/2016,Teleop Enabled,12,FALSE,0,NO ERROR,-0.000000,0.000000,0.000000,-0.455582,TRUE,FALSE,TRUE,FALSE,FALSE,FALSE,Disabled,0.000000,0.000000,0.000000,TRUE,-0.628418,-6.641479,0.000000,-0.034073,0.003510,0.000000,0.004000,0.020000,0.008000,0.010000,-0.610000,0.470000,-0.671829,Hold,55.294678,208896.000000,Hold,-127058.000000,126976.000000,LowGoal,93.383789,-2181.818182,Speed,86.791992,-2181.818182,Speed,Off,Off0.000000,0,,,,
08:18:46.955 PM 03/17/2016,Teleop Enabled,10,FALSE,0,NO ERROR,-0.000000,0.000000,0.000000,-0.455582,TRUE,FALSE,TRUE,FALSE,FALSE,FALSE,Disabled,0.000000,0.000000,0.000000,TRUE,-0.630173,-6.641235,0.000000,-0.028198,0.006744,0.000000,-0.026000,-0.043000,0.041000,0.010000,-0.560000,0.470000,-0.688770,Hold,55.294678,208896.000000,Hold,-127058.000000,126976.000000,LowGoal,214.233398,-2181.818182,Speed,206.542969,-2181.818182,Speed,Off,Off0.000000,0,,,,
08:18:47.057 PM 03/17/2016,Teleop Enabled,9,FALSE,0,NO ERROR,-0.000000,0.000000,0.000000,-0.455582,TRUE,FALSE,TRUE,FALSE,FALSE,FALSE,Disabled,0.000000,0.000000,0.000000,TRUE,-0.632050,-6.640991,0.000000,-0.048279,0.000000,0.000000,-0.019000,-0.046000,-0.015000,0.000000,-0.580000,0.430000,-0.700578,Hold,55.294678,208896.000000,Hold,-127058.000000,126976.000000,LowGoal,305.419922,-2181.818182,Speed,297.729492,-2181.818182,Speed,Off,Off0.000000,0,,,,
08:18:47.158 PM 03/17/2016,Teleop Enabled,13,FALSE,0,NO ERROR,-0.000000,0.000000,0.000000,-0.455582,TRUE,FALSE,TRUE,FALSE,FALSE,FALSE,Disabled,0.000000,0.000000,0.000000,TRUE,-0.632782,-6.641861,0.000000,-0.016403,-0.042160,0.000000,0.022000,-0.096000,-0.035000,-0.010000,-0.610000,0.450000,-0.722142,Hold,55.294678,208896.000000,Hold,-127058.000000,126976.000000,LowGoal,337.280273,-2181.818182,Speed,337.280273,-2181.818182,Speed,Off,Off0.000000,0,,,,
08:18:47.259 PM 03/17/2016,Teleop Enabled,15,FALSE,0,NO ERROR,-0.000000,0.000000,0.000000,-0.455582,TRUE,FALSE,TRUE,FALSE,FALSE,FALSE,Disabled,0.000000,0.000000,0.000000,TRUE,-0.633820,-6.645203,0.000000,-0.031982,-0.046768,0.000000,-0.029000,0.142000,0.000000,-0.010000,-0.630000,0.480000,-0.740487,Hold,55.294678,208896.000000,Hold,-127058.000000,126976.000000,LowGoal,319.702148,-2181.818182,Speed,314.208984,-2181.818182,Speed,Off,Off0.000000,0,,,,
08:18:47.360 PM 03/17/2016,Teleop Enabled,16,FALSE,0,NO ERROR,-0.000000,0.000000,0.000000,-0.455582,TRUE,FALSE,TRUE,FALSE,FALSE,FALSE,Disabled,0.000000,0.000000,0.000000,TRUE,-0.635056,-6.646423,0.000000,0.004120,-0.044998,0.000000,0.037000,-0.048000,-0.054000,0.000000,-0.600000,0.460000,-0.723760,Hold,55.294678,208896.000000,Hold,-127058.000000,126976.000000,LowGoal,305.419922,-2181.818182,Speed,302.124023,-2181.818182,Speed,Off,Off0.000000,0,,,,
08:18:47.460 PM 03/17/2016,Teleop Enabled,10,FALSE,0,NO ERROR,-0.000000,0.000000,0.000000,-0.455582,TRUE,FALSE,TRUE,FALSE,FALSE,FALSE,Disabled,0.000000,0.000000,0.000000,TRUE,-0.635040,-6.650360,0.000000,-0.006683,-0.094589,0.000000,-0.023000,-0.019000,-0.013000,0.000000,-0.590000,0.450000,-0.713343,Hold,55.294678,208896.000000,Hold,-127058.000000,126976.000000,LowGoal,312.011719,-2181.818182,Speed,308.715820,-2181.818182,Speed,Off,Off0.000000,0,,,,
08:18:47.561 PM 03/17/2016,Teleop Enabled,10,FALSE,0,NO ERROR,-0.000000,0.000000,0.000000,-0.455582,TRUE,FALSE,TRUE,FALSE,FALSE,FALSE,Disabled,0.000000,0.000000,0.000000,TRUE,-0.636612,-6.653473,0.000000,-0.053619,0.001389,0.000000,-0.094000,0.020000,0.107000,0.010000,-0.620000,0.490000,-0.708764,Hold,55.294678,208896.000000,Hold,-127058.000000,126976.000000,LowGoal,316.406250,-2181.818182,Speed,315.307617,-2181.818182,Speed,Off,Off0.000000,0,,,,
08:18:47.660 PM 03/17/2016,Teleop Enabled,11,FALSE,0,NO ERROR,-0.000000,0.000000,0.000000,-0.455582,TRUE,FALSE,TRUE,FALSE,FALSE,FALSE,Disabled,0.000000,0.000000,0.000000,TRUE,-0.639496,-6.653076,0.000000,-0.040909,0.010132,0.000000,-0.009000,0.043000,0.026000,0.010000,-0.650000,0.480000,-0.712131,Hold,55.294678,208896.000000,Hold,-127058.000000,126976.000000,LowGoal,313.110352,-2181.818182,Speed,312.011719,-2181.818182,Speed,Off,Off0.000000,0,,,,
08:18:47.760 PM 03/17/2016,Teleop Enabled,10,FALSE,0,NO ERROR,-0.000000,0.000000,0.000000,-0.455582,TRUE,FALSE,TRUE,FALSE,FALSE,FALSE,Disabled,0.000000,0.000000,0.000000,TRUE,-0.640656,-6.652359,0.000000,-0.019424,0.022598,0.000000,0.007000,0.008000,0.085000,0.010000,-0.670000,0.490000,-0.723533,Hold,55.294678,208896.000000,Hold,-127058.000000,126976.000000,LowGoal,313.110352,-2181.818182,Speed,309.814453,-2181.818182,Speed,Off,Off0.000000,0,,,,
08:18:47.860 PM 03/17/2016,Teleop Enabled,10,FALSE,0,NO ERROR,-0.000000,0.000000,0.000000,-0.455582,TRUE,FALSE,TRUE,FALSE,FALSE,FALSE,Disabled,0.000000,0.000000,0.000000,TRUE,-0.640793,-6.650909,0.000000,0.009277,0.072388,0.000000,0.064000,0.165000,0.023000,0.010000,-0.640000,0.450000,-0.737472,Hold,55.294678,208896.000000,Hold,-127058.000000,126976.000000,LowGoal,313.110352,-2181.818182,Speed,310.913086,-2181.818182,Speed,Off,Off0.000000,0,,,,
08:18:47.964 PM 03/17/2016,Teleop Enabled,11,FALSE,0,NO ERROR,-0.000000,0.000000,0.000000,-0.455582,TRUE,FALSE,TRUE,FALSE,FALSE,FALSE,Disabled,0.000000,0.000000,0.000000,TRUE,-0.640610,-6.645874,0.000000,0.000000,0.148254,0.000000,0.076000,0.012000,-0.021000,0.010000,-0.680000,0.490000,-0.738291,Hold,55.293701,208896.000000,Hold,-127058.000000,126976.000000,LowGoal,313.110352,-2181.818182,Speed,312.011719,-2181.818182,Speed,Off,Off0.000000,0,,,,
08:18:48.066 PM 03/17/2016,Teleop Enabled,10,FALSE,0,NO ERROR,-0.000000,0.000000,0.000000,-0.455582,TRUE,FALSE,TRUE,FALSE,FALSE,FALSE,Disabled,0.000000,0.000000,0.000000,TRUE,-0.639130,-6.638412,0.000000,0.045532,0.125305,0.000000,-0.071000,-0.061000,-0.064000,0.010000,-0.590000,0.480000,-0.748202,Hold,55.292725,208896.000000,Hold,-127058.000000,126976.000000,LowGoal,313.110352,-2181.818182,Speed,310.913086,-2181.818182,Speed,Off,Off0.000000,0,,,,
08:18:48.165 PM 03/17/2016,Teleop Enabled,10,FALSE,0,NO ERROR,-0.000000,0.000000,0.000000,-0.455582,TRUE,FALSE,TRUE,FALSE,FALSE,FALSE,Disabled,0.000000,0.000000,0.000000,TRUE,-0.638535,-6.633148,0.000000,-0.014771,0.072342,0.000000,-0.031000,-0.001000,-0.042000,0.010000,-0.650000,0.530000,-0.750908,Hold,55.291748,208896.000000,Hold,-127058.000000,126976.000000,LowGoal,313.110352,-2181.818182,Speed,310.913086,-2181.818182,Speed,Off,Off0.000000,0,,,,
08:18:48.265 PM 03/17/2016,Teleop Enabled,9,FALSE,0,NO ERROR,-0.000000,0.000000,0.000000,-0.455582,TRUE,FALSE,TRUE,FALSE,FALSE,FALSE,Disabled,0.000000,0.000000,0.000000,TRUE,-0.639069,-6.630829,0.000000,-0.006683,0.018951,0.000000,-0.022000,-0.075000,-0.006000,0.010000,-0.640000,0.550000,-0.760244,Hold,55.291748,208896.000000,Hold,-127058.000000,126976.000000,LowGoal,313.110352,-2181.818182,Speed,310.913086,-2181.818182,Speed,Off,Off0.000000,0,,,,
08:18:48.367 PM 03/17/2016,Teleop Enabled,9,FALSE,0,NO ERROR,-0.000000,0.000000,0.000000,-0.455582,TRUE,FALSE,TRUE,FALSE,FALSE,FALSE,Disabled,0.000000,0.000000,0.000000,TRUE,-0.639221,-6.631256,0.000000,0.014145,-0.016342,0.000000,0.036000,-0.026000,0.012000,0.010000,-0.650000,0.570000,-0.769835,Hold,55.291504,208896.000000,Hold,-127058.000000,126976.000000,LowGoal,313.110352,-2181.818182,Speed,310.913086,-2181.818182,Speed,Off,Off0.000000,0,,,,
08:18:48.468 PM 03/17/2016,Teleop Enabled,8,FALSE,0,NO ERROR,-0.000000,0.000000,0.000000,-0.455582,TRUE,FALSE,TRUE,FALSE,FALSE,FALSE,Disabled,0.000000,0.000000,0.000000,TRUE,-0.637695,-6.631989,0.000000,0.044632,-0.008530,0.000000,0.066000,0.012000,0.042000,0.010000,-0.700000,0.560000,-0.776097,Hold,55.291260,208896.000000,Hold,-127058.000000,126976.000000,LowGoal,312.011719,-2181.818182,Speed,310.913086,-2181.818182,Speed,Off,Off0.000000,0,,,,
08:18:48.568 PM 03/17/2016,Teleop Enabled,10,FALSE,0,NO ERROR,-0.000000,0.000000,0.000000,-0.455582,TRUE,FALSE,TRUE,FALSE,FALSE,FALSE,Disabled,0.000000,0.000000,0.000000,TRUE,-0.633835,-6.632095,0.000000,0.092987,-0.000534,0.000000,-0.021000,0.055000,0.076000,0.020000,-0.680000,0.560000,-0.786091,Hold,55.291260,208896.000000,Hold,-127058.000000,126976.000000,LowGoal,313.110352,-2181.818182,Speed,312.011719,-2181.818182,Speed,Off,Off0.000000,0,,,,
08:18:48.670 PM 03/17/2016,Teleop Enabled,9,FALSE,0,NO ERROR,-0.000000,0.000000,0.000000,-0.455582,TRUE,FALSE,TRUE,FALSE,FALSE,FALSE,Disabled,0.000000,0.000000,0.000000,TRUE,-0.630356,-6.630203,0.000000,0.000000,0.068985,0.000000,-0.047000,0.070000,-0.006000,0.010000,-0.690000,0.550000,-0.788136,Hold,55.291016,208896.000000,Hold,-127058.000000,126976.000000,LowGoal,313.110352,-2181.818182,Speed,312.011719,-2181.818182,Speed,Off,Off0.000000,0,,,,
08:18:48.769 PM 03/17/2016,Teleop Enabled,9,FALSE,0,NO ERROR,-0.000000,0.000000,0.000000,-0.455582,TRUE,FALSE,TRUE,FALSE,FALSE,FALSE,Disabled,0.000000,0.000000,0.000000,TRUE,-0.630463,-6.625015,0.000000,0.004944,0.113663,0.000000,0.036000,-0.022000,-0.020000,0.010000,-0.670000,0.560000,-0.797923,Hold,55.291016,208896.000000,Hold,-127058.000000,126976.000000,LowGoal,312.011719,-2181.818182,Speed,312.011719,-2181.818182,Speed,Off,Off0.000000,0,,,,
08:18:48.869 PM 03/17/2016,Teleop Enabled,10,FALSE,0,NO ERROR,-0.000000,0.000000,0.000000,-0.455582,TRUE,FALSE,TRUE,FALSE,FALSE,FALSE,Disabled,0.000000,0.000000,0.000000,TRUE,-0.630280,-6.620087,0.000000,-0.010300,0.000000,0.000000,-0.043000,-0.017000,0.003000,0.010000,-0.640000,0.530000,-0.793045,Hold,55.290771,208896.000000,Hold,-127058.000000,126976.000000,LowGoal,313.110352,-2181.818182,Speed,310.913086,-2181.818182,Speed,Off,Off0.000000,0,,,,
08:18:48.969 PM 03/17/2016,Teleop Enabled,9,FALSE,0,NO ERROR,-0.000000,0.000000,0.000000,-0.455582,TRUE,FALSE,TRUE,FALSE,FALSE,FALSE,Disabled,0.000000,0.000000,0.000000,TRUE,-0.632355,-6.620071,0.000000,-0.053970,-0.004608,0.000000,-0.033000,-0.008000,-0.053000,0.020000,-0.660000,0.530000,-0.795706,Hold,55.290771,208896.000000,Hold,-127058.000000,126976.000000,LowGoal,313.110352,-2181.818182,Speed,312.011719,-2181.818182,Speed,Off,Off0.000000,0,,,,
08:18:49.069 PM 03/17/2016,Teleop Enabled,10,FALSE,0,NO ERROR,-0.000000,0.000000,0.000000,-0.455582,TRUE,FALSE,TRUE,FALSE,FALSE,FALSE,Disabled,0.000000,0.000000,0.000000,TRUE,-0.634842,-6.620880,0.000000,-0.061600,-0.037186,0.000000,-0.024000,-0.112000,-0.027000,0.020000,-0.620000,0.550000,-0.786163,Hold,55.290771,208896.000000,Hold,-127058.000000,126976.000000,LowGoal,313.110352,-2181.818182,Speed,312.011719,-2181.818182,Speed,Off,Off0.000000,0,,,,
08:18:49.170 PM 03/17/2016,Teleop Enabled,10,FALSE,0,NO ERROR,-0.000000,0.000000,0.000000,-0.455582,TRUE,FALSE,TRUE,FALSE,FALSE,FALSE,Disabled,0.000000,0.000000,0.000000,TRUE,-0.637833,-6.624832,0.000000,-0.064789,-0.102509,0.000000,0.075000,-0.021000,0.099000,0.020000,-0.680000,0.560000,-0.799431,Hold,55.290527,208896.000000,Hold,-127058.000000,126976.000000,LowGoal,313.110352,-2181.818182,Speed,312.011719,-2181.818182,Speed,Off,Off0.000000,0,,,,
08:18:49.271 PM 03/17/2016,Teleop Enabled,10,FALSE,0,NO ERROR,-0.000000,0.000000,0.000000,-0.455582,TRUE,FALSE,TRUE,FALSE,FALSE,FALSE,Disabled,0.000000,0.000000,0.000000,TRUE,-0.639633,-6.630814,0.000000,-0.022232,-0.079102,0.000000,-0.003000,0.047000,0.019000,0.020000,-0.680000,0.560000,-0.783289,Hold,55.290283,208896.000000,Hold,-127058.000000,126976.000000,LowGoal,312.011719,-2181.818182,Speed,312.011719,-2181.818182,Speed,Off,Off0.000000,0,,,,
08:18:49.373 PM 03/17/2016,Teleop Enabled,11,FALSE,0,NO ERROR,-0.000000,0.000000,0.000000,-0.455582,TRUE,FALSE,TRUE,FALSE,FALSE,FALSE,Disabled,0.000000,0.000000,0.000000,TRUE,-0.640549,-6.633835,0.000000,0.010040,-0.050873,0.000000,-0.027000,0.028000,0.104000,0.010000,-0.730000,0.570000,-0.792924,Hold,55.289795,208896.000000,Hold,-127058.000000,126976.000000,LowGoal,313.110352,-2181.818182,Speed,310.913086,-2181.818182,Speed,Off,Off0.000000,0,,,,
08:18:49.473 PM 03/17/2016,Teleop Enabled,9,FALSE,0,NO ERROR,-0.000000,0.000000,0.000000,-0.455582,TRUE,FALSE,TRUE,FALSE,FALSE,FALSE,Disabled,0.000000,0.000000,0.000000,TRUE,-0.638885,-6.635834,0.000000,0.059189,-0.024734,0.000000,0.071000,0.094000,0.095000,0.020000,-0.700000,0.540000,-0.783227,Hold,55.289551,208896.000000,Hold,-127058.000000,126976.000000,LowGoal,312.011719,-2181.818182,Speed,312.011719,-2181.818182,Speed,Off,Off0.000000,0,,,,
