Time,Robot Mode,Loop Time,Error Status,Error Code,Error Source,Left Motor Output,Left Motor Encoder,Right Motor Output,Right Motor Encoder,Is Level,Is Stalled,Ball Detector Photoeye,Vision Enabled,Vision Teleop Control,Vision Auto Control,Vision Current State,Vision X Output,Vision NavX Error,Vision NavX Target,NavX Connection Status,NavX Displacement X,NavX Displacement Y,NavX Displacement Z,NavX Velocity X,NavX Velocity Y,NavX Velocity Z,NavX Acceleration X,NavX Acceleration Y,NavX Acceleration Z,NavX Pitch,NavX Yaw,NavX Roll,Gyro Angle,Roller Arm State,Roller Arm Actual,Roller Arm Desired,Shooter Arm State,Shooter Arm Actual,Shooter Arm Desired,Shooter State,Actual RPM Left,Desired RPM Left,Control Mode Left,Actual RPM Right,Desired RPM Right,Scaler Motor Output,Auto To Run,Auto Current File,Auto File Status,Auto Current Command,Auto Trimmed Command
04:24:34.929 PM 03/19/2016,Teleop Enabled,11,FALSE,0,NO ERROR,-0.000000,0.000000,0.000000,0.000000,TRUE,FALSE,TRUE,FALSE,FALSE,FALSE,Disabled,0.000000,0.000000,0.000000,TRUE,7.247986,-5.299423,0.000000,0.000000,0.000000,0.000000,0.000000,0.001000,0.014000,0.000000,-0.360000,2.470000,0.067419,ResetBack,1.486816,-0.200000,ResetBack,-23598.000000,-0.300000,Empty,0.000000,0.000000,Speed,0.000000,0.000000,Speed,Off,Off0.000000,0,,,,
04:24:35.029 PM 03/19/2016,Teleop Enabled,10,FALSE,0,NO ERROR,-0.000000,0.096250,0.000000,0.000000,TRUE,FALSE,TRUE,FALSE,FALSE,FALSE,Disabled,0.000000,0.000000,0.000000,TRUE,7.248123,-5.299515,0.000000,0.009872,-0.002121,0.000000,0.009000,0.020000,-0.026000,0.000000,-0.380000,2.460000,0.079038,ResetBack,0.029541,-0.200000,ResetBack,-22008.000000,-0.300000,Empty,22.500000,0.000000,Speed,0.000000,0.000000,Speed,Off,Off0.000000,0,,,,
04:24:35.130 PM 03/19/2016,Teleop Enabled,10,FALSE,0,NO ERROR,-0.000000,0.096250,0.000000,0.000000,TRUE,FALSE,TRUE,FALSE,FALSE,FALSE,Disabled,0.000000,0.000000,0.000000,TRUE,7.248276,-5.299591,0.000000,-0.000046,0.000000,0.000000,0.011000,-0.035000,0.007000,0.000000,-0.360000,2.460000,0.078311,ResetBack,-0.008057,-0.200000,ResetBack,-11822.000000,-0.300000,Empty,0.000000,0.000000,Speed,0.000000,0.000000,Speed,Off,Off0.000000,0,,,,
04:24:35.230 PM 03/19/2016,Teleop Enabled,10,FALSE,0,NO ERROR,-0.000000,0.096250,0.000000,0.000000,TRUE,FALSE,TRUE,FALSE,FALSE,FALSE,Disabled,0.000000,0.000000,0.000000,TRUE,7.248230,-5.299820,0.000000,-0.004227,-0.002350,0.000000,0.026000,-0.019000,0.019000,0.000000,-0.360000,2.450000,0.076204,ResetBack,-0.008057,-0.200000,ResetBack,-4270.000000,-0.300000,Suck,0.000000,2181.818182,Speed,0.000000,2181.818182,Speed,Off,Off0.000000,0,,,,
04:24:35.330 PM 03/19/2016,Teleop Enabled,10,FALSE,0,NO ERROR,-0.000000,0.096250,0.000000,0.000000,TRUE,FALSE,TRUE,FALSE,FALSE,FALSE,Disabled,0.000000,0.000000,0.000000,TRUE,7.248230,-5.299927,0.000000,0.000000,0.004349,0.000000,0.005000,-0.030000,-0.018000,0.000000,-0.380000,2.470000,0.081410,Reset,-0.006836,0.000000,ResetBack,-2692.000000,-0.300000,Hold,-52.500000,0.000000,Speed,-82.500000,0.000000,Speed,Off,Off0.000000,0,,,,
04:24:35.431 PM 03/19/2016,Teleop Enabled,10,FALSE,0,NO ERROR,-0.000000,0.096250,0.000000,0.000000,TRUE,FALSE,TRUE,FALSE,FALSE,FALSE,Disabled,0.000000,0.000000,0.000000,TRUE,7.248154,-5.300064,0.000000,-0.007889,0.001480,0.000000,-0.055000,-0.005000,-0.005000,0.000000,-0.350000,2.470000,0.083485,Hold,0.932861,0.000000,ResetBack,-2692.000000,-0.300000,Hold,-682.500000,0.000000,Speed,-585.000000,0.000000,Speed,Off,Off0.000000,0,,,,
04:24:35.531 PM 03/19/2016,Teleop Enabled,10,FALSE,0,NO ERROR,-0.000000,0.096250,0.000000,0.000000,TRUE,FALSE,TRUE,FALSE,FALSE,FALSE,Disabled,0.000000,0.000000,0.000000,TRUE,7.247559,-5.299850,0.000000,-0.007080,0.015182,0.000000,0.038000,-0.034000,0.051000,0.000000,-0.380000,2.490000,0.087100,Hold,1.000000,0.000000,ResetBack,-1787.000000,-0.300000,Hold,-787.500000,0.000000,Speed,-720.000000,0.000000,Speed,Off,Off0.000000,0,,,,
04:24:35.630 PM 03/19/2016,Teleop Enabled,10,FALSE,0,NO ERROR,-0.000000,0.096250,0.000000,0.000000,TRUE,FALSE,TRUE,FALSE,FALSE,FALSE,Disabled,0.000000,0.000000,0.000000,TRUE,7.247253,-5.299362,0.000000,-0.012192,0.007034,0.000000,-0.027000,0.032000,0.007000,0.000000,-0.370000,2.480000,0.082883,Hold,0.941650,0.000000,ResetBack,-889.000000,-0.300000,Hold,-637.500000,0.000000,Speed,-577.500000,0.000000,Speed,Off,Off0.000000,0,,,,
04:24:35.730 PM 03/19/2016,Teleop Enabled,11,FALSE,0,NO ERROR,-0.000000,0.096250,0.000000,0.000000,TRUE,FALSE,TRUE,FALSE,FALSE,FALSE,Disabled,0.000000,0.000000,0.000000,TRUE,7.247025,-5.299194,0.000000,0.000000,0.000000,0.000000,0.002000,0.011000,0.015000,0.000000,-0.350000,2.480000,0.085317,Hold,0.941650,0.000000,ResetBack,-791.000000,-0.300000,Hold,-502.500000,0.000000,Speed,-442.500000,0.000000,Speed,Off,Off0.000000,0,,,,
04:24:35.830 PM 03/19/2016,Teleop Enabled,9,FALSE,0,NO ERROR,-0.000000,0.096250,0.000000,0.000000,TRUE,FALSE,TRUE,FALSE,FALSE,FALSE,Disabled,0.000000,0.000000,0.000000,TRUE,7.247726,-5.299103,0.000000,0.022202,0.000000,0.000000,-0.011000,0.002000,0.014000,-0.010000,-0.340000,2.480000,0.088274,Hold,0.941650,0.000000,ResetBack,-790.000000,-0.300000,Hold,-360.000000,0.000000,Speed,-300.000000,0.000000,Speed,Off,Off0.000000,0,,,,
04:24:35.931 PM 03/19/2016,Teleop Enabled,10,FALSE,0,NO ERROR,-0.000000,0.096250,0.000000,0.000000,TRUE,FALSE,TRUE,FALSE,FALSE,FALSE,Disabled,0.000000,0.000000,0.000000,TRUE,7.247726,-5.299377,0.000000,0.000000,-0.010925,0.000000,-0.012000,0.008000,0.042000,-0.010000,-0.340000,2.470000,0.089772,Hold,0.941650,0.000000,ResetBack,-787.000000,-0.300000,Hold,-240.000000,0.000000,Speed,-180.000000,0.000000,Speed,Off,Off0.000000,0,,,,
04:24:36.031 PM 03/19/2016,Teleop Enabled,11,FALSE,0,NO ERROR,-0.000000,0.096250,0.000000,0.000000,TRUE,FALSE,TRUE,FALSE,FALSE,FALSE,Disabled,0.000000,0.000000,0.000000,TRUE,7.247726,-5.299454,0.000000,0.000000,0.001694,0.000000,0.007000,0.019000,0.025000,0.000000,-0.350000,2.460000,0.089606,Hold,0.941650,0.000000,ResetBack,-787.000000,-0.300000,Hold,-112.500000,0.000000,Speed,-82.500000,0.000000,Speed,Off,Off0.000000,0,,,,
04:24:36.131 PM 03/19/2016,Teleop Enabled,8,FALSE,0,NO ERROR,-0.000000,0.096250,0.000000,0.000000,TRUE,FALSE,TRUE,FALSE,FALSE,FALSE,Disabled,0.000000,0.000000,0.000000,TRUE,7.247726,-5.299316,0.000000,0.000000,0.000000,0.000000,0.000000,0.006000,0.031000,0.000000,-0.350000,2.460000,0.093025,Hold,0.941650,0.000000,ResetBack,-786.000000,-0.300000,Hold,0.000000,0.000000,Speed,-7.500000,0.000000,Speed,Off,Off0.000000,0,,,,
04:24:36.231 PM 03/19/2016,Teleop Enabled,9,FALSE,0,NO ERROR,-0.000000,0.096250,0.000000,0.000000,TRUE,FALSE,TRUE,FALSE,FALSE,FALSE,Disabled,0.000000,0.000000,0.000000,TRUE,7.247726,-5.299316,0.000000,0.000000,0.000000,0.000000,-0.005000,0.008000,0.009000,0.000000,-0.350000,2.460000,0.102368,Hold,0.941650,0.000000,Reset,-753.000000,2.000000,Hold,0.000000,0.000000,Speed,0.000000,0.000000,Speed,Off,Off0.000000,0,,,,
04:24:36.331 PM 03/19/2016,Teleop Enabled,9,FALSE,0,NO ERROR,-0.000000,0.096250,0.000000,0.000000,TRUE,FALSE,TRUE,FALSE,FALSE,FALSE,Disabled,0.000000,0.000000,0.000000,TRUE,7.247726,-5.299316,0.000000,0.000000,0.000000,0.000000,0.013000,0.005000,0.041000,0.000000,-0.350000,2.460000,0.098850,Hold,0.941650,0.000000,Hold,-365.000000,2.000000,Hold,0.000000,0.000000,Speed,0.000000,0.000000,Speed,Off,Off0.000000,0,,,,
04:24:36.431 PM 03/19/2016,Teleop Enabled,9,FALSE,0,NO ERROR,-0.000000,0.096250,0.000000,0.000000,TRUE,FALSE,TRUE,FALSE,FALSE,FALSE,Disabled,0.000000,0.000000,0.000000,TRUE,7.247711,-5.299316,0.000000,-0.001068,0.000000,0.000000,0.022000,0.019000,0.041000,0.000000,-0.360000,2.460000,0.102003,Hold,0.941650,0.000000,Hold,-210.000000,2.000000,Hold,0.000000,0.000000,Speed,0.000000,0.000000,Speed,Off,Off0.000000,0,,,,
04:24:36.532 PM 03/19/2016,Teleop Enabled,8,FALSE,0,NO ERROR,-0.000000,0.096250,0.000000,0.000000,TRUE,FALSE,TRUE,FALSE,FALSE,FALSE,Disabled,0.000000,0.000000,0.000000,TRUE,7.247696,-5.299316,0.000000,0.000000,0.000000,0.000000,0.015000,0.015000,0.050000,0.000000,-0.360000,2.460000,0.107222,Hold,0.941650,0.000000,Hold,-210.000000,2.000000,LowGoal,0.000000,-1454.545455,Speed,0.000000,-1454.545455,Speed,Off,Off0.000000,0,,,,
04:24:36.632 PM 03/19/2016,Teleop Enabled,10,FALSE,0,NO ERROR,-0.000000,0.096250,0.000000,0.000000,TRUE,FALSE,TRUE,FALSE,FALSE,FALSE,Disabled,0.000000,0.000000,0.000000,TRUE,7.247864,-5.299347,0.000000,0.011093,-0.002945,0.000000,0.015000,0.015000,0.050000,-0.010000,-0.340000,2.470000,0.114678,Hold,0.941650,0.000000,Hold,-210.000000,2.000000,LowGoal,150.000000,-1454.545455,Speed,0.000000,-1454.545455,Speed,Off,Off0.000000,0,,,,
04:24:36.732 PM 03/19/2016,Teleop Enabled,10,FALSE,0,NO ERROR,-0.000000,0.096250,0.000000,0.000000,TRUE,FALSE,TRUE,FALSE,FALSE,FALSE,Disabled,0.000000,0.000000,0.000000,TRUE,7.248596,-5.299713,0.000000,0.020294,-0.014481,0.000000,0.062000,-0.033000,-0.008000,-0.010000,-0.310000,2.450000,0.130710,Hold,0.941650,0.000000,Hold,-294.000000,2.000000,LowGoal,937.500000,-1454.545455,Speed,847.500000,-1454.545455,Speed,Off,Off0.000000,0,,,,
04:24:36.837 PM 03/19/2016,Teleop Enabled,17,FALSE,0,NO ERROR,-0.000000,0.096250,0.000000,0.000000,TRUE,FALSE,TRUE,FALSE,FALSE,FALSE,Disabled,0.000000,0.000000,0.000000,TRUE,7.249374,-5.300842,0.000000,0.000000,-0.037842,0.000000,0.014000,-0.071000,0.019000,-0.010000,-0.340000,2.470000,0.133361,Hold,0.941650,0.000000,Hold,-294.000000,2.000000,LowGoal,1455.000000,-1454.545455,Speed,1515.000000,-1454.545455,Speed,Off,Off0.000000,0,,,,
04:24:36.938 PM 03/19/2016,Teleop Enabled,10,FALSE,0,NO ERROR,-0.000000,0.096250,0.000000,0.000000,TRUE,FALSE,TRUE,FALSE,FALSE,FALSE,Disabled,0.000000,0.000000,0.000000,TRUE,7.248825,-5.303040,0.000000,-0.020218,-0.035477,0.000000,-0.071000,0.087000,-0.016000,-0.010000,-0.330000,2.460000,0.125082,Hold,0.941650,0.000000,Hold,-263.000000,2.000000,LowGoal,1552.500000,-1454.545455,Speed,1545.000000,-1454.545455,Speed,Off,Off0.000000,0,,,,
04:24:37.038 PM 03/19/2016,Teleop Enabled,10,FALSE,0,NO ERROR,-0.000000,0.096250,0.000000,0.000000,TRUE,FALSE,TRUE,FALSE,FALSE,FALSE,Disabled,0.000000,0.000000,0.000000,TRUE,7.247253,-5.303940,0.000000,-0.027893,0.000000,0.000000,0.057000,0.004000,-0.023000,0.000000,-0.370000,2.480000,0.119078,Hold,0.941650,0.000000,Hold,-263.000000,2.000000,LowGoal,1350.000000,-1454.545455,Speed,1372.500000,-1454.545455,Speed,Off,Off0.000000,0,,,,
04:24:37.139 PM 03/19/2016,Teleop Enabled,9,FALSE,0,NO ERROR,-0.000000,0.096250,0.000000,0.000000,TRUE,FALSE,TRUE,FALSE,FALSE,FALSE,Disabled,0.000000,0.000000,0.000000,TRUE,7.246262,-5.304214,0.000000,-0.019043,-0.012817,0.000000,-0.014000,0.024000,0.013000,-0.010000,-0.340000,2.460000,0.113746,Hold,0.941650,0.000000,Hold,-262.000000,2.000000,LowGoal,1327.500000,-1454.545455,Speed,1320.000000,-1454.545455,Speed,Off,Off0.000000,0,,,,
04:24:37.240 PM 03/19/2016,Teleop Enabled,10,FALSE,0,NO ERROR,-0.000000,0.096250,0.000000,0.000000,TRUE,FALSE,TRUE,FALSE,FALSE,FALSE,Disabled,0.000000,0.000000,0.000000,TRUE,7.246475,-5.304428,0.000000,0.008621,-0.010300,0.000000,0.033000,-0.040000,-0.044000,-0.010000,-0.310000,2.450000,0.119856,Hold,0.941650,0.000000,Hold,-261.000000,2.000000,LowGoal,1402.500000,-1454.545455,Speed,1410.000000,-1454.545455,Speed,Off,Off0.000000,0,,,,
04:24:37.342 PM 03/19/2016,Teleop Enabled,11,FALSE,0,NO ERROR,-0.000000,0.096250,0.000000,0.000000,TRUE,FALSE,TRUE,FALSE,FALSE,FALSE,Disabled,0.000000,0.000000,0.000000,TRUE,7.247086,-5.305450,0.000000,0.018158,-0.027893,0.000000,-0.070000,0.068000,0.050000,-0.010000,-0.330000,2.430000,0.118662,Hold,0.941650,0.000000,Hold,-231.000000,2.000000,LowGoal,1402.500000,-1454.545455,Speed,1410.000000,-1454.545455,Speed,Off,Off-0.048819,0,,,,
04:24:37.442 PM 03/19/2016,Teleop Enabled,11,FALSE,0,NO ERROR,-0.000000,0.096250,0.000000,0.000000,TRUE,FALSE,TRUE,FALSE,FALSE,FALSE,Disabled,0.000000,0.000000,0.000000,TRUE,7.248001,-5.306152,0.000000,0.027100,-0.008865,0.000000,-0.006000,-0.003000,0.003000,-0.010000,-0.300000,2.430000,0.118982,Hold,0.941650,0.000000,Hold,-231.000000,2.000000,LowGoal,1365.000000,-1454.545455,Speed,1417.500000,-1454.545455,Speed,Off,Off-0.060630,0,,,,
04:24:37.543 PM 03/19/2016,Teleop Enabled,12,FALSE,0,NO ERROR,-0.000000,0.096250,0.000000,0.000000,TRUE,FALSE,TRUE,FALSE,FALSE,FALSE,Disabled,0.000000,0.000000,0.000000,TRUE,7.249222,-5.306274,0.000000,0.021713,-0.007599,0.000000,0.000000,0.023000,0.022000,-0.010000,-0.320000,2.440000,0.116778,Hold,0.941650,0.000000,Hold,-231.000000,2.000000,LowGoal,1365.000000,-1454.545455,Speed,1380.000000,-1454.545455,Speed,Off,Off0.000000,0,,,,
04:24:37.644 PM 03/19/2016,Teleop Enabled,11,FALSE,0,NO ERROR,-0.000000,0.096250,0.000000,0.000000,TRUE,FALSE,TRUE,FALSE,FALSE,FALSE,Disabled,0.000000,0.000000,0.000000,TRUE,7.250900,-5.305954,0.000000,0.035324,0.020233,0.000000,0.014000,0.000000,0.012000,-0.010000,-0.310000,2.440000,0.118458,Hold,0.941650,0.000000,Hold,-230.000000,2.000000,LowGoal,1380.000000,-1454.545455,Speed,1380.000000,-1454.545455,Speed,Off,Off0.000000,0,,,,
04:24:37.747 PM 03/19/2016,Teleop Enabled,10,FALSE,0,NO ERROR,-0.000000,0.096250,0.000000,0.000000,TRUE,FALSE,TRUE,FALSE,FALSE,FALSE,Disabled,0.000000,0.000000,0.000000,TRUE,7.252762,-5.305130,0.000000,0.036285,0.000000,0.000000,0.041000,-0.016000,0.039000,-0.010000,-0.300000,2.430000,0.128796,Hold,0.941650,0.000000,Hold,-230.000000,2.000000,LowGoal,1395.000000,-1454.545455,Speed,1395.000000,-1454.545455,Speed,Off,Off0.000000,0,,,,
04:24:37.847 PM 03/19/2016,Teleop Enabled,10,FALSE,0,NO ERROR,-0.000000,0.096250,0.000000,0.000000,TRUE,FALSE,TRUE,FALSE,FALSE,FALSE,Disabled,0.000000,0.000000,0.000000,TRUE,7.254578,-5.304794,0.000000,0.040314,0.000000,0.000000,0.016000,0.000000,0.038000,-0.010000,-0.290000,2.460000,0.134528,Hold,0.941650,0.000000,Hold,-230.000000,2.000000,LowGoal,1395.000000,-1454.545455,Speed,1395.000000,-1454.545455,Speed,Off,Off0.000000,0,,,,
04:24:37.947 PM 03/19/2016,Teleop Enabled,11,FALSE,0,NO ERROR,-0.000000,0.096250,0.000000,0.000000,TRUE,FALSE,TRUE,FALSE,FALSE,FALSE,Disabled,0.000000,0.000000,0.000000,TRUE,7.254730,-5.304794,0.000000,-0.011581,0.000000,0.000000,0.003000,0.001000,-0.033000,-0.010000,-0.290000,2.460000,0.127316,Hold,0.941650,0.000000,Hold,-230.000000,2.000000,LowGoal,1387.500000,-1454.545455,Speed,1380.000000,-1454.545455,Speed,Off,Off0.000000,0,,,,
04:24:38.047 PM 03/19/2016,Teleop Enabled,11,FALSE,0,NO ERROR,-0.000000,0.096250,0.000000,0.000000,TRUE,FALSE,TRUE,FALSE,FALSE,FALSE,Disabled,0.000000,0.000000,0.000000,TRUE,7.254532,-5.304184,0.000000,-0.008331,0.000000,0.000000,0.025000,-0.022000,0.044000,-0.010000,-0.330000,2.500000,0.155676,Hold,0.941650,0.000000,Hold,-230.000000,2.000000,LowGoal,1395.000000,-1454.545455,Speed,1387.500000,-1454.545455,Speed,Off,Off0.000000,0,,,,
04:24:38.148 PM 03/19/2016,Teleop Enabled,11,FALSE,0,NO ERROR,-0.000000,0.096250,0.000000,0.000000,TRUE,FALSE,TRUE,FALSE,FALSE,FALSE,Disabled,0.000000,0.000000,0.000000,TRUE,7.254578,-5.304352,0.000000,-0.001297,0.003876,0.000000,0.009000,0.018000,0.050000,-0.010000,-0.340000,2.490000,0.162540,Hold,0.941650,0.000000,Hold,-230.000000,2.000000,LowGoal,1387.500000,-1454.545455,Speed,1395.000000,-1454.545455,Speed,Off,Off0.000000,0,,,,
04:24:38.249 PM 03/19/2016,Teleop Enabled,11,FALSE,0,NO ERROR,-0.000000,0.096250,0.000000,0.000000,TRUE,FALSE,TRUE,FALSE,FALSE,FALSE,Disabled,0.000000,0.000000,0.000000,TRUE,7.254654,-5.303986,0.000000,-0.011871,0.014694,0.000000,0.027000,0.023000,0.045000,-0.020000,-0.320000,2.480000,0.162998,Hold,0.941650,0.000000,Hold,-230.000000,2.000000,LowGoal,1395.000000,-1454.545455,Speed,1387.500000,-1454.545455,Speed,Off,Off0.000000,0,,,,
04:24:38.349 PM 03/19/2016,Teleop Enabled,11,FALSE,0,NO ERROR,-0.000000,0.096250,0.000000,0.000000,TRUE,FALSE,TRUE,FALSE,FALSE,FALSE,Disabled,0.000000,0.000000,0.000000,TRUE,7.254868,-5.304108,0.000000,0.004471,-0.010681,0.000000,-0.020000,0.078000,0.049000,-0.010000,-0.300000,2.470000,0.177367,Hold,0.941650,0.000000,Hold,-230.000000,2.000000,LowGoal,1387.500000,-1454.545455,Speed,1387.500000,-1454.545455,Speed,Off,Off0.000000,0,,,,
04:24:38.450 PM 03/19/2016,Teleop Enabled,10,FALSE,0,NO ERROR,-0.000000,0.096250,0.000000,0.000000,TRUE,FALSE,TRUE,FALSE,FALSE,FALSE,Disabled,0.000000,0.000000,0.000000,TRUE,7.255020,-5.303879,0.000000,-0.001236,-0.002914,0.000000,0.009000,-0.039000,-0.006000,-0.010000,-0.280000,2.490000,0.174992,Hold,0.941650,0.000000,Hold,-230.000000,2.000000,LowGoal,1395.000000,-1454.545455,Speed,1387.500000,-1454.545455,Speed,Off,Off0.000000,0,,,,
04:24:38.551 PM 03/19/2016,Teleop Enabled,10,FALSE,0,NO ERROR,-0.000000,0.096250,0.000000,0.000000,TRUE,FALSE,TRUE,FALSE,FALSE,FALSE,Disabled,0.000000,0.000000,0.000000,TRUE,7.254791,-5.305054,0.000000,0.000000,-0.031616,0.000000,-0.032000,0.061000,0.019000,-0.010000,-0.310000,2.470000,0.176366,Hold,0.941650,0.000000,Hold,-230.000000,2.000000,LowGoal,1395.000000,-1454.545455,Speed,1395.000000,-1454.545455,Speed,Off,Off0.000000,0,,,,
04:24:38.651 PM 03/19/2016,Teleop Enabled,10,FALSE,0,NO ERROR,-0.000000,0.096250,0.000000,0.000000,TRUE,FALSE,TRUE,FALSE,FALSE,FALSE,Disabled,0.000000,0.000000,0.000000,TRUE,7.254547,-5.305847,0.000000,0.002029,-0.012207,0.000000,0.023000,-0.093000,-0.006000,-0.010000,-0.300000,2.490000,0.169701,Hold,0.941650,0.000000,Hold,-230.000000,2.000000,LowGoal,1387.500000,-1454.545455,Speed,1387.500000,-1454.545455,Speed,Off,Off0.000000,0,,,,
04:24:38.751 PM 03/19/2016,Teleop Enabled,9,FALSE,0,NO ERROR,-0.000000,0.096250,0.000000,0.000000,TRUE,FALSE,TRUE,FALSE,FALSE,FALSE,Disabled,0.000000,0.000000,0.000000,TRUE,7.254669,-5.307663,0.000000,0.007309,-0.024918,0.000000,0.022000,0.021000,-0.030000,-0.010000,-0.310000,2.480000,0.161435,Hold,0.941650,0.000000,Hold,-230.000000,2.000000,LowGoal,1395.000000,-1454.545455,Speed,1395.000000,-1454.545455,Speed,Off,Off0.000000,0,,,,
04:24:38.851 PM 03/19/2016,Teleop Enabled,9,FALSE,0,NO ERROR,-0.000000,0.096250,0.000000,0.000000,TRUE,FALSE,TRUE,FALSE,FALSE,FALSE,Disabled,0.000000,0.000000,0.000000,TRUE,7.255325,-5.308044,0.000000,0.010651,0.000900,0.000000,0.049000,0.006000,0.021000,-0.010000,-0.320000,2.490000,0.170906,Hold,0.941650,0.000000,Hold,-230.000000,2.000000,LowGoal,1395.000000,-1454.545455,Speed,1387.500000,-1454.545455,Speed,Off,Off0.000000,0,,,,
04:24:38.951 PM 03/19/2016,Teleop Enabled,9,FALSE,0,NO ERROR,-0.000000,0.096250,0.000000,0.000000,TRUE,FALSE,TRUE,FALSE,FALSE,FALSE,Disabled,0.000000,0.000000,0.000000,TRUE,7.255768,-5.307861,0.000000,-0.002396,0.007263,0.000000,0.065000,-0.023000,0.037000,-0.010000,-0.340000,2.500000,0.174483,Hold,0.941650,0.000000,Hold,-230.000000,2.000000,LowGoal,1387.500000,-1454.545455,Speed,1395.000000,-1454.545455,Speed,Off,Off0.000000,0,,,,
04:24:39.053 PM 03/19/2016,Teleop Enabled,11,FALSE,0,NO ERROR,-0.000000,0.096250,0.000000,0.000000,TRUE,FALSE,TRUE,FALSE,FALSE,FALSE,Disabled,0.000000,0.000000,0.000000,TRUE,7.256378,-5.307129,0.000000,0.008026,0.013779,0.000000,-0.095000,0.078000,0.025000,-0.020000,-0.330000,2.480000,0.192680,Hold,0.941650,0.000000,Hold,-230.000000,2.000000,LowGoal,1387.500000,-1454.545455,Speed,1387.500000,-1454.545455,Speed,Off,Off0.000000,0,,,,
04:24:39.153 PM 03/19/2016,Teleop Enabled,9,FALSE,0,NO ERROR,-0.000000,0.096250,0.000000,0.000000,TRUE,FALSE,TRUE,FALSE,FALSE,FALSE,Disabled,0.000000,0.000000,0.000000,TRUE,7.256775,-5.307358,0.000000,0.009262,-0.018219,0.000000,-0.022000,0.037000,0.084000,-0.020000,-0.320000,2.460000,0.201266,Hold,0.941650,0.000000,Hold,-230.000000,2.000000,LowGoal,1395.000000,-1454.545455,Speed,1387.500000,-1454.545455,Speed,Off,Off0.000000,0,,,,
04:24:39.254 PM 03/19/2016,Teleop Enabled,9,FALSE,0,NO ERROR,-0.000000,0.096250,0.000000,0.000000,TRUE,FALSE,TRUE,FALSE,FALSE,FALSE,Disabled,0.000000,0.000000,0.000000,TRUE,7.257431,-5.308228,0.000000,0.016006,-0.020889,0.000000,-0.068000,0.000000,-0.007000,-0.020000,-0.340000,2.460000,0.201882,Hold,0.941650,0.000000,Hold,-230.000000,2.000000,LowGoal,1395.000000,-1454.545455,Speed,1387.500000,-1454.545455,Speed,Off,Off0.000000,0,,,,
04:24:39.355 PM 03/19/2016,Teleop Enabled,9,FALSE,0,NO ERROR,-0.000000,0.096250,0.000000,0.000000,TRUE,FALSE,TRUE,FALSE,FALSE,FALSE,Disabled,0.000000,0.000000,0.000000,TRUE,7.257660,-5.308456,0.000000,0.004364,0.003571,0.000000,0.035000,0.029000,0.072000,-0.010000,-0.350000,2.460000,0.205438,Hold,0.941650,0.000000,Hold,-230.000000,2.000000,LowGoal,1387.500000,-1454.545455,Speed,1395.000000,-1454.545455,Speed,Off,Off0.000000,0,,,,
04:24:39.456 PM 03/19/2016,Teleop Enabled,10,FALSE,0,NO ERROR,-0.000000,0.096250,0.000000,0.000000,TRUE,FALSE,TRUE,FALSE,FALSE,FALSE,Disabled,0.000000,0.000000,0.000000,TRUE,7.258072,-5.307785,0.000000,0.008347,0.016342,0.000000,0.015000,-0.054000,-0.023000,-0.020000,-0.320000,2.480000,0.197789,Hold,0.941650,0.000000,Hold,-230.000000,2.000000,LowGoal,1395.000000,-1454.545455,Speed,1387.500000,-1454.545455,Speed,Off,Off0.000000,0,,,,
04:24:39.556 PM 03/19/2016,Teleop Enabled,9,FALSE,0,NO ERROR,-0.000000,0.096250,0.000000,0.000000,TRUE,FALSE,TRUE,FALSE,FALSE,FALSE,Disabled,0.000000,0.000000,0.000000,TRUE,7.258224,-5.306900,0.000000,0.003601,0.024567,0.000000,-0.011000,0.029000,-0.001000,-0.010000,-0.360000,2.480000,0.214458,Hold,0.941650,0.000000,Hold,-230.000000,2.000000,LowGoal,1395.000000,-1454.545455,Speed,1387.500000,-1454.545455,Speed,Off,Off0.000000,0,,,,
04:24:39.657 PM 03/19/2016,Teleop Enabled,9,FALSE,0,NO ERROR,-0.000000,0.096250,0.000000,0.000000,TRUE,FALSE,TRUE,FALSE,FALSE,FALSE,Disabled,0.000000,0.000000,0.000000,TRUE,7.258881,-5.306244,0.000000,0.018036,-0.000809,0.000000,-0.069000,0.012000,0.003000,-0.020000,-0.330000,2.460000,0.222758,Hold,0.941650,0.000000,Hold,-230.000000,2.000000,LowGoal,1387.500000,-1454.545455,Speed,1387.500000,-1454.545455,Speed,Off,Off0.000000,0,,,,
04:24:39.758 PM 03/19/2016,Teleop Enabled,10,FALSE,0,NO ERROR,-0.000000,0.096250,0.000000,0.000000,TRUE,FALSE,TRUE,FALSE,FALSE,FALSE,Disabled,0.000000,0.000000,0.000000,TRUE,7.259094,-5.305939,0.000000,0.005814,0.009644,0.000000,-0.019000,-0.059000,-0.026000,-0.020000,-0.310000,2.480000,0.233034,Hold,0.941650,0.000000,Hold,-230.000000,2.000000,LowGoal,1395.000000,-1454.545455,Speed,1395.000000,-1454.545455,Speed,Off,Off0.000000,0,,,,
04:24:39.859 PM 03/19/2016,Teleop Enabled,9,FALSE,0,NO ERROR,-0.000000,0.096250,0.000000,0.000000,TRUE,FALSE,TRUE,FALSE,FALSE,FALSE,Disabled,0.000000,0.000000,0.000000,TRUE,7.259491,-5.305984,0.000000,0.019089,-0.004745,0.000000,0.000000,-0.030000,0.002000,-0.020000,-0.310000,2.490000,0.245406,Hold,0.941650,0.000000,Hold,-230.000000,2.000000,LowGoal,1402.500000,-1454.545455,Speed,1395.000000,-1454.545455,Speed,Off,Off0.000000,0,,,,
04:24:39.960 PM 03/19/2016,Teleop Enabled,10,FALSE,0,NO ERROR,-0.000000,0.096250,0.000000,0.000000,TRUE,FALSE,TRUE,FALSE,FALSE,FALSE,Disabled,0.000000,0.000000,0.000000,TRUE,7.260162,-5.306381,0.000000,0.017548,0.000931,0.000000,0.000000,-0.018000,0.013000,-0.020000,-0.320000,2.490000,0.255565,Hold,0.941650,0.000000,Hold,-230.000000,2.000000,LowGoal,1387.500000,-1454.545455,Speed,1395.000000,-1454.545455,Speed,Off,Off0.000000,0,,,,
04:24:40.060 PM 03/19/2016,Teleop Enabled,10,FALSE,0,NO ERROR,-0.000000,0.096250,0.000000,0.000000,TRUE,FALSE,TRUE,FALSE,FALSE,FALSE,Disabled,0.000000,0.000000,0.000000,TRUE,7.260925,-5.306274,0.000000,0.000000,0.002380,0.000000,0.027000,0.028000,0.010000,-0.010000,-0.350000,2.490000,0.268399,Hold,0.941650,208896.000000,Hold,-230.000000,143360.000000,LowGoal,1387.500000,-1454.545455,Speed,1395.000000,-1454.545455,Speed,Off,Off0.000000,0,,,,
04:24:40.161 PM 03/19/2016,Teleop Enabled,9,FALSE,0,NO ERROR,-0.000000,0.096250,0.000000,0.000000,TRUE,FALSE,TRUE,FALSE,FALSE,FALSE,Disabled,0.000000,0.000000,0.000000,TRUE,7.261047,-5.306030,0.000000,0.001984,0.014038,0.000000,0.020000,0.074000,0.099000,-0.020000,-0.320000,2.490000,0.267659,Hold,4.347168,208896.000000,Hold,-7164.000000,143360.000000,LowGoal,1395.000000,-1454.545455,Speed,1395.000000,-1454.545455,Speed,Off,Off0.000000,0,,,,
04:24:40.261 PM 03/19/2016,Teleop Enabled,10,FALSE,0,NO ERROR,-0.000000,0.096250,0.000000,0.000000,TRUE,FALSE,TRUE,FALSE,FALSE,FALSE,Disabled,0.000000,0.000000,0.000000,TRUE,7.261368,-5.305954,0.000000,0.013184,0.003967,0.000000,0.002000,-0.077000,-0.041000,-0.020000,-0.270000,2.510000,0.269924,Hold,8.044189,208896.000000,Hold,-20359.000000,143360.000000,LowGoal,1395.000000,-1454.545455,Speed,1402.500000,-1454.545455,Speed,Off,Off0.000000,0,,,,
04:24:40.362 PM 03/19/2016,Teleop Enabled,10,FALSE,0,NO ERROR,-0.000000,0.096250,0.000000,0.000000,TRUE,FALSE,TRUE,FALSE,FALSE,FALSE,Disabled,0.000000,0.000000,0.000000,TRUE,7.261002,-5.306107,0.000000,-0.006302,-0.003937,0.000000,0.002000,-0.077000,-0.041000,0.020000,-0.250000,2.440000,0.297650,Hold,11.895264,208896.000000,Hold,-20359.000000,143360.000000,LowGoal,1395.000000,-1454.545455,Speed,1395.000000,-1454.545455,Speed,Off,Off0.000000,0,,,,
04:24:40.463 PM 03/19/2016,Teleop Enabled,10,FALSE,0,NO ERROR,-0.000000,0.096250,0.000000,0.000000,TRUE,FALSE,TRUE,FALSE,FALSE,FALSE,Disabled,0.000000,0.000000,0.000000,TRUE,7.261398,-5.307678,0.000000,0.008804,-0.031403,0.000000,0.026000,-0.132000,-0.007000,0.020000,-0.250000,2.440000,0.334224,Hold,17.366943,208896.000000,Hold,-31256.000000,143360.000000,LowGoal,1395.000000,-1454.545455,Speed,1402.500000,-1454.545455,Speed,Off,Off0.000000,0,,,,
04:24:40.562 PM 03/19/2016,Teleop Enabled,10,FALSE,0,NO ERROR,-0.000000,0.096250,0.000000,0.000000,TRUE,FALSE,TRUE,FALSE,FALSE,FALSE,Disabled,0.000000,0.000000,0.000000,TRUE,7.261826,-5.308273,0.000000,0.000244,0.000000,0.000000,0.047000,0.079000,0.012000,0.010000,-0.310000,2.450000,0.285760,Hold,23.766357,208896.000000,Hold,-42295.000000,143360.000000,LowGoal,1395.000000,-1454.545455,Speed,1402.500000,-1454.545455,Speed,Off,Off0.000000,0,,,,
04:24:40.663 PM 03/19/2016,Teleop Enabled,11,FALSE,0,NO ERROR,-0.000000,0.096250,0.000000,0.000000,TRUE,FALSE,TRUE,FALSE,FALSE,FALSE,Disabled,0.000000,0.000000,0.000000,TRUE,7.262360,-5.308121,0.000000,0.010117,-0.000381,0.000000,0.035000,0.022000,0.134000,0.020000,-0.310000,2.430000,0.334407,Hold,31.354248,208896.000000,Hold,-54744.000000,143360.000000,LowGoal,1402.500000,-1454.545455,Speed,1402.500000,-1454.545455,Speed,Off,Off0.000000,0,,,,
04:24:40.763 PM 03/19/2016,Teleop Enabled,11,FALSE,0,NO ERROR,-0.000000,0.083416,0.000000,-0.006417,TRUE,FALSE,TRUE,FALSE,FALSE,FALSE,Disabled,0.000000,0.000000,0.000000,TRUE,7.263336,-5.308792,0.000000,0.042267,-0.014221,0.000000,0.130000,0.021000,-0.074000,-0.030000,-0.570000,2.490000,0.292091,Hold,40.343506,208896.000000,Hold,-67958.000000,143360.000000,LowGoal,1402.500000,-1454.545455,Speed,1402.500000,-1454.545455,Speed,Off,Off0.000000,0,,,,
04:24:40.864 PM 03/19/2016,Teleop Enabled,10,FALSE,0,NO ERROR,-0.000000,0.019250,0.000000,-0.096250,TRUE,FALSE,TRUE,FALSE,FALSE,FALSE,Disabled,0.000000,0.000000,0.000000,TRUE,7.264404,-5.308807,0.000000,-0.013962,-0.004700,0.000000,-0.069000,-0.055000,0.227000,0.100000,-0.760000,2.550000,0.434595,Hold,50.676758,208896.000000,Hold,-85179.000000,143360.000000,LowGoal,1402.500000,-1454.545455,Speed,1410.000000,-1454.545455,Speed,Off,Off0.000000,0,,,,
04:24:40.964 PM 03/19/2016,Teleop Enabled,11,FALSE,0,NO ERROR,-0.000000,0.025667,0.000000,-0.089833,TRUE,FALSE,TRUE,FALSE,FALSE,FALSE,Disabled,0.000000,0.000000,0.000000,TRUE,7.264526,-5.309982,0.000000,0.032730,-0.024643,0.000000,-0.037000,0.196000,0.008000,0.050000,-0.960000,2.460000,0.410687,Hold,56.618408,208896.000000,Hold,-102060.000000,143360.000000,LowGoal,1402.500000,-1454.545455,Speed,1410.000000,-1454.545455,Speed,Off,Off0.000000,0,,,,
04:24:41.064 PM 03/19/2016,Teleop Enabled,10,FALSE,0,NO ERROR,-0.000000,0.025667,0.000000,-0.089833,TRUE,FALSE,TRUE,FALSE,FALSE,FALSE,Disabled,0.000000,0.000000,0.000000,TRUE,7.265640,-5.310043,0.000000,0.012207,0.002167,0.000000,-0.037000,0.196000,0.008000,0.080000,-0.720000,2.430000,0.393608,Hold,56.987793,208896.000000,Hold,-102060.000000,143360.000000,LowGoal,1395.000000,-1454.545455,Speed,1402.500000,-1454.545455,Speed,Off,Off0.000000,0,,,,
04:24:41.164 PM 03/19/2016,Teleop Enabled,11,FALSE,0,NO ERROR,-0.000000,0.025667,0.000000,-0.089833,TRUE,FALSE,TRUE,FALSE,FALSE,FALSE,Disabled,0.000000,0.000000,0.000000,TRUE,7.265884,-5.310150,0.000000,-0.002396,0.006531,0.000000,-0.053000,-0.036000,0.159000,0.080000,-0.720000,2.430000,0.459998,Hold,56.348145,208896.000000,Hold,-119985.000000,143360.000000,LowGoal,1395.000000,-1454.545455,Speed,1402.500000,-1454.545455,Speed,Off,Off0.000000,0,,,,
04:24:41.265 PM 03/19/2016,Teleop Enabled,9,FALSE,0,NO ERROR,-0.000000,0.019250,0.000000,-0.089833,TRUE,FALSE,TRUE,FALSE,FALSE,FALSE,Disabled,0.000000,0.000000,0.000000,TRUE,7.265884,-5.310150,0.000000,-0.002396,0.006531,0.000000,-0.079000,0.086000,0.201000,0.120000,-0.700000,2.470000,0.378172,Hold,56.227539,208896.000000,Hold,-138164.000000,143360.000000,LowGoal,1402.500000,-1454.545455,Speed,1410.000000,-1454.545455,Speed,Off,Off0.000000,0,,,,
04:24:41.365 PM 03/19/2016,Teleop Enabled,10,FALSE,0,NO ERROR,-0.000000,0.025667,0.000000,-0.089833,TRUE,FALSE,TRUE,FALSE,FALSE,FALSE,Disabled,0.000000,0.000000,0.000000,TRUE,7.264313,-5.309464,0.000000,-0.040192,0.076279,0.000000,-0.141000,0.166000,-0.025000,0.020000,-0.730000,2.490000,0.428760,Hold,56.152832,208896.000000,Hold,-142932.000000,143360.000000,LowGoal,1387.500000,-1454.545455,Speed,1395.000000,-1454.545455,Speed,Off,Off0.000000,0,,,,
04:24:41.464 PM 03/19/2016,Teleop Enabled,10,FALSE,0,NO ERROR,-0.000000,0.025667,0.000000,-0.089833,TRUE,FALSE,TRUE,FALSE,FALSE,FALSE,Disabled,0.000000,0.000000,0.000000,TRUE,7.264313,-5.309464,0.000000,-0.040192,0.076279,0.000000,-0.064000,-0.114000,0.008000,0.060000,-0.660000,2.450000,0.499453,Hold,56.035645,208896.000000,Hold,-143425.000000,143360.000000,LowGoal,1387.500000,-1454.545455,Speed,1402.500000,-1454.545455,Speed,Off,Off0.000000,0,,,,
04:24:41.565 PM 03/19/2016,Teleop Enabled,10,FALSE,0,NO ERROR,-0.000000,0.025667,0.000000,-0.089833,TRUE,FALSE,TRUE,FALSE,FALSE,FALSE,Disabled,0.000000,0.000000,0.000000,TRUE,7.259644,-5.305435,0.000000,-0.047668,0.023422,0.000000,-0.001000,-0.156000,-0.017000,0.130000,-0.770000,2.450000,0.397492,Hold,56.031006,208896.000000,Hold,-143499.000000,143360.000000,LowGoal,1395.000000,-1454.545455,Speed,1417.500000,-1454.545455,Speed,Off,Off0.000000,0,,,,
04:24:41.665 PM 03/19/2016,Teleop Enabled,10,FALSE,0,NO ERROR,-0.000000,0.025667,0.000000,-0.089833,TRUE,FALSE,TRUE,FALSE,FALSE,FALSE,Disabled,0.000000,0.000000,0.000000,TRUE,7.256271,-5.303741,0.000000,-0.082855,0.035202,0.000000,-0.001000,0.079000,0.095000,0.010000,-0.700000,2.450000,0.471968,Hold,55.997314,208896.000000,Hold,-143499.000000,143360.000000,LowGoal,1402.500000,-1454.545455,Speed,1417.500000,-1454.545455,Speed,Off,Off0.000000,0,,,,
04:24:41.765 PM 03/19/2016,Teleop Enabled,10,FALSE,0,NO ERROR,-0.000000,0.025667,0.000000,-0.089833,TRUE,FALSE,TRUE,FALSE,FALSE,FALSE,Disabled,0.000000,0.000000,0.000000,TRUE,7.252029,-5.303146,0.000000,-0.095795,0.005280,0.000000,-0.035000,0.012000,0.085000,0.070000,-0.800000,2.490000,0.469654,Hold,55.997314,208896.000000,HighGoal,-143499.000000,69632.000000,HighGoal,1402.500000,-3272.727273,Speed,1410.000000,-3272.727273,Speed,Off,Off0.000000,0,,,,
04:24:41.866 PM 03/19/2016,Teleop Enabled,11,FALSE,0,NO ERROR,-0.000000,0.025667,0.000000,-0.089833,TRUE,FALSE,TRUE,FALSE,FALSE,FALSE,Disabled,0.000000,0.000000,0.000000,TRUE,7.252029,-5.303146,0.000000,-0.095795,0.005280,0.000000,-0.046000,0.045000,0.019000,0.070000,-0.730000,2.440000,0.449774,Hold,55.997559,208896.000000,Hold,-142696.000000,69632.000000,HighGoal,1462.500000,-3272.727273,Speed,1395.000000,-3272.727273,Speed,Off,Off0.000000,0,,,,
04:24:41.965 PM 03/19/2016,Teleop Enabled,11,FALSE,0,NO ERROR,-0.000000,0.025667,0.000000,-0.089833,TRUE,FALSE,TRUE,FALSE,FALSE,FALSE,Disabled,0.000000,0.000000,0.000000,TRUE,7.248795,-5.302399,0.000000,0.000000,0.022034,0.000000,-0.015000,0.042000,-0.019000,0.040000,-0.820000,2.430000,0.449774,Hold,56.012695,208896.000000,HighGoal,-138110.000000,69632.000000,HighGoal,1920.000000,-3272.727273,Speed,1755.000000,-3272.727273,Speed,Off,Off0.000000,0,,,,
04:24:42.065 PM 03/19/2016,Teleop Enabled,10,FALSE,0,NO ERROR,-0.000000,0.025667,0.000000,-0.089833,TRUE,FALSE,TRUE,FALSE,FALSE,FALSE,Disabled,0.000000,0.000000,0.000000,TRUE,7.247879,-5.301392,0.000000,-0.022446,0.026245,0.000000,0.051000,-0.085000,0.007000,0.050000,-0.800000,2.450000,0.461520,Hold,56.012695,208896.000000,Hold,-132639.000000,69632.000000,HighGoal,2392.500000,-3272.727273,Speed,2310.000000,-3272.727273,Speed,Off,Off0.000000,0,,,,
04:24:42.166 PM 03/19/2016,Teleop Enabled,11,FALSE,0,NO ERROR,-0.000000,0.025667,0.000000,-0.089833,TRUE,FALSE,TRUE,FALSE,FALSE,FALSE,Disabled,0.000000,0.000000,0.000000,TRUE,7.247574,-5.301193,0.000000,0.000168,0.023849,0.000000,-0.096000,0.034000,-0.032000,0.070000,-0.800000,2.430000,0.466071,Hold,56.012451,208896.000000,Hold,-126852.000000,69632.000000,HighGoal,2700.000000,-3272.727273,Speed,2752.500000,-3272.727273,Speed,Off,Off0.000000,0,,,,
04:24:42.266 PM 03/19/2016,Teleop Enabled,10,FALSE,0,NO ERROR,-0.000000,0.025667,0.000000,-0.089833,TRUE,FALSE,TRUE,FALSE,FALSE,FALSE,Disabled,0.000000,0.000000,0.000000,TRUE,7.248138,-5.302338,0.000000,-0.002121,-0.027023,0.000000,0.081000,-0.287000,-0.083000,0.050000,-0.760000,2.470000,0.459306,Hold,56.011230,208896.000000,Hold,-120647.000000,69632.000000,HighGoal,3015.000000,-3272.727273,Speed,3097.500000,-3272.727273,Speed,Off,Off0.000000,0,,,,
04:24:42.366 PM 03/19/2016,Teleop Enabled,11,FALSE,0,NO ERROR,-0.000000,0.025667,0.000000,-0.089833,TRUE,FALSE,TRUE,FALSE,FALSE,FALSE,Disabled,0.000000,0.000000,0.000000,TRUE,7.247421,-5.304520,0.000000,-0.010605,-0.079483,0.000000,-0.277000,-0.211000,-0.086000,0.070000,-0.760000,2.450000,0.460979,Hold,56.005859,208896.000000,Hold,-120647.000000,69632.000000,HighGoal,3247.500000,-3272.727273,Speed,3307.500000,-3272.727273,Speed,Off,Off0.000000,0,,,,
04:24:42.467 PM 03/19/2016,Teleop Enabled,10,FALSE,0,NO ERROR,-0.000000,0.025667,0.000000,-0.089833,TRUE,FALSE,TRUE,FALSE,FALSE,FALSE,Disabled,0.000000,0.000000,0.000000,TRUE,7.244812,-5.308823,0.000000,-0.058548,-0.053085,0.000000,0.066000,0.157000,0.086000,0.040000,-0.720000,2.400000,0.421634,Hold,56.005371,208896.000000,Hold,-113395.000000,69632.000000,HighGoal,3277.500000,-3272.727273,Speed,3285.000000,-3272.727273,Speed,Off,Off0.000000,0,,,,
04:24:42.568 PM 03/19/2016,Teleop Enabled,11,FALSE,0,NO ERROR,-0.000000,0.025667,0.000000,-0.089833,TRUE,FALSE,TRUE,FALSE,FALSE,FALSE,Disabled,0.000000,0.000000,0.000000,TRUE,7.242676,-5.312698,0.000000,-0.039246,-0.108582,0.000000,-0.098000,-0.126000,-0.128000,0.060000,-0.760000,2.440000,0.431363,Hold,56.005371,208896.000000,Hold,-105141.000000,69632.000000,HighGoal,3217.500000,-3272.727273,Speed,3217.500000,-3272.727273,Speed,Off,Off0.000000,0,,,,
04:24:42.668 PM 03/19/2016,Teleop Enabled,10,FALSE,0,NO ERROR,-0.000000,0.025667,0.000000,-0.089833,TRUE,FALSE,TRUE,FALSE,FALSE,FALSE,Disabled,0.000000,0.000000,0.000000,TRUE,7.239258,-5.317505,0.000000,-0.085709,-0.070160,0.000000,-0.148000,-0.072000,-0.100000,0.040000,-0.730000,2.450000,0.431139,Hold,56.004883,208896.000000,Hold,-96739.000000,69632.000000,HighGoal,3195.000000,-3272.727273,Speed,3225.000000,-3272.727273,Speed,Off,Off0.000000,0,,,,
04:24:42.769 PM 03/19/2016,Teleop Enabled,11,FALSE,0,NO ERROR,-0.000000,0.025667,0.000000,-0.089833,TRUE,FALSE,TRUE,FALSE,FALSE,FALSE,Disabled,0.000000,0.000000,0.000000,TRUE,7.234344,-5.320160,0.000000,-0.094543,-0.056778,0.000000,0.047000,0.029000,0.071000,0.040000,-0.700000,2.480000,0.434289,Hold,56.004883,208896.000000,Hold,-88204.000000,69632.000000,HighGoal,3210.000000,-3272.727273,Speed,3247.500000,-3272.727273,Speed,Off,Off0.000000,0,,,,
04:24:42.870 PM 03/19/2016,Teleop Enabled,10,FALSE,0,NO ERROR,-0.000000,0.025667,0.000000,-0.089833,TRUE,FALSE,TRUE,FALSE,FALSE,FALSE,Disabled,0.000000,0.000000,0.000000,TRUE,7.229401,-5.324860,0.000000,-0.054581,-0.089691,0.000000,0.053000,-0.148000,0.049000,0.040000,-0.730000,2.480000,0.441746,Hold,56.004395,208896.000000,Hold,-79402.000000,69632.000000,HighGoal,3202.500000,-3272.727273,Speed,3247.500000,-3272.727273,Speed,Off,Off0.000000,0,,,,
04:24:42.969 PM 03/19/2016,Teleop Enabled,10,FALSE,0,NO ERROR,-0.000000,0.025667,0.000000,-0.089833,TRUE,FALSE,TRUE,FALSE,FALSE,FALSE,Disabled,0.000000,0.000000,0.000000,TRUE,7.227844,-5.329010,0.000000,-0.026489,-0.103577,0.000000,0.160000,0.069000,0.141000,0.050000,-0.710000,2.470000,0.447663,Hold,56.004395,208896.000000,Hold,-70288.000000,69632.000000,HighGoal,3187.500000,-3272.727273,Speed,3247.500000,-3272.727273,Speed,Off,Off0.000000,0,,,,
04:24:43.069 PM 03/19/2016,Teleop Enabled,11,FALSE,0,NO ERROR,-0.000000,0.025667,0.000000,-0.089833,TRUE,FALSE,TRUE,FALSE,FALSE,FALSE,Disabled,0.000000,0.000000,0.000000,TRUE,7.227249,-5.332535,0.000000,0.007584,-0.035416,0.000000,0.065000,0.240000,0.017000,0.040000,-0.690000,2.520000,0.451550,Hold,56.003906,208896.000000,Hold,-70288.000000,69632.000000,HighGoal,3195.000000,-3272.727273,Speed,3247.500000,-3272.727273,Speed,Off,Off0.000000,0,,,,
04:24:43.171 PM 03/19/2016,Teleop Enabled,10,FALSE,0,NO ERROR,-0.000000,0.025667,0.000000,-0.089833,TRUE,FALSE,TRUE,FALSE,FALSE,FALSE,Disabled,0.000000,0.000000,0.000000,TRUE,7.227112,-5.333389,0.000000,-0.011749,0.002823,0.000000,0.033000,-0.099000,0.023000,0.050000,-0.640000,2.510000,0.483111,Hold,56.003906,208896.000000,Hold,-69948.000000,69632.000000,HighGoal,3195.000000,-3272.727273,Speed,3240.000000,-3272.727273,Speed,Off,Off0.000000,0,,,,
04:24:43.271 PM 03/19/2016,Teleop Enabled,10,FALSE,0,NO ERROR,-0.000000,0.025667,0.000000,-0.083416,TRUE,FALSE,TRUE,FALSE,FALSE,FALSE,Disabled,0.000000,0.000000,0.000000,TRUE,7.226837,-5.333954,0.000000,-0.010803,-0.034622,0.000000,-0.194000,0.082000,-0.076000,0.100000,-0.630000,2.500000,0.513230,Hold,56.003906,208896.000000,Hold,-69948.000000,69632.000000,HighGoal,3202.500000,-3272.727273,Speed,3247.500000,-3272.727273,Speed,Off,Off0.000000,0,,,,
04:24:43.371 PM 03/19/2016,Teleop Enabled,11,FALSE,0,NO ERROR,-0.000000,0.025667,0.000000,-0.083416,TRUE,FALSE,TRUE,FALSE,FALSE,FALSE,Disabled,0.000000,0.000000,0.000000,TRUE,7.224442,-5.335251,0.000000,-0.078629,-0.004166,0.000000,0.090000,0.189000,0.131000,-0.010000,-0.720000,2.510000,0.391515,Hold,56.004395,208896.000000,Hold,-69739.000000,69632.000000,HighGoal,3202.500000,-3272.727273,Speed,3247.500000,-3272.727273,Speed,Off,Off0.000000,0,,,,
04:24:43.471 PM 03/19/2016,Teleop Enabled,11,FALSE,0,NO ERROR,-0.000000,0.025667,0.000000,-0.083416,TRUE,FALSE,TRUE,FALSE,FALSE,FALSE,Disabled,0.000000,0.000000,0.000000,TRUE,7.220154,-5.334412,0.000000,-0.092773,-0.002701,0.000000,-0.069000,-0.286000,-0.112000,0.100000,-0.660000,2.480000,0.513155,Hold,56.004395,208896.000000,Hold,-69739.000000,69632.000000,HighGoal,3202.500000,-3272.727273,Speed,3255.000000,-3272.727273,Speed,Off,Off0.000000,0,,,,
04:24:43.572 PM 03/19/2016,Teleop Enabled,11,FALSE,0,NO ERROR,-0.000000,0.025667,0.000000,-0.083416,TRUE,FALSE,TRUE,FALSE,FALSE,FALSE,Disabled,0.000000,0.000000,0.000000,TRUE,7.215042,-5.337036,0.000000,-0.117004,-0.061386,0.000000,-0.134000,-0.054000,-0.082000,0.030000,-0.630000,2.490000,0.448803,Hold,56.004395,208896.000000,Hold,-69739.000000,69632.000000,HighGoal,3202.500000,-3272.727273,Speed,3247.500000,-3272.727273,Speed,Off,Off0.000000,0,,,,
04:24:43.672 PM 03/19/2016,Teleop Enabled,9,FALSE,0,NO ERROR,-0.000000,0.025667,0.000000,-0.083416,TRUE,FALSE,TRUE,FALSE,FALSE,FALSE,Disabled,0.000000,0.000000,0.000000,TRUE,7.208862,-5.336884,0.000000,-0.118759,0.040237,0.000000,-0.036000,-0.088000,-0.058000,0.020000,-0.710000,2.510000,0.453065,Hold,56.004395,208896.000000,Hold,-69739.000000,69632.000000,HighGoal,3202.500000,-3272.727273,Speed,3255.000000,-3272.727273,Speed,Off,Off0.000000,0,,,,
04:24:43.772 PM 03/19/2016,Teleop Enabled,11,FALSE,0,NO ERROR,-0.000000,0.025667,0.000000,-0.083416,TRUE,FALSE,TRUE,FALSE,FALSE,FALSE,Disabled,0.000000,0.000000,0.000000,TRUE,7.204041,-5.337128,0.000000,-0.087540,-0.054504,0.000000,0.067000,-0.208000,0.023000,0.050000,-0.640000,2.470000,0.490633,Hold,56.004395,208896.000000,Hold,-69739.000000,69632.000000,HighGoal,3187.500000,-3272.727273,Speed,3255.000000,-3272.727273,Speed,Off,Off0.000000,0,,,,
04:24:43.872 PM 03/19/2016,Teleop Enabled,10,FALSE,0,NO ERROR,-0.000000,0.025667,0.000000,-0.083416,TRUE,FALSE,TRUE,FALSE,FALSE,FALSE,Disabled,0.000000,0.000000,0.000000,TRUE,7.200317,-5.341629,0.000000,-0.072067,-0.075058,0.000000,-0.019000,0.111000,-0.030000,0.030000,-0.670000,2.460000,0.475596,Hold,56.004395,208896.000000,Hold,-69739.000000,69632.000000,HighGoal,3195.000000,-3272.727273,Speed,3247.500000,-3272.727273,Speed,Off,Off0.000000,0,,,,
04:24:43.973 PM 03/19/2016,Teleop Enabled,10,FALSE,0,NO ERROR,-0.000000,0.025667,0.000000,-0.083416,TRUE,FALSE,TRUE,FALSE,FALSE,FALSE,Disabled,0.000000,0.000000,0.000000,TRUE,7.198074,-5.342300,0.000000,-0.026596,0.013657,0.000000,0.128000,0.168000,-0.007000,0.020000,-0.680000,2.480000,0.468529,Hold,56.004395,208896.000000,Hold,-69739.000000,69632.000000,HighGoal,3217.500000,-3272.727273,Speed,3247.500000,-3272.727273,Speed,Off,Off0.000000,0,,,,
04:24:44.074 PM 03/19/2016,Teleop Enabled,10,FALSE,0,NO ERROR,-0.000000,0.025667,0.000000,-0.083416,TRUE,FALSE,TRUE,FALSE,FALSE,FALSE,Disabled,0.000000,0.000000,0.000000,TRUE,7.197540,-5.343018,0.000000,-0.003342,-0.048660,0.000000,-0.021000,-0.260000,0.028000,0.040000,-0.660000,2.510000,0.488206,Hold,56.004395,208896.000000,Hold,-69739.000000,69632.000000,HighGoal,3202.500000,-3272.727273,Speed,3247.500000,-3272.727273,Speed,Off,Off0.000000,0,,,,
04:24:44.175 PM 03/19/2016,Teleop Enabled,10,FALSE,0,NO ERROR,-0.000000,0.025667,0.000000,-0.083416,TRUE,FALSE,TRUE,FALSE,FALSE,FALSE,Disabled,0.000000,0.000000,0.000000,TRUE,7.197021,-5.345764,0.000000,-0.020172,-0.041870,0.000000,-0.004000,0.142000,0.030000,0.010000,-0.640000,2.430000,0.467389,Hold,56.004395,208896.000000,Hold,-69739.000000,69632.000000,HighGoal,3195.000000,-3272.727273,Speed,3247.500000,-3272.727273,Speed,Off,Off0.000000,0,,,,
04:24:44.275 PM 03/19/2016,Teleop Enabled,11,FALSE,0,NO ERROR,-0.000000,0.025667,0.000000,-0.083416,TRUE,FALSE,TRUE,FALSE,FALSE,FALSE,Disabled,0.000000,0.000000,0.000000,TRUE,7.195969,-5.347382,0.000000,-0.028488,-0.031723,0.000000,0.079000,0.084000,0.134000,0.030000,-0.640000,2.430000,0.495549,Hold,56.004395,208896.000000,Hold,-69739.000000,69632.000000,HighGoal,3202.500000,-3272.727273,Speed,3247.500000,-3272.727273,Speed,Off,Off0.000000,0,,,,
04:24:44.376 PM 03/19/2016,Teleop Enabled,10,FALSE,0,NO ERROR,-0.000000,0.025667,0.000000,-0.083416,TRUE,FALSE,TRUE,FALSE,FALSE,FALSE,Disabled,0.000000,0.000000,0.000000,TRUE,7.192719,-5.349594,0.000000,-0.079559,-0.062668,0.000000,-0.109000,-0.294000,-0.221000,0.020000,-0.640000,2.460000,0.500730,Hold,56.004395,208896.000000,Hold,-69739.000000,69632.000000,HighGoal,3210.000000,-3272.727273,Speed,3247.500000,-3272.727273,Speed,Off,Off0.000000,0,,,,
04:24:44.476 PM 03/19/2016,Teleop Enabled,10,FALSE,0,NO ERROR,-0.000000,0.025667,0.000000,-0.083416,TRUE,FALSE,TRUE,FALSE,FALSE,FALSE,Disabled,0.000000,0.000000,0.000000,TRUE,7.188828,-5.352966,0.000000,-0.109726,-0.081650,0.000000,0.071000,0.220000,0.104000,0.030000,-0.650000,2.450000,0.530323,Hold,56.004395,208896.000000,Hold,-69739.000000,69632.000000,HighGoal,3202.500000,-3272.727273,Speed,3255.000000,-3272.727273,Speed,Off,Off0.000000,0,,,,
04:24:44.576 PM 03/19/2016,Teleop Enabled,9,FALSE,0,NO ERROR,-0.000000,0.025667,0.000000,-0.083416,TRUE,FALSE,TRUE,FALSE,FALSE,FALSE,Disabled,0.000000,0.000000,0.000000,TRUE,7.181320,-5.355423,0.000000,-0.126617,-0.030457,0.000000,-0.104000,-0.123000,-0.104000,0.030000,-0.660000,2.460000,0.535156,Hold,56.004395,208896.000000,Hold,-69739.000000,69632.000000,HighGoal,3202.500000,-3272.727273,Speed,3247.500000,-3272.727273,Speed,Off,Off0.000000,0,,,,
04:24:44.677 PM 03/19/2016,Teleop Enabled,9,FALSE,0,NO ERROR,-0.000000,0.025667,0.000000,-0.083416,TRUE,FALSE,TRUE,FALSE,FALSE,FALSE,Disabled,0.000000,0.000000,0.000000,TRUE,7.174103,-5.359406,0.000000,-0.153152,-0.110931,0.000000,0.073000,-0.125000,0.025000,0.020000,-0.690000,2.450000,0.533913,Hold,56.004395,208896.000000,Hold,-69739.000000,69632.000000,HighGoal,3202.500000,-3272.727273,Speed,3255.000000,-3272.727273,Speed,Off,Off0.000000,0,,,,
04:24:44.776 PM 03/19/2016,Teleop Enabled,9,FALSE,0,NO ERROR,-0.000000,0.025667,0.000000,-0.083416,TRUE,FALSE,TRUE,FALSE,FALSE,FALSE,Disabled,0.000000,0.000000,0.000000,TRUE,7.168411,-5.363312,0.000000,-0.136459,-0.076813,0.000000,0.108000,0.024000,0.040000,0.020000,-0.690000,2.410000,0.534313,Hold,56.004395,208896.000000,Hold,-69739.000000,69632.000000,HighGoal,3210.000000,-3272.727273,Speed,3247.500000,-3272.727273,Speed,Off,Off0.000000,0,,,,
04:24:44.876 PM 03/19/2016,Teleop Enabled,10,FALSE,0,NO ERROR,-0.000000,0.025667,0.000000,-0.083416,TRUE,FALSE,TRUE,FALSE,FALSE,FALSE,Disabled,0.000000,0.000000,0.000000,TRUE,7.163254,-5.364487,0.000000,-0.076599,-0.012650,0.000000,-0.108000,-0.232000,-0.151000,0.010000,-0.690000,2.450000,0.524556,Hold,56.004395,208896.000000,Hold,-69739.000000,69632.000000,HighGoal,3202.500000,-3272.727273,Speed,3247.500000,-3272.727273,Speed,Off,Off0.000000,0,,,,
04:24:44.976 PM 03/19/2016,Teleop Enabled,9,FALSE,0,NO ERROR,-0.000000,0.025667,0.000000,-0.083416,TRUE,FALSE,TRUE,FALSE,FALSE,FALSE,Disabled,0.000000,0.000000,0.000000,TRUE,7.160202,-5.369522,0.000000,-0.035233,-0.131210,0.000000,-0.045000,-0.171000,-0.013000,0.010000,-0.640000,2.410000,0.507412,Hold,56.004395,208896.000000,Hold,-69739.000000,69632.000000,HighGoal,3217.500000,-3272.727273,Speed,3247.500000,-3272.727273,Speed,Off,Off0.000000,0,,,,
04:24:45.076 PM 03/19/2016,Teleop Enabled,9,FALSE,0,NO ERROR,-0.000000,0.025667,0.000000,-0.083416,TRUE,FALSE,TRUE,FALSE,FALSE,FALSE,Disabled,0.000000,0.000000,0.000000,TRUE,7.158615,-5.372910,0.000000,-0.022522,-0.003937,0.000000,0.025000,-0.135000,0.040000,0.020000,-0.650000,2.360000,0.511981,Hold,56.004395,208896.000000,Hold,-69739.000000,69632.000000,HighGoal,3232.500000,-3272.727273,Speed,3255.000000,-3272.727273,Speed,Off,Off0.000000,0,,,,
04:24:45.176 PM 03/19/2016,Teleop Enabled,9,FALSE,0,NO ERROR,-0.000000,0.025667,0.000000,-0.083416,TRUE,FALSE,TRUE,FALSE,FALSE,FALSE,Disabled,0.000000,0.000000,0.000000,TRUE,7.158768,-5.372269,0.000000,0.005661,-0.019821,0.000000,-0.086000,0.074000,0.001000,0.030000,-0.640000,2.490000,0.513127,Hold,56.004395,208896.000000,Hold,-69739.000000,69632.000000,HighGoal,3217.500000,-3272.727273,Speed,3247.500000,-3272.727273,Speed,Off,Off0.000000,0,,,,
04:24:45.276 PM 03/19/2016,Teleop Enabled,11,FALSE,0,NO ERROR,-0.000000,0.025667,0.000000,-0.083416,TRUE,FALSE,TRUE,FALSE,FALSE,FALSE,Disabled,0.000000,0.000000,0.000000,TRUE,7.157547,-5.375885,0.000000,-0.047928,-0.074112,0.000000,0.004000,0.091000,0.100000,0.020000,-0.650000,2.450000,0.510435,Hold,56.004395,208896.000000,Hold,-69739.000000,69632.000000,HighGoal,3195.000000,-3272.727273,Speed,3240.000000,-3272.727273,Speed,Off,Off0.000000,0,,,,
04:24:45.376 PM 03/19/2016,Teleop Enabled,9,FALSE,0,NO ERROR,-0.000000,0.025667,0.000000,-0.083416,TRUE,FALSE,TRUE,FALSE,FALSE,FALSE,Disabled,0.000000,0.000000,0.000000,TRUE,7.153519,-5.376205,0.000000,-0.095413,0.023178,0.000000,-0.162000,-0.177000,-0.182000,0.020000,-0.660000,2.510000,0.517231,Hold,56.004395,208896.000000,Hold,-69739.000000,69632.000000,HighGoal,3210.000000,-3272.727273,Speed,3240.000000,-3272.727273,Speed,Off,Off0.000000,0,,,,
04:24:45.476 PM 03/19/2016,Teleop Enabled,10,FALSE,0,NO ERROR,-0.000000,0.025667,0.000000,-0.083416,TRUE,FALSE,TRUE,FALSE,FALSE,FALSE,Disabled,0.000000,0.000000,0.000000,TRUE,7.147232,-5.378220,0.000000,-0.109924,-0.069870,0.000000,0.125000,0.059000,0.150000,0.010000,-0.660000,2.470000,0.518243,Hold,56.004395,208896.000000,Hold,-69739.000000,69632.000000,HighGoal,3217.500000,-3272.727273,Speed,3255.000000,-3272.727273,Speed,Off,Off0.000000,0,,,,
04:24:45.576 PM 03/19/2016,Teleop Enabled,9,FALSE,0,NO ERROR,-0.000000,0.025667,0.000000,-0.083416,TRUE,FALSE,TRUE,FALSE,FALSE,FALSE,Disabled,0.000000,0.000000,0.000000,TRUE,7.142624,-5.381180,0.000000,-0.115662,-0.062698,0.000000,-0.169000,-0.030000,-0.069000,0.010000,-0.650000,2.420000,0.529121,Hold,56.004395,208896.000000,Hold,-69739.000000,69632.000000,HighGoal,3210.000000,-3272.727273,Speed,3262.500000,-3272.727273,Speed,Off,Off0.000000,0,,,,
04:24:45.676 PM 03/19/2016,Teleop Enabled,10,FALSE,0,NO ERROR,-0.000000,0.025667,0.000000,-0.083416,TRUE,FALSE,TRUE,FALSE,FALSE,FALSE,Disabled,0.000000,0.000000,0.000000,TRUE,7.136398,-5.382706,0.000000,-0.122894,-0.038391,0.000000,0.114000,-0.008000,0.069000,0.010000,-0.650000,2.460000,0.539449,Hold,56.004395,208896.000000,Hold,-69739.000000,69632.000000,HighGoal,3210.000000,-3272.727273,Speed,3255.000000,-3272.727273,Speed,Off,Off0.000000,0,,,,
04:24:45.776 PM 03/19/2016,Teleop Enabled,9,FALSE,0,NO ERROR,-0.000000,0.025667,0.000000,-0.083416,TRUE,FALSE,TRUE,FALSE,FALSE,FALSE,Disabled,0.000000,0.000000,0.000000,TRUE,7.129456,-5.387314,0.000000,-0.106293,-0.094406,0.000000,-0.054000,0.094000,0.038000,0.020000,-0.660000,2.500000,0.530340,Hold,56.004395,208896.000000,Hold,-69739.000000,69632.000000,HighGoal,3210.000000,-3272.727273,Speed,3247.500000,-3272.727273,Speed,Off,Off0.000000,0,,,,
04:24:45.876 PM 03/19/2016,Teleop Enabled,10,FALSE,0,NO ERROR,-0.000000,0.025667,0.000000,-0.083416,TRUE,FALSE,TRUE,FALSE,FALSE,FALSE,Disabled,0.000000,0.000000,0.000000,TRUE,7.125183,-5.390747,0.000000,-0.064575,-0.043854,0.000000,0.122000,-0.013000,0.130000,0.010000,-0.650000,2.510000,0.526061,Hold,56.004395,208896.000000,Hold,-69739.000000,69632.000000,HighGoal,3210.000000,-3272.727273,Speed,3255.000000,-3272.727273,Speed,Off,Off0.000000,0,,,,
04:24:45.976 PM 03/19/2016,Teleop Enabled,10,FALSE,0,NO ERROR,-0.000000,0.025667,0.000000,-0.083416,TRUE,FALSE,TRUE,FALSE,FALSE,FALSE,Disabled,0.000000,0.000000,0.000000,TRUE,7.123734,-5.391907,0.000000,-0.010849,-0.027756,0.000000,-0.090000,-0.081000,-0.112000,0.010000,-0.610000,2.510000,0.532987,Hold,56.004395,208896.000000,Hold,-69739.000000,69632.000000,HighGoal,3217.500000,-3272.727273,Speed,3262.500000,-3272.727273,Speed,Off,Off0.000000,0,,,,
04:24:46.077 PM 03/19/2016,Teleop Enabled,10,FALSE,0,NO ERROR,-0.000000,0.025667,0.000000,-0.083416,TRUE,FALSE,TRUE,FALSE,FALSE,FALSE,Disabled,0.000000,0.000000,0.000000,TRUE,7.124207,-5.395035,0.000000,0.025803,-0.083954,0.000000,-0.049000,-0.243000,-0.071000,0.010000,-0.660000,2.490000,0.536413,Hold,56.004395,208896.000000,Hold,-69739.000000,69632.000000,HighGoal,3210.000000,-3272.727273,Speed,3255.000000,-3272.727273,Speed,Off,Off0.000000,0,,,,
04:24:46.177 PM 03/19/2016,Teleop Enabled,10,FALSE,0,NO ERROR,0.346457,0.025667,-0.346457,-0.083416,TRUE,FALSE,TRUE,FALSE,FALSE,FALSE,Disabled,0.000000,0.000000,0.000000,TRUE,7.126389,-5.398407,0.000000,0.058014,-0.036209,0.000000,0.070000,0.394000,0.054000,0.010000,-0.620000,2.440000,0.553157,Hold,56.004395,208896.000000,Hold,-69739.000000,69632.000000,HighGoal,3210.000000,-3272.727273,Speed,3247.500000,-3272.727273,Speed,Off,Off0.000000,0,,,,
04:24:46.278 PM 03/19/2016,Teleop Enabled,9,FALSE,0,NO ERROR,0.346457,-0.699415,-0.346457,-0.102666,TRUE,FALSE,TRUE,FALSE,FALSE,FALSE,Disabled,0.000000,0.000000,0.000000,TRUE,7.131622,-5.398483,0.000000,0.180084,-0.003418,0.000000,-0.002000,-0.098000,0.613000,-0.780000,-0.100000,2.400000,0.231846,Hold,56.007324,208896.000000,Hold,-69738.000000,69632.000000,HighGoal,3210.000000,-3272.727273,Speed,3247.500000,-3272.727273,Speed,Off,Off0.000000,0,,,,
04:24:46.378 PM 03/19/2016,Teleop Enabled,10,FALSE,0,NO ERROR,0.346457,-1.706829,-0.346457,0.699415,TRUE,FALSE,TRUE,FALSE,FALSE,FALSE,Disabled,0.000000,0.000000,0.000000,TRUE,7.134308,-5.403625,0.000000,-0.072052,-0.238876,0.000000,0.191000,-0.204000,0.011000,-3.020000,-1.340000,1.580000,-2.010027,Hold,55.894043,208896.000000,Hold,-69728.000000,69632.000000,HighGoal,3195.000000,-3272.727273,Speed,3232.500000,-3272.727273,Speed,Off,Off0.000000,0,,,,
04:24:46.479 PM 03/19/2016,Teleop Enabled,11,FALSE,0,NO ERROR,0.307087,-2.861827,-0.307087,1.674746,TRUE,FALSE,TRUE,FALSE,FALSE,FALSE,Disabled,0.000000,0.000000,0.000000,TRUE,7.129944,-5.413773,0.000000,-0.128601,-0.117340,0.000000,-0.048000,0.444000,-0.159000,-7.300000,-1.170000,2.040000,-6.179151,Hold,55.894043,208896.000000,Hold,-69728.000000,69632.000000,HighGoal,3180.000000,-3272.727273,Speed,3225.000000,-3272.727273,Speed,Off,Off0.000000,0,,,,
04:24:46.579 PM 03/19/2016,Teleop Enabled,11,FALSE,0,NO ERROR,0.307087,-3.914158,-0.307087,2.759160,TRUE,FALSE,TRUE,FALSE,FALSE,FALSE,Disabled,0.000000,0.000000,0.000000,TRUE,7.120834,-5.416260,0.000000,-0.106079,-0.115646,0.000000,0.121000,-0.405000,0.177000,-11.690000,-1.050000,1.970000,-10.385268,Hold,55.817871,208896.000000,Hold,-69760.000000,69632.000000,HighGoal,3172.500000,-3272.727273,Speed,3217.500000,-3272.727273,Speed,Off,Off0.000000,0,,,,
04:24:46.679 PM 03/19/2016,Teleop Enabled,9,FALSE,0,NO ERROR,-0.000000,-4.908739,0.000000,3.830741,TRUE,FALSE,TRUE,FALSE,FALSE,FALSE,Disabled,0.000000,0.000000,0.000000,TRUE,7.118210,-5.424606,0.000000,-0.024567,-0.086075,0.000000,-0.025000,0.450000,0.020000,-16.250000,-1.170000,1.600000,-15.620098,Hold,55.817627,208896.000000,Hold,-69756.000000,69632.000000,HighGoal,3195.000000,-3272.727273,Speed,3225.000000,-3272.727273,Speed,Off,Off0.000000,0,,,,
04:24:46.779 PM 03/19/2016,Teleop Enabled,10,FALSE,0,NO ERROR,-0.000000,-4.966488,0.000000,3.862824,TRUE,FALSE,TRUE,FALSE,FALSE,FALSE,Disabled,0.000000,0.000000,0.000000,TRUE,7.117706,-5.419601,0.000000,-0.004272,0.200928,0.000000,-0.076000,-0.010000,0.149000,-17.910000,-0.490000,2.580000,-16.473680,Hold,55.807861,208896.000000,Hold,-69756.000000,69632.000000,HighGoal,3202.500000,-3272.727273,Speed,3232.500000,-3272.727273,Speed,Off,Off0.000000,0,,,,
04:24:46.880 PM 03/19/2016,Teleop Enabled,10,FALSE,0,NO ERROR,-0.000000,-4.850989,0.000000,3.785824,TRUE,FALSE,TRUE,FALSE,FALSE,FALSE,Disabled,0.000000,0.000000,0.000000,TRUE,7.115631,-5.412399,0.000000,-0.061890,0.100571,0.000000,0.053000,-0.045000,0.117000,-16.990000,-0.710000,2.410000,-15.893802,Hold,55.797363,208896.000000,Hold,-69756.000000,69632.000000,HighGoal,3210.000000,-3272.727273,Speed,3255.000000,-3272.727273,Speed,Off,Off0.000000,0,,,,
04:24:46.981 PM 03/19/2016,Teleop Enabled,11,FALSE,0,NO ERROR,-0.000000,-4.850989,0.000000,3.785824,TRUE,FALSE,TRUE,FALSE,FALSE,FALSE,Disabled,0.000000,0.000000,0.000000,TRUE,7.112656,-5.410477,0.000000,-0.077744,0.005020,0.000000,0.029000,-0.051000,0.029000,-17.000000,-0.580000,2.330000,-15.883099,Hold,55.785156,208896.000000,Hold,-69752.000000,69632.000000,HighGoal,3210.000000,-3272.727273,Speed,3255.000000,-3272.727273,Speed,Off,Off0.000000,0,,,,
04:24:47.082 PM 03/19/2016,Teleop Enabled,11,FALSE,0,NO ERROR,-0.000000,-4.850989,0.000000,3.785824,TRUE,FALSE,TRUE,FALSE,FALSE,FALSE,Disabled,0.000000,0.000000,0.000000,TRUE,7.105377,-5.408646,0.000000,-0.139023,0.044861,0.000000,-0.205000,0.152000,-0.174000,-17.000000,-0.630000,2.340000,-15.885557,Hold,55.783691,208896.000000,Hold,-69752.000000,69632.000000,HighGoal,3225.000000,-3272.727273,Speed,3255.000000,-3272.727273,Speed,Off,Off0.000000,0,,,,
04:24:47.182 PM 03/19/2016,Teleop Enabled,11,FALSE,0,NO ERROR,-0.000000,-4.850989,0.000000,3.785824,TRUE,FALSE,TRUE,FALSE,FALSE,FALSE,Disabled,0.000000,0.000000,0.000000,TRUE,7.099030,-5.407227,0.000000,-0.163940,0.008987,0.000000,0.167000,-0.133000,0.220000,-17.000000,-0.640000,2.350000,-15.876455,Hold,55.781738,208896.000000,Hold,-69749.000000,69632.000000,HighGoal,3210.000000,-3272.727273,Speed,3247.500000,-3272.727273,Speed,Off,Off0.000000,0,,,,
04:24:47.283 PM 03/19/2016,Teleop Enabled,10,FALSE,0,NO ERROR,-0.000000,-4.850989,0.000000,3.785824,TRUE,FALSE,TRUE,FALSE,FALSE,FALSE,Disabled,0.000000,0.000000,0.000000,TRUE,7.090591,-5.408966,0.000000,-0.166718,-0.044037,0.000000,-0.171000,-0.088000,-0.158000,-17.000000,-0.640000,2.370000,-15.862750,Hold,55.781738,208896.000000,Hold,-69749.000000,69632.000000,HighGoal,3210.000000,-3272.727273,Speed,3255.000000,-3272.727273,Speed,Off,Off0.000000,0,,,,
04:24:47.383 PM 03/19/2016,Teleop Enabled,9,FALSE,0,NO ERROR,0.000000,-4.850989,-0.000000,3.785824,TRUE,FALSE,TRUE,TRUE,TRUE,FALSE,Disabled,0.000000,0.000000,0.000000,TRUE,7.081863,-5.409210,0.000000,-0.180496,0.037964,0.000000,0.010000,-0.285000,-0.103000,-16.990000,-0.690000,2.420000,-15.855923,Hold,55.781006,208896.000000,Hold,-69748.000000,69632.000000,HighGoal,3217.500000,-3272.727273,Speed,3255.000000,-3272.727273,Speed,Off,Off0.000000,0,,,,
04:24:47.485 PM 03/19/2016,Teleop Enabled,11,FALSE,0,NO ERROR,0.000000,-4.812489,-0.000000,3.772991,TRUE,FALSE,TRUE,TRUE,TRUE,FALSE,Enable,0.000000,-0.000000,-16.970000,TRUE,7.073669,-5.406433,0.000000,-0.146011,0.048569,0.000000,-0.080000,-0.348000,-0.138000,-16.950000,-0.680000,2.500000,-15.823037,Hold,55.781006,208896.000000,Hold,-69748.000000,69632.000000,HighGoal,3225.000000,-3272.727273,Speed,3262.500000,-3272.727273,Speed,Off,Off0.000000,0,,,,
04:24:47.585 PM 03/19/2016,Teleop Enabled,10,FALSE,0,NO ERROR,0.000000,-4.806072,-0.000000,3.772991,TRUE,FALSE,TRUE,TRUE,TRUE,FALSE,Suspended,0.000000,-0.000000,-16.970000,TRUE,7.067947,-5.405853,0.000000,-0.103134,0.008636,0.000000,0.086000,0.301000,0.051000,-16.950000,-0.620000,2.450000,-15.787162,Hold,55.781006,208896.000000,Hold,-69748.000000,69632.000000,HighGoal,3217.500000,-3272.727273,Speed,3262.500000,-3272.727273,Speed,Off,Off0.000000,0,,,,
04:24:47.686 PM 03/19/2016,Teleop Enabled,11,FALSE,0,NO ERROR,0.000000,-4.806072,-0.000000,3.772991,TRUE,FALSE,TRUE,TRUE,TRUE,FALSE,Suspended,0.000000,-0.000000,-16.970000,TRUE,7.062225,-5.401840,0.000000,-0.083801,0.098282,0.000000,-0.028000,-0.139000,0.021000,-16.950000,-0.650000,2.400000,-15.776214,Hold,55.781006,208896.000000,Hold,-69748.000000,69632.000000,HighGoal,3217.500000,-3272.727273,Speed,3262.500000,-3272.727273,Speed,Off,Off0.000000,0,,,,
04:24:47.786 PM 03/19/2016,Teleop Enabled,9,FALSE,0,NO ERROR,0.000000,-4.806072,-0.000000,3.772991,TRUE,FALSE,TRUE,TRUE,TRUE,FALSE,Suspended,0.490625,-0.000000,-16.970000,TRUE,7.062225,-5.401840,0.000000,-0.083801,0.098282,0.000000,-0.028000,-0.139000,0.021000,-16.950000,-0.650000,2.400000,-15.749758,Hold,55.781006,208896.000000,Hold,-69748.000000,69632.000000,HighGoal,3217.500000,-3272.727273,Speed,3262.500000,-3272.727273,Speed,Off,Off0.000000,0,,,,
04:24:47.889 PM 03/19/2016,Teleop Enabled,10,FALSE,0,NO ERROR,0.000000,-4.806072,-0.000000,3.772991,TRUE,FALSE,TRUE,TRUE,TRUE,FALSE,Enable,0.490625,-20.115625,3.175625,TRUE,7.059448,-5.399384,0.000000,-0.025665,0.005493,0.000000,0.067000,0.112000,0.179000,-16.940000,-0.660000,2.400000,-15.759329,Hold,55.781006,208896.000000,Hold,-69748.000000,69632.000000,HighGoal,3217.500000,-3272.727273,Speed,3262.500000,-3272.727273,Speed,Off,Off0.000000,0,,,,
04:24:47.988 PM 03/19/2016,Teleop Enabled,10,FALSE,0,NO ERROR,-0.469582,-4.671322,-0.469582,3.772991,TRUE,FALSE,TRUE,TRUE,TRUE,FALSE,PID,0.490625,-20.115625,3.175625,TRUE,7.058121,-5.388885,0.000000,0.046021,0.069183,0.000000,0.022000,-0.153000,-0.077000,-16.940000,-0.680000,2.440000,-15.754698,Hold,55.781006,208896.000000,Hold,-69748.000000,69632.000000,HighGoal,3210.000000,-3272.727273,Speed,3262.500000,-3272.727273,Speed,Off,Off0.000000,0,,,,
04:24:48.089 PM 03/19/2016,Teleop Enabled,10,FALSE,0,NO ERROR,-0.469582,-3.792241,-0.469582,2.598744,TRUE,FALSE,TRUE,TRUE,TRUE,FALSE,PID,0.490625,-20.115625,3.175625,TRUE,7.061020,-5.385971,0.000000,0.065048,0.122604,0.000000,0.118000,-0.050000,0.208000,-16.120000,-0.230000,2.950000,-14.304424,Hold,55.768555,208896.000000,Hold,-69748.000000,69632.000000,HighGoal,3180.000000,-3272.727273,Speed,3247.500000,-3272.727273,Speed,Off,Off0.000000,0,,,,
