Time,Robot Mode,Loop Time,Error Status,Error Code,Error Source,Left Motor Output,Left Motor Encoder,Right Motor Output,Right Motor Encoder,Is Level,Is Stalled,Ball Detector Photoeye,Vision Enabled,Vision Teleop Control,Vision Auto Control,Vision Current State,Vision X Output,Vision NavX Error,Vision NavX Target,NavX Connection Status,NavX Displacement X,NavX Displacement Y,NavX Displacement Z,NavX Velocity X,NavX Velocity Y,NavX Velocity Z,NavX Acceleration X,NavX Acceleration Y,NavX Acceleration Z,NavX Pitch,NavX Yaw,NavX Roll,Gyro Angle,Roller Arm State,Roller Arm Actual,Roller Arm Desired,Shooter Arm State,Shooter Arm Actual,Shooter Arm Desired,Shooter State,Actual RPM Left,Desired RPM Left,Control Mode Left,Actual RPM Right,Desired RPM Right,Scaler Motor Output,Auto To Run,Auto Current File,Auto File Status,Auto Current Command,Auto Trimmed Command
08:01:52.424 PM 03/17/2016,Teleop Enabled,9,FALSE,0,NO ERROR,-0.000000,0.000000,0.000000,0.000000,TRUE,FALSE,FALSE,FALSE,FALSE,FALSE,Disabled,0.000000,0.000000,0.000000,TRUE,0.829498,0.045380,0.000000,0.000000,0.000000,0.000000,-0.004000,-0.005000,0.010000,-0.070000,-0.210000,1.260000,-0.000985,ResetBack,0.939697,-0.200000,ResetBack,-217.000000,-0.300000,Empty,0.000000,0.000000,Speed,0.000000,0.000000,Speed,On,Off0.000000,0,,,,
08:01:52.526 PM 03/17/2016,Teleop Enabled,10,FALSE,0,NO ERROR,-0.000000,0.000000,0.000000,0.000000,TRUE,FALSE,FALSE,FALSE,FALSE,FALSE,Disabled,0.000000,0.000000,0.000000,TRUE,0.829498,0.045380,0.000000,0.000000,0.000000,0.000000,0.002000,0.000000,0.026000,0.000000,-0.210000,1.250000,0.010968,ResetBack,0.132568,-0.200000,ResetBack,-50.000000,-0.300000,Suck,0.000000,-2181.818182,Speed,0.000000,-2181.818182,Speed,On,Off0.000000,0,,,,
08:01:52.627 PM 03/17/2016,Teleop Enabled,9,FALSE,0,NO ERROR,-0.000000,0.000000,0.000000,0.000000,TRUE,FALSE,FALSE,FALSE,FALSE,FALSE,Disabled,0.000000,0.000000,0.000000,TRUE,0.829559,0.045380,0.000000,0.006149,0.000000,0.000000,0.043000,-0.029000,-0.019000,0.000000,-0.210000,1.250000,0.010748,ResetBack,0.046143,-0.200000,ResetBack,26.000000,-0.300000,Suck,9.887695,-2181.818182,Speed,9.887695,-2181.818182,Speed,On,Off0.000000,0,,,,
08:01:52.728 PM 03/17/2016,Teleop Enabled,10,FALSE,0,NO ERROR,-0.000000,0.000000,0.000000,0.000000,TRUE,FALSE,FALSE,FALSE,FALSE,FALSE,Disabled,0.000000,0.000000,0.000000,TRUE,0.831055,0.044830,0.000000,0.047821,-0.020660,0.000000,-0.023000,-0.045000,-0.055000,0.000000,-0.180000,1.270000,0.024749,Reset,0.046143,0.000000,ResetBack,26.000000,-0.300000,Suck,121.948242,-2181.818182,Speed,146.118164,-2181.818182,Speed,On,Off0.000000,0,,,,
08:01:52.828 PM 03/17/2016,Teleop Enabled,10,FALSE,0,NO ERROR,-0.000000,0.000000,0.000000,0.000000,TRUE,FALSE,FALSE,FALSE,FALSE,FALSE,Disabled,0.000000,0.000000,0.000000,TRUE,0.832794,0.043167,0.000000,0.034683,-0.039169,0.000000,0.167000,-0.065000,0.000000,0.000000,-0.270000,1.240000,0.005797,Hold,0.849365,0.000000,ResetBack,26.000000,-0.300000,Suck,240.600586,-2181.818182,Speed,239.501953,-2181.818182,Speed,On,Off0.000000,0,,,,
08:01:52.928 PM 03/17/2016,Teleop Enabled,10,FALSE,0,NO ERROR,-0.000000,0.000000,0.000000,0.000000,TRUE,FALSE,FALSE,FALSE,FALSE,FALSE,Disabled,0.000000,0.000000,0.000000,TRUE,0.837280,0.041183,0.000000,0.109024,-0.032928,0.000000,0.036000,-0.056000,-0.038000,0.000000,-0.170000,1.290000,-0.014600,Hold,1.217529,0.000000,ResetBack,26.000000,-0.300000,Suck,333.984375,-2181.818182,Speed,316.406250,-2181.818182,Speed,On,Off0.000000,0,,,,
08:01:53.028 PM 03/17/2016,Teleop Enabled,9,FALSE,0,NO ERROR,-0.000000,0.000000,0.000000,0.000000,TRUE,FALSE,FALSE,FALSE,FALSE,FALSE,Disabled,0.000000,0.000000,0.000000,TRUE,0.841095,0.037445,0.000000,0.006119,-0.083786,0.000000,-0.003000,-0.032000,-0.295000,0.000000,-0.160000,1.270000,-0.014893,Hold,1.216797,0.000000,ResetBack,26.000000,-0.300000,Suck,393.310547,-2181.818182,Speed,394.409180,-2181.818182,Speed,On,Off0.000000,0,,,,
08:01:53.128 PM 03/17/2016,Teleop Enabled,10,FALSE,0,NO ERROR,-0.000000,0.000000,0.000000,0.000000,TRUE,FALSE,FALSE,FALSE,FALSE,FALSE,Disabled,0.000000,0.000000,0.000000,TRUE,0.841827,0.032135,0.000000,0.034790,-0.086609,0.000000,-0.129000,0.421000,0.274000,0.000000,-0.090000,1.210000,-0.003931,Hold,1.216309,0.000000,ResetBack,26.000000,-0.300000,Suck,452.636719,-2181.818182,Speed,457.031250,-2181.818182,Speed,On,Off0.000000,0,,,,
08:01:53.228 PM 03/17/2016,Teleop Enabled,12,FALSE,0,NO ERROR,-0.000000,0.000000,0.000000,0.000000,TRUE,FALSE,FALSE,FALSE,FALSE,FALSE,Disabled,0.000000,0.000000,0.000000,TRUE,0.843491,0.029221,0.000000,0.048599,-0.060394,0.000000,0.075000,-0.090000,0.129000,0.010000,-0.110000,1.270000,-0.000864,Hold,1.215576,0.000000,ResetBack,27.000000,-0.300000,Suck,498.779297,-2181.818182,Speed,506.469727,-2181.818182,Speed,On,Off0.000000,0,,,,
08:01:53.328 PM 03/17/2016,Teleop Enabled,10,FALSE,0,NO ERROR,-0.000000,0.000000,0.000000,0.000000,TRUE,FALSE,FALSE,FALSE,FALSE,FALSE,Disabled,0.000000,0.000000,0.000000,TRUE,0.845718,0.026260,0.000000,0.048782,-0.062881,0.000000,0.068000,0.032000,0.000000,0.010000,-0.090000,1.270000,0.002434,Hold,1.211182,0.000000,ResetBack,29.000000,-0.300000,Suck,536.132812,-2181.818182,Speed,546.020508,-2181.818182,Speed,On,Off0.000000,0,,,,
08:01:53.428 PM 03/17/2016,Teleop Enabled,12,FALSE,0,NO ERROR,-0.000000,0.000000,0.000000,0.000000,TRUE,FALSE,FALSE,FALSE,FALSE,FALSE,Disabled,0.000000,0.000000,0.000000,TRUE,0.848999,0.023605,0.000000,0.083038,-0.046616,0.000000,-0.076000,-0.003000,0.034000,0.010000,-0.050000,1.310000,0.013016,Hold,1.203125,0.000000,ResetBack,31.000000,-0.300000,Suck,565.795898,-2181.818182,Speed,571.289062,-2181.818182,Speed,On,Off0.000000,0,,,,
08:01:53.528 PM 03/17/2016,Teleop Enabled,10,FALSE,0,NO ERROR,-0.000000,0.000000,0.000000,0.000000,TRUE,FALSE,FALSE,FALSE,FALSE,FALSE,Disabled,0.000000,0.000000,0.000000,TRUE,0.853027,0.020401,0.000000,0.053558,-0.031830,0.000000,-0.055000,-0.024000,-0.015000,0.010000,-0.110000,1.260000,0.015003,Hold,1.202881,0.000000,ResetBack,31.000000,-0.300000,Suck,584.472656,-2181.818182,Speed,597.656250,-2181.818182,Speed,On,Off0.000000,0,,,,
08:01:53.628 PM 03/17/2016,Teleop Enabled,10,FALSE,0,NO ERROR,-0.000000,0.000000,0.000000,0.000000,TRUE,FALSE,FALSE,FALSE,FALSE,FALSE,Disabled,0.000000,0.000000,0.000000,TRUE,0.855408,0.017227,0.000000,0.059601,-0.086990,0.000000,0.087000,0.000000,0.007000,0.010000,-0.110000,1.280000,0.041800,Hold,1.202393,0.000000,Reset,32.000000,2.000000,Suck,604.248047,-2181.818182,Speed,619.628906,-2181.818182,Speed,On,Off0.000000,0,,,,
08:01:53.728 PM 03/17/2016,Teleop Enabled,9,FALSE,0,NO ERROR,-0.000000,0.000000,0.000000,0.000000,TRUE,FALSE,FALSE,FALSE,FALSE,FALSE,Disabled,0.000000,0.000000,0.000000,TRUE,0.859375,0.012543,0.000000,0.060364,-0.112396,0.000000,-0.066000,-0.041000,-0.002000,0.000000,-0.130000,1.300000,0.057226,Hold,1.201904,0.000000,Hold,-290.000000,2.000000,Suck,619.628906,-2181.818182,Speed,636.108398,-2181.818182,Speed,On,Off0.000000,0,,,,
08:01:53.828 PM 03/17/2016,Teleop Enabled,10,FALSE,0,NO ERROR,-0.000000,0.000000,0.000000,0.000000,TRUE,FALSE,FALSE,FALSE,FALSE,FALSE,Disabled,0.000000,0.000000,0.000000,TRUE,0.860031,0.003632,0.000000,-0.015060,-0.225266,0.000000,-0.013000,-0.095000,-0.133000,0.000000,-0.100000,1.300000,0.071736,Hold,1.201660,0.000000,Hold,-233.000000,2.000000,Suck,632.812500,-2181.818182,Speed,649.291992,-2181.818182,Speed,On,Off0.000000,0,,,,
08:01:53.929 PM 03/17/2016,Teleop Enabled,9,FALSE,0,NO ERROR,-0.000000,0.000000,0.000000,0.000000,TRUE,FALSE,FALSE,FALSE,FALSE,FALSE,Disabled,0.000000,0.000000,0.000000,TRUE,0.858170,-0.011093,0.000000,-0.024170,-0.326065,0.000000,0.142000,0.076000,-0.060000,0.000000,-0.040000,1.270000,0.060166,Hold,1.201416,0.000000,Hold,-233.000000,2.000000,Suck,643.798828,-2181.818182,Speed,660.278320,-2181.818182,Speed,On,Off0.000000,0,,,,
08:01:54.029 PM 03/17/2016,Teleop Enabled,9,FALSE,0,NO ERROR,-0.000000,0.000000,0.000000,0.000000,TRUE,FALSE,FALSE,FALSE,FALSE,FALSE,Disabled,0.000000,0.000000,0.000000,TRUE,0.858170,-0.025864,0.000000,-0.000351,-0.272278,0.000000,-0.031000,-0.010000,-0.001000,0.000000,-0.060000,1.210000,0.067409,Hold,1.200928,0.000000,Hold,-233.000000,2.000000,Suck,652.587891,-2181.818182,Speed,666.870117,-2181.818182,Speed,On,Off0.000000,0,,,,
08:01:54.129 PM 03/17/2016,Teleop Enabled,10,FALSE,0,NO ERROR,-0.000000,0.000000,0.000000,0.000000,TRUE,FALSE,FALSE,FALSE,FALSE,FALSE,Disabled,0.000000,0.000000,0.000000,TRUE,0.856659,-0.039642,0.000000,-0.041290,-0.306900,0.000000,0.016000,0.064000,0.082000,0.000000,-0.110000,1.240000,0.084298,Hold,1.199707,0.000000,Hold,-233.000000,2.000000,Suck,659.179688,-2181.818182,Speed,674.560547,-2181.818182,Speed,On,Off0.000000,0,,,,
08:01:54.229 PM 03/17/2016,Teleop Enabled,11,FALSE,0,NO ERROR,-0.000000,0.000000,0.000000,0.000000,TRUE,FALSE,FALSE,FALSE,FALSE,FALSE,Disabled,0.000000,0.000000,0.000000,TRUE,0.856949,-0.053909,0.000000,0.011719,-0.272949,0.000000,-0.067000,-0.124000,-0.031000,0.000000,-0.070000,1.270000,0.059966,Hold,1.199219,0.000000,Hold,-233.000000,2.000000,Suck,663.574219,-2181.818182,Speed,680.053711,-2181.818182,Speed,On,Off0.000000,0,,,,
08:01:54.329 PM 03/17/2016,Teleop Enabled,12,FALSE,0,NO ERROR,-0.000000,0.000000,0.000000,0.000000,TRUE,FALSE,FALSE,FALSE,FALSE,FALSE,Disabled,0.000000,0.000000,0.000000,TRUE,0.856384,-0.069031,0.000000,0.019821,-0.293884,0.000000,-0.004000,0.087000,0.202000,0.000000,-0.110000,1.230000,0.050217,Hold,1.195557,0.000000,Hold,-233.000000,2.000000,Suck,667.968750,-2181.818182,Speed,684.448242,-2181.818182,Speed,On,Off0.000000,0,,,,
08:01:54.429 PM 03/17/2016,Teleop Enabled,10,FALSE,0,NO ERROR,-0.000000,0.000000,0.000000,0.000000,TRUE,FALSE,FALSE,FALSE,FALSE,FALSE,Disabled,0.000000,0.000000,0.000000,TRUE,0.855850,-0.085861,0.000000,-0.034561,-0.284958,0.000000,0.094000,0.024000,0.150000,0.000000,-0.150000,1.280000,0.038567,Hold,1.195068,0.000000,Hold,-233.000000,2.000000,Suck,672.363281,-2181.818182,Speed,688.842773,-2181.818182,Speed,On,Off0.000000,0,,,,
08:01:54.529 PM 03/17/2016,Teleop Enabled,10,FALSE,0,NO ERROR,-0.000000,0.000000,0.000000,0.000000,TRUE,FALSE,FALSE,FALSE,FALSE,FALSE,Disabled,0.000000,0.000000,0.000000,TRUE,0.856018,-0.098907,0.000000,0.001694,-0.264328,0.000000,0.107000,-0.028000,-0.374000,0.000000,-0.110000,1.300000,0.055642,Hold,1.194824,0.000000,Hold,-233.000000,2.000000,Suck,676.757812,-2181.818182,Speed,691.040039,-2181.818182,Speed,On,Off0.000000,0,,,,
08:01:54.630 PM 03/17/2016,Teleop Enabled,10,FALSE,0,NO ERROR,-0.000000,0.000000,0.000000,0.000000,TRUE,FALSE,FALSE,FALSE,FALSE,FALSE,Disabled,0.000000,0.000000,0.000000,TRUE,0.855652,-0.111771,0.000000,-0.035461,-0.274612,0.000000,0.142000,0.121000,0.124000,0.000000,-0.110000,1.290000,0.048272,Hold,1.194580,0.000000,Hold,-233.000000,2.000000,Suck,678.955078,-2181.818182,Speed,694.335938,-2181.818182,Speed,On,Off0.000000,0,,,,
08:01:54.731 PM 03/17/2016,Teleop Enabled,10,FALSE,0,NO ERROR,-0.000000,0.000000,0.000000,0.000000,TRUE,FALSE,FALSE,FALSE,FALSE,FALSE,Disabled,0.000000,0.000000,0.000000,TRUE,0.855270,-0.124557,0.000000,-0.026917,-0.254044,0.000000,-0.265000,-0.140000,0.017000,0.000000,-0.110000,1.260000,0.054324,Hold,1.194336,0.000000,Hold,-233.000000,2.000000,Suck,680.053711,-2181.818182,Speed,695.434570,-2181.818182,Speed,On,Off0.000000,0,,,,
08:01:54.832 PM 03/17/2016,Teleop Enabled,10,FALSE,0,NO ERROR,-0.000000,0.000000,0.000000,0.000000,TRUE,FALSE,FALSE,FALSE,FALSE,FALSE,Disabled,0.000000,0.000000,0.000000,TRUE,0.854187,-0.137329,0.000000,0.022858,-0.231659,0.000000,-0.155000,-0.173000,-0.250000,0.000000,-0.130000,1.270000,0.039596,Hold,1.183838,0.000000,Hold,-233.000000,2.000000,Suck,682.250977,-2181.818182,Speed,697.631836,-2181.818182,Speed,On,Off0.000000,0,,,,
08:01:54.933 PM 03/17/2016,Teleop Enabled,10,FALSE,0,NO ERROR,-0.000000,0.000000,0.000000,0.000000,TRUE,FALSE,FALSE,FALSE,FALSE,FALSE,Disabled,0.000000,0.000000,0.000000,TRUE,0.853470,-0.150284,0.000000,0.000000,-0.254608,0.000000,0.008000,-0.028000,-0.113000,0.000000,-0.110000,1.280000,0.027812,Hold,1.158203,0.000000,Hold,-233.000000,2.000000,Suck,682.250977,-2181.818182,Speed,698.730469,-2181.818182,Speed,On,Off0.000000,0,,,,
08:01:55.034 PM 03/17/2016,Teleop Enabled,10,FALSE,0,NO ERROR,-0.000000,0.000000,0.000000,0.000000,TRUE,FALSE,FALSE,FALSE,FALSE,FALSE,Disabled,0.000000,0.000000,0.000000,TRUE,0.853928,-0.163589,0.000000,0.017532,-0.263474,0.000000,0.000000,0.039000,-0.125000,0.000000,-0.120000,1.260000,0.026821,Hold,1.117432,0.000000,Hold,-233.000000,2.000000,Suck,683.349609,-2181.818182,Speed,700.927734,-2181.818182,Speed,On,Off0.000000,0,,,,
08:01:55.135 PM 03/17/2016,Teleop Enabled,10,FALSE,0,NO ERROR,-0.000000,0.000000,0.000000,0.000000,TRUE,FALSE,FALSE,FALSE,FALSE,FALSE,Disabled,0.000000,0.000000,0.000000,TRUE,0.854706,-0.176987,0.000000,0.070740,-0.252106,0.000000,-0.140000,-0.096000,-0.200000,0.000000,-0.120000,1.290000,0.022683,Hold,0.984375,0.000000,Hold,-233.000000,2.000000,Suck,684.448242,-2181.818182,Speed,702.026367,-2181.818182,Speed,On,Off0.000000,0,,,,
08:01:55.235 PM 03/17/2016,Teleop Enabled,10,FALSE,0,NO ERROR,-0.000000,0.000000,0.000000,0.000000,TRUE,FALSE,FALSE,FALSE,FALSE,FALSE,Disabled,0.000000,0.000000,0.000000,TRUE,0.855133,-0.190201,0.000000,0.005630,-0.255478,0.000000,0.024000,-0.082000,-0.264000,0.000000,-0.130000,1.250000,0.017278,Hold,0.941650,0.000000,Hold,-233.000000,2.000000,Suck,684.448242,-2181.818182,Speed,704.223633,-2181.818182,Speed,On,Off0.000000,0,,,,
08:01:55.335 PM 03/17/2016,Teleop Enabled,10,FALSE,0,NO ERROR,-0.000000,0.000000,0.000000,0.000000,TRUE,FALSE,FALSE,FALSE,FALSE,FALSE,Disabled,0.000000,0.000000,0.000000,TRUE,0.855194,-0.202774,0.000000,-0.008179,-0.237625,0.000000,-0.078000,0.006000,-0.088000,0.000000,-0.100000,1.280000,0.006248,Hold,0.941406,0.000000,Hold,-233.000000,2.000000,Suck,684.448242,-2181.818182,Speed,706.420898,-2181.818182,Speed,On,Off0.000000,0,,,,
08:01:55.436 PM 03/17/2016,Teleop Enabled,11,FALSE,0,NO ERROR,-0.000000,0.000000,0.000000,0.000000,TRUE,FALSE,FALSE,FALSE,FALSE,FALSE,Disabled,0.000000,0.000000,0.000000,TRUE,0.855423,-0.202667,0.000000,0.037491,0.000168,0.000000,-0.212000,-0.089000,-0.058000,0.000000,-0.100000,1.270000,-0.005205,Hold,0.941406,0.000000,Hold,-233.000000,2.000000,Suck,684.448242,-2181.818182,Speed,708.618164,-2181.818182,Speed,On,Off0.000000,0,,,,
08:01:55.540 PM 03/17/2016,Teleop Enabled,10,FALSE,0,NO ERROR,-0.000000,0.000000,0.000000,0.000000,TRUE,FALSE,FALSE,FALSE,FALSE,FALSE,Disabled,0.000000,0.000000,0.000000,TRUE,0.855148,-0.204453,0.000000,0.023468,-0.038284,0.000000,0.030000,0.000000,-0.147000,0.000000,-0.130000,1.250000,-0.027540,Hold,0.941406,0.000000,Hold,-233.000000,2.000000,Suck,684.448242,-2181.818182,Speed,710.815430,-2181.818182,Speed,On,Off0.000000,0,,,,
08:01:55.640 PM 03/17/2016,Teleop Enabled,10,FALSE,0,NO ERROR,-0.000000,0.000000,0.000000,0.000000,TRUE,FALSE,FALSE,FALSE,FALSE,FALSE,Disabled,0.000000,0.000000,0.000000,TRUE,0.855530,-0.208160,0.000000,-0.030914,-0.076813,0.000000,0.160000,0.088000,-0.077000,0.000000,-0.130000,1.250000,-0.027571,Hold,0.941406,0.000000,Hold,-233.000000,2.000000,Suck,684.448242,-2181.818182,Speed,713.012695,-2181.818182,Speed,On,Off0.000000,0,,,,
08:01:55.740 PM 03/17/2016,Teleop Enabled,10,FALSE,0,NO ERROR,-0.000000,0.000000,0.000000,0.000000,TRUE,FALSE,FALSE,FALSE,FALSE,FALSE,Disabled,0.000000,0.000000,0.000000,TRUE,0.856033,-0.210663,0.000000,-0.006760,-0.044510,0.000000,0.003000,0.094000,0.161000,0.000000,-0.100000,1.250000,-0.010131,Hold,0.941406,0.000000,Hold,-233.000000,2.000000,Suck,684.448242,-2181.818182,Speed,715.209961,-2181.818182,Speed,On,Off0.000000,0,,,,
08:01:55.843 PM 03/17/2016,Teleop Enabled,11,FALSE,0,NO ERROR,-0.000000,0.000000,0.000000,0.000000,TRUE,FALSE,FALSE,FALSE,FALSE,FALSE,Disabled,0.000000,0.000000,0.000000,TRUE,0.856552,-0.212051,0.000000,0.057312,-0.008972,0.000000,-0.237000,-0.139000,-0.138000,0.000000,-0.120000,1.260000,-0.013040,Hold,0.941406,0.000000,Hold,-233.000000,2.000000,Suck,684.448242,-2181.818182,Speed,716.308594,-2181.818182,Speed,On,Off0.000000,0,,,,
08:01:55.943 PM 03/17/2016,Teleop Enabled,9,FALSE,0,NO ERROR,-0.000000,0.000000,0.000000,0.000000,TRUE,FALSE,FALSE,FALSE,FALSE,FALSE,Disabled,0.000000,0.000000,0.000000,TRUE,0.856476,-0.213226,0.000000,0.004868,-0.022308,0.000000,0.013000,0.003000,-0.218000,0.000000,-0.120000,1.240000,-0.012916,Hold,0.941406,0.000000,Hold,-233.000000,2.000000,Suck,685.546875,-2181.818182,Speed,717.407227,-2181.818182,Speed,On,Off0.000000,0,,,,
08:01:56.044 PM 03/17/2016,Teleop Enabled,9,FALSE,0,NO ERROR,-0.000000,0.000000,0.000000,0.000000,TRUE,FALSE,FALSE,FALSE,FALSE,FALSE,Disabled,0.000000,0.000000,0.000000,TRUE,0.856506,-0.214417,0.000000,-0.040054,-0.033844,0.000000,0.182000,0.026000,0.064000,-0.010000,-0.140000,1.240000,-0.031434,Hold,0.941406,0.000000,Hold,-233.000000,2.000000,Suck,685.546875,-2181.818182,Speed,718.505859,-2181.818182,Speed,On,Off0.000000,0,,,,
08:01:56.145 PM 03/17/2016,Teleop Enabled,9,FALSE,0,NO ERROR,-0.000000,0.000000,0.000000,0.000000,TRUE,FALSE,FALSE,FALSE,FALSE,FALSE,Disabled,0.000000,0.000000,0.000000,TRUE,0.857422,-0.215851,0.000000,0.017456,-0.030334,0.000000,0.118000,-0.003000,-0.101000,-0.010000,-0.110000,1.240000,-0.010300,Hold,0.941406,0.000000,Hold,-233.000000,2.000000,Suck,686.645508,-2181.818182,Speed,719.604492,-2181.818182,Speed,On,Off0.000000,0,,,,
08:01:56.246 PM 03/17/2016,Teleop Enabled,11,FALSE,0,NO ERROR,-0.000000,0.000000,0.000000,0.000000,TRUE,FALSE,FALSE,FALSE,FALSE,FALSE,Disabled,0.000000,0.000000,0.000000,TRUE,0.859070,-0.217529,0.000000,0.092270,-0.019989,0.000000,0.033000,0.035000,0.180000,0.000000,-0.120000,1.240000,-0.012011,Hold,0.941650,0.000000,Hold,-233.000000,2.000000,Suck,686.645508,-2181.818182,Speed,720.703125,-2181.818182,Speed,On,Off0.000000,0,,,,
08:01:56.347 PM 03/17/2016,Teleop Enabled,10,FALSE,0,NO ERROR,-0.000000,0.000000,0.000000,0.000000,TRUE,FALSE,FALSE,FALSE,FALSE,FALSE,Disabled,0.000000,0.000000,0.000000,TRUE,0.861038,-0.218719,0.000000,0.037552,-0.015656,0.000000,0.105000,0.082000,-0.096000,0.000000,-0.170000,1.230000,-0.021657,Hold,0.941406,0.000000,Hold,-233.000000,2.000000,Suck,686.645508,-2181.818182,Speed,721.801758,-2181.818182,Speed,On,Off0.000000,0,,,,
08:01:56.447 PM 03/17/2016,Teleop Enabled,11,FALSE,0,NO ERROR,-0.000000,0.000000,0.000000,0.000000,TRUE,FALSE,FALSE,FALSE,FALSE,FALSE,Disabled,0.000000,0.000000,0.000000,TRUE,0.862503,-0.219452,0.000000,-0.029663,-0.027435,0.000000,0.264000,-0.008000,-0.032000,0.000000,-0.200000,1.220000,-0.025045,Hold,0.941162,0.000000,Hold,-232.000000,2.000000,Suck,686.645508,-2181.818182,Speed,721.801758,-2181.818182,Speed,On,Off0.000000,0,,,,
08:01:56.550 PM 03/17/2016,Teleop Enabled,10,FALSE,0,NO ERROR,-0.000000,0.000000,0.000000,0.000000,TRUE,FALSE,FALSE,FALSE,FALSE,FALSE,Disabled,0.000000,0.000000,0.000000,TRUE,0.862350,-0.220901,0.000000,-0.000854,-0.035263,0.000000,-0.208000,-0.129000,-0.019000,0.000000,-0.200000,1.190000,-0.016793,Hold,0.941406,0.000000,Hold,-232.000000,2.000000,Suck,686.645508,-2181.818182,Speed,721.801758,-2181.818182,Speed,On,Off0.000000,0,,,,
08:01:56.647 PM 03/17/2016,Teleop Enabled,11,FALSE,0,NO ERROR,-0.000000,0.000000,0.000000,0.000000,TRUE,FALSE,FALSE,FALSE,FALSE,FALSE,Disabled,0.000000,0.000000,0.000000,TRUE,0.861191,-0.224197,0.000000,-0.023712,-0.066574,0.000000,-0.283000,-0.113000,-0.035000,-0.010000,-0.150000,1.240000,-0.031486,Hold,0.941162,0.000000,Hold,-232.000000,2.000000,Suck,686.645508,-2181.818182,Speed,722.900391,-2181.818182,Speed,On,Off0.000000,0,,,,
08:01:56.748 PM 03/17/2016,Teleop Enabled,10,FALSE,0,NO ERROR,-0.000000,0.000000,0.000000,0.000000,TRUE,FALSE,FALSE,FALSE,FALSE,FALSE,Disabled,0.000000,0.000000,0.000000,TRUE,0.858322,-0.227097,0.000000,-0.045151,-0.040710,0.000000,0.210000,-0.059000,0.032000,0.000000,-0.240000,1.180000,-0.031276,Hold,0.941162,0.000000,Hold,-232.000000,2.000000,Suck,686.645508,-2181.818182,Speed,722.900391,-2181.818182,Speed,On,Off0.000000,0,,,,
08:01:56.849 PM 03/17/2016,Teleop Enabled,9,FALSE,0,NO ERROR,-0.000000,0.000000,0.000000,0.000000,TRUE,FALSE,FALSE,FALSE,FALSE,FALSE,Disabled,0.000000,0.000000,0.000000,TRUE,0.856445,-0.228653,0.000000,-0.055573,-0.026825,0.000000,-0.079000,-0.080000,-0.202000,-0.010000,-0.200000,1.210000,-0.045666,Hold,0.941162,0.000000,Hold,-232.000000,2.000000,Suck,686.645508,-2181.818182,Speed,722.900391,-2181.818182,Speed,On,Off0.000000,0,,,,
08:01:56.949 PM 03/17/2016,Teleop Enabled,11,FALSE,0,NO ERROR,-0.000000,0.000000,0.000000,0.000000,TRUE,FALSE,FALSE,FALSE,FALSE,FALSE,Disabled,0.000000,0.000000,0.000000,TRUE,0.853714,-0.230270,0.000000,-0.087936,-0.045166,0.000000,-0.034000,0.018000,0.128000,0.000000,-0.180000,1.250000,-0.026274,Hold,0.941406,0.000000,Hold,-232.000000,2.000000,Suck,686.645508,-2181.818182,Speed,723.999023,-2181.818182,Speed,On,Off0.000000,0,,,,
08:01:57.049 PM 03/17/2016,Teleop Enabled,11,FALSE,0,NO ERROR,-0.000000,0.000000,0.000000,0.000000,TRUE,FALSE,FALSE,FALSE,FALSE,FALSE,Disabled,0.000000,0.000000,0.000000,TRUE,0.850021,-0.230331,0.000000,-0.067337,-0.008652,0.000000,-0.164000,0.009000,0.291000,0.000000,-0.160000,1.270000,-0.038564,Hold,0.941406,0.000000,Hold,-232.000000,2.000000,Suck,686.645508,-2181.818182,Speed,723.999023,-2181.818182,Speed,On,Off0.000000,0,,,,
08:01:57.150 PM 03/17/2016,Teleop Enabled,10,FALSE,0,NO ERROR,-0.000000,0.000000,0.000000,0.000000,TRUE,FALSE,FALSE,FALSE,FALSE,FALSE,Disabled,0.000000,0.000000,0.000000,TRUE,0.844421,-0.230927,0.000000,-0.080978,-0.001282,0.000000,0.096000,-0.093000,0.097000,-0.010000,-0.180000,1.300000,-0.053518,Hold,0.941406,0.000000,Hold,-232.000000,2.000000,Suck,686.645508,-2181.818182,Speed,725.097656,-2181.818182,Speed,On,Off0.000000,0,,,,
08:01:57.252 PM 03/17/2016,Teleop Enabled,10,FALSE,0,NO ERROR,-0.000000,0.000000,0.000000,0.000000,TRUE,FALSE,FALSE,FALSE,FALSE,FALSE,Disabled,0.000000,0.000000,0.000000,TRUE,0.838394,-0.230865,0.000000,-0.157837,0.002701,0.000000,0.407000,0.084000,-0.027000,-0.010000,-0.160000,1.270000,-0.082415,Hold,0.941162,0.000000,Hold,-232.000000,2.000000,Suck,686.645508,-2181.818182,Speed,725.097656,-2181.818182,Speed,On,Off0.000000,0,,,,
08:01:57.352 PM 03/17/2016,Teleop Enabled,11,FALSE,0,NO ERROR,-0.000000,0.000000,0.000000,0.000000,TRUE,FALSE,FALSE,FALSE,FALSE,FALSE,Disabled,0.000000,0.000000,0.000000,TRUE,0.833069,-0.230423,0.000000,-0.134659,-0.003998,0.000000,0.109000,0.064000,0.201000,-0.010000,-0.190000,1.280000,-0.098533,Hold,0.941406,0.000000,Hold,-232.000000,2.000000,Suck,687.744141,-2181.818182,Speed,725.097656,-2181.818182,Speed,On,Off0.000000,0,,,,
08:01:57.453 PM 03/17/2016,Teleop Enabled,9,FALSE,0,NO ERROR,-0.000000,0.000000,0.000000,0.000000,TRUE,FALSE,FALSE,FALSE,FALSE,FALSE,Disabled,0.000000,0.000000,0.000000,TRUE,0.827362,-0.230789,0.000000,-0.083603,-0.012344,0.000000,-0.457000,-0.045000,-0.105000,-0.010000,-0.150000,1.270000,-0.081330,Hold,0.941406,0.000000,Hold,-232.000000,2.000000,Suck,687.744141,-2181.818182,Speed,726.196289,-2181.818182,Speed,On,Off0.000000,0,,,,
08:01:57.554 PM 03/17/2016,Teleop Enabled,10,FALSE,0,NO ERROR,-0.000000,0.000000,0.000000,0.000000,TRUE,FALSE,FALSE,FALSE,FALSE,FALSE,Disabled,0.000000,0.000000,0.000000,TRUE,0.820297,-0.231750,0.000000,-0.139053,0.000000,0.000000,0.075000,-0.006000,0.241000,-0.010000,-0.200000,1.290000,-0.085272,Hold,0.941406,0.000000,Hold,-232.000000,2.000000,Suck,687.744141,-2181.818182,Speed,726.196289,-2181.818182,Speed,On,Off0.000000,0,,,,
08:01:57.654 PM 03/17/2016,Teleop Enabled,10,FALSE,0,NO ERROR,-0.000000,0.000000,0.000000,0.000000,TRUE,FALSE,FALSE,FALSE,FALSE,FALSE,Disabled,0.000000,0.000000,0.000000,TRUE,0.812195,-0.231873,0.000000,-0.185150,0.008698,0.000000,0.135000,-0.011000,0.069000,-0.020000,-0.220000,1.280000,-0.074597,Hold,0.941406,0.000000,Hold,-232.000000,2.000000,Suck,687.744141,-2181.818182,Speed,726.196289,-2181.818182,Speed,On,Off0.000000,0,,,,
08:01:57.754 PM 03/17/2016,Teleop Enabled,10,FALSE,0,NO ERROR,-0.000000,0.000000,0.000000,0.000000,TRUE,FALSE,FALSE,FALSE,FALSE,FALSE,Disabled,0.000000,0.000000,0.000000,TRUE,0.804916,-0.231369,0.000000,-0.169800,0.004608,0.000000,-0.129000,0.133000,-0.048000,-0.010000,-0.170000,1.260000,-0.087035,Hold,0.941162,0.000000,Hold,-232.000000,2.000000,Suck,687.744141,-2181.818182,Speed,726.196289,-2181.818182,Speed,On,Off0.000000,0,,,,
08:01:57.855 PM 03/17/2016,Teleop Enabled,10,FALSE,0,NO ERROR,-0.000000,0.000000,0.000000,0.000000,TRUE,FALSE,FALSE,FALSE,FALSE,FALSE,Disabled,0.000000,0.000000,0.000000,TRUE,0.795990,-0.230713,0.000000,-0.173721,0.003601,0.000000,0.112000,0.099000,0.041000,-0.020000,-0.200000,1.240000,-0.073141,Hold,0.941406,0.000000,Hold,-232.000000,2.000000,Suck,687.744141,-2181.818182,Speed,726.196289,-2181.818182,Speed,On,Off0.000000,0,,,,
08:01:57.955 PM 03/17/2016,Teleop Enabled,11,FALSE,0,NO ERROR,-0.000000,0.000000,0.000000,0.000000,TRUE,FALSE,FALSE,FALSE,FALSE,FALSE,Disabled,0.000000,0.000000,0.000000,TRUE,0.786896,-0.230347,0.000000,-0.112396,0.009171,0.000000,0.112000,0.099000,0.041000,-0.020000,-0.190000,1.300000,-0.082608,Hold,0.941406,0.000000,Hold,-232.000000,2.000000,Suck,687.744141,-2181.818182,Speed,726.196289,-2181.818182,Speed,On,Off0.000000,0,,,,
08:01:58.056 PM 03/17/2016,Teleop Enabled,10,FALSE,0,NO ERROR,-0.000000,0.000000,0.000000,0.000000,TRUE,FALSE,FALSE,FALSE,FALSE,FALSE,Disabled,0.000000,0.000000,0.000000,TRUE,0.777954,-0.230270,0.000000,-0.170013,0.017105,0.000000,0.109000,-0.017000,0.048000,-0.020000,-0.200000,1.300000,-0.072590,Hold,0.941162,0.000000,Hold,-232.000000,2.000000,Suck,688.842773,-2181.818182,Speed,726.196289,-2181.818182,Speed,On,Off0.000000,0,,,,
08:01:58.158 PM 03/17/2016,Teleop Enabled,9,FALSE,0,NO ERROR,-0.000000,0.000000,0.000000,0.000000,TRUE,FALSE,FALSE,FALSE,FALSE,FALSE,Disabled,0.000000,0.000000,0.000000,TRUE,0.771011,-0.229660,0.000000,-0.225616,0.000000,0.000000,0.139000,0.074000,0.247000,-0.020000,-0.190000,1.250000,-0.070700,Hold,0.941406,0.000000,Hold,-232.000000,2.000000,Suck,688.842773,-2181.818182,Speed,726.196289,-2181.818182,Speed,On,Off0.000000,0,,,,
08:01:58.258 PM 03/17/2016,Teleop Enabled,10,FALSE,0,NO ERROR,-0.000000,0.000000,0.000000,0.000000,TRUE,FALSE,FALSE,FALSE,FALSE,FALSE,Disabled,0.000000,0.000000,0.000000,TRUE,0.758957,-0.229660,0.000000,-0.245514,-0.012009,0.000000,0.139000,0.074000,0.247000,-0.020000,-0.120000,1.270000,-0.057294,Hold,0.941406,0.000000,Hold,-232.000000,2.000000,Suck,688.842773,-2181.818182,Speed,726.196289,-2181.818182,Speed,On,Off0.000000,0,,,,
08:01:58.359 PM 03/17/2016,Teleop Enabled,10,FALSE,0,NO ERROR,-0.000000,0.000000,0.000000,0.000000,TRUE,FALSE,FALSE,FALSE,FALSE,FALSE,Disabled,0.000000,0.000000,0.000000,TRUE,0.748016,-0.230179,0.000000,-0.221451,-0.018860,0.000000,-0.273000,0.007000,-0.024000,-0.020000,-0.160000,1.280000,-0.044316,Hold,0.941406,0.000000,Hold,-232.000000,2.000000,Suck,688.842773,-2181.818182,Speed,726.196289,-2181.818182,Speed,On,Off0.000000,0,,,,
08:01:58.460 PM 03/17/2016,Teleop Enabled,10,FALSE,0,NO ERROR,-0.000000,0.000000,0.000000,0.000000,TRUE,FALSE,FALSE,FALSE,FALSE,FALSE,Disabled,0.000000,0.000000,0.000000,TRUE,0.737045,-0.231155,0.000000,-0.172134,-0.011200,0.000000,-0.051000,-0.023000,0.106000,-0.020000,-0.160000,1.280000,-0.028504,Hold,0.941406,0.000000,Hold,-232.000000,2.000000,Suck,688.842773,-2181.818182,Speed,726.196289,-2181.818182,Speed,On,Off0.000000,0,,,,
08:01:58.560 PM 03/17/2016,Teleop Enabled,10,FALSE,0,NO ERROR,-0.000000,0.000000,0.000000,0.000000,TRUE,FALSE,FALSE,FALSE,FALSE,FALSE,Disabled,0.000000,0.000000,0.000000,TRUE,0.725784,-0.231964,0.000000,-0.233902,0.000000,0.000000,-0.379000,-0.096000,-0.075000,-0.030000,-0.100000,1.310000,0.004262,Hold,0.941406,0.000000,Hold,-232.000000,2.000000,Suck,688.842773,-2181.818182,Speed,727.294922,-2181.818182,Speed,On,Off0.000000,0,,,,
08:01:58.660 PM 03/17/2016,Teleop Enabled,10,FALSE,0,NO ERROR,-0.000000,0.000000,0.000000,0.000000,TRUE,FALSE,FALSE,FALSE,FALSE,FALSE,Disabled,0.000000,0.000000,0.000000,TRUE,0.713882,-0.231308,0.000000,-0.286011,0.023804,0.000000,0.162000,0.067000,0.214000,-0.020000,-0.180000,1.240000,-0.020266,Hold,0.941406,0.000000,Hold,-232.000000,2.000000,Suck,688.842773,-2181.818182,Speed,727.294922,-2181.818182,Speed,On,Off0.000000,0,,,,
08:01:58.760 PM 03/17/2016,Teleop Enabled,9,FALSE,0,NO ERROR,-0.000000,0.000000,0.000000,0.000000,TRUE,FALSE,FALSE,FALSE,FALSE,FALSE,Disabled,0.000000,0.000000,0.000000,TRUE,0.700455,-0.230179,0.000000,-0.287033,0.013901,0.000000,0.004000,0.045000,0.047000,-0.020000,-0.180000,1.240000,-0.017664,Hold,0.941406,0.000000,Hold,-232.000000,2.000000,Suck,688.842773,-2181.818182,Speed,728.393555,-2181.818182,Speed,On,Off0.000000,0,,,,
08:01:58.861 PM 03/17/2016,Teleop Enabled,10,FALSE,0,NO ERROR,-0.000000,0.000000,0.000000,0.000000,TRUE,FALSE,FALSE,FALSE,FALSE,FALSE,Disabled,0.000000,0.000000,0.000000,TRUE,0.685699,-0.229401,0.000000,-0.295181,0.010193,0.000000,-0.044000,0.087000,-0.116000,-0.020000,-0.150000,1.280000,0.005408,Hold,0.941162,0.000000,Hold,-232.000000,2.000000,Suck,689.941406,-2181.818182,Speed,728.393555,-2181.818182,Speed,On,Off0.000000,0,,,,
08:01:58.962 PM 03/17/2016,Teleop Enabled,10,FALSE,0,NO ERROR,-0.000000,0.000000,0.000000,0.000000,TRUE,FALSE,FALSE,FALSE,FALSE,FALSE,Disabled,0.000000,0.000000,0.000000,TRUE,0.671127,-0.228683,0.000000,-0.236832,0.025085,0.000000,0.149000,0.028000,0.002000,-0.020000,-0.190000,1.270000,0.014810,Hold,0.941406,0.000000,Hold,-232.000000,2.000000,Suck,689.941406,-2181.818182,Speed,728.393555,-2181.818182,Speed,On,Off0.000000,0,,,,
08:01:59.066 PM 03/17/2016,Teleop Enabled,9,FALSE,0,NO ERROR,-0.000000,0.000000,0.000000,0.000000,TRUE,FALSE,FALSE,FALSE,FALSE,FALSE,Disabled,0.000000,0.000000,0.000000,TRUE,0.657547,-0.227219,0.000000,-0.280090,0.033493,0.000000,-0.143000,0.092000,0.106000,-0.020000,-0.130000,1.280000,0.036037,Hold,0.941162,0.000000,Hold,-232.000000,2.000000,Suck,691.040039,-2181.818182,Speed,728.393555,-2181.818182,Speed,On,Off0.000000,0,,,,
08:01:59.166 PM 03/17/2016,Teleop Enabled,10,FALSE,0,NO ERROR,-0.000000,0.000000,0.000000,0.000000,TRUE,FALSE,FALSE,FALSE,FALSE,FALSE,Disabled,0.000000,0.000000,0.000000,TRUE,0.643982,-0.227341,0.000000,-0.311920,-0.013611,0.000000,0.090000,-0.078000,0.114000,-0.020000,-0.220000,1.270000,0.020679,Hold,0.941406,0.000000,Hold,-232.000000,2.000000,Suck,689.941406,-2181.818182,Speed,728.393555,-2181.818182,Speed,On,Off0.000000,0,,,,
08:01:59.266 PM 03/17/2016,Teleop Enabled,10,FALSE,0,NO ERROR,-0.000000,0.000000,0.000000,0.000000,TRUE,FALSE,FALSE,FALSE,FALSE,FALSE,Disabled,0.000000,0.000000,0.000000,TRUE,0.626877,-0.228653,0.000000,-0.346313,-0.035858,0.000000,0.090000,-0.078000,0.114000,-0.030000,-0.200000,1.270000,0.015123,Hold,0.941406,0.000000,Hold,-232.000000,2.000000,Suck,689.941406,-2181.818182,Speed,728.393555,-2181.818182,Speed,On,Off0.000000,0,,,,
08:01:59.366 PM 03/17/2016,Teleop Enabled,11,FALSE,0,NO ERROR,-0.000000,0.000000,0.000000,0.000000,TRUE,FALSE,FALSE,FALSE,FALSE,FALSE,Disabled,0.000000,0.000000,0.000000,TRUE,0.612885,-0.229904,0.000000,-0.277420,-0.019257,0.000000,-0.192000,0.045000,0.027000,-0.030000,-0.140000,1.280000,0.027072,Hold,0.941162,0.000000,Hold,-232.000000,2.000000,Suck,691.040039,-2181.818182,Speed,728.393555,-2181.818182,Speed,On,Off0.000000,0,,,,
08:01:59.467 PM 03/17/2016,Teleop Enabled,9,FALSE,0,NO ERROR,-0.000000,0.000000,0.000000,0.000000,TRUE,FALSE,FALSE,FALSE,FALSE,FALSE,Disabled,0.000000,0.000000,0.000000,TRUE,0.600510,-0.229736,0.000000,-0.217072,0.009766,0.000000,0.090000,0.095000,0.151000,-0.030000,-0.160000,1.250000,0.033214,Hold,0.941406,0.000000,Hold,-232.000000,2.000000,Suck,691.040039,-2181.818182,Speed,727.294922,-2181.818182,Speed,On,Off0.000000,0,,,,
08:01:59.567 PM 03/17/2016,Teleop Enabled,10,FALSE,0,NO ERROR,-0.000000,0.000000,0.000000,0.000000,TRUE,FALSE,FALSE,FALSE,FALSE,FALSE,Disabled,0.000000,0.000000,0.000000,TRUE,0.600510,-0.229736,0.000000,-0.217072,0.009766,0.000000,-0.219000,-0.083000,-0.103000,-0.020000,-0.140000,1.290000,0.046106,Hold,0.941406,0.000000,Hold,-232.000000,2.000000,Suck,691.040039,-2181.818182,Speed,728.393555,-2181.818182,Speed,On,Off0.000000,0,,,,
08:01:59.668 PM 03/17/2016,Teleop Enabled,10,FALSE,0,NO ERROR,-0.000000,0.000000,0.000000,0.000000,TRUE,FALSE,FALSE,FALSE,FALSE,FALSE,Disabled,0.000000,0.000000,0.000000,TRUE,0.587646,-0.229340,0.000000,-0.228989,0.012573,0.000000,0.004000,-0.081000,0.247000,-0.030000,-0.170000,1.260000,0.067994,Hold,0.941162,0.000000,Hold,-232.000000,2.000000,Suck,689.941406,-2181.818182,Speed,728.393555,-2181.818182,Speed,On,Off0.000000,0,,,,
08:01:59.769 PM 03/17/2016,Teleop Enabled,10,FALSE,0,NO ERROR,-0.000000,0.000000,0.000000,0.000000,TRUE,FALSE,FALSE,FALSE,FALSE,FALSE,Disabled,0.000000,0.000000,0.000000,TRUE,0.575470,-0.229874,0.000000,-0.237350,-0.012253,0.000000,-0.146000,-0.034000,0.060000,-0.020000,-0.120000,1.230000,0.067994,Hold,0.941406,0.000000,Hold,-232.000000,2.000000,Suck,689.941406,-2181.818182,Speed,728.393555,-2181.818182,Speed,On,Off0.000000,0,,,,
08:01:59.869 PM 03/17/2016,Teleop Enabled,9,FALSE,0,NO ERROR,-0.000000,0.000000,0.000000,0.000000,TRUE,FALSE,FALSE,FALSE,FALSE,FALSE,Disabled,0.000000,0.000000,0.000000,TRUE,0.562683,-0.230408,0.000000,-0.288834,0.000000,0.000000,0.369000,0.126000,0.129000,-0.020000,-0.200000,1.190000,0.057907,Hold,0.941650,0.000000,Hold,-232.000000,2.000000,Suck,689.941406,-2181.818182,Speed,728.393555,-2181.818182,Speed,On,Off0.000000,0,,,,
08:01:59.969 PM 03/17/2016,Teleop Enabled,10,FALSE,0,NO ERROR,-0.000000,0.000000,0.000000,0.000000,TRUE,FALSE,FALSE,FALSE,FALSE,FALSE,Disabled,0.000000,0.000000,0.000000,TRUE,0.548935,-0.229492,0.000000,-0.239838,0.000000,0.000000,0.429000,0.098000,0.146000,-0.020000,-0.180000,1.240000,0.077433,Hold,0.941406,0.000000,Hold,-232.000000,2.000000,Suck,691.040039,-2181.818182,Speed,729.492188,-2181.818182,Speed,On,Off0.000000,0,,,,
08:02:00.069 PM 03/17/2016,Teleop Enabled,11,FALSE,0,NO ERROR,-0.000000,0.000000,0.000000,0.000000,TRUE,FALSE,FALSE,FALSE,FALSE,FALSE,Disabled,0.000000,0.000000,0.000000,TRUE,0.540726,-0.229797,0.000000,-0.183273,-0.016464,0.000000,0.145000,0.039000,0.222000,-0.020000,-0.160000,1.200000,0.078611,Hold,0.941162,0.000000,Hold,-232.000000,2.000000,Suck,692.138672,-2181.818182,Speed,729.492188,-2181.818182,Speed,On,Off0.000000,0,,,,
08:02:00.169 PM 03/17/2016,Teleop Enabled,10,FALSE,0,NO ERROR,-0.000000,0.000000,0.000000,0.000000,TRUE,FALSE,FALSE,FALSE,FALSE,FALSE,Disabled,0.000000,0.000000,0.000000,TRUE,0.530701,-0.230499,0.000000,-0.184036,-0.009415,0.000000,-0.325000,-0.080000,-0.006000,-0.020000,-0.150000,1.240000,0.071912,Hold,0.941406,0.000000,Hold,-232.000000,2.000000,Suck,692.138672,-2181.818182,Speed,729.492188,-2181.818182,Speed,On,Off0.000000,0,,,,
08:02:00.269 PM 03/17/2016,Teleop Enabled,11,FALSE,0,NO ERROR,-0.000000,0.000000,0.000000,0.000000,TRUE,FALSE,FALSE,FALSE,FALSE,FALSE,Disabled,0.000000,0.000000,0.000000,TRUE,0.518555,-0.231277,0.000000,-0.170898,-0.004486,0.000000,0.107000,0.030000,0.248000,-0.030000,-0.150000,1.230000,0.058847,Hold,0.941406,0.000000,Hold,-232.000000,2.000000,Suck,692.138672,-2181.818182,Speed,729.492188,-2181.818182,Speed,On,Off0.000000,0,,,,
08:02:00.369 PM 03/17/2016,Teleop Enabled,11,FALSE,0,NO ERROR,-0.000000,0.000000,0.000000,0.000000,TRUE,FALSE,FALSE,FALSE,FALSE,FALSE,Disabled,0.000000,0.000000,0.000000,TRUE,0.509033,-0.231308,0.000000,-0.165817,0.004700,0.000000,0.366000,0.037000,0.228000,-0.030000,-0.180000,1.220000,0.067051,Hold,0.941406,0.000000,Hold,-232.000000,2.000000,Suck,692.138672,-2181.818182,Speed,729.492188,-2181.818182,Speed,On,Off0.000000,0,,,,
08:02:00.470 PM 03/17/2016,Teleop Enabled,11,FALSE,0,NO ERROR,-0.000000,0.000000,0.000000,0.000000,TRUE,FALSE,FALSE,FALSE,FALSE,FALSE,Disabled,0.000000,0.000000,0.000000,TRUE,0.502563,-0.231796,0.000000,-0.174530,-0.011368,0.000000,0.052000,0.000000,0.230000,-0.030000,-0.160000,1.220000,0.056554,Hold,0.941406,0.000000,Hold,-232.000000,2.000000,Suck,692.138672,-2181.818182,Speed,729.492188,-2181.818182,Speed,On,Off0.000000,0,,,,
08:02:00.570 PM 03/17/2016,Teleop Enabled,11,FALSE,0,NO ERROR,-0.000000,0.000000,0.000000,0.000000,TRUE,FALSE,FALSE,FALSE,FALSE,FALSE,Disabled,0.000000,0.000000,0.000000,TRUE,0.490509,-0.232681,0.000000,-0.196472,-0.010712,0.000000,0.376000,-0.002000,0.009000,-0.040000,-0.100000,1.250000,0.069151,Hold,0.941406,0.000000,Hold,-232.000000,2.000000,Suck,692.138672,-2181.818182,Speed,729.492188,-2181.818182,Speed,On,Off0.000000,0,,,,
08:02:00.670 PM 03/17/2016,Teleop Enabled,11,FALSE,0,NO ERROR,-0.000000,0.000000,0.000000,0.000000,TRUE,FALSE,FALSE,FALSE,FALSE,FALSE,Disabled,0.000000,0.000000,0.000000,TRUE,0.478638,-0.232864,0.000000,-0.230988,0.001221,0.000000,0.248000,0.055000,-0.018000,-0.030000,-0.150000,1.210000,0.077044,Hold,0.941406,0.000000,Hold,-232.000000,2.000000,Suck,692.138672,-2181.818182,Speed,729.492188,-2181.818182,Speed,On,Off0.000000,0,,,,
08:02:00.770 PM 03/17/2016,Teleop Enabled,12,FALSE,0,NO ERROR,-0.000000,0.000000,0.000000,0.000000,TRUE,FALSE,FALSE,FALSE,FALSE,FALSE,Disabled,0.000000,0.000000,0.000000,TRUE,0.471832,-0.232559,0.000000,-0.191772,0.004074,0.000000,-0.151000,-0.028000,0.009000,-0.040000,-0.130000,1.190000,0.086677,Hold,0.941406,0.000000,Hold,-232.000000,2.000000,Suck,692.138672,-2181.818182,Speed,729.492188,-2181.818182,Speed,On,Off0.000000,0,,,,
08:02:00.870 PM 03/17/2016,Teleop Enabled,11,FALSE,0,NO ERROR,-0.000000,0.000000,0.000000,0.000000,TRUE,FALSE,FALSE,FALSE,FALSE,FALSE,Disabled,0.000000,0.000000,0.000000,TRUE,0.462585,-0.232880,0.000000,-0.157623,-0.015976,0.000000,-0.255000,0.147000,-0.069000,-0.030000,-0.110000,1.200000,0.083537,Hold,0.941162,0.000000,Hold,-232.000000,2.000000,Suck,692.138672,-2181.818182,Speed,729.492188,-2181.818182,Speed,On,Off0.000000,0,,,,
08:02:00.970 PM 03/17/2016,Teleop Enabled,10,FALSE,0,NO ERROR,-0.000000,0.000000,0.000000,0.000000,TRUE,FALSE,FALSE,FALSE,FALSE,FALSE,Disabled,0.000000,0.000000,0.000000,TRUE,0.452606,-0.233536,0.000000,-0.188553,0.000000,0.000000,0.008000,-0.008000,0.302000,-0.040000,-0.140000,1.230000,0.067092,Hold,0.941406,0.000000,Hold,-232.000000,2.000000,Suck,692.138672,-2181.818182,Speed,729.492188,-2181.818182,Speed,On,Off0.000000,0,,,,
08:02:01.070 PM 03/17/2016,Teleop Enabled,11,FALSE,0,NO ERROR,-0.000000,0.000000,0.000000,0.000000,TRUE,FALSE,FALSE,FALSE,FALSE,FALSE,Disabled,0.000000,0.000000,0.000000,TRUE,0.442078,-0.233643,0.000000,-0.180862,0.000519,0.000000,-0.171000,-0.013000,-0.118000,-0.040000,-0.130000,1.200000,0.074507,Hold,0.941162,0.000000,Hold,-232.000000,2.000000,Suck,692.138672,-2181.818182,Speed,730.590820,-2181.818182,Speed,On,Off0.000000,0,,,,
08:02:01.170 PM 03/17/2016,Teleop Enabled,10,FALSE,0,NO ERROR,-0.000000,0.000000,0.000000,0.000000,TRUE,FALSE,FALSE,FALSE,FALSE,FALSE,Disabled,0.000000,0.000000,0.000000,TRUE,0.432693,-0.233673,0.000000,-0.215881,-0.005264,0.000000,0.151000,-0.078000,0.124000,-0.040000,-0.190000,1.220000,0.053910,Hold,0.941406,0.000000,Hold,-232.000000,2.000000,Suck,692.138672,-2181.818182,Speed,730.590820,-2181.818182,Speed,On,Off0.000000,0,,,,
08:02:01.270 PM 03/17/2016,Teleop Enabled,10,FALSE,0,NO ERROR,-0.000000,0.000000,0.000000,0.000000,TRUE,FALSE,FALSE,FALSE,FALSE,FALSE,Disabled,0.000000,0.000000,0.000000,TRUE,0.424789,-0.234253,0.000000,-0.174225,-0.016541,0.000000,-0.147000,-0.171000,-0.209000,-0.040000,-0.130000,1.220000,0.076618,Hold,0.941406,0.000000,Hold,-232.000000,2.000000,Suck,692.138672,-2181.818182,Speed,730.590820,-2181.818182,Speed,On,Off0.000000,0,,,,
08:02:01.371 PM 03/17/2016,Teleop Enabled,11,FALSE,0,NO ERROR,-0.000000,0.000000,0.000000,0.000000,TRUE,FALSE,FALSE,FALSE,FALSE,FALSE,Disabled,0.000000,0.000000,0.000000,TRUE,0.417068,-0.235672,0.000000,-0.164642,-0.040512,0.000000,-0.145000,0.068000,0.133000,-0.040000,-0.130000,1.200000,0.071347,Hold,0.941406,0.000000,Hold,-232.000000,2.000000,Suck,692.138672,-2181.818182,Speed,730.590820,-2181.818182,Speed,On,Off0.000000,0,,,,
08:02:01.471 PM 03/17/2016,Teleop Enabled,10,FALSE,0,NO ERROR,-0.000000,0.000000,0.000000,0.000000,TRUE,FALSE,FALSE,FALSE,FALSE,FALSE,Disabled,0.000000,0.000000,0.000000,TRUE,0.407928,-0.236542,0.000000,-0.162872,-0.009521,0.000000,-0.199000,0.018000,0.087000,-0.040000,-0.150000,1.210000,0.067684,Hold,0.941406,0.000000,Hold,-232.000000,2.000000,Suck,692.138672,-2181.818182,Speed,730.590820,-2181.818182,Speed,On,Off0.000000,0,,,,
08:02:01.572 PM 03/17/2016,Teleop Enabled,10,FALSE,0,NO ERROR,-0.000000,0.000000,0.000000,0.000000,TRUE,FALSE,FALSE,FALSE,FALSE,FALSE,Disabled,0.000000,0.000000,0.000000,TRUE,0.399307,-0.237122,0.000000,-0.124161,-0.007355,0.000000,-0.137000,0.006000,0.097000,-0.040000,-0.130000,1.190000,0.062782,Hold,0.941406,0.000000,Hold,-232.000000,2.000000,Suck,692.138672,-2181.818182,Speed,730.590820,-2181.818182,Speed,On,Off0.000000,0,,,,
08:02:01.672 PM 03/17/2016,Teleop Enabled,10,FALSE,0,NO ERROR,-0.000000,0.000000,0.000000,0.000000,TRUE,FALSE,FALSE,FALSE,FALSE,FALSE,Disabled,0.000000,0.000000,0.000000,TRUE,0.391342,-0.238571,0.000000,-0.074219,-0.019867,0.000000,-0.283000,-0.197000,-0.145000,-0.040000,-0.150000,1.230000,0.065760,Hold,0.941406,0.000000,Hold,-232.000000,2.000000,Suck,692.138672,-2181.818182,Speed,730.590820,-2181.818182,Speed,On,Off0.000000,0,,,,
08:02:01.773 PM 03/17/2016,Teleop Enabled,10,FALSE,0,NO ERROR,-0.000000,0.000000,0.000000,0.000000,TRUE,FALSE,FALSE,FALSE,FALSE,FALSE,Disabled,0.000000,0.000000,0.000000,TRUE,0.384552,-0.239487,0.000000,-0.102951,0.009842,0.000000,0.157000,-0.048000,0.232000,-0.050000,-0.180000,1.210000,0.059295,Hold,0.941406,0.000000,Hold,-232.000000,2.000000,Suck,692.138672,-2181.818182,Speed,730.590820,-2181.818182,Speed,On,Off0.000000,0,,,,
08:02:01.875 PM 03/17/2016,Teleop Enabled,10,FALSE,0,NO ERROR,-0.000000,0.000000,0.000000,0.000000,TRUE,FALSE,FALSE,FALSE,FALSE,FALSE,Disabled,0.000000,0.000000,0.000000,TRUE,0.379883,-0.238678,0.000000,-0.136551,0.032715,0.000000,0.029000,-0.016000,0.151000,-0.050000,-0.180000,1.210000,0.072872,Hold,0.941406,0.000000,Hold,-232.000000,2.000000,Suck,692.138672,-2181.818182,Speed,730.590820,-2181.818182,Speed,On,Off0.000000,0,,,,
08:02:01.975 PM 03/17/2016,Teleop Enabled,9,FALSE,0,NO ERROR,-0.000000,0.000000,0.000000,0.000000,TRUE,FALSE,FALSE,FALSE,FALSE,FALSE,Disabled,0.000000,0.000000,0.000000,TRUE,0.374725,-0.238846,0.000000,-0.130905,-0.020554,0.000000,-0.259000,-0.098000,-0.281000,-0.050000,-0.140000,1.230000,0.076050,Hold,0.941406,0.000000,Hold,-232.000000,2.000000,Suck,692.138672,-2181.818182,Speed,730.590820,-2181.818182,Speed,On,Off0.000000,0,,,,
08:02:02.075 PM 03/17/2016,Teleop Enabled,10,FALSE,0,NO ERROR,-0.000000,0.000000,0.000000,0.000000,TRUE,FALSE,FALSE,FALSE,FALSE,FALSE,Disabled,0.000000,0.000000,0.000000,TRUE,0.368378,-0.240036,0.000000,-0.109619,-0.030121,0.000000,-0.122000,-0.046000,-0.275000,-0.050000,-0.160000,1.240000,0.037014,Hold,0.941406,0.000000,Hold,-232.000000,2.000000,Suck,693.237305,-2181.818182,Speed,730.590820,-2181.818182,Speed,On,Off0.000000,0,,,,
08:02:02.175 PM 03/17/2016,Teleop Enabled,9,FALSE,0,NO ERROR,-0.000000,0.000000,0.000000,0.000000,TRUE,FALSE,FALSE,FALSE,FALSE,FALSE,Disabled,0.000000,0.000000,0.000000,TRUE,0.362869,-0.241531,0.000000,-0.141663,-0.037354,0.000000,0.028000,0.027000,-0.020000,-0.040000,-0.110000,1.230000,0.016287,Hold,0.941162,0.000000,Hold,-232.000000,2.000000,Suck,693.237305,-2181.818182,Speed,730.590820,-2181.818182,Speed,On,Off0.000000,0,,,,
08:02:02.275 PM 03/17/2016,Teleop Enabled,11,FALSE,0,NO ERROR,-0.000000,0.000000,0.000000,0.000000,TRUE,FALSE,FALSE,FALSE,FALSE,FALSE,Disabled,0.000000,0.000000,0.000000,TRUE,0.355927,-0.241791,0.000000,-0.119293,0.003159,0.000000,0.182000,0.010000,0.126000,-0.040000,-0.190000,1.250000,0.031530,Hold,0.941406,0.000000,Hold,-232.000000,2.000000,Suck,693.237305,-2181.818182,Speed,730.590820,-2181.818182,Speed,On,Off0.000000,0,,,,
08:02:02.375 PM 03/17/2016,Teleop Enabled,10,FALSE,0,NO ERROR,-0.000000,0.000000,0.000000,0.000000,TRUE,FALSE,FALSE,FALSE,FALSE,FALSE,Disabled,0.000000,0.000000,0.000000,TRUE,0.349350,-0.241928,0.000000,-0.142563,0.000000,0.000000,-0.197000,-0.035000,0.142000,-0.050000,-0.170000,1.260000,0.029214,Hold,0.941406,0.000000,Hold,-232.000000,2.000000,Suck,693.237305,-2181.818182,Speed,730.590820,-2181.818182,Speed,On,Off0.000000,0,,,,
08:02:02.475 PM 03/17/2016,Teleop Enabled,9,FALSE,0,NO ERROR,-0.000000,0.000000,0.000000,0.000000,TRUE,FALSE,FALSE,FALSE,FALSE,FALSE,Disabled,0.000000,0.000000,0.000000,TRUE,0.340179,-0.243546,0.000000,-0.142700,-0.020477,0.000000,0.198000,0.053000,-0.045000,-0.040000,-0.200000,1.260000,0.028284,Hold,0.941406,0.000000,Hold,-232.000000,2.000000,Suck,693.237305,-2181.818182,Speed,730.590820,-2181.818182,Speed,On,Off0.000000,0,,,,
08:02:02.575 PM 03/17/2016,Teleop Enabled,9,FALSE,0,NO ERROR,-0.000000,0.000000,0.000000,0.000000,TRUE,FALSE,FALSE,FALSE,FALSE,FALSE,Disabled,0.000000,0.000000,0.000000,TRUE,0.332367,-0.244858,0.000000,-0.162170,-0.016769,0.000000,-0.023000,-0.046000,0.000000,-0.050000,-0.190000,1.300000,0.026453,Hold,0.941406,0.000000,Hold,-232.000000,2.000000,Suck,693.237305,-2181.818182,Speed,730.590820,-2181.818182,Speed,On,Off0.000000,0,,,,
08:02:02.675 PM 03/17/2016,Teleop Enabled,10,FALSE,0,NO ERROR,-0.000000,0.000000,0.000000,0.000000,TRUE,FALSE,FALSE,FALSE,FALSE,FALSE,Disabled,0.000000,0.000000,0.000000,TRUE,0.325912,-0.245331,0.000000,-0.176987,-0.014908,0.000000,-0.087000,0.059000,-0.075000,-0.050000,-0.160000,1.270000,0.021544,Hold,0.941406,0.000000,Hold,-232.000000,2.000000,Suck,693.237305,-2181.818182,Speed,730.590820,-2181.818182,Speed,On,Off0.000000,0,,,,
08:02:02.775 PM 03/17/2016,Teleop Enabled,9,FALSE,0,NO ERROR,-0.000000,0.000000,0.000000,0.000000,TRUE,FALSE,FALSE,FALSE,FALSE,FALSE,Disabled,0.000000,0.000000,0.000000,TRUE,0.316818,-0.245621,0.000000,-0.181351,-0.012909,0.000000,0.029000,-0.004000,-0.264000,-0.040000,-0.200000,1.270000,0.028563,Hold,0.941406,0.000000,Hold,-232.000000,2.000000,Suck,693.237305,-2181.818182,Speed,730.590820,-2181.818182,Speed,On,Off0.000000,0,,,,
08:02:02.875 PM 03/17/2016,Teleop Enabled,8,FALSE,0,NO ERROR,-0.000000,0.000000,0.000000,0.000000,TRUE,FALSE,FALSE,FALSE,FALSE,FALSE,Disabled,0.000000,0.000000,0.000000,TRUE,0.307556,-0.247253,0.000000,-0.151230,-0.038422,0.000000,0.094000,0.038000,-0.047000,-0.040000,-0.140000,1.310000,0.038385,Hold,0.941650,0.000000,Hold,-232.000000,2.000000,Suck,693.237305,-2181.818182,Speed,730.590820,-2181.818182,Speed,On,Off0.000000,0,,,,
08:02:02.976 PM 03/17/2016,Teleop Enabled,9,FALSE,0,NO ERROR,-0.000000,0.000000,0.000000,0.000000,TRUE,FALSE,FALSE,FALSE,FALSE,FALSE,Disabled,0.000000,0.000000,0.000000,TRUE,0.299835,-0.248306,0.000000,-0.121048,-0.007706,0.000000,-0.265000,-0.154000,-0.102000,-0.050000,-0.230000,1.290000,0.045666,Hold,0.941406,0.000000,Hold,-232.000000,2.000000,Suck,693.237305,-2181.818182,Speed,730.590820,-2181.818182,Speed,On,Off0.000000,0,,,,
08:02:03.076 PM 03/17/2016,Teleop Enabled,9,FALSE,0,NO ERROR,-0.000000,0.000000,0.000000,0.000000,TRUE,FALSE,FALSE,FALSE,FALSE,FALSE,Disabled,0.000000,0.000000,0.000000,TRUE,0.292374,-0.248901,0.000000,-0.118469,-0.006409,0.000000,-0.091000,-0.041000,-0.078000,-0.040000,-0.190000,1.300000,0.041954,Hold,0.941650,0.000000,Hold,-232.000000,2.000000,Suck,693.237305,-2181.818182,Speed,730.590820,-2181.818182,Speed,On,Off0.000000,0,,,,
08:02:03.178 PM 03/17/2016,Teleop Enabled,10,FALSE,0,NO ERROR,-0.000000,0.000000,0.000000,0.000000,TRUE,FALSE,FALSE,FALSE,FALSE,FALSE,Disabled,0.000000,0.000000,0.000000,TRUE,0.286575,-0.249619,0.000000,-0.168457,-0.028687,0.000000,0.189000,-0.101000,0.142000,-0.050000,-0.190000,1.310000,0.044767,Hold,0.941162,0.000000,Hold,-232.000000,2.000000,Suck,693.237305,-2181.818182,Speed,730.590820,-2181.818182,Speed,On,Off0.000000,0,,,,
08:02:03.278 PM 03/17/2016,Teleop Enabled,10,FALSE,0,NO ERROR,-0.000000,0.000000,0.000000,0.000000,TRUE,FALSE,FALSE,FALSE,FALSE,FALSE,Disabled,0.000000,0.000000,0.000000,TRUE,0.280670,-0.252151,0.000000,-0.102585,-0.066284,0.000000,-0.065000,0.081000,0.107000,-0.050000,-0.190000,1.330000,0.049332,Hold,0.941406,0.000000,Hold,-232.000000,2.000000,Suck,693.237305,-2181.818182,Speed,730.590820,-2181.818182,Speed,On,Off0.000000,0,,,,
08:02:03.379 PM 03/17/2016,Teleop Enabled,11,FALSE,0,NO ERROR,-0.000000,0.000000,0.000000,0.000000,TRUE,FALSE,FALSE,FALSE,FALSE,FALSE,Disabled,0.000000,0.000000,0.000000,TRUE,0.275085,-0.254822,0.000000,-0.160416,-0.048782,0.000000,0.350000,0.070000,0.188000,-0.040000,-0.270000,1.270000,0.047872,Hold,0.941406,0.000000,Hold,-232.000000,2.000000,Suck,693.237305,-2181.818182,Speed,731.689453,-2181.818182,Speed,On,Off0.000000,0,,,,
08:02:03.480 PM 03/17/2016,Teleop Enabled,9,FALSE,0,NO ERROR,-0.000000,0.000000,0.000000,0.000000,TRUE,FALSE,FALSE,FALSE,FALSE,FALSE,Disabled,0.000000,0.000000,0.000000,TRUE,0.268799,-0.256851,0.000000,-0.126160,-0.041855,0.000000,-0.254000,-0.049000,-0.023000,-0.040000,-0.220000,1.300000,0.047163,Hold,0.941406,0.000000,Hold,-232.000000,2.000000,Suck,693.237305,-2181.818182,Speed,731.689453,-2181.818182,Speed,On,Off0.000000,0,,,,
08:02:03.580 PM 03/17/2016,Teleop Enabled,11,FALSE,0,NO ERROR,-0.000000,0.000000,0.000000,0.000000,TRUE,FALSE,FALSE,FALSE,FALSE,FALSE,Disabled,0.000000,0.000000,0.000000,TRUE,0.261276,-0.259567,0.000000,-0.123291,-0.070404,0.000000,0.120000,0.066000,0.054000,-0.040000,-0.220000,1.240000,0.060754,Hold,0.941406,0.000000,Hold,-232.000000,2.000000,Suck,693.237305,-2181.818182,Speed,731.689453,-2181.818182,Speed,On,Off0.000000,0,,,,
08:02:03.680 PM 03/17/2016,Teleop Enabled,10,FALSE,0,NO ERROR,-0.000000,0.000000,0.000000,0.000000,TRUE,FALSE,FALSE,FALSE,FALSE,FALSE,Disabled,0.000000,0.000000,0.000000,TRUE,0.254852,-0.263763,0.000000,-0.087219,-0.086838,0.000000,-0.175000,-0.058000,-0.115000,-0.040000,-0.210000,1.240000,0.065350,Hold,0.941406,0.000000,Hold,-232.000000,2.000000,Suck,693.237305,-2181.818182,Speed,731.689453,-2181.818182,Speed,On,Off0.000000,0,,,,
08:02:03.781 PM 03/17/2016,Teleop Enabled,10,FALSE,0,NO ERROR,-0.000000,0.000000,0.000000,0.000000,TRUE,FALSE,FALSE,FALSE,FALSE,FALSE,Disabled,0.000000,0.000000,0.000000,TRUE,0.246490,-0.268646,0.000000,-0.136795,-0.068680,0.000000,0.198000,-0.011000,-0.002000,-0.040000,-0.260000,1.270000,0.075165,Hold,0.941406,0.000000,Hold,-232.000000,2.000000,Suck,693.237305,-2181.818182,Speed,731.689453,-2181.818182,Speed,On,Off0.000000,0,,,,
08:02:03.884 PM 03/17/2016,Teleop Enabled,12,FALSE,0,NO ERROR,-0.000000,0.000000,0.000000,0.000000,TRUE,FALSE,FALSE,FALSE,FALSE,FALSE,Disabled,0.000000,0.000000,0.000000,TRUE,0.238617,-0.272522,0.000000,-0.138016,-0.072174,0.000000,-0.191000,-0.031000,0.135000,-0.050000,-0.240000,1.260000,0.066169,Hold,0.941406,0.000000,Hold,-232.000000,2.000000,Suck,693.237305,-2181.818182,Speed,731.689453,-2181.818182,Speed,On,Off0.000000,0,,,,
08:02:03.983 PM 03/17/2016,Teleop Enabled,10,FALSE,0,NO ERROR,-0.000000,0.000000,0.000000,0.000000,TRUE,FALSE,FALSE,FALSE,FALSE,FALSE,Disabled,0.000000,0.000000,0.000000,TRUE,0.229996,-0.277481,0.000000,-0.194946,-0.105530,0.000000,0.378000,0.120000,0.282000,-0.050000,-0.250000,1.210000,0.045425,Hold,0.941406,0.000000,Hold,-232.000000,2.000000,Suck,692.138672,-2181.818182,Speed,731.689453,-2181.818182,Speed,On,Off0.000000,0,,,,
08:02:04.084 PM 03/17/2016,Teleop Enabled,10,FALSE,0,NO ERROR,-0.000000,0.000000,0.000000,0.000000,TRUE,FALSE,FALSE,FALSE,FALSE,FALSE,Disabled,0.000000,0.000000,0.000000,TRUE,0.222610,-0.282715,0.000000,-0.159332,-0.108231,0.000000,-0.001000,0.040000,-0.225000,-0.040000,-0.240000,1.240000,0.055263,Hold,0.941650,0.000000,Hold,-232.000000,2.000000,Suck,692.138672,-2181.818182,Speed,731.689453,-2181.818182,Speed,On,Off0.000000,0,,,,
08:02:04.185 PM 03/17/2016,Teleop Enabled,11,FALSE,0,NO ERROR,-0.000000,0.000000,0.000000,0.000000,TRUE,FALSE,FALSE,FALSE,FALSE,FALSE,Disabled,0.000000,0.000000,0.000000,TRUE,0.215805,-0.287476,0.000000,-0.167114,-0.093689,0.000000,0.335000,0.104000,0.029000,-0.030000,-0.190000,1.250000,0.039682,Hold,0.941406,0.000000,Hold,-232.000000,2.000000,Suck,692.138672,-2181.818182,Speed,731.689453,-2181.818182,Speed,On,Off0.000000,0,,,,
08:02:04.286 PM 03/17/2016,Teleop Enabled,10,FALSE,0,NO ERROR,-0.000000,0.000000,0.000000,0.000000,TRUE,FALSE,FALSE,FALSE,FALSE,FALSE,Disabled,0.000000,0.000000,0.000000,TRUE,0.208511,-0.291092,0.000000,-0.121979,-0.072769,0.000000,-0.296000,-0.084000,-0.281000,-0.020000,-0.210000,1.280000,0.060166,Hold,0.941406,0.000000,Hold,-232.000000,2.000000,Suck,692.138672,-2181.818182,Speed,731.689453,-2181.818182,Speed,On,Off0.000000,0,,,,
08:02:04.387 PM 03/17/2016,Teleop Enabled,11,FALSE,0,NO ERROR,-0.000000,0.000000,0.000000,0.000000,TRUE,FALSE,FALSE,FALSE,FALSE,FALSE,Disabled,0.000000,0.000000,0.000000,TRUE,0.201050,-0.295334,0.000000,-0.123886,-0.095810,0.000000,0.071000,-0.092000,0.104000,-0.020000,-0.220000,1.260000,0.100457,Hold,0.941406,0.000000,Hold,-232.000000,2.000000,Suck,692.138672,-2181.818182,Speed,731.689453,-2181.818182,Speed,On,Off0.000000,0,,,,
08:02:04.487 PM 03/17/2016,Teleop Enabled,10,FALSE,0,NO ERROR,-0.000000,0.000000,0.000000,0.000000,TRUE,FALSE,FALSE,FALSE,FALSE,FALSE,Disabled,0.000000,0.000000,0.000000,TRUE,0.193893,-0.300842,0.000000,-0.124481,-0.098984,0.000000,0.053000,-0.122000,0.198000,-0.050000,-0.240000,1.320000,0.067392,Hold,0.941406,0.000000,Hold,-232.000000,2.000000,Suck,692.138672,-2181.818182,Speed,731.689453,-2181.818182,Speed,On,Off0.000000,0,,,,
08:02:04.587 PM 03/17/2016,Teleop Enabled,10,FALSE,0,NO ERROR,-0.000000,0.000000,0.000000,0.000000,TRUE,FALSE,FALSE,FALSE,FALSE,FALSE,Disabled,0.000000,0.000000,0.000000,TRUE,0.187912,-0.306610,0.000000,-0.106949,-0.087112,0.000000,0.017000,0.057000,0.034000,-0.040000,-0.250000,1.300000,0.071691,Hold,0.941406,0.000000,Hold,-232.000000,2.000000,Suck,692.138672,-2181.818182,Speed,731.689453,-2181.818182,Speed,On,Off0.000000,0,,,,
08:02:04.687 PM 03/17/2016,Teleop Enabled,9,FALSE,0,NO ERROR,-0.000000,0.000000,0.000000,0.000000,TRUE,FALSE,FALSE,FALSE,FALSE,FALSE,Disabled,0.000000,0.000000,0.000000,TRUE,0.183365,-0.309799,0.000000,-0.172668,-0.076920,0.000000,0.222000,0.008000,0.121000,-0.040000,-0.300000,1.280000,0.073895,Hold,0.941406,0.000000,Hold,-232.000000,2.000000,Suck,692.138672,-2181.818182,Speed,731.689453,-2181.818182,Speed,On,Off0.000000,0,,,,
08:02:04.787 PM 03/17/2016,Teleop Enabled,10,FALSE,0,NO ERROR,-0.000000,0.000000,0.000000,0.000000,TRUE,FALSE,FALSE,FALSE,FALSE,FALSE,Disabled,0.000000,0.000000,0.000000,TRUE,0.177200,-0.313385,0.000000,-0.119522,-0.079666,0.000000,-0.259000,0.101000,-0.022000,-0.030000,-0.230000,1.270000,0.088777,Hold,0.941406,0.000000,Hold,-232.000000,2.000000,Suck,692.138672,-2181.818182,Speed,731.689453,-2181.818182,Speed,On,Off0.000000,0,,,,
08:02:04.887 PM 03/17/2016,Teleop Enabled,10,FALSE,0,NO ERROR,-0.000000,0.000000,0.000000,0.000000,TRUE,FALSE,FALSE,FALSE,FALSE,FALSE,Disabled,0.000000,0.000000,0.000000,TRUE,0.168701,-0.317703,0.000000,-0.168762,-0.092545,0.000000,0.010000,0.124000,0.054000,-0.020000,-0.250000,1.240000,0.085489,Hold,0.941406,0.000000,Hold,-232.000000,2.000000,Suck,692.138672,-2181.818182,Speed,731.689453,-2181.818182,Speed,On,Off0.000000,0,,,,
08:02:04.987 PM 03/17/2016,Teleop Enabled,10,FALSE,0,NO ERROR,-0.000000,0.000000,0.000000,0.000000,TRUE,FALSE,FALSE,FALSE,FALSE,FALSE,Disabled,0.000000,0.000000,0.000000,TRUE,0.159561,-0.322327,0.000000,-0.097916,-0.083389,0.000000,-0.130000,0.085000,0.130000,-0.020000,-0.230000,1.250000,0.082628,Hold,0.941406,0.000000,Hold,-232.000000,2.000000,Suck,692.138672,-2181.818182,Speed,731.689453,-2181.818182,Speed,On,Off0.000000,0,,,,
08:02:05.087 PM 03/17/2016,Teleop Enabled,9,FALSE,0,NO ERROR,-0.000000,0.000000,0.000000,0.000000,TRUE,FALSE,FALSE,FALSE,FALSE,FALSE,Disabled,0.000000,0.000000,0.000000,TRUE,0.153320,-0.325638,0.000000,-0.094070,-0.051849,0.000000,-0.121000,-0.163000,0.187000,-0.020000,-0.300000,1.280000,0.084560,Hold,0.941162,0.000000,Hold,-232.000000,2.000000,Suck,692.138672,-2181.818182,Speed,731.689453,-2181.818182,Speed,On,Off0.000000,0,,,,
08:02:05.187 PM 03/17/2016,Teleop Enabled,10,FALSE,0,NO ERROR,-0.000000,0.000000,0.000000,0.000000,TRUE,FALSE,FALSE,FALSE,FALSE,FALSE,Disabled,0.000000,0.000000,0.000000,TRUE,0.147995,-0.329346,0.000000,-0.093475,-0.064163,0.000000,0.196000,0.047000,0.289000,-0.030000,-0.210000,1.260000,0.088921,Hold,0.941162,0.000000,Hold,-232.000000,2.000000,Suck,692.138672,-2181.818182,Speed,732.788086,-2181.818182,Speed,On,Off0.000000,0,,,,
08:02:05.287 PM 03/17/2016,Teleop Enabled,10,FALSE,0,NO ERROR,-0.000000,0.000000,0.000000,0.000000,TRUE,FALSE,FALSE,FALSE,FALSE,FALSE,Disabled,0.000000,0.000000,0.000000,TRUE,0.142609,-0.332672,0.000000,-0.145828,-0.067657,0.000000,0.287000,0.106000,0.049000,-0.030000,-0.260000,1.210000,0.100371,Hold,0.941406,0.000000,Hold,-232.000000,2.000000,Suck,692.138672,-2181.818182,Speed,732.788086,-2181.818182,Speed,On,Off0.000000,0,,,,
08:02:05.387 PM 03/17/2016,Teleop Enabled,10,FALSE,0,NO ERROR,-0.000000,0.000000,0.000000,0.000000,TRUE,FALSE,FALSE,FALSE,FALSE,FALSE,Disabled,0.000000,0.000000,0.000000,TRUE,0.138275,-0.335571,0.000000,-0.101212,-0.060699,0.000000,0.189000,0.097000,-0.093000,-0.040000,-0.220000,1.230000,0.099287,Hold,0.941650,0.000000,Hold,-232.000000,2.000000,Suck,692.138672,-2181.818182,Speed,732.788086,-2181.818182,Speed,On,Off0.000000,0,,,,
08:02:05.487 PM 03/17/2016,Teleop Enabled,9,FALSE,0,NO ERROR,-0.000000,0.000000,0.000000,0.000000,TRUE,FALSE,FALSE,FALSE,FALSE,FALSE,Disabled,0.000000,0.000000,0.000000,TRUE,0.135651,-0.338303,0.000000,-0.051437,-0.065659,0.000000,0.160000,0.060000,-0.033000,-0.050000,-0.190000,1.270000,0.104509,Hold,0.941406,0.000000,Hold,-232.000000,2.000000,Suck,692.138672,-2181.818182,Speed,732.788086,-2181.818182,Speed,On,Off0.000000,0,,,,
08:02:05.587 PM 03/17/2016,Teleop Enabled,10,FALSE,0,NO ERROR,-0.000000,0.000000,0.000000,0.000000,TRUE,FALSE,FALSE,FALSE,FALSE,FALSE,Disabled,0.000000,0.000000,0.000000,TRUE,0.134216,-0.340683,0.000000,-0.005432,-0.050873,0.000000,-0.508000,-0.006000,-0.212000,-0.050000,-0.130000,1.250000,0.082914,Hold,0.941406,0.000000,Hold,-232.000000,2.000000,Suck,692.138672,-2181.818182,Speed,732.788086,-2181.818182,Speed,On,Off0.000000,0,,,,
08:02:05.687 PM 03/17/2016,Teleop Enabled,10,FALSE,0,NO ERROR,-0.000000,0.000000,0.000000,0.000000,TRUE,FALSE,FALSE,FALSE,FALSE,FALSE,Disabled,0.000000,0.000000,0.000000,TRUE,0.130768,-0.343155,0.000000,-0.045959,-0.036682,0.000000,-0.508000,-0.006000,-0.212000,-0.060000,-0.200000,1.260000,0.068066,Hold,0.941162,0.000000,Hold,-232.000000,2.000000,Suck,693.237305,-2181.818182,Speed,732.788086,-2181.818182,Speed,On,Off0.000000,0,,,,
08:02:05.787 PM 03/17/2016,Teleop Enabled,11,FALSE,0,NO ERROR,-0.000000,0.000000,0.000000,0.000000,TRUE,FALSE,FALSE,FALSE,FALSE,FALSE,Disabled,0.000000,0.000000,0.000000,TRUE,0.127670,-0.344879,0.000000,-0.053116,-0.027924,0.000000,-0.247000,-0.076000,-0.092000,-0.050000,-0.120000,1.260000,0.023847,Hold,0.941406,0.000000,Hold,-232.000000,2.000000,Suck,693.237305,-2181.818182,Speed,732.788086,-2181.818182,Speed,On,Off0.000000,0,,,,
08:02:05.887 PM 03/17/2016,Teleop Enabled,10,FALSE,0,NO ERROR,-0.000000,0.000000,0.000000,0.000000,TRUE,FALSE,FALSE,FALSE,FALSE,FALSE,Disabled,0.000000,0.000000,0.000000,TRUE,0.123428,-0.347260,0.000000,-0.100815,-0.053024,0.000000,-0.247000,-0.076000,-0.092000,-0.060000,-0.180000,1.270000,0.024201,Hold,0.941406,0.000000,Hold,-232.000000,2.000000,Suck,693.237305,-2181.818182,Speed,732.788086,-2181.818182,Speed,On,Off0.000000,0,,,,
08:02:05.988 PM 03/17/2016,Teleop Enabled,9,FALSE,0,NO ERROR,-0.000000,0.000000,0.000000,0.000000,TRUE,FALSE,FALSE,FALSE,FALSE,FALSE,Disabled,0.000000,0.000000,0.000000,TRUE,0.121094,-0.350616,0.000000,-0.067368,-0.077148,0.000000,-0.091000,-0.029000,0.002000,-0.060000,-0.170000,1.260000,0.023131,Hold,0.941406,0.000000,Hold,-232.000000,2.000000,Suck,693.237305,-2181.818182,Speed,732.788086,-2181.818182,Speed,On,Off0.000000,0,,,,
