Time,Robot Mode,Loop Time,Error Status,Error Code,Error Source,Left Motor Output,Left Motor Encoder,Right Motor Output,Right Motor Encoder,Is Level,Is Stalled,Ball Detector Photoeye,Vision Enabled,Vision Teleop Control,Vision Auto Control,Vision Current State,Vision X Output,Vision NavX Error,Vision NavX Target,NavX Connection Status,NavX Displacement X,NavX Displacement Y,NavX Displacement Z,NavX Velocity X,NavX Velocity Y,NavX Velocity Z,NavX Acceleration X,NavX Acceleration Y,NavX Acceleration Z,NavX Pitch,NavX Yaw,NavX Roll,Gyro Angle,Roller Arm State,Roller Arm Actual,Roller Arm Desired,Shooter Arm State,Shooter Arm Actual,Shooter Arm Desired,Shooter State,Actual RPM Left,Desired RPM Left,Control Mode Left,Actual RPM Right,Desired RPM Right,Scaler Motor Output,Auto To Run,Auto Current File,Auto File Status,Auto Current Command,Auto Trimmed Command
12:53:06.987 PM 03/19/2016,Teleop Enabled,11,FALSE,0,NO ERROR,-0.000000,0.166833,0.000000,0.186083,TRUE,FALSE,TRUE,FALSE,FALSE,FALSE,Disabled,0.000000,0.000000,0.000000,TRUE,-0.003479,0.000381,0.000000,0.000000,0.000000,0.000000,0.020000,0.008000,-0.001000,-0.120000,0.000000,2.500000,0.551598,ResetBack,-64.230469,-0.200000,ResetBack,118438.000000,-0.300000,LowGoal,0.000000,-1454.545455,Speed,22.500000,-1454.545455,Speed,Off,Off0.000000,0,,,,
12:53:07.088 PM 03/19/2016,Teleop Enabled,11,FALSE,0,NO ERROR,-0.000000,0.141166,0.000000,0.160416,TRUE,FALSE,TRUE,FALSE,FALSE,FALSE,Disabled,0.000000,0.000000,0.000000,TRUE,-0.003708,0.000732,0.000000,-0.008865,0.000000,0.000000,0.000000,0.004000,0.035000,-0.130000,0.030000,2.470000,0.560607,ResetBack,-65.357178,-0.200000,ResetBack,120836.000000,-0.300000,LowGoal,105.000000,-1454.545455,Speed,615.000000,-1454.545455,Speed,Off,Off0.000000,0,,,,
12:53:07.189 PM 03/19/2016,Teleop Enabled,11,FALSE,0,NO ERROR,-0.000000,0.128333,0.000000,0.141166,TRUE,FALSE,TRUE,FALSE,FALSE,FALSE,Disabled,0.000000,0.000000,0.000000,TRUE,-0.005219,0.001007,0.000000,-0.069992,0.015549,0.000000,0.008000,-0.081000,0.095000,-0.100000,-0.010000,2.530000,0.575110,ResetBack,-65.383789,-0.200000,ResetBack,127245.000000,-0.300000,LowGoal,862.500000,-1454.545455,Speed,1245.000000,-1454.545455,Speed,Off,Off0.000000,0,,,,
12:53:07.290 PM 03/19/2016,Teleop Enabled,11,FALSE,0,NO ERROR,-0.000000,0.141166,0.000000,0.141166,TRUE,FALSE,TRUE,FALSE,FALSE,FALSE,Disabled,0.000000,0.000000,0.000000,TRUE,-0.009750,0.001724,0.000000,-0.079620,0.019760,0.000000,-0.054000,-0.037000,-0.049000,-0.110000,0.020000,2.570000,0.564166,Reset,-65.442383,0.000000,ResetBack,135772.000000,-0.300000,LowGoal,1530.000000,-1454.545455,Speed,1582.500000,-1454.545455,Speed,Off,Off0.000000,0,,,,
12:53:07.391 PM 03/19/2016,Teleop Enabled,12,FALSE,0,NO ERROR,-0.000000,0.147583,0.000000,0.160416,TRUE,FALSE,TRUE,FALSE,FALSE,FALSE,Disabled,0.000000,0.000000,0.000000,TRUE,-0.013260,0.002655,0.000000,-0.082718,0.027100,0.000000,0.022000,-0.091000,-0.063000,-0.120000,0.020000,2.590000,0.573110,Hold,0.987305,0.000000,ResetBack,141979.000000,-0.300000,LowGoal,1515.000000,-1454.545455,Speed,1395.000000,-1454.545455,Speed,Off,Off0.000000,0,,,,
12:53:07.492 PM 03/19/2016,Teleop Enabled,10,FALSE,0,NO ERROR,-0.000000,0.141166,0.000000,0.160416,TRUE,FALSE,TRUE,FALSE,FALSE,FALSE,Disabled,0.000000,0.000000,0.000000,TRUE,-0.017517,0.003464,0.000000,-0.082565,0.024353,0.000000,-0.021000,-0.047000,0.005000,-0.140000,0.020000,2.590000,0.553223,Hold,0.943848,0.000000,ResetBack,144017.000000,-0.300000,LowGoal,1297.500000,-1454.545455,Speed,1290.000000,-1454.545455,Speed,Off,Off0.000000,0,,,,
12:53:07.593 PM 03/19/2016,Teleop Enabled,11,FALSE,0,NO ERROR,-0.000000,0.141166,0.000000,0.154000,TRUE,FALSE,TRUE,FALSE,FALSE,FALSE,Disabled,0.000000,0.000000,0.000000,TRUE,-0.021423,0.004410,0.000000,-0.086777,0.031921,0.000000,0.015000,-0.054000,0.093000,-0.140000,0.000000,2.590000,0.583627,Hold,0.912354,0.000000,ResetBack,144017.000000,-0.300000,LowGoal,1305.000000,-1454.545455,Speed,1350.000000,-1454.545455,Speed,Off,Off0.000000,0,,,,
12:53:07.694 PM 03/19/2016,Teleop Enabled,12,FALSE,0,NO ERROR,-0.000000,0.134750,0.000000,0.154000,TRUE,FALSE,TRUE,FALSE,FALSE,FALSE,Disabled,0.000000,0.000000,0.000000,TRUE,-0.026138,0.005905,0.000000,-0.091980,0.028519,0.000000,-0.037000,0.102000,0.053000,-0.120000,-0.060000,2.580000,0.613856,Hold,0.912354,0.000000,ResetBack,144772.000000,-0.300000,LowGoal,1380.000000,-1454.545455,Speed,1380.000000,-1454.545455,Speed,Off,Off0.000000,0,,,,
12:53:07.794 PM 03/19/2016,Teleop Enabled,10,FALSE,0,NO ERROR,-0.000000,0.134750,0.000000,0.154000,TRUE,FALSE,TRUE,FALSE,FALSE,FALSE,Disabled,0.000000,0.000000,0.000000,TRUE,-0.030701,0.007538,0.000000,-0.093369,0.035446,0.000000,0.052000,-0.129000,-0.047000,-0.120000,-0.040000,2.670000,0.623120,Hold,0.912354,0.000000,ResetBack,144872.000000,-0.300000,LowGoal,1387.500000,-1454.545455,Speed,1350.000000,-1454.545455,Speed,Off,Off0.000000,0,,,,
12:53:07.895 PM 03/19/2016,Teleop Enabled,10,FALSE,0,NO ERROR,-0.000000,0.134750,0.000000,0.154000,TRUE,FALSE,TRUE,FALSE,FALSE,FALSE,Disabled,0.000000,0.000000,0.000000,TRUE,-0.034973,0.008652,0.000000,-0.085297,0.037354,0.000000,-0.045000,-0.091000,0.004000,-0.130000,0.020000,2.660000,0.608816,Hold,0.912354,0.000000,ResetBack,144873.000000,-0.300000,LowGoal,1342.500000,-1454.545455,Speed,1335.000000,-1454.545455,Speed,Off,Off0.000000,0,,,,
12:53:07.995 PM 03/19/2016,Teleop Enabled,10,FALSE,0,NO ERROR,-0.000000,0.134750,0.000000,0.154000,TRUE,FALSE,TRUE,FALSE,FALSE,FALSE,Disabled,0.000000,0.000000,0.000000,TRUE,-0.039474,0.009766,0.000000,-0.084244,0.007416,0.000000,0.088000,-0.065000,-0.042000,-0.130000,-0.030000,2.640000,0.616934,Hold,0.912354,0.000000,ResetBack,144874.000000,-0.300000,LowGoal,1350.000000,-1454.545455,Speed,1357.500000,-1454.545455,Speed,Off,Off0.000000,0,,,,
12:53:08.097 PM 03/19/2016,Teleop Enabled,12,FALSE,0,NO ERROR,-0.000000,0.134750,0.000000,0.154000,TRUE,FALSE,TRUE,FALSE,FALSE,FALSE,Disabled,0.000000,0.000000,0.000000,TRUE,-0.044312,0.009338,0.000000,-0.091476,0.003586,0.000000,0.007000,0.076000,0.105000,-0.120000,0.000000,2.590000,0.612910,Hold,0.912354,0.000000,ResetBack,144874.000000,-0.300000,LowGoal,1365.000000,-1454.545455,Speed,1350.000000,-1454.545455,Speed,Off,Off0.000000,0,,,,
12:53:08.197 PM 03/19/2016,Teleop Enabled,9,FALSE,0,NO ERROR,-0.000000,0.134750,0.000000,0.154000,TRUE,FALSE,TRUE,FALSE,FALSE,FALSE,Disabled,0.000000,0.000000,0.000000,TRUE,-0.048660,0.009918,0.000000,-0.091141,0.003189,0.000000,0.007000,0.001000,0.028000,-0.130000,0.000000,2.610000,0.603945,Hold,0.912354,0.000000,Reset,144874.000000,2.000000,LowGoal,1365.000000,-1454.545455,Speed,1342.500000,-1454.545455,Speed,Off,Off0.000000,0,,,,
12:53:08.297 PM 03/19/2016,Teleop Enabled,9,FALSE,0,NO ERROR,-0.000000,0.134750,0.000000,0.154000,TRUE,FALSE,TRUE,FALSE,FALSE,FALSE,Disabled,0.000000,0.000000,0.000000,TRUE,-0.053223,0.009354,0.000000,-0.090530,-0.003525,0.000000,0.049000,-0.044000,0.061000,-0.130000,0.000000,2.590000,0.602100,Hold,0.912354,0.000000,Hold,144874.000000,2.000000,LowGoal,1350.000000,-1454.545455,Speed,1350.000000,-1454.545455,Speed,Off,Off0.000000,0,,,,
12:53:08.397 PM 03/19/2016,Teleop Enabled,11,FALSE,0,NO ERROR,-0.000000,0.134750,0.000000,0.154000,TRUE,FALSE,TRUE,FALSE,FALSE,FALSE,Disabled,0.000000,0.000000,0.000000,TRUE,-0.055969,0.008850,0.000000,-0.004211,-0.024063,0.000000,-0.039000,-0.077000,0.013000,-0.140000,0.010000,2.550000,0.605994,Hold,0.912354,0.000000,Hold,-236.000000,2.000000,LowGoal,1365.000000,-1454.545455,Speed,1357.500000,-1454.545455,Speed,Off,Off0.000000,0,,,,
12:53:08.497 PM 03/19/2016,Teleop Disabled,10,FALSE,0,NO ERROR,-0.000000,0.134750,0.000000,0.154000,TRUE,FALSE,TRUE,FALSE,FALSE,FALSE,Disabled,0.000000,0.000000,0.000000,TRUE,-0.055771,0.008408,0.000000,0.003250,0.005249,0.000000,-0.035000,0.106000,0.055000,-0.130000,0.000000,2.580000,0.602234,Hold,0.912354,0.000000,Hold,-365.000000,2.000000,LowGoal,1350.000000,-1454.545455,Speed,1335.000000,-1454.545455,Speed,Off,Off0.000000,0,,,,
12:53:08.599 PM 03/19/2016,Teleop Disabled,9,FALSE,0,NO ERROR,-0.000000,0.134750,0.000000,0.154000,TRUE,FALSE,TRUE,FALSE,FALSE,FALSE,Disabled,0.000000,0.000000,0.000000,TRUE,-0.056046,0.009796,0.000000,0.000000,0.019363,0.000000,0.038000,-0.022000,0.059000,-0.140000,0.040000,2.590000,0.609543,Hold,0.912354,0.000000,Hold,-10058.000000,2.000000,LowGoal,1170.000000,-1454.545455,Speed,1155.000000,-1454.545455,Speed,Off,Off0.000000,0,,,,
12:53:08.699 PM 03/19/2016,Teleop Disabled,10,FALSE,0,NO ERROR,-0.000000,0.134750,0.000000,0.154000,TRUE,FALSE,TRUE,FALSE,FALSE,FALSE,Disabled,0.000000,0.000000,0.000000,TRUE,-0.056046,0.010666,0.000000,-0.005966,0.024170,0.000000,0.058000,0.051000,0.024000,-0.140000,0.010000,2.590000,0.616958,Hold,0.912354,0.000000,Hold,-16838.000000,2.000000,LowGoal,930.000000,-1454.545455,Speed,937.500000,-1454.545455,Speed,Off,Off0.000000,0,,,,
12:53:08.799 PM 03/19/2016,Teleop Disabled,10,FALSE,0,NO ERROR,-0.000000,0.134750,0.000000,0.154000,TRUE,FALSE,TRUE,FALSE,FALSE,FALSE,Disabled,0.000000,0.000000,0.000000,TRUE,-0.056427,0.012390,0.000000,-0.021500,0.036499,0.000000,-0.044000,0.013000,0.061000,-0.140000,0.020000,2.590000,0.636426,Hold,0.912354,0.000000,Hold,-17705.000000,2.000000,LowGoal,690.000000,-1454.545455,Speed,727.500000,-1454.545455,Speed,Off,Off0.000000,0,,,,
12:53:08.899 PM 03/19/2016,Teleop Disabled,11,FALSE,0,NO ERROR,-0.000000,0.134750,0.000000,0.154000,TRUE,FALSE,TRUE,FALSE,FALSE,FALSE,Disabled,0.000000,0.000000,0.000000,TRUE,-0.057220,0.012390,0.000000,0.000000,0.000000,0.000000,-0.006000,0.013000,0.023000,-0.140000,0.000000,2.610000,0.648767,Hold,0.912354,0.000000,Hold,-17705.000000,2.000000,LowGoal,480.000000,-1454.545455,Speed,540.000000,-1454.545455,Speed,Off,Off0.000000,0,,,,
12:53:08.999 PM 03/19/2016,Teleop Disabled,9,FALSE,0,NO ERROR,-0.000000,0.160416,0.000000,0.154000,TRUE,FALSE,TRUE,FALSE,FALSE,FALSE,Disabled,0.000000,0.000000,0.000000,TRUE,-0.057190,0.012390,0.000000,0.003616,0.000000,0.000000,-0.025000,0.000000,0.017000,-0.150000,0.000000,2.590000,0.691903,Hold,0.912354,0.000000,Hold,-17705.000000,2.000000,LowGoal,307.500000,-1454.545455,Speed,540.000000,-1454.545455,Speed,Off,Off0.000000,0,,,,
12:53:09.099 PM 03/19/2016,Teleop Disabled,11,FALSE,0,NO ERROR,-0.000000,0.160416,0.000000,0.154000,TRUE,FALSE,TRUE,FALSE,FALSE,FALSE,Disabled,0.000000,0.000000,0.000000,TRUE,-0.057114,0.012512,0.000000,0.005936,-0.000778,0.000000,-0.004000,0.012000,-0.003000,-0.150000,0.020000,2.590000,0.699700,Hold,0.912354,0.000000,Hold,-17705.000000,2.000000,LowGoal,307.500000,-1454.545455,Speed,225.000000,-1454.545455,Speed,Off,Off0.000000,0,,,,
12:53:09.199 PM 03/19/2016,Teleop Disabled,10,FALSE,0,NO ERROR,-0.000000,0.160416,0.000000,0.154000,TRUE,FALSE,TRUE,FALSE,FALSE,FALSE,Disabled,0.000000,0.000000,0.000000,TRUE,-0.057114,0.012512,0.000000,0.000000,0.000000,0.000000,-0.021000,0.001000,0.032000,-0.140000,0.000000,2.570000,0.710410,Hold,0.912354,0.000000,Hold,-17705.000000,2.000000,LowGoal,67.500000,-1454.545455,Speed,225.000000,-1454.545455,Speed,Off,Off0.000000,0,,,,
12:53:09.299 PM 03/19/2016,Teleop Disabled,10,FALSE,0,NO ERROR,-0.000000,0.160416,0.000000,0.154000,TRUE,FALSE,TRUE,FALSE,FALSE,FALSE,Disabled,0.000000,0.000000,0.000000,TRUE,-0.057251,0.012512,0.000000,0.000000,0.000000,0.000000,0.008000,0.004000,0.026000,-0.150000,0.000000,2.570000,0.723488,Hold,0.912354,0.000000,Hold,-17705.000000,2.000000,LowGoal,0.000000,-1454.545455,Speed,52.500000,-1454.545455,Speed,Off,Off0.000000,0,,,,
12:53:09.400 PM 03/19/2016,Teleop Disabled,10,FALSE,0,NO ERROR,-0.000000,0.160416,0.000000,0.154000,TRUE,FALSE,TRUE,FALSE,FALSE,FALSE,Disabled,0.000000,0.000000,0.000000,TRUE,-0.057251,0.012512,0.000000,0.000000,0.000000,0.000000,0.002000,0.000000,0.022000,-0.160000,0.010000,2.550000,0.730425,Hold,0.912354,0.000000,Hold,-17705.000000,2.000000,LowGoal,0.000000,-1454.545455,Speed,0.000000,-1454.545455,Speed,Off,Off0.000000,0,,,,
12:53:09.501 PM 03/19/2016,Teleop Disabled,9,FALSE,0,NO ERROR,-0.000000,0.160416,0.000000,0.154000,TRUE,FALSE,TRUE,FALSE,FALSE,FALSE,Disabled,0.000000,0.000000,0.000000,TRUE,-0.057251,0.012512,0.000000,0.000000,0.000000,0.000000,0.000000,-0.002000,0.017000,-0.150000,0.000000,2.540000,0.735954,Hold,0.912354,0.000000,Hold,-17705.000000,2.000000,LowGoal,0.000000,-1454.545455,Speed,0.000000,-1454.545455,Speed,Off,Off0.000000,0,,,,
12:53:09.601 PM 03/19/2016,Teleop Disabled,11,FALSE,0,NO ERROR,-0.000000,0.160416,0.000000,0.154000,TRUE,FALSE,TRUE,FALSE,FALSE,FALSE,Disabled,0.000000,0.000000,0.000000,TRUE,-0.057251,0.012512,0.000000,0.000000,0.000000,0.000000,0.000000,-0.001000,0.022000,-0.160000,0.010000,2.540000,0.740601,Hold,0.912354,0.000000,Hold,-17705.000000,2.000000,LowGoal,0.000000,-1454.545455,Speed,0.000000,-1454.545455,Speed,Off,Off0.000000,0,,,,
12:53:09.701 PM 03/19/2016,Teleop Disabled,10,FALSE,0,NO ERROR,-0.000000,0.160416,0.000000,0.154000,TRUE,TRUE,TRUE,FALSE,FALSE,FALSE,Disabled,0.000000,0.000000,0.000000,TRUE,-0.057251,0.012512,0.000000,0.000000,0.000000,0.000000,0.000000,-0.001000,0.022000,-0.160000,0.010000,2.540000,0.749359,Hold,0.912354,0.000000,Hold,-17705.000000,2.000000,LowGoal,0.000000,-1454.545455,Speed,0.000000,-1454.545455,Speed,Off,Off0.000000,0,,,,
12:53:09.801 PM 03/19/2016,Teleop Disabled,9,FALSE,0,NO ERROR,-0.000000,0.160416,0.000000,0.154000,TRUE,TRUE,TRUE,FALSE,FALSE,FALSE,Disabled,0.000000,0.000000,0.000000,TRUE,-0.057251,0.012512,0.000000,0.000000,0.000000,0.000000,0.002000,-0.001000,0.023000,-0.160000,0.010000,2.540000,0.752960,Hold,0.912354,0.000000,Hold,-17705.000000,2.000000,LowGoal,0.000000,0.000000,Speed,0.000000,0.000000,Speed,Off,Off0.000000,0,,,,
12:53:09.901 PM 03/19/2016,Teleop Disabled,10,FALSE,0,NO ERROR,-0.000000,0.160416,0.000000,0.154000,TRUE,FALSE,TRUE,FALSE,FALSE,FALSE,Disabled,0.000000,0.000000,0.000000,TRUE,-0.057251,0.012512,0.000000,0.000000,0.000000,0.000000,0.002000,-0.001000,0.023000,-0.160000,0.010000,2.530000,0.754963,Hold,0.912354,0.000000,Hold,-17705.000000,2.000000,LowGoal,0.000000,0.000000,Speed,0.000000,0.000000,Speed,Off,Off0.000000,0,,,,
12:53:10.001 PM 03/19/2016,Teleop Disabled,10,FALSE,0,NO ERROR,-0.000000,0.160416,0.000000,0.154000,TRUE,FALSE,TRUE,FALSE,FALSE,FALSE,Disabled,0.000000,0.000000,0.000000,TRUE,-0.057251,0.012512,0.000000,0.000000,0.000000,0.000000,0.002000,-0.001000,0.023000,-0.160000,0.010000,2.530000,0.751500,Hold,0.912354,0.000000,Hold,-17705.000000,2.000000,LowGoal,0.000000,-1454.545455,Speed,0.000000,-1454.545455,Speed,Off,Off0.000000,0,,,,
12:53:10.101 PM 03/19/2016,Teleop Disabled,10,FALSE,0,NO ERROR,-0.000000,0.160416,0.000000,0.154000,TRUE,FALSE,TRUE,FALSE,FALSE,FALSE,Disabled,0.000000,0.000000,0.000000,TRUE,-0.057251,0.012512,0.000000,0.000000,0.000000,0.000000,0.000000,-0.001000,0.016000,-0.160000,0.010000,2.530000,0.751965,Hold,0.912354,0.000000,Hold,-17705.000000,2.000000,LowGoal,0.000000,-1454.545455,Speed,0.000000,-1454.545455,Speed,Off,Off0.000000,0,,,,
12:53:10.201 PM 03/19/2016,Teleop Disabled,10,FALSE,0,NO ERROR,-0.000000,0.160416,0.000000,0.154000,TRUE,FALSE,TRUE,FALSE,FALSE,FALSE,Disabled,0.000000,0.000000,0.000000,TRUE,-0.057251,0.012512,0.000000,0.000000,0.000000,0.000000,0.000000,-0.001000,0.016000,-0.150000,0.010000,2.520000,0.747252,Hold,0.912354,0.000000,Hold,-17705.000000,2.000000,LowGoal,0.000000,-1454.545455,Speed,0.000000,-1454.545455,Speed,Off,Off0.000000,0,,,,
12:53:10.301 PM 03/19/2016,Teleop Disabled,11,FALSE,0,NO ERROR,-0.000000,0.160416,0.000000,0.154000,TRUE,FALSE,TRUE,FALSE,FALSE,FALSE,Disabled,0.000000,0.000000,0.000000,TRUE,-0.057251,0.012512,0.000000,0.000000,0.000000,0.000000,0.001000,-0.001000,0.023000,-0.160000,0.020000,2.520000,0.743558,Hold,0.912354,0.000000,Hold,-17705.000000,2.000000,LowGoal,0.000000,-1454.545455,Speed,0.000000,-1454.545455,Speed,Off,Off0.000000,0,,,,
12:53:10.401 PM 03/19/2016,Teleop Disabled,10,FALSE,0,NO ERROR,-0.000000,0.160416,0.000000,0.154000,TRUE,FALSE,TRUE,FALSE,FALSE,FALSE,Disabled,0.000000,0.000000,0.000000,TRUE,-0.057251,0.012512,0.000000,0.000000,0.000000,0.000000,0.000000,0.000000,0.023000,-0.160000,0.020000,2.520000,0.759170,Hold,0.912354,0.000000,Hold,-17705.000000,2.000000,LowGoal,0.000000,-1454.545455,Speed,0.000000,-1454.545455,Speed,Off,Off0.000000,0,,,,
12:53:10.504 PM 03/19/2016,Teleop Disabled,9,FALSE,0,NO ERROR,-0.000000,0.160416,0.000000,0.154000,TRUE,TRUE,TRUE,FALSE,FALSE,FALSE,Disabled,0.000000,0.000000,0.000000,TRUE,-0.057251,0.012512,0.000000,0.000000,0.000000,0.000000,0.001000,-0.001000,0.022000,-0.160000,0.020000,2.510000,0.767088,Hold,0.912354,0.000000,Hold,-17705.000000,2.000000,LowGoal,0.000000,-1454.545455,Speed,0.000000,-1454.545455,Speed,Off,Off0.000000,0,,,,
12:53:10.602 PM 03/19/2016,Teleop Disabled,10,FALSE,0,NO ERROR,-0.000000,0.160416,0.000000,0.154000,TRUE,TRUE,TRUE,FALSE,FALSE,FALSE,Disabled,0.000000,0.000000,0.000000,TRUE,-0.057251,0.012512,0.000000,0.000000,0.000000,0.000000,0.002000,0.000000,0.017000,-0.170000,0.020000,2.510000,0.756626,Hold,0.912354,0.000000,Hold,-17705.000000,2.000000,LowGoal,0.000000,0.000000,Speed,0.000000,0.000000,Speed,Off,Off0.000000,0,,,,
12:53:10.703 PM 03/19/2016,Teleop Disabled,10,FALSE,0,NO ERROR,-0.000000,0.160416,0.000000,0.154000,TRUE,FALSE,TRUE,FALSE,FALSE,FALSE,Disabled,0.000000,0.000000,0.000000,TRUE,-0.057251,0.012512,0.000000,0.000000,0.000000,0.000000,-0.001000,-0.001000,0.020000,-0.170000,0.030000,2.500000,0.752588,Hold,0.912354,0.000000,Hold,-17705.000000,2.000000,LowGoal,0.000000,0.000000,Speed,0.000000,0.000000,Speed,Off,Off0.000000,0,,,,
12:53:10.805 PM 03/19/2016,Teleop Disabled,11,FALSE,0,NO ERROR,-0.000000,0.160416,0.000000,0.154000,TRUE,FALSE,TRUE,FALSE,FALSE,FALSE,Disabled,0.000000,0.000000,0.000000,TRUE,-0.057251,0.012512,0.000000,0.000000,0.000000,0.000000,0.000000,0.000000,0.019000,-0.170000,0.030000,2.500000,0.749211,Hold,0.912354,0.000000,Hold,-17705.000000,2.000000,LowGoal,0.000000,-1454.545455,Speed,0.000000,-1454.545455,Speed,Off,Off0.000000,0,,,,
12:53:10.906 PM 03/19/2016,Teleop Disabled,11,FALSE,0,NO ERROR,-0.000000,0.160416,0.000000,0.154000,TRUE,FALSE,TRUE,FALSE,FALSE,FALSE,Disabled,0.000000,0.000000,0.000000,TRUE,-0.057251,0.012512,0.000000,0.000000,0.000000,0.000000,0.000000,-0.001000,0.023000,-0.160000,0.030000,2.500000,0.756158,Hold,0.912354,0.000000,Hold,-17705.000000,2.000000,LowGoal,0.000000,-1454.545455,Speed,0.000000,-1454.545455,Speed,Off,Off0.000000,0,,,,
12:53:11.007 PM 03/19/2016,Teleop Disabled,10,FALSE,0,NO ERROR,-0.000000,0.160416,0.000000,0.154000,TRUE,FALSE,TRUE,FALSE,FALSE,FALSE,Disabled,0.000000,0.000000,0.000000,TRUE,-0.057251,0.012512,0.000000,0.000000,0.000000,0.000000,0.000000,0.000000,0.022000,-0.170000,0.030000,2.500000,0.750281,Hold,0.912354,0.000000,Hold,-17705.000000,2.000000,LowGoal,0.000000,-1454.545455,Speed,0.000000,-1454.545455,Speed,Off,Off0.000000,0,,,,
12:53:11.107 PM 03/19/2016,Teleop Disabled,10,FALSE,0,NO ERROR,-0.000000,0.160416,0.000000,0.154000,TRUE,FALSE,TRUE,FALSE,FALSE,FALSE,Disabled,0.000000,0.000000,0.000000,TRUE,-0.057251,0.012512,0.000000,0.000000,0.000000,0.000000,0.001000,0.000000,0.020000,-0.170000,0.030000,2.500000,0.750281,Hold,0.912354,0.000000,Hold,-17705.000000,2.000000,LowGoal,0.000000,-1454.545455,Speed,0.000000,-1454.545455,Speed,Off,Off0.000000,0,,,,
12:53:11.209 PM 03/19/2016,Teleop Disabled,10,FALSE,0,NO ERROR,-0.000000,0.160416,0.000000,0.154000,TRUE,FALSE,TRUE,FALSE,FALSE,FALSE,Disabled,0.000000,0.000000,0.000000,TRUE,-0.057251,0.012512,0.000000,0.000000,0.000000,0.000000,0.001000,0.002000,0.020000,-0.170000,0.030000,2.490000,0.740573,Hold,0.912354,0.000000,Hold,-17705.000000,2.000000,LowGoal,0.000000,-1454.545455,Speed,0.000000,-1454.545455,Speed,Off,Off0.000000,0,,,,
12:53:11.310 PM 03/19/2016,Teleop Disabled,10,FALSE,0,NO ERROR,-0.000000,0.160416,0.000000,0.154000,TRUE,TRUE,TRUE,FALSE,FALSE,FALSE,Disabled,0.000000,0.000000,0.000000,TRUE,-0.057251,0.012512,0.000000,0.000000,0.000000,0.000000,0.000000,-0.001000,0.023000,-0.170000,0.030000,2.490000,0.746150,Hold,0.912354,0.000000,Hold,-17705.000000,2.000000,LowGoal,0.000000,-1454.545455,Speed,0.000000,-1454.545455,Speed,Off,Off0.000000,0,,,,
12:53:11.411 PM 03/19/2016,Teleop Disabled,11,FALSE,0,NO ERROR,-0.000000,0.160416,0.000000,0.154000,TRUE,TRUE,TRUE,FALSE,FALSE,FALSE,Disabled,0.000000,0.000000,0.000000,TRUE,-0.057251,0.012512,0.000000,0.000000,0.000000,0.000000,0.000000,-0.002000,0.022000,-0.170000,0.040000,2.490000,0.745252,Hold,0.912354,0.000000,Hold,-17705.000000,2.000000,LowGoal,0.000000,0.000000,Speed,0.000000,0.000000,Speed,Off,Off0.000000,0,,,,
12:53:11.512 PM 03/19/2016,Teleop Disabled,10,FALSE,0,NO ERROR,-0.000000,0.160416,0.000000,0.154000,TRUE,FALSE,TRUE,FALSE,FALSE,FALSE,Disabled,0.000000,0.000000,0.000000,TRUE,-0.057251,0.012512,0.000000,0.000000,0.000000,0.000000,0.000000,0.000000,0.017000,-0.170000,0.040000,2.490000,0.758871,Hold,0.912354,0.000000,Hold,-17705.000000,2.000000,LowGoal,0.000000,0.000000,Speed,0.000000,0.000000,Speed,Off,Off0.000000,0,,,,
12:53:11.613 PM 03/19/2016,Teleop Disabled,10,FALSE,0,NO ERROR,-0.000000,0.160416,0.000000,0.154000,TRUE,FALSE,TRUE,FALSE,FALSE,FALSE,Disabled,0.000000,0.000000,0.000000,TRUE,-0.057251,0.012512,0.000000,0.000000,0.000000,0.000000,0.000000,0.000000,0.022000,-0.170000,0.050000,2.490000,0.760561,Hold,0.912354,0.000000,Hold,-17705.000000,2.000000,LowGoal,0.000000,-1454.545455,Speed,0.000000,-1454.545455,Speed,Off,Off0.000000,0,,,,
12:53:11.714 PM 03/19/2016,Teleop Disabled,10,FALSE,0,NO ERROR,-0.000000,0.160416,0.000000,0.154000,TRUE,FALSE,TRUE,FALSE,FALSE,FALSE,Disabled,0.000000,0.000000,0.000000,TRUE,-0.057251,0.012512,0.000000,0.000000,0.000000,0.000000,-0.001000,0.000000,0.020000,-0.170000,0.040000,2.490000,0.761397,Hold,0.912354,0.000000,Hold,-17705.000000,2.000000,LowGoal,0.000000,-1454.545455,Speed,0.000000,-1454.545455,Speed,Off,Off0.000000,0,,,,
12:53:11.815 PM 03/19/2016,Teleop Disabled,10,FALSE,0,NO ERROR,-0.000000,0.160416,0.000000,0.154000,TRUE,FALSE,TRUE,FALSE,FALSE,FALSE,Disabled,0.000000,0.000000,0.000000,TRUE,-0.057251,0.012512,0.000000,0.000000,0.000000,0.000000,-0.001000,0.000000,0.017000,-0.170000,0.040000,2.490000,0.758075,Hold,0.912354,0.000000,Hold,-17705.000000,2.000000,LowGoal,0.000000,-1454.545455,Speed,0.000000,-1454.545455,Speed,Off,Off0.000000,0,,,,
12:53:11.915 PM 03/19/2016,Teleop Disabled,9,FALSE,0,NO ERROR,-0.000000,0.160416,0.000000,0.154000,TRUE,FALSE,TRUE,FALSE,FALSE,FALSE,Disabled,0.000000,0.000000,0.000000,TRUE,-0.057251,0.012512,0.000000,0.000000,0.000000,0.000000,0.000000,0.001000,0.015000,-0.170000,0.040000,2.490000,0.751879,Hold,0.912354,0.000000,Hold,-17705.000000,2.000000,LowGoal,0.000000,-1454.545455,Speed,0.000000,-1454.545455,Speed,Off,Off0.000000,0,,,,
12:53:12.015 PM 03/19/2016,Teleop Disabled,10,FALSE,0,NO ERROR,-0.000000,0.160416,0.000000,0.154000,TRUE,FALSE,TRUE,FALSE,FALSE,FALSE,Disabled,0.000000,0.000000,0.000000,TRUE,-0.057251,0.012512,0.000000,0.000000,0.000000,0.000000,-0.001000,-0.001000,0.020000,-0.170000,0.050000,2.490000,0.762933,Hold,0.912354,0.000000,Hold,-17705.000000,2.000000,LowGoal,0.000000,-1454.545455,Speed,0.000000,-1454.545455,Speed,Off,Off0.000000,0,,,,
12:53:12.115 PM 03/19/2016,Teleop Disabled,9,FALSE,0,NO ERROR,-0.000000,0.160416,0.000000,0.154000,TRUE,TRUE,TRUE,FALSE,FALSE,FALSE,Disabled,0.000000,0.000000,0.000000,TRUE,-0.057251,0.012512,0.000000,0.000000,0.000000,0.000000,0.000000,0.000000,0.019000,-0.170000,0.050000,2.490000,0.779016,Hold,0.912354,0.000000,Hold,-17705.000000,2.000000,LowGoal,0.000000,-1454.545455,Speed,0.000000,-1454.545455,Speed,Off,Off0.000000,0,,,,
12:53:12.215 PM 03/19/2016,Teleop Disabled,8,FALSE,0,NO ERROR,-0.000000,0.160416,0.000000,0.154000,TRUE,TRUE,TRUE,FALSE,FALSE,FALSE,Disabled,0.000000,0.000000,0.000000,TRUE,-0.057251,0.012512,0.000000,0.000000,0.000000,0.000000,0.000000,0.000000,0.025000,-0.170000,0.050000,2.490000,0.791912,Hold,0.912354,0.000000,Hold,-17705.000000,2.000000,LowGoal,0.000000,0.000000,Speed,0.000000,0.000000,Speed,Off,Off0.000000,0,,,,
12:53:12.315 PM 03/19/2016,Teleop Disabled,11,FALSE,0,NO ERROR,-0.000000,0.160416,0.000000,0.154000,TRUE,FALSE,TRUE,FALSE,FALSE,FALSE,Disabled,0.000000,0.000000,0.000000,TRUE,-0.057251,0.012512,0.000000,0.000000,0.000000,0.000000,0.002000,-0.001000,0.024000,-0.170000,0.040000,2.480000,0.800946,Hold,0.912354,0.000000,Hold,-17705.000000,2.000000,LowGoal,0.000000,0.000000,Speed,0.000000,0.000000,Speed,Off,Off0.000000,0,,,,
12:53:12.416 PM 03/19/2016,Teleop Disabled,10,FALSE,0,NO ERROR,-0.000000,0.160416,0.000000,0.154000,TRUE,FALSE,TRUE,FALSE,FALSE,FALSE,Disabled,0.000000,0.000000,0.000000,TRUE,-0.057251,0.012512,0.000000,0.000000,0.000000,0.000000,0.001000,0.000000,0.021000,-0.180000,0.040000,2.480000,0.801679,Hold,0.912354,0.000000,Hold,-17705.000000,2.000000,LowGoal,0.000000,-1454.545455,Speed,0.000000,-1454.545455,Speed,Off,Off0.000000,0,,,,
12:53:12.516 PM 03/19/2016,Teleop Disabled,11,FALSE,0,NO ERROR,-0.000000,0.160416,0.000000,0.154000,TRUE,FALSE,TRUE,FALSE,FALSE,FALSE,Disabled,0.000000,0.000000,0.000000,TRUE,-0.057251,0.012512,0.000000,0.000000,0.000000,0.000000,0.002000,0.000000,0.019000,-0.170000,0.040000,2.480000,0.805421,Hold,0.912354,0.000000,Hold,-17705.000000,2.000000,LowGoal,0.000000,-1454.545455,Speed,0.000000,-1454.545455,Speed,Off,Off0.000000,0,,,,
12:53:12.617 PM 03/19/2016,Teleop Disabled,11,FALSE,0,NO ERROR,-0.000000,0.160416,0.000000,0.154000,TRUE,FALSE,TRUE,FALSE,FALSE,FALSE,Disabled,0.000000,0.000000,0.000000,TRUE,-0.057251,0.012512,0.000000,0.000000,0.000000,0.000000,-0.002000,0.001000,0.020000,-0.170000,0.040000,2.480000,0.801607,Hold,0.912354,0.000000,Hold,-17705.000000,2.000000,LowGoal,0.000000,-1454.545455,Speed,0.000000,-1454.545455,Speed,Off,Off0.000000,0,,,,
12:53:12.718 PM 03/19/2016,Teleop Disabled,10,FALSE,0,NO ERROR,-0.000000,0.160416,0.000000,0.154000,TRUE,FALSE,TRUE,FALSE,FALSE,FALSE,Disabled,0.000000,0.000000,0.000000,TRUE,-0.057251,0.012512,0.000000,0.000000,0.000000,0.000000,0.000000,-0.001000,0.021000,-0.170000,0.040000,2.480000,0.799644,Hold,0.912354,0.000000,Hold,-17705.000000,2.000000,LowGoal,0.000000,-1454.545455,Speed,0.000000,-1454.545455,Speed,Off,Off0.000000,0,,,,
12:53:12.819 PM 03/19/2016,Teleop Disabled,10,FALSE,0,NO ERROR,-0.000000,0.160416,0.000000,0.154000,TRUE,FALSE,TRUE,FALSE,FALSE,FALSE,Disabled,0.000000,0.000000,0.000000,TRUE,-0.057251,0.012512,0.000000,0.000000,0.000000,0.000000,0.002000,0.000000,0.025000,-0.180000,0.030000,2.480000,0.813287,Hold,0.912354,0.000000,Hold,-17705.000000,2.000000,LowGoal,0.000000,-1454.545455,Speed,0.000000,-1454.545455,Speed,Off,Off0.000000,0,,,,
12:53:12.919 PM 03/19/2016,Teleop Disabled,10,FALSE,0,NO ERROR,-0.000000,0.160416,0.000000,0.154000,TRUE,TRUE,TRUE,FALSE,FALSE,FALSE,Disabled,0.000000,0.000000,0.000000,TRUE,-0.057251,0.012512,0.000000,0.000000,0.000000,0.000000,0.000000,0.000000,0.023000,-0.180000,0.030000,2.480000,0.806467,Hold,0.912354,0.000000,Hold,-17705.000000,2.000000,LowGoal,0.000000,-1454.545455,Speed,0.000000,-1454.545455,Speed,Off,Off0.000000,0,,,,
12:53:13.020 PM 03/19/2016,Teleop Disabled,9,FALSE,0,NO ERROR,-0.000000,0.160416,0.000000,0.154000,TRUE,TRUE,TRUE,FALSE,FALSE,FALSE,Disabled,0.000000,0.000000,0.000000,TRUE,-0.057251,0.012512,0.000000,0.000000,0.000000,0.000000,0.002000,0.000000,0.020000,-0.180000,0.040000,2.480000,0.807597,Hold,0.912354,0.000000,Hold,-17705.000000,2.000000,LowGoal,0.000000,0.000000,Speed,0.000000,0.000000,Speed,Off,Off0.000000,0,,,,
12:53:13.121 PM 03/19/2016,Teleop Disabled,10,FALSE,0,NO ERROR,-0.000000,0.160416,0.000000,0.154000,TRUE,FALSE,TRUE,FALSE,FALSE,FALSE,Disabled,0.000000,0.000000,0.000000,TRUE,-0.057251,0.012512,0.000000,0.000000,0.000000,0.000000,0.000000,-0.002000,0.021000,-0.180000,0.040000,2.480000,0.803166,Hold,0.912354,0.000000,Hold,-17705.000000,2.000000,LowGoal,0.000000,0.000000,Speed,0.000000,0.000000,Speed,Off,Off0.000000,0,,,,
12:53:13.221 PM 03/19/2016,Teleop Disabled,10,FALSE,0,NO ERROR,-0.000000,0.160416,0.000000,0.154000,TRUE,FALSE,TRUE,FALSE,FALSE,FALSE,Disabled,0.000000,0.000000,0.000000,TRUE,-0.057251,0.012512,0.000000,0.000000,0.000000,0.000000,0.000000,0.000000,0.025000,-0.180000,0.040000,2.470000,0.812051,Hold,0.912354,0.000000,Hold,-17705.000000,2.000000,LowGoal,0.000000,-1454.545455,Speed,0.000000,-1454.545455,Speed,Off,Off0.000000,0,,,,
12:53:13.321 PM 03/19/2016,Teleop Disabled,10,FALSE,0,NO ERROR,-0.000000,0.160416,0.000000,0.154000,TRUE,FALSE,TRUE,FALSE,FALSE,FALSE,Disabled,0.000000,0.000000,0.000000,TRUE,-0.057251,0.012512,0.000000,0.000000,0.000000,0.000000,-0.002000,0.002000,0.021000,-0.180000,0.040000,2.470000,0.843726,Hold,0.912354,0.000000,Hold,-17705.000000,2.000000,LowGoal,0.000000,-1454.545455,Speed,0.000000,-1454.545455,Speed,Off,Off0.000000,0,,,,
12:53:13.421 PM 03/19/2016,Teleop Disabled,10,FALSE,0,NO ERROR,-0.000000,0.160416,0.000000,0.154000,TRUE,FALSE,TRUE,FALSE,FALSE,FALSE,Disabled,0.000000,0.000000,0.000000,TRUE,-0.057251,0.012512,0.000000,0.000000,0.000000,0.000000,-0.001000,0.000000,0.019000,-0.180000,0.040000,2.470000,0.839612,Hold,0.912354,0.000000,Hold,-17705.000000,2.000000,LowGoal,0.000000,-1454.545455,Speed,0.000000,-1454.545455,Speed,Off,Off0.000000,0,,,,
12:53:13.521 PM 03/19/2016,Teleop Disabled,9,FALSE,0,NO ERROR,-0.000000,0.160416,0.000000,0.154000,TRUE,FALSE,TRUE,FALSE,FALSE,FALSE,Disabled,0.000000,0.000000,0.000000,TRUE,-0.057251,0.012512,0.000000,0.000000,0.000000,0.000000,-0.001000,0.000000,0.020000,-0.180000,0.040000,2.470000,0.841640,Hold,0.912354,0.000000,Hold,-17705.000000,2.000000,LowGoal,0.000000,-1454.545455,Speed,0.000000,-1454.545455,Speed,Off,Off0.000000,0,,,,
12:53:13.622 PM 03/19/2016,Teleop Disabled,10,FALSE,0,NO ERROR,-0.000000,0.160416,0.000000,0.154000,TRUE,FALSE,TRUE,FALSE,FALSE,FALSE,Disabled,0.000000,0.000000,0.000000,TRUE,-0.057251,0.012512,0.000000,0.000000,0.000000,0.000000,0.001000,0.000000,0.025000,-0.180000,0.040000,2.470000,0.834872,Hold,0.912354,0.000000,Hold,-17705.000000,2.000000,LowGoal,0.000000,-1454.545455,Speed,0.000000,-1454.545455,Speed,Off,Off0.000000,0,,,,
12:53:13.721 PM 03/19/2016,Teleop Disabled,9,FALSE,0,NO ERROR,-0.000000,0.160416,0.000000,0.154000,TRUE,TRUE,TRUE,FALSE,FALSE,FALSE,Disabled,0.000000,0.000000,0.000000,TRUE,-0.057251,0.012512,0.000000,0.000000,0.000000,0.000000,0.000000,0.000000,0.020000,-0.180000,0.040000,2.470000,0.837592,Hold,0.912354,0.000000,Hold,-17705.000000,2.000000,LowGoal,0.000000,-1454.545455,Speed,0.000000,-1454.545455,Speed,Off,Off0.000000,0,,,,
12:53:13.822 PM 03/19/2016,Teleop Disabled,10,FALSE,0,NO ERROR,-0.000000,0.160416,0.000000,0.154000,TRUE,TRUE,TRUE,FALSE,FALSE,FALSE,Disabled,0.000000,0.000000,0.000000,TRUE,-0.057251,0.012512,0.000000,0.000000,0.000000,0.000000,-0.003000,0.002000,0.020000,-0.190000,0.040000,2.470000,0.839791,Hold,0.912354,0.000000,Hold,-17705.000000,2.000000,LowGoal,0.000000,0.000000,Speed,0.000000,0.000000,Speed,Off,Off0.000000,0,,,,
12:53:13.923 PM 03/19/2016,Teleop Disabled,8,FALSE,0,NO ERROR,-0.000000,0.160416,0.000000,0.154000,TRUE,FALSE,TRUE,FALSE,FALSE,FALSE,Disabled,0.000000,0.000000,0.000000,TRUE,-0.057251,0.012512,0.000000,0.000000,0.000000,0.000000,0.001000,-0.001000,0.020000,-0.190000,0.040000,2.480000,0.838834,Hold,0.912354,0.000000,Hold,-17705.000000,2.000000,LowGoal,0.000000,0.000000,Speed,0.000000,0.000000,Speed,Off,Off0.000000,0,,,,
12:53:14.022 PM 03/19/2016,Teleop Disabled,9,FALSE,0,NO ERROR,-0.000000,0.160416,0.000000,0.154000,TRUE,FALSE,TRUE,FALSE,FALSE,FALSE,Disabled,0.000000,0.000000,0.000000,TRUE,-0.057251,0.012512,0.000000,0.000000,0.000000,0.000000,-0.001000,-0.002000,0.023000,-0.190000,0.050000,2.470000,0.851379,Hold,0.912354,0.000000,Hold,-17705.000000,2.000000,LowGoal,0.000000,-1454.545455,Speed,0.000000,-1454.545455,Speed,Off,Off0.000000,0,,,,
12:53:14.125 PM 03/19/2016,Teleop Disabled,11,FALSE,0,NO ERROR,-0.000000,0.160416,0.000000,0.154000,TRUE,FALSE,TRUE,FALSE,FALSE,FALSE,Disabled,0.000000,0.000000,0.000000,TRUE,-0.057251,0.012512,0.000000,0.000000,0.000000,0.000000,0.000000,-0.001000,0.024000,-0.190000,0.040000,2.470000,0.868664,Hold,0.912354,0.000000,Hold,-17705.000000,2.000000,LowGoal,0.000000,-1454.545455,Speed,0.000000,-1454.545455,Speed,Off,Off0.000000,0,,,,
12:53:14.226 PM 03/19/2016,Teleop Disabled,10,FALSE,0,NO ERROR,-0.000000,0.160416,0.000000,0.154000,TRUE,FALSE,TRUE,FALSE,FALSE,FALSE,Disabled,0.000000,0.000000,0.000000,TRUE,-0.057251,0.012512,0.000000,0.000000,0.000000,0.000000,0.001000,-0.001000,0.020000,-0.190000,0.040000,2.470000,0.867019,Hold,0.912354,0.000000,Hold,-17705.000000,2.000000,LowGoal,0.000000,-1454.545455,Speed,0.000000,-1454.545455,Speed,Off,Off0.000000,0,,,,
12:53:14.327 PM 03/19/2016,Teleop Disabled,11,FALSE,0,NO ERROR,-0.000000,0.160416,0.000000,0.154000,TRUE,FALSE,TRUE,FALSE,FALSE,FALSE,Disabled,0.000000,0.000000,0.000000,TRUE,-0.057251,0.012512,0.000000,0.000000,0.000000,0.000000,0.001000,-0.002000,0.025000,-0.190000,0.050000,2.470000,0.865222,Hold,0.912354,0.000000,Hold,-17705.000000,2.000000,LowGoal,0.000000,-1454.545455,Speed,0.000000,-1454.545455,Speed,Off,Off0.000000,0,,,,
12:53:14.428 PM 03/19/2016,Teleop Disabled,10,FALSE,0,NO ERROR,-0.000000,0.160416,0.000000,0.154000,TRUE,FALSE,TRUE,FALSE,FALSE,FALSE,Disabled,0.000000,0.000000,0.000000,TRUE,-0.057251,0.012512,0.000000,0.000000,0.000000,0.000000,-0.001000,0.000000,0.024000,-0.190000,0.040000,2.470000,0.859590,Hold,0.912354,0.000000,Hold,-17705.000000,2.000000,LowGoal,0.000000,-1454.545455,Speed,0.000000,-1454.545455,Speed,Off,Off0.000000,0,,,,
12:53:14.529 PM 03/19/2016,Teleop Disabled,10,FALSE,0,NO ERROR,-0.000000,0.160416,0.000000,0.154000,TRUE,TRUE,TRUE,FALSE,FALSE,FALSE,Disabled,0.000000,0.000000,0.000000,TRUE,-0.057251,0.012512,0.000000,0.000000,0.000000,0.000000,-0.001000,-0.001000,0.022000,-0.190000,0.040000,2.470000,0.877642,Hold,0.912354,0.000000,Hold,-17705.000000,2.000000,LowGoal,0.000000,-1454.545455,Speed,0.000000,-1454.545455,Speed,Off,Off0.000000,0,,,,
12:53:14.630 PM 03/19/2016,Teleop Disabled,11,FALSE,0,NO ERROR,-0.000000,0.160416,0.000000,0.154000,TRUE,TRUE,TRUE,FALSE,FALSE,FALSE,Disabled,0.000000,0.000000,0.000000,TRUE,-0.057251,0.012512,0.000000,0.000000,0.000000,0.000000,0.000000,0.000000,0.024000,-0.190000,0.040000,2.470000,0.854526,Hold,0.912354,0.000000,Hold,-17705.000000,2.000000,LowGoal,0.000000,0.000000,Speed,0.000000,0.000000,Speed,Off,Off0.000000,0,,,,
12:53:14.731 PM 03/19/2016,Teleop Disabled,9,FALSE,0,NO ERROR,-0.000000,0.160416,0.000000,0.154000,TRUE,FALSE,TRUE,FALSE,FALSE,FALSE,Disabled,0.000000,0.000000,0.000000,TRUE,-0.057251,0.012512,0.000000,0.000000,0.000000,0.000000,0.000000,-0.001000,0.021000,-0.190000,0.040000,2.460000,0.861996,Hold,0.912354,0.000000,Hold,-17705.000000,2.000000,LowGoal,0.000000,0.000000,Speed,0.000000,0.000000,Speed,Off,Off0.000000,0,,,,
12:53:14.831 PM 03/19/2016,Teleop Disabled,11,FALSE,0,NO ERROR,-0.000000,0.160416,0.000000,0.154000,TRUE,FALSE,TRUE,FALSE,FALSE,FALSE,Disabled,0.000000,0.000000,0.000000,TRUE,-0.057251,0.012512,0.000000,0.000000,0.000000,0.000000,0.000000,-0.001000,0.020000,-0.200000,0.040000,2.470000,0.862832,Hold,0.912354,0.000000,Hold,-17705.000000,2.000000,LowGoal,0.000000,-1454.545455,Speed,0.000000,-1454.545455,Speed,Off,Off0.000000,0,,,,
12:53:14.934 PM 03/19/2016,Teleop Disabled,9,FALSE,0,NO ERROR,-0.000000,0.160416,0.000000,0.154000,TRUE,FALSE,TRUE,FALSE,FALSE,FALSE,Disabled,0.000000,0.000000,0.000000,TRUE,-0.057251,0.012512,0.000000,0.000000,0.000000,0.000000,-0.001000,0.002000,0.023000,-0.200000,0.040000,2.470000,0.862079,Hold,0.912354,0.000000,Hold,-17705.000000,2.000000,LowGoal,0.000000,-1454.545455,Speed,0.000000,-1454.545455,Speed,Off,Off0.000000,0,,,,
12:53:15.034 PM 03/19/2016,Teleop Disabled,10,FALSE,0,NO ERROR,-0.000000,0.160416,0.000000,0.154000,TRUE,FALSE,TRUE,FALSE,FALSE,FALSE,Disabled,0.000000,0.000000,0.000000,TRUE,-0.057251,0.012512,0.000000,0.000000,0.000000,0.000000,0.000000,0.000000,0.022000,-0.200000,0.040000,2.470000,0.862750,Hold,0.912354,0.000000,Hold,-17705.000000,2.000000,LowGoal,0.000000,-1454.545455,Speed,0.000000,-1454.545455,Speed,Off,Off0.000000,0,,,,
12:53:15.134 PM 03/19/2016,Teleop Disabled,9,FALSE,0,NO ERROR,-0.000000,0.160416,0.000000,0.154000,TRUE,FALSE,TRUE,FALSE,FALSE,FALSE,Disabled,0.000000,0.000000,0.000000,TRUE,-0.057251,0.012512,0.000000,0.000000,0.000000,0.000000,0.000000,0.001000,0.023000,-0.200000,0.040000,2.470000,0.858698,Hold,0.912354,0.000000,Hold,-17705.000000,2.000000,LowGoal,0.000000,-1454.545455,Speed,0.000000,-1454.545455,Speed,Off,Off0.000000,0,,,,
12:53:15.234 PM 03/19/2016,Teleop Disabled,9,FALSE,0,NO ERROR,-0.000000,0.160416,0.000000,0.154000,TRUE,FALSE,TRUE,FALSE,FALSE,FALSE,Disabled,0.000000,0.000000,0.000000,TRUE,-0.057251,0.012512,0.000000,0.000000,0.000000,0.000000,0.000000,-0.001000,0.024000,-0.200000,0.040000,2.470000,0.873415,Hold,0.912354,0.000000,Hold,-17705.000000,2.000000,LowGoal,0.000000,-1454.545455,Speed,0.000000,-1454.545455,Speed,Off,Off0.000000,0,,,,
12:53:15.334 PM 03/19/2016,Teleop Disabled,9,FALSE,0,NO ERROR,-0.000000,0.160416,0.000000,0.154000,TRUE,TRUE,TRUE,FALSE,FALSE,FALSE,Disabled,0.000000,0.000000,0.000000,TRUE,-0.057251,0.012512,0.000000,0.000000,0.000000,0.000000,0.001000,0.001000,0.019000,-0.200000,0.040000,2.470000,0.869752,Hold,0.912354,0.000000,Hold,-17705.000000,2.000000,LowGoal,0.000000,-1454.545455,Speed,0.000000,-1454.545455,Speed,Off,Off0.000000,0,,,,
12:53:15.434 PM 03/19/2016,Teleop Disabled,9,FALSE,0,NO ERROR,-0.000000,0.160416,0.000000,0.154000,TRUE,TRUE,TRUE,FALSE,FALSE,FALSE,Disabled,0.000000,0.000000,0.000000,TRUE,-0.057251,0.012512,0.000000,0.000000,0.000000,0.000000,0.000000,0.001000,0.022000,-0.200000,0.040000,2.470000,0.872675,Hold,0.912354,0.000000,Hold,-17705.000000,2.000000,LowGoal,0.000000,0.000000,Speed,0.000000,0.000000,Speed,Off,Off0.000000,0,,,,
12:53:15.534 PM 03/19/2016,Teleop Disabled,10,FALSE,0,NO ERROR,-0.000000,0.160416,0.000000,0.154000,TRUE,FALSE,TRUE,FALSE,FALSE,FALSE,Disabled,0.000000,0.000000,0.000000,TRUE,-0.057251,0.012512,0.000000,0.000000,0.000000,0.000000,0.000000,0.000000,0.023000,-0.200000,0.040000,2.470000,0.879439,Hold,0.912354,0.000000,Hold,-17705.000000,2.000000,LowGoal,0.000000,0.000000,Speed,0.000000,0.000000,Speed,Off,Off0.000000,0,,,,
12:53:15.635 PM 03/19/2016,Teleop Disabled,11,FALSE,0,NO ERROR,-0.000000,0.160416,0.000000,0.154000,TRUE,FALSE,TRUE,FALSE,FALSE,FALSE,Disabled,0.000000,0.000000,0.000000,TRUE,-0.057251,0.012512,0.000000,0.000000,0.000000,0.000000,0.000000,0.000000,0.024000,-0.200000,0.040000,2.460000,0.876585,Hold,0.912354,0.000000,Hold,-17705.000000,2.000000,LowGoal,0.000000,-1454.545455,Speed,0.000000,-1454.545455,Speed,Off,Off0.000000,0,,,,
12:53:15.736 PM 03/19/2016,Teleop Disabled,10,FALSE,0,NO ERROR,-0.000000,0.160416,0.000000,0.154000,TRUE,FALSE,TRUE,FALSE,FALSE,FALSE,Disabled,0.000000,0.000000,0.000000,TRUE,-0.057251,0.012512,0.000000,0.000000,0.000000,0.000000,0.001000,-0.001000,0.022000,-0.200000,0.040000,2.470000,0.881019,Hold,0.912354,0.000000,Hold,-17705.000000,2.000000,LowGoal,0.000000,-1454.545455,Speed,0.000000,-1454.545455,Speed,Off,Off0.000000,0,,,,
12:53:15.836 PM 03/19/2016,Teleop Disabled,11,FALSE,0,NO ERROR,-0.000000,0.160416,0.000000,0.154000,TRUE,FALSE,TRUE,FALSE,FALSE,FALSE,Disabled,0.000000,0.000000,0.000000,TRUE,-0.057251,0.012512,0.000000,0.000000,0.000000,0.000000,0.001000,-0.001000,0.019000,-0.200000,0.040000,2.470000,0.889454,Hold,0.912354,0.000000,Hold,-17705.000000,2.000000,LowGoal,0.000000,-1454.545455,Speed,0.000000,-1454.545455,Speed,Off,Off0.000000,0,,,,
12:53:15.936 PM 03/19/2016,Teleop Disabled,9,FALSE,0,NO ERROR,-0.000000,0.160416,0.000000,0.154000,TRUE,FALSE,TRUE,FALSE,FALSE,FALSE,Disabled,0.000000,0.000000,0.000000,TRUE,-0.057251,0.012512,0.000000,0.000000,0.000000,0.000000,0.000000,0.000000,0.022000,-0.210000,0.040000,2.470000,0.890011,Hold,0.912354,0.000000,Hold,-17705.000000,2.000000,LowGoal,0.000000,-1454.545455,Speed,0.000000,-1454.545455,Speed,Off,Off0.000000,0,,,,
12:53:16.037 PM 03/19/2016,Teleop Disabled,10,FALSE,0,NO ERROR,-0.000000,0.160416,0.000000,0.154000,TRUE,FALSE,TRUE,FALSE,FALSE,FALSE,Disabled,0.000000,0.000000,0.000000,TRUE,-0.057251,0.012512,0.000000,0.000000,0.000000,0.000000,0.000000,-0.002000,0.022000,-0.210000,0.030000,2.470000,0.880672,Hold,0.912354,0.000000,Hold,-17705.000000,2.000000,LowGoal,0.000000,-1454.545455,Speed,0.000000,-1454.545455,Speed,Off,Off0.000000,0,,,,
12:53:16.138 PM 03/19/2016,Teleop Disabled,9,FALSE,0,NO ERROR,-0.000000,0.160416,0.000000,0.154000,TRUE,TRUE,TRUE,FALSE,FALSE,FALSE,Disabled,0.000000,0.000000,0.000000,TRUE,-0.057251,0.012512,0.000000,0.000000,0.000000,0.000000,0.001000,0.001000,0.020000,-0.210000,0.040000,2.470000,0.875735,Hold,0.912354,0.000000,Hold,-17705.000000,2.000000,LowGoal,0.000000,-1454.545455,Speed,0.000000,-1454.545455,Speed,Off,Off0.000000,0,,,,
12:53:16.240 PM 03/19/2016,Teleop Disabled,10,FALSE,0,NO ERROR,-0.000000,0.160416,0.000000,0.154000,TRUE,TRUE,TRUE,FALSE,FALSE,FALSE,Disabled,0.000000,0.000000,0.000000,TRUE,-0.057251,0.012512,0.000000,0.000000,0.000000,0.000000,0.001000,0.000000,0.022000,-0.210000,0.040000,2.470000,0.879116,Hold,0.912354,0.000000,Hold,-17705.000000,2.000000,LowGoal,0.000000,0.000000,Speed,0.000000,0.000000,Speed,Off,Off0.000000,0,,,,
12:53:16.342 PM 03/19/2016,Teleop Disabled,11,FALSE,0,NO ERROR,-0.000000,0.160416,0.000000,0.154000,TRUE,FALSE,TRUE,FALSE,FALSE,FALSE,Disabled,0.000000,0.000000,0.000000,TRUE,-0.057251,0.012512,0.000000,0.000000,0.000000,0.000000,0.000000,0.002000,0.022000,-0.210000,0.030000,2.460000,0.879839,Hold,0.912354,0.000000,Hold,-17705.000000,2.000000,LowGoal,0.000000,0.000000,Speed,0.000000,0.000000,Speed,Off,Off0.000000,0,,,,
12:53:16.441 PM 03/19/2016,Teleop Disabled,10,FALSE,0,NO ERROR,-0.000000,0.160416,0.000000,0.154000,TRUE,FALSE,TRUE,FALSE,FALSE,FALSE,Disabled,0.000000,0.000000,0.000000,TRUE,-0.057251,0.012512,0.000000,0.000000,0.000000,0.000000,0.000000,0.000000,0.021000,-0.210000,0.040000,2.460000,0.895602,Hold,0.912354,0.000000,Hold,-17705.000000,2.000000,LowGoal,0.000000,0.000000,Speed,0.000000,0.000000,Speed,Off,Off0.000000,0,,,,
12:53:16.541 PM 03/19/2016,Teleop Disabled,10,FALSE,0,NO ERROR,-0.000000,0.160416,0.000000,0.154000,TRUE,FALSE,TRUE,FALSE,FALSE,FALSE,Disabled,0.000000,0.000000,0.000000,TRUE,-0.057251,0.012512,0.000000,0.000000,0.000000,0.000000,0.000000,0.000000,0.021000,-0.200000,0.040000,2.470000,0.893358,Hold,0.912354,0.000000,Hold,-17705.000000,2.000000,LowGoal,0.000000,-1454.545455,Speed,0.000000,-1454.545455,Speed,Off,Off0.000000,0,,,,
12:53:16.641 PM 03/19/2016,Teleop Disabled,11,FALSE,0,NO ERROR,-0.000000,0.160416,0.000000,0.154000,TRUE,FALSE,TRUE,FALSE,FALSE,FALSE,Disabled,0.000000,0.000000,0.000000,TRUE,-0.057251,0.012512,0.000000,0.000000,0.000000,0.000000,-0.001000,0.000000,0.019000,-0.200000,0.040000,2.470000,0.901289,Hold,0.912354,0.000000,Hold,-17705.000000,2.000000,LowGoal,0.000000,-1454.545455,Speed,0.000000,-1454.545455,Speed,Off,Off0.000000,0,,,,
12:53:16.741 PM 03/19/2016,Teleop Disabled,9,FALSE,0,NO ERROR,-0.000000,0.160416,0.000000,0.154000,TRUE,FALSE,TRUE,FALSE,FALSE,FALSE,Disabled,0.000000,0.000000,0.000000,TRUE,-0.057251,0.012512,0.000000,0.000000,0.000000,0.000000,0.001000,-0.001000,0.023000,-0.210000,0.040000,2.460000,0.897041,Hold,0.912354,0.000000,Hold,-17705.000000,2.000000,LowGoal,0.000000,-1454.545455,Speed,0.000000,-1454.545455,Speed,Off,Off0.000000,0,,,,
12:53:16.843 PM 03/19/2016,Teleop Disabled,9,FALSE,0,NO ERROR,-0.000000,0.160416,0.000000,0.154000,TRUE,FALSE,TRUE,FALSE,FALSE,FALSE,Disabled,0.000000,0.000000,0.000000,TRUE,-0.057251,0.012512,0.000000,0.000000,0.000000,0.000000,0.001000,-0.001000,0.023000,-0.210000,0.040000,2.470000,0.910756,Hold,0.912354,0.000000,Hold,-17705.000000,2.000000,LowGoal,0.000000,-1454.545455,Speed,0.000000,-1454.545455,Speed,Off,Off0.000000,0,,,,
12:53:16.943 PM 03/19/2016,Teleop Disabled,10,FALSE,0,NO ERROR,-0.000000,0.160416,0.000000,0.154000,TRUE,FALSE,TRUE,FALSE,FALSE,FALSE,Disabled,0.000000,0.000000,0.000000,TRUE,-0.057251,0.012512,0.000000,0.000000,0.000000,0.000000,-0.001000,0.000000,0.020000,-0.210000,0.040000,2.470000,0.912801,Hold,0.912354,0.000000,Hold,-17705.000000,2.000000,LowGoal,0.000000,-1454.545455,Speed,0.000000,-1454.545455,Speed,Off,Off0.000000,0,,,,
12:53:17.045 PM 03/19/2016,Teleop Disabled,10,FALSE,0,NO ERROR,-0.000000,0.160416,0.000000,0.154000,TRUE,TRUE,TRUE,FALSE,FALSE,FALSE,Disabled,0.000000,0.000000,0.000000,TRUE,-0.057251,0.012512,0.000000,0.000000,0.000000,0.000000,0.000000,0.000000,0.024000,-0.210000,0.040000,2.470000,0.913985,Hold,0.912354,0.000000,Hold,-17705.000000,2.000000,LowGoal,0.000000,-1454.545455,Speed,0.000000,-1454.545455,Speed,Off,Off0.000000,0,,,,
12:53:17.147 PM 03/19/2016,Teleop Disabled,10,FALSE,0,NO ERROR,-0.000000,0.160416,0.000000,0.154000,TRUE,TRUE,TRUE,FALSE,FALSE,FALSE,Disabled,0.000000,0.000000,0.000000,TRUE,-0.057251,0.012512,0.000000,0.000000,0.000000,0.000000,-0.001000,0.000000,0.024000,-0.210000,0.030000,2.470000,0.912997,Hold,0.912354,0.000000,Hold,-17705.000000,2.000000,LowGoal,0.000000,0.000000,Speed,0.000000,0.000000,Speed,Off,Off0.000000,0,,,,
12:53:17.246 PM 03/19/2016,Teleop Disabled,10,FALSE,0,NO ERROR,-0.000000,0.160416,0.000000,0.154000,TRUE,FALSE,TRUE,FALSE,FALSE,FALSE,Disabled,0.000000,0.000000,0.000000,TRUE,-0.057251,0.012512,0.000000,0.000000,0.000000,0.000000,0.002000,0.000000,0.022000,-0.210000,0.040000,2.470000,0.912674,Hold,0.912354,0.000000,Hold,-17705.000000,2.000000,LowGoal,0.000000,0.000000,Speed,0.000000,0.000000,Speed,Off,Off0.000000,0,,,,
12:53:17.347 PM 03/19/2016,Teleop Disabled,10,FALSE,0,NO ERROR,-0.000000,0.160416,0.000000,0.154000,TRUE,FALSE,TRUE,FALSE,FALSE,FALSE,Disabled,0.000000,0.000000,0.000000,TRUE,-0.057251,0.012512,0.000000,0.000000,0.000000,0.000000,0.000000,0.000000,0.020000,-0.210000,0.040000,2.480000,0.920750,Hold,0.912354,0.000000,Hold,-17705.000000,2.000000,LowGoal,0.000000,-1454.545455,Speed,0.000000,-1454.545455,Speed,Off,Off0.000000,0,,,,
12:53:17.447 PM 03/19/2016,Teleop Disabled,10,FALSE,0,NO ERROR,-0.000000,0.160416,0.000000,0.154000,TRUE,FALSE,TRUE,FALSE,FALSE,FALSE,Disabled,0.000000,0.000000,0.000000,TRUE,-0.057251,0.012512,0.000000,0.000000,0.000000,0.000000,0.002000,0.000000,0.019000,-0.210000,0.040000,2.480000,0.930954,Hold,0.912354,0.000000,Hold,-17705.000000,2.000000,LowGoal,0.000000,-1454.545455,Speed,0.000000,-1454.545455,Speed,Off,Off0.000000,0,,,,
12:53:17.548 PM 03/19/2016,Teleop Disabled,10,FALSE,0,NO ERROR,-0.000000,0.160416,0.000000,0.154000,TRUE,FALSE,TRUE,FALSE,FALSE,FALSE,Disabled,0.000000,0.000000,0.000000,TRUE,-0.057251,0.012512,0.000000,0.000000,0.000000,0.000000,0.000000,0.001000,0.023000,-0.210000,0.040000,2.480000,0.946390,Hold,0.912354,0.000000,Hold,-17705.000000,2.000000,LowGoal,0.000000,-1454.545455,Speed,0.000000,-1454.545455,Speed,Off,Off0.000000,0,,,,
12:53:17.649 PM 03/19/2016,Teleop Disabled,11,FALSE,0,NO ERROR,-0.000000,0.160416,0.000000,0.154000,TRUE,FALSE,TRUE,FALSE,FALSE,FALSE,Disabled,0.000000,0.000000,0.000000,TRUE,-0.057251,0.012512,0.000000,0.000000,0.000000,0.000000,-0.001000,0.000000,0.023000,-0.210000,0.040000,2.480000,0.949630,Hold,0.912354,0.000000,Hold,-17705.000000,2.000000,LowGoal,0.000000,-1454.545455,Speed,0.000000,-1454.545455,Speed,Off,Off0.000000,0,,,,
12:53:17.750 PM 03/19/2016,Teleop Disabled,9,FALSE,0,NO ERROR,-0.000000,0.160416,0.000000,0.154000,TRUE,FALSE,TRUE,FALSE,FALSE,FALSE,Disabled,0.000000,0.000000,0.000000,TRUE,-0.057251,0.012512,0.000000,0.000000,0.000000,0.000000,0.000000,0.001000,0.021000,-0.210000,0.040000,2.480000,0.951926,Hold,0.912354,0.000000,Hold,-17705.000000,2.000000,LowGoal,0.000000,-1454.545455,Speed,0.000000,-1454.545455,Speed,Off,Off0.000000,0,,,,
12:53:17.852 PM 03/19/2016,Teleop Disabled,11,FALSE,0,NO ERROR,-0.000000,0.160416,0.000000,0.154000,TRUE,TRUE,TRUE,FALSE,FALSE,FALSE,Disabled,0.000000,0.000000,0.000000,TRUE,-0.057251,0.012512,0.000000,0.000000,0.000000,0.000000,0.000000,0.001000,0.026000,-0.210000,0.040000,2.480000,0.958911,Hold,0.912354,0.000000,Hold,-17705.000000,2.000000,LowGoal,0.000000,-1454.545455,Speed,0.000000,-1454.545455,Speed,Off,Off0.000000,0,,,,
12:53:17.952 PM 03/19/2016,Teleop Disabled,10,FALSE,0,NO ERROR,-0.000000,0.160416,0.000000,0.154000,TRUE,TRUE,TRUE,FALSE,FALSE,FALSE,Disabled,0.000000,0.000000,0.000000,TRUE,-0.057251,0.012512,0.000000,0.000000,0.000000,0.000000,0.000000,0.001000,0.021000,-0.210000,0.040000,2.480000,0.959186,Hold,0.912354,0.000000,Hold,-17705.000000,2.000000,LowGoal,0.000000,0.000000,Speed,0.000000,0.000000,Speed,Off,Off0.000000,0,,,,
12:53:18.053 PM 03/19/2016,Teleop Disabled,10,FALSE,0,NO ERROR,-0.000000,0.160416,0.000000,0.154000,TRUE,FALSE,TRUE,FALSE,FALSE,FALSE,Disabled,0.000000,0.000000,0.000000,TRUE,-0.057251,0.012512,0.000000,0.000000,0.000000,0.000000,0.000000,0.000000,0.024000,-0.210000,0.040000,2.480000,0.968281,Hold,0.912354,0.000000,Hold,-17705.000000,2.000000,LowGoal,0.000000,0.000000,Speed,0.000000,0.000000,Speed,Off,Off0.000000,0,,,,
12:53:18.154 PM 03/19/2016,Teleop Disabled,11,FALSE,0,NO ERROR,-0.000000,0.160416,0.000000,0.154000,TRUE,FALSE,TRUE,FALSE,FALSE,FALSE,Disabled,0.000000,0.000000,0.000000,TRUE,-0.057251,0.012512,0.000000,0.000000,0.000000,0.000000,-0.001000,0.000000,0.021000,-0.210000,0.040000,2.480000,0.977559,Hold,0.912354,0.000000,Hold,-17705.000000,2.000000,LowGoal,0.000000,-1454.545455,Speed,0.000000,-1454.545455,Speed,Off,Off0.000000,0,,,,
12:53:18.255 PM 03/19/2016,Teleop Disabled,11,FALSE,0,NO ERROR,-0.000000,0.160416,0.000000,0.154000,TRUE,FALSE,TRUE,FALSE,FALSE,FALSE,Disabled,0.000000,0.000000,0.000000,TRUE,-0.057251,0.012512,0.000000,0.000000,0.000000,0.000000,0.000000,0.000000,0.021000,-0.210000,0.040000,2.480000,0.992118,Hold,0.912354,0.000000,Hold,-17705.000000,2.000000,LowGoal,0.000000,-1454.545455,Speed,0.000000,-1454.545455,Speed,Off,Off0.000000,0,,,,
12:53:18.356 PM 03/19/2016,Teleop Disabled,11,FALSE,0,NO ERROR,-0.000000,0.160416,0.000000,0.154000,TRUE,FALSE,TRUE,FALSE,FALSE,FALSE,Disabled,0.000000,0.000000,0.000000,TRUE,-0.057251,0.012512,0.000000,0.000000,0.000000,0.000000,0.000000,0.001000,0.021000,-0.210000,0.040000,2.480000,1.016818,Hold,0.912354,0.000000,Hold,-17705.000000,2.000000,LowGoal,0.000000,-1454.545455,Speed,0.000000,-1454.545455,Speed,Off,Off0.000000,0,,,,
12:53:18.457 PM 03/19/2016,Teleop Disabled,11,FALSE,0,NO ERROR,-0.000000,0.160416,0.000000,0.154000,TRUE,FALSE,TRUE,FALSE,FALSE,FALSE,Disabled,0.000000,0.000000,0.000000,TRUE,-0.057251,0.012512,0.000000,0.000000,0.000000,0.000000,-0.002000,-0.001000,0.016000,-0.210000,0.040000,2.480000,1.013437,Hold,0.912354,0.000000,Hold,-17705.000000,2.000000,LowGoal,0.000000,-1454.545455,Speed,0.000000,-1454.545455,Speed,Off,Off0.000000,0,,,,
12:53:18.558 PM 03/19/2016,Teleop Disabled,10,FALSE,0,NO ERROR,-0.000000,0.160416,0.000000,0.154000,TRUE,FALSE,TRUE,FALSE,FALSE,FALSE,Disabled,0.000000,0.000000,0.000000,TRUE,-0.057251,0.012512,0.000000,0.000000,0.000000,0.000000,-0.001000,0.001000,0.021000,-0.220000,0.040000,2.490000,1.025638,Hold,0.912354,0.000000,Hold,-17705.000000,2.000000,LowGoal,0.000000,-1454.545455,Speed,0.000000,-1454.545455,Speed,Off,Off0.000000,0,,,,
12:53:18.659 PM 03/19/2016,Teleop Disabled,9,FALSE,0,NO ERROR,-0.000000,0.160416,0.000000,0.154000,TRUE,TRUE,TRUE,FALSE,FALSE,FALSE,Disabled,0.000000,0.000000,0.000000,TRUE,-0.057251,0.012512,0.000000,0.000000,0.000000,0.000000,0.000000,0.000000,0.019000,-0.220000,0.040000,2.480000,1.020058,Hold,0.912354,0.000000,Hold,-17705.000000,2.000000,LowGoal,0.000000,-1454.545455,Speed,0.000000,-1454.545455,Speed,Off,Off0.000000,0,,,,
12:53:18.759 PM 03/19/2016,Teleop Disabled,9,FALSE,0,NO ERROR,-0.000000,0.160416,0.000000,0.154000,TRUE,TRUE,TRUE,FALSE,FALSE,FALSE,Disabled,0.000000,0.000000,0.000000,TRUE,-0.057251,0.012512,0.000000,0.000000,0.000000,0.000000,-0.001000,0.001000,0.021000,-0.220000,0.040000,2.480000,1.034248,Hold,0.912354,0.000000,Hold,-17705.000000,2.000000,LowGoal,0.000000,0.000000,Speed,0.000000,0.000000,Speed,Off,Off0.000000,0,,,,
12:53:18.860 PM 03/19/2016,Teleop Disabled,9,FALSE,0,NO ERROR,-0.000000,0.160416,0.000000,0.154000,TRUE,FALSE,TRUE,FALSE,FALSE,FALSE,Disabled,0.000000,0.000000,0.000000,TRUE,-0.057251,0.012512,0.000000,0.000000,0.000000,0.000000,-0.001000,-0.002000,0.022000,-0.220000,0.040000,2.480000,1.040231,Hold,0.912354,0.000000,Hold,-17705.000000,2.000000,LowGoal,0.000000,0.000000,Speed,0.000000,0.000000,Speed,Off,Off0.000000,0,,,,
12:53:18.960 PM 03/19/2016,Teleop Disabled,9,FALSE,0,NO ERROR,-0.000000,0.160416,0.000000,0.154000,TRUE,FALSE,TRUE,FALSE,FALSE,FALSE,Disabled,0.000000,0.000000,0.000000,TRUE,-0.057251,0.012512,0.000000,0.000000,0.000000,0.000000,0.000000,0.002000,0.024000,-0.220000,0.040000,2.480000,1.039088,Hold,0.912354,0.000000,Hold,-17705.000000,2.000000,LowGoal,0.000000,-1454.545455,Speed,0.000000,-1454.545455,Speed,Off,Off0.000000,0,,,,
12:53:19.062 PM 03/19/2016,Teleop Disabled,10,FALSE,0,NO ERROR,-0.000000,0.160416,0.000000,0.154000,TRUE,FALSE,TRUE,FALSE,FALSE,FALSE,Disabled,0.000000,0.000000,0.000000,TRUE,-0.057251,0.012512,0.000000,0.000000,0.000000,0.000000,-0.003000,0.000000,0.022000,-0.220000,0.040000,2.480000,1.028457,Hold,0.912354,0.000000,Hold,-17705.000000,2.000000,LowGoal,0.000000,-1454.545455,Speed,0.000000,-1454.545455,Speed,Off,Off0.000000,0,,,,
12:53:19.164 PM 03/19/2016,Teleop Disabled,10,FALSE,0,NO ERROR,-0.000000,0.160416,0.000000,0.154000,TRUE,FALSE,TRUE,FALSE,FALSE,FALSE,Disabled,0.000000,0.000000,0.000000,TRUE,-0.057251,0.012512,0.000000,0.000000,0.000000,0.000000,0.000000,-0.001000,0.020000,-0.220000,0.040000,2.480000,1.031449,Hold,0.912354,0.000000,Hold,-17705.000000,2.000000,LowGoal,0.000000,-1454.545455,Speed,0.000000,-1454.545455,Speed,Off,Off0.000000,0,,,,
12:53:19.265 PM 03/19/2016,Teleop Disabled,11,FALSE,0,NO ERROR,-0.000000,0.160416,0.000000,0.154000,TRUE,FALSE,TRUE,FALSE,FALSE,FALSE,Disabled,0.000000,0.000000,0.000000,TRUE,-0.057251,0.012512,0.000000,0.000000,0.000000,0.000000,0.000000,0.000000,0.020000,-0.220000,0.040000,2.480000,1.033377,Hold,0.912354,0.000000,Hold,-17705.000000,2.000000,LowGoal,0.000000,-1454.545455,Speed,0.000000,-1454.545455,Speed,Off,Off0.000000,0,,,,
12:53:19.365 PM 03/19/2016,Teleop Disabled,10,FALSE,0,NO ERROR,-0.000000,0.160416,0.000000,0.154000,TRUE,FALSE,TRUE,FALSE,FALSE,FALSE,Disabled,0.000000,0.000000,0.000000,TRUE,-0.057251,0.012512,0.000000,0.000000,0.000000,0.000000,-0.001000,-0.002000,0.021000,-0.220000,0.040000,2.480000,1.040479,Hold,0.912354,0.000000,Hold,-17705.000000,2.000000,LowGoal,0.000000,-1454.545455,Speed,0.000000,-1454.545455,Speed,Off,Off0.000000,0,,,,
12:53:19.465 PM 03/19/2016,Teleop Disabled,11,FALSE,0,NO ERROR,-0.000000,0.160416,0.000000,0.154000,TRUE,TRUE,TRUE,FALSE,FALSE,FALSE,Disabled,0.000000,0.000000,0.000000,TRUE,-0.057251,0.012512,0.000000,0.000000,0.000000,0.000000,-0.001000,0.000000,0.021000,-0.220000,0.040000,2.480000,1.046607,Hold,0.912354,0.000000,Hold,-17705.000000,2.000000,LowGoal,0.000000,-1454.545455,Speed,0.000000,-1454.545455,Speed,Off,Off0.000000,0,,,,
12:53:19.566 PM 03/19/2016,Teleop Disabled,11,FALSE,0,NO ERROR,-0.000000,0.160416,0.000000,0.154000,TRUE,TRUE,TRUE,FALSE,FALSE,FALSE,Disabled,0.000000,0.000000,0.000000,TRUE,-0.057251,0.012512,0.000000,0.000000,0.000000,0.000000,0.000000,-0.001000,0.020000,-0.220000,0.030000,2.480000,1.056029,Hold,0.912354,0.000000,Hold,-17705.000000,2.000000,LowGoal,0.000000,0.000000,Speed,0.000000,0.000000,Speed,Off,Off0.000000,0,,,,
12:53:19.667 PM 03/19/2016,Teleop Disabled,11,FALSE,0,NO ERROR,-0.000000,0.160416,0.000000,0.154000,TRUE,FALSE,TRUE,FALSE,FALSE,FALSE,Disabled,0.000000,0.000000,0.000000,TRUE,-0.057251,0.012512,0.000000,0.000000,0.000000,0.000000,0.000000,0.000000,0.022000,-0.220000,0.030000,2.480000,1.047374,Hold,0.912354,0.000000,Hold,-17705.000000,2.000000,LowGoal,0.000000,0.000000,Speed,0.000000,0.000000,Speed,Off,Off0.000000,0,,,,
12:53:19.768 PM 03/19/2016,Teleop Disabled,11,FALSE,0,NO ERROR,-0.000000,0.160416,0.000000,0.154000,TRUE,FALSE,TRUE,FALSE,FALSE,FALSE,Disabled,0.000000,0.000000,0.000000,TRUE,-0.057251,0.012512,0.000000,0.000000,0.000000,0.000000,0.000000,-0.002000,0.023000,-0.220000,0.030000,2.480000,1.044410,Hold,0.912354,0.000000,Hold,-17705.000000,2.000000,LowGoal,0.000000,-1454.545455,Speed,0.000000,-1454.545455,Speed,Off,Off0.000000,0,,,,
12:53:19.869 PM 03/19/2016,Teleop Disabled,11,FALSE,0,NO ERROR,-0.000000,0.160416,0.000000,0.154000,TRUE,FALSE,TRUE,FALSE,FALSE,FALSE,Disabled,0.000000,0.000000,0.000000,TRUE,-0.057251,0.012512,0.000000,0.000000,0.000000,0.000000,0.001000,-0.001000,0.022000,-0.220000,0.030000,2.480000,1.051378,Hold,0.912354,0.000000,Hold,-17705.000000,2.000000,LowGoal,0.000000,-1454.545455,Speed,0.000000,-1454.545455,Speed,Off,Off0.000000,0,,,,
12:53:19.970 PM 03/19/2016,Teleop Disabled,11,FALSE,0,NO ERROR,-0.000000,0.160416,0.000000,0.154000,TRUE,FALSE,TRUE,FALSE,FALSE,FALSE,Disabled,0.000000,0.000000,0.000000,TRUE,-0.057251,0.012512,0.000000,0.000000,0.000000,0.000000,0.000000,-0.001000,0.022000,-0.230000,0.030000,2.480000,1.068880,Hold,0.912354,0.000000,Hold,-17705.000000,2.000000,LowGoal,0.000000,-1454.545455,Speed,0.000000,-1454.545455,Speed,Off,Off0.000000,0,,,,
12:53:20.070 PM 03/19/2016,Teleop Disabled,9,FALSE,0,NO ERROR,-0.000000,0.160416,0.000000,0.154000,TRUE,FALSE,TRUE,FALSE,FALSE,FALSE,Disabled,0.000000,0.000000,0.000000,TRUE,-0.057251,0.012512,0.000000,0.000000,0.000000,0.000000,-0.005000,0.005000,0.016000,-0.230000,0.030000,2.480000,1.081679,Hold,0.912354,0.000000,Hold,-17705.000000,2.000000,LowGoal,0.000000,-1454.545455,Speed,0.000000,-1454.545455,Speed,Off,Off0.000000,0,,,,
12:53:20.170 PM 03/19/2016,Teleop Disabled,10,FALSE,0,NO ERROR,-0.000000,0.160416,0.000000,0.154000,TRUE,FALSE,TRUE,FALSE,FALSE,FALSE,Disabled,0.000000,0.000000,0.000000,TRUE,-0.057251,0.012512,0.000000,0.000000,0.000000,0.000000,-0.005000,0.005000,0.016000,-0.230000,0.030000,2.480000,1.088644,Hold,0.912354,0.000000,Hold,-17705.000000,2.000000,LowGoal,0.000000,-1454.545455,Speed,0.000000,-1454.545455,Speed,Off,Off0.000000,0,,,,
12:53:20.270 PM 03/19/2016,Teleop Disabled,9,FALSE,0,NO ERROR,-0.000000,0.160416,0.000000,0.154000,TRUE,TRUE,TRUE,FALSE,FALSE,FALSE,Disabled,0.000000,0.000000,0.000000,TRUE,-0.057251,0.012512,0.000000,0.000000,0.000000,0.000000,0.000000,-0.004000,0.017000,-0.230000,0.030000,2.480000,1.111926,Hold,0.912354,0.000000,Hold,-17705.000000,2.000000,LowGoal,22.500000,-1454.545455,Speed,0.000000,-1454.545455,Speed,Off,Off0.000000,0,,,,
12:53:20.371 PM 03/19/2016,Teleop Disabled,10,FALSE,0,NO ERROR,-0.000000,0.160416,0.000000,0.154000,TRUE,TRUE,TRUE,FALSE,FALSE,FALSE,Disabled,0.000000,0.000000,0.000000,TRUE,-0.057251,0.012512,0.000000,0.000000,0.000000,0.000000,-0.001000,-0.003000,0.017000,-0.230000,0.020000,2.470000,1.122157,Hold,0.912354,0.000000,Hold,-17705.000000,2.000000,LowGoal,67.500000,0.000000,Speed,0.000000,0.000000,Speed,Off,Off0.000000,0,,,,
12:53:20.472 PM 03/19/2016,Teleop Disabled,11,FALSE,0,NO ERROR,-0.000000,0.160416,0.000000,0.154000,TRUE,FALSE,TRUE,FALSE,FALSE,FALSE,Disabled,0.000000,0.000000,0.000000,TRUE,-0.057251,0.012512,0.000000,0.000000,0.000000,0.000000,0.000000,-0.003000,0.010000,-0.230000,0.040000,2.480000,1.118305,Hold,0.912354,0.000000,Hold,-17705.000000,2.000000,LowGoal,67.500000,0.000000,Speed,0.000000,0.000000,Speed,Off,Off0.000000,0,,,,
12:53:20.574 PM 03/19/2016,Teleop Disabled,12,FALSE,0,NO ERROR,-0.000000,0.160416,0.000000,0.154000,TRUE,FALSE,TRUE,FALSE,FALSE,FALSE,Disabled,0.000000,0.000000,0.000000,TRUE,-0.057495,0.012512,0.000000,-0.011261,0.000000,0.000000,0.008000,-0.001000,0.019000,-0.240000,0.060000,2.480000,1.144775,Hold,0.912354,0.000000,Hold,-17705.000000,2.000000,LowGoal,15.000000,-1454.545455,Speed,0.000000,-1454.545455,Speed,Off,Off0.000000,0,,,,
12:53:20.675 PM 03/19/2016,Teleop Disabled,10,FALSE,0,NO ERROR,-0.000000,0.160416,0.000000,0.154000,TRUE,FALSE,TRUE,FALSE,FALSE,FALSE,Disabled,0.000000,0.000000,0.000000,TRUE,-0.057495,0.012512,0.000000,0.000000,0.000000,0.000000,-0.004000,0.002000,0.028000,-0.230000,0.010000,2.470000,1.150723,Hold,0.912354,0.000000,Hold,-17705.000000,2.000000,LowGoal,7.500000,-1454.545455,Speed,0.000000,-1454.545455,Speed,Off,Off0.000000,0,,,,
