Time,Robot Mode,Loop Time,Error Status,Error Code,Error Source,Left Motor Output,Left Motor Encoder,Right Motor Output,Right Motor Encoder,Is Level,Is Stalled,Ball Detector Photoeye,Vision Enabled,Vision Teleop Control,Vision Auto Control,Vision Current State,Vision X Output,Vision NavX Error,Vision NavX Target,NavX Connection Status,NavX Displacement X,NavX Displacement Y,NavX Displacement Z,NavX Velocity X,NavX Velocity Y,NavX Velocity Z,NavX Acceleration X,NavX Acceleration Y,NavX Acceleration Z,NavX Pitch,NavX Yaw,NavX Roll,Gyro Angle,Roller Arm State,Roller Arm Actual,Roller Arm Desired,Shooter Arm State,Shooter Arm Actual,Shooter Arm Desired,Shooter State,Actual RPM Left,Desired RPM Left,Control Mode Left,Actual RPM Right,Desired RPM Right,Scaler Motor Output,Auto To Run,Auto Current File,Auto File Status,Auto Current Command,Auto Trimmed Command
07:57:51.514 PM 03/17/2016,Teleop Enabled,10,FALSE,0,NO ERROR,-0.000000,0.000000,0.000000,0.000000,TRUE,FALSE,FALSE,FALSE,FALSE,FALSE,Disabled,0.000000,0.000000,0.000000,TRUE,1.130508,0.183731,0.000000,0.000000,0.000000,0.000000,0.001000,0.000000,0.013000,0.000000,-0.240000,1.250000,-0.021860,ResetBack,0.957275,-0.200000,ResetBack,-58460.000000,-0.300000,Empty,0.000000,0.000000,Speed,0.000000,0.000000,Speed,On,Off0.000000,0,,,,
07:57:51.614 PM 03/17/2016,Teleop Enabled,10,FALSE,0,NO ERROR,-0.000000,0.000000,0.000000,0.000000,TRUE,FALSE,FALSE,FALSE,FALSE,FALSE,Disabled,0.000000,0.000000,0.000000,TRUE,1.130508,0.183731,0.000000,0.000000,0.000000,0.000000,0.015000,0.004000,0.002000,0.000000,-0.260000,1.240000,-0.042364,ResetBack,0.670654,-0.200000,ResetBack,-56102.000000,-0.300000,Empty,0.000000,0.000000,Speed,0.000000,0.000000,Speed,On,Off0.000000,0,,,,
07:57:51.714 PM 03/17/2016,Teleop Enabled,9,FALSE,0,NO ERROR,-0.000000,0.000000,0.000000,0.000000,TRUE,FALSE,FALSE,FALSE,FALSE,FALSE,Disabled,0.000000,0.000000,0.000000,TRUE,1.130341,0.183731,0.000000,-0.013626,0.000000,0.000000,-0.034000,-0.008000,0.090000,0.000000,-0.250000,1.280000,-0.037572,ResetBack,0.017334,-0.200000,ResetBack,-56102.000000,-0.300000,Empty,0.000000,0.000000,Speed,0.000000,0.000000,Speed,On,Off0.000000,0,,,,
07:57:51.814 PM 03/17/2016,Teleop Enabled,10,FALSE,0,NO ERROR,-0.000000,0.000000,0.000000,0.000000,TRUE,FALSE,FALSE,FALSE,FALSE,FALSE,Disabled,0.000000,0.000000,0.000000,TRUE,1.129532,0.183685,0.000000,0.000000,0.000000,0.000000,0.007000,0.010000,-0.022000,0.000000,-0.250000,1.230000,-0.041672,ResetBack,-0.002686,-0.200000,ResetBack,-46852.000000,-0.300000,Empty,0.000000,0.000000,Speed,0.000000,0.000000,Speed,On,Off0.000000,0,,,,
07:57:51.915 PM 03/17/2016,Teleop Enabled,9,FALSE,0,NO ERROR,-0.000000,0.000000,0.000000,0.000000,TRUE,FALSE,FALSE,FALSE,FALSE,FALSE,Disabled,0.000000,0.000000,0.000000,TRUE,1.129532,0.183777,0.000000,0.000000,0.006363,0.000000,-0.008000,0.000000,0.036000,0.000000,-0.200000,1.240000,-0.036402,Reset,-0.016357,0.000000,ResetBack,-35637.000000,-0.300000,Empty,0.000000,0.000000,Speed,0.000000,0.000000,Speed,On,Off0.000000,0,,,,
07:57:52.015 PM 03/17/2016,Teleop Enabled,10,FALSE,0,NO ERROR,-0.000000,0.000000,0.000000,0.000000,TRUE,FALSE,FALSE,FALSE,FALSE,FALSE,Disabled,0.000000,0.000000,0.000000,TRUE,1.129425,0.183838,0.000000,-0.006958,0.000000,0.000000,-0.012000,0.007000,-0.010000,0.000000,-0.220000,1.280000,-0.034897,Hold,1.165527,0.000000,ResetBack,-24235.000000,-0.300000,Empty,0.000000,0.000000,Speed,0.000000,0.000000,Speed,On,Off0.000000,0,,,,
07:57:52.115 PM 03/17/2016,Teleop Enabled,10,FALSE,0,NO ERROR,-0.000000,0.000000,0.000000,0.000000,TRUE,FALSE,FALSE,FALSE,FALSE,FALSE,Disabled,0.000000,0.000000,0.000000,TRUE,1.129440,0.183838,0.000000,0.006424,0.000000,0.000000,-0.036000,-0.039000,-0.089000,0.000000,-0.230000,1.270000,-0.040884,Hold,1.206299,0.000000,ResetBack,-12319.000000,-0.300000,Empty,0.000000,0.000000,Speed,0.000000,0.000000,Speed,On,Off0.000000,0,,,,
07:57:52.217 PM 03/17/2016,Teleop Enabled,10,FALSE,0,NO ERROR,-0.000000,0.000000,0.000000,-0.006417,TRUE,FALSE,FALSE,FALSE,FALSE,FALSE,Disabled,0.000000,0.000000,0.000000,TRUE,1.129944,0.182465,0.000000,0.014038,-0.009796,0.000000,0.047000,0.030000,0.036000,-0.010000,-0.220000,1.260000,-0.059780,Hold,1.105225,0.000000,ResetBack,-2717.000000,-0.300000,Suck,0.000000,-2181.818182,Speed,0.000000,-2181.818182,Speed,On,Off0.000000,0,,,,
07:57:52.318 PM 03/17/2016,Teleop Enabled,10,FALSE,0,NO ERROR,-0.000000,0.000000,0.000000,-0.006417,TRUE,FALSE,FALSE,FALSE,FALSE,FALSE,Disabled,0.000000,0.000000,0.000000,TRUE,1.130127,0.182388,0.000000,-0.006546,-0.004990,0.000000,-0.011000,0.001000,-0.048000,-0.010000,-0.180000,1.240000,-0.066531,Hold,1.100342,0.000000,ResetBack,-787.000000,-0.300000,Suck,4.394531,-2181.818182,Speed,10.986328,-2181.818182,Speed,On,Off0.000000,0,,,,
07:57:52.419 PM 03/17/2016,Teleop Enabled,10,FALSE,0,NO ERROR,-0.000000,0.000000,0.000000,-0.006417,TRUE,FALSE,FALSE,FALSE,FALSE,FALSE,Disabled,0.000000,0.000000,0.000000,TRUE,1.130020,0.182678,0.000000,-0.007416,0.018448,0.000000,0.001000,-0.004000,0.018000,-0.010000,-0.150000,1.250000,-0.070387,Hold,1.100098,0.000000,ResetBack,-787.000000,-0.300000,Suck,104.370117,-2181.818182,Speed,97.778320,-2181.818182,Speed,On,Off0.000000,0,,,,
07:57:52.519 PM 03/17/2016,Teleop Enabled,10,FALSE,0,NO ERROR,-0.000000,0.000000,0.000000,-0.006417,TRUE,FALSE,FALSE,FALSE,FALSE,FALSE,Disabled,0.000000,0.000000,0.000000,TRUE,1.129623,0.182968,0.000000,-0.010117,0.000320,0.000000,-0.078000,-0.052000,-0.037000,-0.020000,-0.150000,1.250000,-0.075130,Hold,1.100098,0.000000,ResetBack,-770.000000,-0.300000,Suck,232.910156,-2181.818182,Speed,220.825195,-2181.818182,Speed,On,Off0.000000,0,,,,
07:57:52.619 PM 03/17/2016,Teleop Enabled,9,FALSE,0,NO ERROR,-0.000000,0.000000,0.000000,-0.006417,TRUE,FALSE,FALSE,FALSE,FALSE,FALSE,Disabled,0.000000,0.000000,0.000000,TRUE,1.127945,0.181366,0.000000,-0.036728,-0.063995,0.000000,-0.016000,-0.057000,0.228000,-0.020000,-0.170000,1.260000,-0.088260,Hold,1.099854,0.000000,ResetBack,-696.000000,-0.300000,Suck,332.885742,-2181.818182,Speed,313.110352,-2181.818182,Speed,On,Off0.000000,0,,,,
07:57:52.719 PM 03/17/2016,Teleop Enabled,9,FALSE,0,NO ERROR,-0.000000,0.000000,0.000000,-0.006417,TRUE,FALSE,FALSE,FALSE,FALSE,FALSE,Disabled,0.000000,0.000000,0.000000,TRUE,1.125900,0.179993,0.000000,-0.019226,0.010498,0.000000,0.069000,0.281000,0.170000,-0.030000,-0.170000,1.320000,-0.094760,Hold,1.095459,0.000000,ResetBack,-259.000000,-0.300000,Suck,403.198242,-2181.818182,Speed,335.083008,-2181.818182,Speed,On,Off0.000000,0,,,,
07:57:52.819 PM 03/17/2016,Teleop Enabled,9,FALSE,0,NO ERROR,-0.000000,0.000000,0.000000,-0.006417,TRUE,FALSE,FALSE,FALSE,FALSE,FALSE,Disabled,0.000000,0.000000,0.000000,TRUE,1.126526,0.180801,0.000000,0.003189,0.024185,0.000000,0.036000,0.374000,0.014000,-0.020000,-0.180000,1.300000,-0.093762,Hold,1.023438,0.000000,Reset,-51.000000,2.000000,Suck,475.708008,-2181.818182,Speed,308.715820,-2181.818182,Speed,On,Off0.000000,0,,,,
07:57:52.921 PM 03/17/2016,Teleop Enabled,9,FALSE,0,NO ERROR,-0.000000,0.000000,0.000000,-0.006417,TRUE,FALSE,FALSE,FALSE,FALSE,FALSE,Disabled,0.000000,0.000000,0.000000,TRUE,1.126144,0.182480,0.000000,-0.014420,0.019516,0.000000,-0.071000,-0.120000,-0.091000,-0.010000,-0.170000,1.320000,-0.084136,Hold,0.974609,0.000000,Hold,-201.000000,2.000000,Suck,527.343750,-2181.818182,Speed,301.025391,-2181.818182,Speed,On,Off0.000000,0,,,,
07:57:53.023 PM 03/17/2016,Teleop Enabled,9,FALSE,0,NO ERROR,-0.000000,0.000000,0.000000,-0.006417,TRUE,FALSE,FALSE,FALSE,FALSE,FALSE,Disabled,0.000000,0.000000,0.000000,TRUE,1.124725,0.181351,0.000000,-0.024902,-0.040390,0.000000,0.023000,-0.054000,0.094000,-0.010000,-0.160000,1.310000,-0.079561,Hold,0.974609,0.000000,Hold,-201.000000,2.000000,Suck,565.795898,-2181.818182,Speed,310.913086,-2181.818182,Speed,On,Off0.000000,0,,,,
07:57:53.124 PM 03/17/2016,Teleop Enabled,11,FALSE,0,NO ERROR,-0.000000,0.000000,0.000000,-0.006417,TRUE,FALSE,FALSE,FALSE,FALSE,FALSE,Disabled,0.000000,0.000000,0.000000,TRUE,1.123535,0.176865,0.000000,-0.012299,-0.116226,0.000000,0.060000,-0.164000,-0.228000,0.000000,-0.150000,1.350000,-0.078029,Hold,0.974609,0.000000,Hold,-201.000000,2.000000,Suck,593.261719,-2181.818182,Speed,316.406250,-2181.818182,Speed,On,Off0.000000,0,,,,
07:57:53.225 PM 03/17/2016,Teleop Enabled,9,FALSE,0,NO ERROR,-0.000000,0.000000,0.000000,-0.006417,TRUE,FALSE,FALSE,FALSE,FALSE,FALSE,Disabled,0.000000,0.000000,0.000000,TRUE,1.124146,0.170441,0.000000,0.018433,-0.119247,0.000000,-0.033000,-0.086000,-0.134000,0.010000,-0.210000,1.310000,-0.078607,Hold,0.974609,0.000000,Hold,-201.000000,2.000000,Suck,613.037109,-2181.818182,Speed,310.913086,-2181.818182,Speed,On,Off0.000000,0,,,,
07:57:53.326 PM 03/17/2016,Teleop Enabled,10,FALSE,0,NO ERROR,-0.000000,0.000000,0.000000,-0.006417,TRUE,FALSE,FALSE,FALSE,FALSE,FALSE,Disabled,0.000000,0.000000,0.000000,TRUE,1.124466,0.164124,0.000000,0.011749,-0.117661,0.000000,0.036000,0.086000,0.085000,0.010000,-0.140000,1.260000,-0.092591,Hold,0.974365,0.000000,Hold,-201.000000,2.000000,Suck,625.122070,-2181.818182,Speed,309.814453,-2181.818182,Speed,On,Off0.000000,0,,,,
07:57:53.428 PM 03/17/2016,Teleop Enabled,10,FALSE,0,NO ERROR,-0.000000,0.000000,0.000000,-0.006417,TRUE,FALSE,FALSE,FALSE,FALSE,FALSE,Disabled,0.000000,0.000000,0.000000,TRUE,1.126663,0.159836,0.000000,0.054688,-0.032089,0.000000,0.029000,0.107000,-0.021000,0.000000,-0.060000,1.300000,-0.086036,Hold,0.974365,0.000000,Hold,-201.000000,2.000000,Suck,635.009766,-2181.818182,Speed,312.011719,-2181.818182,Speed,On,Off0.000000,0,,,,
07:57:53.528 PM 03/17/2016,Teleop Enabled,11,FALSE,0,NO ERROR,-0.000000,0.000000,0.000000,-0.006417,TRUE,FALSE,FALSE,FALSE,FALSE,FALSE,Disabled,0.000000,0.000000,0.000000,TRUE,1.127182,0.159592,0.000000,-0.012451,0.014252,0.000000,-0.116000,-0.096000,0.061000,0.000000,0.020000,1.370000,-0.092185,Hold,0.974365,0.000000,Hold,-201.000000,2.000000,Suck,643.798828,-2181.818182,Speed,313.110352,-2181.818182,Speed,On,Off0.000000,0,,,,
07:57:53.628 PM 03/17/2016,Teleop Enabled,11,FALSE,0,NO ERROR,-0.000000,0.000000,0.000000,-0.006417,TRUE,FALSE,FALSE,FALSE,FALSE,FALSE,Disabled,0.000000,0.000000,0.000000,TRUE,1.124863,0.160263,0.000000,-0.056885,0.009583,0.000000,-0.116000,-0.096000,0.061000,0.010000,-0.050000,1.210000,-0.102946,Hold,0.974121,0.000000,Hold,-201.000000,2.000000,Suck,648.193359,-2181.818182,Speed,313.110352,-2181.818182,Speed,On,Off0.000000,0,,,,
07:57:53.728 PM 03/17/2016,Teleop Enabled,11,FALSE,0,NO ERROR,-0.000000,0.000000,0.000000,-0.006417,TRUE,FALSE,FALSE,FALSE,FALSE,FALSE,Disabled,0.000000,0.000000,0.000000,TRUE,1.122986,0.162262,0.000000,0.000000,0.050415,0.000000,0.005000,-0.046000,0.147000,0.000000,-0.060000,1.360000,-0.117584,Hold,0.974121,0.000000,Hold,-201.000000,2.000000,Suck,652.587891,-2181.818182,Speed,313.110352,-2181.818182,Speed,On,Off0.000000,0,,,,
07:57:53.828 PM 03/17/2016,Teleop Enabled,10,FALSE,0,NO ERROR,-0.000000,0.000000,0.000000,-0.006417,TRUE,FALSE,FALSE,FALSE,FALSE,FALSE,Disabled,0.000000,0.000000,0.000000,TRUE,1.122787,0.163116,0.000000,-0.032623,-0.024628,0.000000,0.005000,-0.046000,0.147000,0.000000,-0.100000,1.300000,-0.135303,Hold,0.974121,0.000000,Hold,-201.000000,2.000000,Suck,655.883789,-2181.818182,Speed,310.913086,-2181.818182,Speed,On,Off0.000000,0,,,,
07:57:53.928 PM 03/17/2016,Teleop Enabled,10,FALSE,0,NO ERROR,-0.000000,0.000000,0.000000,-0.006417,TRUE,FALSE,FALSE,FALSE,FALSE,FALSE,Disabled,0.000000,0.000000,0.000000,TRUE,1.120163,0.159607,0.000000,-0.048599,-0.084808,0.000000,-0.093000,-0.047000,0.148000,0.000000,-0.100000,1.300000,-0.143204,Hold,0.974121,0.000000,Hold,-201.000000,2.000000,Suck,658.081055,-2181.818182,Speed,312.011719,-2181.818182,Speed,On,Off0.000000,0,,,,
07:57:54.029 PM 03/17/2016,Teleop Enabled,10,FALSE,0,NO ERROR,-0.000000,0.000000,0.000000,-0.006417,TRUE,FALSE,FALSE,FALSE,FALSE,FALSE,Disabled,0.000000,0.000000,0.000000,TRUE,1.120361,0.153809,0.000000,0.035400,-0.137085,0.000000,0.131000,-0.146000,-0.027000,0.000000,-0.090000,1.350000,-0.150653,Hold,0.973877,0.000000,Hold,-201.000000,2.000000,Suck,659.179688,-2181.818182,Speed,312.011719,-2181.818182,Speed,On,Off0.000000,0,,,,
07:57:54.129 PM 03/17/2016,Teleop Enabled,10,FALSE,0,NO ERROR,-0.000000,0.000000,0.000000,-0.006417,TRUE,FALSE,FALSE,FALSE,FALSE,FALSE,Disabled,0.000000,0.000000,0.000000,TRUE,1.122925,0.146210,0.000000,0.042175,-0.165894,0.000000,0.001000,0.027000,-0.078000,0.000000,-0.100000,1.310000,-0.131929,Hold,0.973877,0.000000,Hold,-201.000000,2.000000,Suck,660.278320,-2181.818182,Speed,313.110352,-2181.818182,Speed,On,Off0.000000,0,,,,
07:57:54.229 PM 03/17/2016,Teleop Enabled,11,FALSE,0,NO ERROR,-0.000000,0.000000,0.000000,-0.006417,TRUE,FALSE,FALSE,FALSE,FALSE,FALSE,Disabled,0.000000,0.000000,0.000000,TRUE,1.123810,0.138748,0.000000,0.016632,-0.121490,0.000000,-0.120000,0.052000,-0.001000,0.000000,-0.110000,1.240000,-0.117223,Hold,0.973633,0.000000,Hold,-201.000000,2.000000,Suck,661.376953,-2181.818182,Speed,313.110352,-2181.818182,Speed,On,Off0.000000,0,,,,
07:57:54.329 PM 03/17/2016,Teleop Enabled,10,FALSE,0,NO ERROR,-0.000000,0.000000,0.000000,-0.006417,TRUE,FALSE,FALSE,FALSE,FALSE,FALSE,Disabled,0.000000,0.000000,0.000000,TRUE,1.126907,0.134644,0.000000,0.087799,-0.023743,0.000000,-0.001000,0.150000,-0.028000,0.000000,-0.110000,1.270000,-0.128249,Hold,0.973633,0.000000,Hold,-201.000000,2.000000,Suck,661.376953,-2181.818182,Speed,312.011719,-2181.818182,Speed,On,Off0.000000,0,,,,
07:57:54.429 PM 03/17/2016,Teleop Enabled,11,FALSE,0,NO ERROR,-0.000000,0.000000,0.000000,-0.006417,TRUE,FALSE,FALSE,FALSE,FALSE,FALSE,Disabled,0.000000,0.000000,0.000000,TRUE,1.126907,0.134644,0.000000,0.087799,-0.023743,0.000000,0.055000,0.042000,-0.063000,0.000000,-0.140000,1.260000,-0.119994,Hold,0.973633,0.000000,Hold,-201.000000,2.000000,Suck,662.475586,-2181.818182,Speed,313.110352,-2181.818182,Speed,On,Off0.000000,0,,,,
07:57:54.530 PM 03/17/2016,Teleop Enabled,10,FALSE,0,NO ERROR,-0.000000,0.000000,0.000000,-0.006417,TRUE,FALSE,FALSE,FALSE,FALSE,FALSE,Disabled,0.000000,0.000000,0.000000,TRUE,1.135330,0.136246,0.000000,0.063614,0.009048,0.000000,-0.006000,0.017000,0.011000,-0.010000,-0.110000,1.240000,-0.122342,Hold,0.973633,0.000000,Hold,-201.000000,2.000000,Suck,662.475586,-2181.818182,Speed,312.011719,-2181.818182,Speed,On,Off0.000000,0,,,,
07:57:54.630 PM 03/17/2016,Teleop Enabled,7,FALSE,0,NO ERROR,-0.000000,0.000000,0.000000,-0.006417,TRUE,FALSE,FALSE,FALSE,FALSE,FALSE,Disabled,0.000000,0.000000,0.000000,TRUE,1.135330,0.136246,0.000000,0.063614,0.009048,0.000000,0.072000,0.079000,0.073000,0.000000,-0.130000,1.230000,-0.104220,Hold,0.973633,0.000000,Hold,-201.000000,2.000000,Suck,663.574219,-2181.818182,Speed,312.011719,-2181.818182,Speed,On,Off0.000000,0,,,,
07:57:54.730 PM 03/17/2016,Teleop Enabled,10,FALSE,0,NO ERROR,-0.000000,0.000000,0.000000,-0.006417,TRUE,FALSE,FALSE,FALSE,FALSE,FALSE,Disabled,0.000000,0.000000,0.000000,TRUE,1.139069,0.137131,0.000000,0.081497,0.022339,0.000000,0.024000,-0.082000,0.092000,-0.010000,-0.090000,1.300000,-0.104220,Hold,0.973633,0.000000,Hold,-201.000000,2.000000,Suck,663.574219,-2181.818182,Speed,312.011719,-2181.818182,Speed,On,Off0.000000,0,,,,
07:57:54.831 PM 03/17/2016,Teleop Enabled,8,FALSE,0,NO ERROR,-0.000000,0.000000,0.000000,-0.006417,TRUE,FALSE,FALSE,FALSE,FALSE,FALSE,Disabled,0.000000,0.000000,0.000000,TRUE,1.142151,0.136215,0.000000,0.029846,-0.047104,0.000000,-0.117000,-0.005000,0.086000,-0.010000,-0.050000,1.290000,-0.093393,Hold,0.973633,0.000000,Hold,-201.000000,2.000000,Suck,663.574219,-2181.818182,Speed,312.011719,-2181.818182,Speed,On,Off0.000000,0,,,,
07:57:54.932 PM 03/17/2016,Teleop Enabled,11,FALSE,0,NO ERROR,-0.000000,0.000000,0.000000,-0.006417,TRUE,FALSE,FALSE,FALSE,FALSE,FALSE,Disabled,0.000000,0.000000,0.000000,TRUE,1.143448,0.132339,0.000000,0.037277,-0.096680,0.000000,0.029000,0.143000,0.126000,0.000000,-0.100000,1.290000,-0.085117,Hold,0.973633,0.000000,Hold,-201.000000,2.000000,Suck,663.574219,-2181.818182,Speed,312.011719,-2181.818182,Speed,On,Off0.000000,0,,,,
07:57:55.033 PM 03/17/2016,Teleop Enabled,10,FALSE,0,NO ERROR,-0.000000,0.000000,0.000000,-0.006417,TRUE,FALSE,FALSE,FALSE,FALSE,FALSE,Disabled,0.000000,0.000000,0.000000,TRUE,1.145584,0.126740,0.000000,0.024506,-0.140244,0.000000,-0.066000,0.044000,0.023000,0.010000,-0.130000,1.340000,-0.055756,Hold,0.973633,0.000000,Hold,-201.000000,2.000000,Suck,664.672852,-2181.818182,Speed,312.011719,-2181.818182,Speed,On,Off0.000000,0,,,,
07:57:55.133 PM 03/17/2016,Teleop Enabled,9,FALSE,0,NO ERROR,-0.000000,0.000000,0.000000,-0.006417,TRUE,FALSE,FALSE,FALSE,FALSE,FALSE,Disabled,0.000000,0.000000,0.000000,TRUE,1.146286,0.119431,0.000000,0.011276,-0.135864,0.000000,0.080000,-0.214000,-0.200000,0.020000,-0.140000,1.320000,-0.018332,Hold,0.973389,0.000000,Hold,-201.000000,2.000000,Suck,664.672852,-2181.818182,Speed,312.011719,-2181.818182,Speed,On,Off0.000000,0,,,,
07:57:55.233 PM 03/17/2016,Teleop Enabled,10,FALSE,0,NO ERROR,-0.000000,0.000000,0.000000,-0.006417,TRUE,FALSE,FALSE,FALSE,FALSE,FALSE,Disabled,0.000000,0.000000,0.000000,TRUE,1.147873,0.113708,0.000000,0.056046,-0.090576,0.000000,-0.017000,-0.091000,-0.203000,0.020000,-0.110000,1.290000,-0.018170,Hold,0.973389,0.000000,Hold,-201.000000,2.000000,Suck,665.771484,-2181.818182,Speed,312.011719,-2181.818182,Speed,On,Off0.000000,0,,,,
07:57:55.333 PM 03/17/2016,Teleop Enabled,10,FALSE,0,NO ERROR,-0.000000,0.000000,0.000000,-0.006417,TRUE,FALSE,FALSE,FALSE,FALSE,FALSE,Disabled,0.000000,0.000000,0.000000,TRUE,1.151184,0.109436,0.000000,0.078751,-0.041306,0.000000,0.053000,0.117000,-0.022000,0.010000,-0.040000,1.230000,-0.031338,Hold,0.973145,0.000000,Hold,-201.000000,2.000000,Suck,665.771484,-2181.818182,Speed,312.011719,-2181.818182,Speed,On,Off0.000000,0,,,,
07:57:55.433 PM 03/17/2016,Teleop Enabled,10,FALSE,0,NO ERROR,-0.000000,0.000000,0.000000,-0.006417,TRUE,FALSE,FALSE,FALSE,FALSE,FALSE,Disabled,0.000000,0.000000,0.000000,TRUE,1.155807,0.109558,0.000000,0.090897,0.037537,0.000000,-0.013000,0.038000,0.041000,0.000000,-0.020000,1.230000,-0.041875,Hold,0.973145,0.000000,Hold,-201.000000,2.000000,Suck,665.771484,-2181.818182,Speed,312.011719,-2181.818182,Speed,On,Off0.000000,0,,,,
07:57:55.533 PM 03/17/2016,Teleop Enabled,10,FALSE,0,NO ERROR,-0.000000,0.000000,0.000000,-0.006417,TRUE,FALSE,FALSE,FALSE,FALSE,FALSE,Disabled,0.000000,0.000000,0.000000,TRUE,1.158081,0.111282,0.000000,0.024094,0.031998,0.000000,-0.046000,-0.136000,0.022000,-0.010000,-0.040000,1.280000,-0.065295,Hold,0.973145,0.000000,Hold,-201.000000,2.000000,Suck,665.771484,-2181.818182,Speed,312.011719,-2181.818182,Speed,On,Off0.000000,0,,,,
07:57:55.633 PM 03/17/2016,Teleop Enabled,10,FALSE,0,NO ERROR,-0.000000,0.000000,0.000000,-0.006417,TRUE,FALSE,FALSE,FALSE,FALSE,FALSE,Disabled,0.000000,0.000000,0.000000,TRUE,1.159607,0.112473,0.000000,0.038574,0.023132,0.000000,-0.030000,0.133000,0.249000,-0.030000,-0.080000,1.250000,-0.059735,Hold,0.973145,0.000000,Hold,-201.000000,2.000000,Suck,665.771484,-2181.818182,Speed,312.011719,-2181.818182,Speed,On,Off0.000000,0,,,,
07:57:55.733 PM 03/17/2016,Teleop Enabled,10,FALSE,0,NO ERROR,-0.000000,0.000000,0.000000,-0.006417,TRUE,FALSE,FALSE,FALSE,FALSE,FALSE,Disabled,0.000000,0.000000,0.000000,TRUE,1.160995,0.112854,0.000000,-0.008957,-0.035599,0.000000,-0.081000,-0.183000,0.000000,-0.030000,-0.090000,1.300000,-0.058854,Hold,0.973145,0.000000,Hold,-201.000000,2.000000,Suck,666.870117,-2181.818182,Speed,312.011719,-2181.818182,Speed,On,Off0.000000,0,,,,
07:57:55.834 PM 03/17/2016,Teleop Enabled,10,FALSE,0,NO ERROR,-0.000000,0.000000,0.000000,-0.006417,TRUE,FALSE,FALSE,FALSE,FALSE,FALSE,Disabled,0.000000,0.000000,0.000000,TRUE,1.159607,0.108948,0.000000,-0.002472,-0.106781,0.000000,0.153000,-0.060000,-0.084000,-0.030000,-0.110000,1.300000,-0.059374,Hold,0.973145,0.000000,Hold,-201.000000,2.000000,Suck,666.870117,-2181.818182,Speed,313.110352,-2181.818182,Speed,On,Off0.000000,0,,,,
07:57:55.935 PM 03/17/2016,Teleop Enabled,10,FALSE,0,NO ERROR,-0.000000,0.000000,0.000000,-0.006417,TRUE,FALSE,FALSE,FALSE,FALSE,FALSE,Disabled,0.000000,0.000000,0.000000,TRUE,1.161865,0.102615,0.000000,0.054169,-0.151993,0.000000,-0.028000,-0.035000,-0.006000,-0.020000,-0.100000,1.340000,-0.059271,Hold,0.973145,0.000000,Hold,-201.000000,2.000000,Suck,666.870117,-2181.818182,Speed,312.011719,-2181.818182,Speed,On,Off0.000000,0,,,,
07:57:56.035 PM 03/17/2016,Teleop Enabled,10,FALSE,0,NO ERROR,-0.000000,0.000000,0.000000,-0.006417,TRUE,FALSE,FALSE,FALSE,FALSE,FALSE,Disabled,0.000000,0.000000,0.000000,TRUE,1.164001,0.093613,0.000000,0.035156,-0.176056,0.000000,0.093000,0.025000,0.060000,-0.030000,-0.120000,1.310000,-0.071736,Hold,0.973145,0.000000,Hold,-201.000000,2.000000,Suck,666.870117,-2181.818182,Speed,312.011719,-2181.818182,Speed,On,Off0.000000,0,,,,
07:57:56.135 PM 03/17/2016,Teleop Enabled,11,FALSE,0,NO ERROR,-0.000000,0.000000,0.000000,-0.006417,TRUE,FALSE,FALSE,FALSE,FALSE,FALSE,Disabled,0.000000,0.000000,0.000000,TRUE,1.166962,0.086197,0.000000,0.073639,-0.116409,0.000000,0.013000,-0.036000,-0.155000,-0.030000,-0.130000,1.300000,-0.053511,Hold,0.973145,0.000000,Hold,-201.000000,2.000000,Suck,666.870117,-2181.818182,Speed,312.011719,-2181.818182,Speed,On,Off0.000000,0,,,,
07:57:56.236 PM 03/17/2016,Teleop Enabled,10,FALSE,0,NO ERROR,-0.000000,0.000000,0.000000,-0.006417,TRUE,FALSE,FALSE,FALSE,FALSE,FALSE,Disabled,0.000000,0.000000,0.000000,TRUE,1.170471,0.081436,0.000000,0.069168,-0.081116,0.000000,0.000000,0.166000,0.089000,-0.030000,-0.130000,1.250000,-0.054861,Hold,0.973145,0.000000,Hold,-201.000000,2.000000,Suck,666.870117,-2181.818182,Speed,313.110352,-2181.818182,Speed,On,Off0.000000,0,,,,
07:57:56.336 PM 03/17/2016,Teleop Enabled,10,FALSE,0,NO ERROR,-0.000000,0.000000,0.000000,-0.006417,TRUE,FALSE,FALSE,FALSE,FALSE,FALSE,Disabled,0.000000,0.000000,0.000000,TRUE,1.175690,0.080231,0.000000,0.093643,0.025955,0.000000,-0.172000,0.099000,0.147000,-0.040000,-0.170000,1.260000,-0.050013,Hold,0.973145,0.000000,Hold,-201.000000,2.000000,Suck,667.968750,-2181.818182,Speed,312.011719,-2181.818182,Speed,On,Off0.000000,0,,,,
07:57:56.436 PM 03/17/2016,Teleop Enabled,9,FALSE,0,NO ERROR,-0.000000,0.000000,0.000000,-0.006417,TRUE,FALSE,FALSE,FALSE,FALSE,FALSE,Disabled,0.000000,0.000000,0.000000,TRUE,1.177704,0.080887,0.000000,0.011642,-0.007721,0.000000,0.028000,0.102000,0.304000,-0.040000,-0.180000,1.230000,-0.057260,Hold,0.972900,0.000000,Hold,-201.000000,2.000000,Suck,667.968750,-2181.818182,Speed,312.011719,-2181.818182,Speed,On,Off0.000000,0,,,,
07:57:56.537 PM 03/17/2016,Teleop Enabled,9,FALSE,0,NO ERROR,-0.000000,0.000000,0.000000,-0.006417,TRUE,FALSE,FALSE,FALSE,FALSE,FALSE,Disabled,0.000000,0.000000,0.000000,TRUE,1.178986,0.080566,0.000000,0.037018,-0.014938,0.000000,0.092000,0.024000,0.136000,-0.040000,-0.140000,1.230000,-0.069491,Hold,0.972900,0.000000,Hold,-201.000000,2.000000,Suck,667.968750,-2181.818182,Speed,313.110352,-2181.818182,Speed,On,Off0.000000,0,,,,
07:57:56.638 PM 03/17/2016,Teleop Enabled,10,FALSE,0,NO ERROR,-0.000000,0.000000,0.000000,-0.006417,TRUE,FALSE,FALSE,FALSE,FALSE,FALSE,Disabled,0.000000,0.000000,0.000000,TRUE,1.180176,0.078796,0.000000,-0.011078,-0.061874,0.000000,-0.136000,-0.071000,0.041000,-0.050000,-0.140000,1.280000,-0.078817,Hold,0.972900,0.000000,Hold,-201.000000,2.000000,Suck,667.968750,-2181.818182,Speed,313.110352,-2181.818182,Speed,On,Off0.000000,0,,,,
07:57:56.739 PM 03/17/2016,Teleop Enabled,10,FALSE,0,NO ERROR,-0.000000,0.000000,0.000000,-0.006417,TRUE,FALSE,FALSE,FALSE,FALSE,FALSE,Disabled,0.000000,0.000000,0.000000,TRUE,1.177795,0.073166,0.000000,-0.036789,-0.138977,0.000000,0.056000,-0.216000,-0.278000,-0.050000,-0.140000,1.250000,-0.088863,Hold,0.972900,0.000000,Hold,-201.000000,2.000000,Suck,667.968750,-2181.818182,Speed,312.011719,-2181.818182,Speed,On,Off0.000000,0,,,,
07:57:56.840 PM 03/17/2016,Teleop Enabled,10,FALSE,0,NO ERROR,-0.000000,0.000000,0.000000,-0.006417,TRUE,FALSE,FALSE,FALSE,FALSE,FALSE,Disabled,0.000000,0.000000,0.000000,TRUE,1.176788,0.064316,0.000000,-0.026428,-0.211838,0.000000,0.014000,-0.011000,0.072000,-0.050000,-0.080000,1.290000,-0.078583,Hold,0.972900,0.000000,Hold,-201.000000,2.000000,Suck,667.968750,-2181.818182,Speed,312.011719,-2181.818182,Speed,On,Off0.000000,0,,,,
07:57:56.941 PM 03/17/2016,Teleop Enabled,10,FALSE,0,NO ERROR,-0.000000,0.000000,0.000000,-0.006417,TRUE,FALSE,FALSE,FALSE,FALSE,FALSE,Disabled,0.000000,0.000000,0.000000,TRUE,1.177200,0.052628,0.000000,0.014847,-0.234573,0.000000,0.067000,0.076000,0.008000,-0.040000,-0.120000,1.270000,-0.096805,Hold,0.972900,0.000000,Hold,-201.000000,2.000000,Suck,667.968750,-2181.818182,Speed,312.011719,-2181.818182,Speed,On,Off0.000000,0,,,,
07:57:57.043 PM 03/17/2016,Teleop Enabled,11,FALSE,0,NO ERROR,-0.000000,0.000000,0.000000,-0.006417,TRUE,FALSE,FALSE,FALSE,FALSE,FALSE,Disabled,0.000000,0.000000,0.000000,TRUE,1.179138,0.042435,0.000000,0.039627,-0.188461,0.000000,-0.013000,0.050000,-0.021000,-0.050000,-0.100000,1.300000,-0.097848,Hold,0.972900,0.000000,Hold,-201.000000,2.000000,Suck,667.968750,-2181.818182,Speed,312.011719,-2181.818182,Speed,On,Off0.000000,0,,,,
07:57:57.145 PM 03/17/2016,Teleop Enabled,11,FALSE,0,NO ERROR,-0.000000,0.000000,0.000000,-0.006417,TRUE,FALSE,FALSE,FALSE,FALSE,FALSE,Disabled,0.000000,0.000000,0.000000,TRUE,1.180679,0.034271,0.000000,0.049881,-0.083542,0.000000,0.055000,0.290000,0.109000,-0.050000,-0.110000,1.290000,-0.095555,Hold,0.972900,0.000000,Hold,-201.000000,2.000000,Suck,667.968750,-2181.818182,Speed,312.011719,-2181.818182,Speed,On,Off0.000000,0,,,,
07:57:57.245 PM 03/17/2016,Teleop Enabled,11,FALSE,0,NO ERROR,-0.000000,0.000000,0.000000,-0.006417,TRUE,FALSE,FALSE,FALSE,FALSE,FALSE,Disabled,0.000000,0.000000,0.000000,TRUE,1.184357,0.033005,0.000000,0.057541,-0.002594,0.000000,-0.022000,-0.121000,-0.164000,-0.060000,-0.070000,1.410000,-0.098564,Hold,0.972900,0.000000,Hold,-201.000000,2.000000,Suck,667.968750,-2181.818182,Speed,312.011719,-2181.818182,Speed,On,Off0.000000,0,,,,
07:57:57.346 PM 03/17/2016,Teleop Enabled,10,FALSE,0,NO ERROR,-0.000000,0.000000,0.000000,-0.006417,TRUE,FALSE,FALSE,FALSE,FALSE,FALSE,Disabled,0.000000,0.000000,0.000000,TRUE,1.184677,0.033157,0.000000,-0.016174,0.012772,0.000000,-0.055000,-0.009000,0.152000,-0.060000,-0.090000,1.410000,-0.088852,Hold,0.972900,0.000000,Hold,-201.000000,2.000000,Suck,669.067383,-2181.818182,Speed,313.110352,-2181.818182,Speed,On,Off0.000000,0,,,,
07:57:57.447 PM 03/17/2016,Teleop Enabled,11,FALSE,0,NO ERROR,-0.000000,0.000000,0.000000,-0.006417,TRUE,FALSE,FALSE,FALSE,FALSE,FALSE,Disabled,0.000000,0.000000,0.000000,TRUE,1.185120,0.033447,0.000000,0.013565,0.010620,0.000000,-0.067000,-0.129000,0.085000,-0.060000,-0.090000,1.400000,-0.073970,Hold,0.972900,0.000000,Hold,-201.000000,2.000000,Suck,667.968750,-2181.818182,Speed,313.110352,-2181.818182,Speed,On,Off0.000000,0,,,,
07:57:57.547 PM 03/17/2016,Teleop Enabled,11,FALSE,0,NO ERROR,-0.000000,0.000000,0.000000,-0.006417,TRUE,FALSE,FALSE,FALSE,FALSE,FALSE,Disabled,0.000000,0.000000,0.000000,TRUE,1.184143,0.031830,0.000000,-0.039368,-0.046326,0.000000,0.009000,-0.034000,0.068000,-0.080000,-0.090000,1.410000,-0.078174,Hold,0.972900,0.000000,Hold,-201.000000,2.000000,Suck,669.067383,-2181.818182,Speed,312.011719,-2181.818182,Speed,On,Off0.000000,0,,,,
07:57:57.647 PM 03/17/2016,Teleop Enabled,11,FALSE,0,NO ERROR,-0.000000,0.000000,0.000000,-0.006417,TRUE,FALSE,FALSE,FALSE,FALSE,FALSE,Disabled,0.000000,0.000000,0.000000,TRUE,1.183624,0.027802,0.000000,-0.018036,-0.101974,0.000000,0.067000,-0.256000,-0.277000,-0.090000,-0.120000,1.430000,-0.106162,Hold,0.972900,0.000000,Hold,-201.000000,2.000000,Suck,669.067383,-2181.818182,Speed,312.011719,-2181.818182,Speed,On,Off0.000000,0,,,,
07:57:57.747 PM 03/17/2016,Teleop Enabled,10,FALSE,0,NO ERROR,-0.000000,0.000000,0.000000,-0.006417,TRUE,FALSE,FALSE,FALSE,FALSE,FALSE,Disabled,0.000000,0.000000,0.000000,TRUE,1.182190,0.019348,0.000000,-0.036636,-0.199402,0.000000,0.065000,-0.130000,-0.094000,-0.090000,-0.110000,1.380000,-0.104223,Hold,0.972900,0.000000,Hold,-201.000000,2.000000,Suck,669.067383,-2181.818182,Speed,313.110352,-2181.818182,Speed,On,Off0.000000,0,,,,
07:57:57.847 PM 03/17/2016,Teleop Enabled,11,FALSE,0,NO ERROR,-0.000000,0.000000,0.000000,-0.006417,TRUE,FALSE,FALSE,FALSE,FALSE,FALSE,Disabled,0.000000,0.000000,0.000000,TRUE,1.182724,0.008606,0.000000,0.036560,-0.215073,0.000000,-0.001000,-0.048000,-0.199000,-0.090000,-0.110000,1.400000,-0.101469,Hold,0.972900,0.000000,Hold,-201.000000,2.000000,Suck,669.067383,-2181.818182,Speed,312.011719,-2181.818182,Speed,On,Off0.000000,0,,,,
07:57:57.947 PM 03/17/2016,Teleop Enabled,11,FALSE,0,NO ERROR,-0.000000,0.000000,0.000000,-0.006417,TRUE,FALSE,FALSE,FALSE,FALSE,FALSE,Disabled,0.000000,0.000000,0.000000,TRUE,1.182785,-0.002213,0.000000,-0.015594,-0.212402,0.000000,0.013000,0.065000,-0.015000,-0.100000,-0.140000,1.340000,-0.095521,Hold,0.972656,0.000000,Hold,-201.000000,2.000000,Suck,670.166016,-2181.818182,Speed,312.011719,-2181.818182,Speed,On,Off0.000000,0,,,,
07:57:58.047 PM 03/17/2016,Teleop Enabled,10,FALSE,0,NO ERROR,-0.000000,0.000000,0.000000,-0.006417,TRUE,FALSE,FALSE,FALSE,FALSE,FALSE,Disabled,0.000000,0.000000,0.000000,TRUE,1.184372,-0.010574,0.000000,0.064102,-0.068222,0.000000,0.038000,0.189000,0.157000,-0.100000,-0.170000,1.370000,-0.104196,Hold,0.972656,0.000000,Hold,-201.000000,2.000000,Suck,670.166016,-2181.818182,Speed,313.110352,-2181.818182,Speed,On,Off0.000000,0,,,,
07:57:58.148 PM 03/17/2016,Teleop Enabled,10,FALSE,0,NO ERROR,-0.000000,0.000000,0.000000,-0.006417,TRUE,FALSE,FALSE,FALSE,FALSE,FALSE,Disabled,0.000000,0.000000,0.000000,TRUE,1.186813,-0.012634,0.000000,0.057312,-0.033905,0.000000,0.125000,0.035000,-0.080000,-0.100000,-0.190000,1.410000,-0.125450,Hold,0.972656,0.000000,Hold,-201.000000,2.000000,Suck,670.166016,-2181.818182,Speed,312.011719,-2181.818182,Speed,On,Off0.000000,0,,,,
07:57:58.249 PM 03/17/2016,Teleop Enabled,10,FALSE,0,NO ERROR,-0.000000,0.000000,0.000000,-0.006417,TRUE,FALSE,FALSE,FALSE,FALSE,FALSE,Disabled,0.000000,0.000000,0.000000,TRUE,1.190796,-0.012405,0.000000,0.031677,0.031418,0.000000,0.125000,0.035000,-0.080000,-0.100000,-0.180000,1.430000,-0.110823,Hold,0.972656,0.000000,Hold,-201.000000,2.000000,Suck,670.166016,-2181.818182,Speed,312.011719,-2181.818182,Speed,On,Off0.000000,0,,,,
07:57:58.350 PM 03/17/2016,Teleop Enabled,11,FALSE,0,NO ERROR,-0.000000,0.000000,0.000000,-0.006417,TRUE,FALSE,FALSE,FALSE,FALSE,FALSE,Disabled,0.000000,0.000000,0.000000,TRUE,1.190704,-0.011810,0.000000,-0.002396,0.011627,0.000000,0.022000,0.033000,0.206000,-0.100000,-0.190000,1.390000,-0.094061,Hold,0.972656,0.000000,Hold,-201.000000,2.000000,Suck,670.166016,-2181.818182,Speed,313.110352,-2181.818182,Speed,On,Off0.000000,0,,,,
07:57:58.450 PM 03/17/2016,Teleop Enabled,11,FALSE,0,NO ERROR,-0.000000,0.000000,0.000000,-0.006417,TRUE,FALSE,FALSE,FALSE,FALSE,FALSE,Disabled,0.000000,0.000000,0.000000,TRUE,1.191284,-0.011353,0.000000,-0.001068,-0.001999,0.000000,-0.183000,-0.035000,0.188000,-0.100000,-0.120000,1.460000,-0.083806,Hold,0.972656,0.000000,Hold,-201.000000,2.000000,Suck,670.166016,-2181.818182,Speed,313.110352,-2181.818182,Speed,On,Off0.000000,0,,,,
07:57:58.550 PM 03/17/2016,Teleop Enabled,11,FALSE,0,NO ERROR,-0.000000,0.000000,0.000000,-0.006417,TRUE,FALSE,FALSE,FALSE,FALSE,FALSE,Disabled,0.000000,0.000000,0.000000,TRUE,1.188843,-0.014679,0.000000,-0.057999,-0.096191,0.000000,0.109000,-0.082000,-0.050000,-0.090000,-0.200000,1.480000,-0.098171,Hold,0.972656,0.000000,Hold,-201.000000,2.000000,Suck,670.166016,-2181.818182,Speed,312.011719,-2181.818182,Speed,On,Off0.000000,0,,,,
07:57:58.650 PM 03/17/2016,Teleop Enabled,11,FALSE,0,NO ERROR,-0.000000,0.000000,0.000000,-0.006417,TRUE,FALSE,FALSE,FALSE,FALSE,FALSE,Disabled,0.000000,0.000000,0.000000,TRUE,1.187408,-0.021561,0.000000,-0.009552,-0.160004,0.000000,0.109000,-0.082000,-0.050000,-0.080000,-0.160000,1.520000,-0.110819,Hold,0.972656,0.000000,Hold,-201.000000,2.000000,Suck,670.166016,-2181.818182,Speed,313.110352,-2181.818182,Speed,On,Off0.000000,0,,,,
07:57:58.751 PM 03/17/2016,Teleop Enabled,10,FALSE,0,NO ERROR,-0.000000,0.000000,0.000000,-0.006417,TRUE,FALSE,FALSE,FALSE,FALSE,FALSE,Disabled,0.000000,0.000000,0.000000,TRUE,1.185883,-0.031998,0.000000,-0.033096,-0.229950,0.000000,-0.101000,-0.059000,-0.001000,-0.080000,-0.160000,1.520000,-0.120304,Hold,0.972656,0.000000,Hold,-201.000000,2.000000,Suck,670.166016,-2181.818182,Speed,313.110352,-2181.818182,Speed,On,Off0.000000,0,,,,
07:57:58.852 PM 03/17/2016,Teleop Enabled,9,FALSE,0,NO ERROR,-0.000000,0.000000,0.000000,-0.006417,TRUE,FALSE,FALSE,FALSE,FALSE,FALSE,Disabled,0.000000,0.000000,0.000000,TRUE,1.185974,-0.042892,0.000000,-0.001068,-0.211151,0.000000,0.210000,-0.082000,-0.135000,-0.080000,-0.170000,1.430000,-0.116262,Hold,0.972656,0.000000,Hold,-201.000000,2.000000,Suck,670.166016,-2181.818182,Speed,313.110352,-2181.818182,Speed,On,Off0.000000,0,,,,
07:57:58.952 PM 03/17/2016,Teleop Enabled,10,FALSE,0,NO ERROR,-0.000000,0.000000,0.000000,-0.006417,TRUE,FALSE,FALSE,FALSE,FALSE,FALSE,Disabled,0.000000,0.000000,0.000000,TRUE,1.184555,-0.052490,0.000000,-0.021713,-0.159561,0.000000,0.103000,0.056000,-0.025000,-0.080000,-0.170000,1.480000,-0.116703,Hold,0.972412,0.000000,Hold,-201.000000,2.000000,Suck,670.166016,-2181.818182,Speed,313.110352,-2181.818182,Speed,On,Off0.000000,0,,,,
07:57:59.052 PM 03/17/2016,Teleop Enabled,9,FALSE,0,NO ERROR,-0.000000,0.000000,0.000000,-0.006417,TRUE,FALSE,FALSE,FALSE,FALSE,FALSE,Disabled,0.000000,0.000000,0.000000,TRUE,1.186310,-0.058319,0.000000,0.049728,-0.060883,0.000000,0.103000,0.056000,-0.025000,-0.080000,-0.170000,1.480000,-0.091025,Hold,0.972412,0.000000,Hold,-201.000000,2.000000,Suck,670.166016,-2181.818182,Speed,313.110352,-2181.818182,Speed,On,Off0.000000,0,,,,
07:57:59.152 PM 03/17/2016,Teleop Enabled,10,FALSE,0,NO ERROR,-0.000000,0.000000,0.000000,-0.006417,TRUE,FALSE,FALSE,FALSE,FALSE,FALSE,Disabled,0.000000,0.000000,0.000000,TRUE,1.187561,-0.059830,0.000000,0.019989,-0.018158,0.000000,-0.041000,-0.099000,-0.124000,-0.080000,-0.150000,1.510000,-0.096244,Hold,0.972412,0.000000,Hold,-201.000000,2.000000,Suck,670.166016,-2181.818182,Speed,312.011719,-2181.818182,Speed,On,Off0.000000,0,,,,
07:57:59.252 PM 03/17/2016,Teleop Enabled,10,FALSE,0,NO ERROR,-0.000000,0.000000,0.000000,-0.006417,TRUE,FALSE,FALSE,FALSE,FALSE,FALSE,Disabled,0.000000,0.000000,0.000000,TRUE,1.188278,-0.059341,0.000000,0.011230,0.025757,0.000000,-0.041000,-0.099000,-0.124000,-0.080000,-0.160000,1.500000,-0.080442,Hold,0.972412,0.000000,Hold,-201.000000,2.000000,Suck,670.166016,-2181.818182,Speed,313.110352,-2181.818182,Speed,On,Off0.000000,0,,,,
07:57:59.353 PM 03/17/2016,Teleop Enabled,10,FALSE,0,NO ERROR,-0.000000,0.000000,0.000000,-0.006417,TRUE,FALSE,FALSE,FALSE,FALSE,FALSE,Disabled,0.000000,0.000000,0.000000,TRUE,1.187424,-0.058594,0.000000,-0.015717,-0.000229,0.000000,0.055000,-0.002000,0.152000,-0.090000,-0.130000,1.510000,-0.086966,Hold,0.972412,0.000000,Hold,-201.000000,2.000000,Suck,670.166016,-2181.818182,Speed,313.110352,-2181.818182,Speed,On,Off0.000000,0,,,,
07:57:59.454 PM 03/17/2016,Teleop Enabled,9,FALSE,0,NO ERROR,-0.000000,0.000000,0.000000,-0.006417,TRUE,FALSE,FALSE,FALSE,FALSE,FALSE,Disabled,0.000000,0.000000,0.000000,TRUE,1.187851,-0.059662,0.000000,0.001205,-0.029175,0.000000,0.055000,-0.002000,0.152000,-0.090000,-0.130000,1.510000,-0.099638,Hold,0.972412,0.000000,Hold,-201.000000,2.000000,Suck,671.264648,-2181.818182,Speed,313.110352,-2181.818182,Speed,On,Off0.000000,0,,,,
07:57:59.554 PM 03/17/2016,Teleop Enabled,9,FALSE,0,NO ERROR,-0.000000,0.000000,0.000000,-0.006417,TRUE,FALSE,FALSE,FALSE,FALSE,FALSE,Disabled,0.000000,0.000000,0.000000,TRUE,1.184647,-0.064911,0.000000,-0.076233,-0.140457,0.000000,0.121000,-0.192000,-0.258000,-0.080000,-0.110000,1.500000,-0.096040,Hold,0.972412,0.000000,Hold,-201.000000,2.000000,Suck,671.264648,-2181.818182,Speed,313.110352,-2181.818182,Speed,On,Off0.000000,0,,,,
07:57:59.654 PM 03/17/2016,Teleop Enabled,10,FALSE,0,NO ERROR,-0.000000,0.000000,0.000000,-0.006417,TRUE,FALSE,FALSE,FALSE,FALSE,FALSE,Disabled,0.000000,0.000000,0.000000,TRUE,1.182526,-0.073746,0.000000,-0.021851,-0.199448,0.000000,0.056000,-0.145000,-0.210000,-0.090000,-0.080000,1.500000,-0.098082,Hold,0.972412,0.000000,Hold,-201.000000,2.000000,Suck,671.264648,-2181.818182,Speed,313.110352,-2181.818182,Speed,On,Off0.000000,0,,,,
07:57:59.754 PM 03/17/2016,Teleop Enabled,10,FALSE,0,NO ERROR,-0.000000,0.000000,0.000000,-0.006417,TRUE,FALSE,FALSE,FALSE,FALSE,FALSE,Disabled,0.000000,0.000000,0.000000,TRUE,1.180130,-0.088760,0.000000,-0.031479,-0.264496,0.000000,0.056000,-0.145000,-0.210000,-0.080000,-0.140000,1.410000,-0.114730,Hold,0.972412,0.000000,Hold,-201.000000,2.000000,Suck,671.264648,-2181.818182,Speed,313.110352,-2181.818182,Speed,On,Off0.000000,0,,,,
07:57:59.855 PM 03/17/2016,Teleop Enabled,10,FALSE,0,NO ERROR,-0.000000,0.000000,0.000000,-0.006417,TRUE,FALSE,FALSE,FALSE,FALSE,FALSE,Disabled,0.000000,0.000000,0.000000,TRUE,1.180130,-0.101166,0.000000,-0.009064,-0.239929,0.000000,0.078000,0.082000,0.054000,-0.080000,-0.140000,1.410000,-0.102678,Hold,0.972412,0.000000,Hold,-201.000000,2.000000,Suck,671.264648,-2181.818182,Speed,312.011719,-2181.818182,Speed,On,Off0.000000,0,,,,
07:57:59.955 PM 03/17/2016,Teleop Enabled,9,FALSE,0,NO ERROR,-0.000000,0.000000,0.000000,-0.006417,TRUE,FALSE,FALSE,FALSE,FALSE,FALSE,Disabled,0.000000,0.000000,0.000000,TRUE,1.180130,-0.101166,0.000000,-0.009064,-0.239929,0.000000,-0.011000,-0.093000,-0.189000,-0.080000,-0.140000,1.430000,-0.103046,Hold,0.972412,0.000000,Hold,-201.000000,2.000000,Suck,671.264648,-2181.818182,Speed,313.110352,-2181.818182,Speed,On,Off0.000000,0,,,,
07:58:00.055 PM 03/17/2016,Teleop Enabled,10,FALSE,0,NO ERROR,-0.000000,0.000000,0.000000,-0.006417,TRUE,FALSE,FALSE,FALSE,FALSE,FALSE,Disabled,0.000000,0.000000,0.000000,TRUE,1.180222,-0.117615,0.000000,0.004181,-0.100784,0.000000,0.026000,0.006000,-0.051000,-0.090000,-0.160000,1.330000,-0.085785,Hold,0.972412,0.000000,Hold,-201.000000,2.000000,Suck,671.264648,-2181.818182,Speed,313.110352,-2181.818182,Speed,On,Off0.000000,0,,,,
07:58:00.156 PM 03/17/2016,Teleop Enabled,11,FALSE,0,NO ERROR,-0.000000,0.000000,0.000000,-0.006417,TRUE,FALSE,FALSE,FALSE,FALSE,FALSE,Disabled,0.000000,0.000000,0.000000,TRUE,1.179932,-0.121307,0.000000,-0.007828,-0.044235,0.000000,0.026000,0.006000,-0.051000,-0.090000,-0.160000,1.330000,-0.086931,Hold,0.972412,0.000000,Hold,-201.000000,2.000000,Suck,671.264648,-2181.818182,Speed,313.110352,-2181.818182,Speed,On,Off0.000000,0,,,,
07:58:00.257 PM 03/17/2016,Teleop Enabled,10,FALSE,0,NO ERROR,-0.000000,0.000000,0.000000,-0.006417,TRUE,FALSE,FALSE,FALSE,FALSE,FALSE,Disabled,0.000000,0.000000,0.000000,TRUE,1.179932,-0.121307,0.000000,-0.007828,-0.044235,0.000000,0.009000,0.171000,0.331000,-0.100000,-0.130000,1.360000,-0.089565,Hold,0.972412,0.000000,Hold,-201.000000,2.000000,Suck,671.264648,-2181.818182,Speed,313.110352,-2181.818182,Speed,On,Off0.000000,0,,,,
07:58:00.359 PM 03/17/2016,Teleop Enabled,10,FALSE,0,NO ERROR,-0.000000,0.000000,0.000000,-0.006417,TRUE,FALSE,FALSE,FALSE,FALSE,FALSE,Disabled,0.000000,0.000000,0.000000,TRUE,1.179886,-0.123352,0.000000,0.021729,-0.040817,0.000000,-0.010000,-0.022000,0.069000,-0.090000,-0.130000,1.290000,-0.073963,Hold,0.972412,0.000000,Hold,-201.000000,2.000000,Suck,671.264648,-2181.818182,Speed,313.110352,-2181.818182,Speed,On,Off0.000000,0,,,,
07:58:00.459 PM 03/17/2016,Teleop Enabled,7,FALSE,0,NO ERROR,-0.000000,0.000000,0.000000,-0.006417,TRUE,FALSE,FALSE,FALSE,FALSE,FALSE,Disabled,0.000000,0.000000,0.000000,TRUE,1.181320,-0.125610,0.000000,-0.008331,-0.068024,0.000000,0.080000,0.093000,0.116000,-0.090000,-0.120000,1.330000,-0.084749,Hold,0.972412,0.000000,Hold,-201.000000,2.000000,Suck,671.264648,-2181.818182,Speed,313.110352,-2181.818182,Speed,On,Off0.000000,0,,,,
07:58:00.560 PM 03/17/2016,Teleop Enabled,8,FALSE,0,NO ERROR,-0.000000,0.000000,0.000000,-0.006417,TRUE,FALSE,FALSE,FALSE,FALSE,FALSE,Disabled,0.000000,0.000000,0.000000,TRUE,1.178986,-0.131744,0.000000,-0.029694,-0.148438,0.000000,-0.106000,-0.187000,0.030000,-0.100000,-0.100000,1.360000,-0.071378,Hold,0.972412,0.000000,Hold,-201.000000,2.000000,Suck,671.264648,-2181.818182,Speed,312.011719,-2181.818182,Speed,On,Off0.000000,0,,,,
07:58:00.661 PM 03/17/2016,Teleop Enabled,10,FALSE,0,NO ERROR,-0.000000,0.000000,0.000000,-0.006417,TRUE,FALSE,FALSE,FALSE,FALSE,FALSE,Disabled,0.000000,0.000000,0.000000,TRUE,1.178986,-0.131744,0.000000,-0.029694,-0.148438,0.000000,0.138000,0.091000,0.176000,-0.100000,-0.130000,1.310000,-0.080373,Hold,0.972412,0.000000,Hold,-201.000000,2.000000,Suck,672.363281,-2181.818182,Speed,313.110352,-2181.818182,Speed,On,Off0.000000,0,,,,
07:58:00.763 PM 03/17/2016,Teleop Enabled,11,FALSE,0,NO ERROR,-0.000000,0.000000,0.000000,-0.006417,TRUE,FALSE,FALSE,FALSE,FALSE,FALSE,Disabled,0.000000,0.000000,0.000000,TRUE,1.177979,-0.140839,0.000000,-0.038940,-0.209915,0.000000,-0.029000,-0.043000,0.112000,-0.100000,-0.070000,1.370000,-0.074366,Hold,0.972412,0.000000,Hold,-201.000000,2.000000,Suck,672.363281,-2181.818182,Speed,313.110352,-2181.818182,Speed,On,Off0.000000,0,,,,
07:58:00.864 PM 03/17/2016,Teleop Enabled,11,FALSE,0,NO ERROR,-0.000000,0.000000,0.000000,-0.006417,TRUE,FALSE,FALSE,FALSE,FALSE,FALSE,Disabled,0.000000,0.000000,0.000000,TRUE,1.177231,-0.154724,0.000000,0.008728,-0.223312,0.000000,0.029000,0.097000,-0.041000,-0.100000,-0.140000,1.320000,-0.074366,Hold,0.972412,0.000000,Hold,-201.000000,2.000000,Suck,672.363281,-2181.818182,Speed,312.011719,-2181.818182,Speed,On,Off0.000000,0,,,,
07:58:00.964 PM 03/17/2016,Teleop Enabled,11,FALSE,0,NO ERROR,-0.000000,0.000000,0.000000,-0.006417,TRUE,FALSE,FALSE,FALSE,FALSE,FALSE,Disabled,0.000000,0.000000,0.000000,TRUE,1.177200,-0.164932,0.000000,-0.022278,-0.191437,0.000000,0.013000,-0.010000,-0.098000,-0.110000,-0.100000,1.390000,-0.083833,Hold,0.972412,0.000000,Hold,-201.000000,2.000000,Suck,672.363281,-2181.818182,Speed,313.110352,-2181.818182,Speed,On,Off0.000000,0,,,,
07:58:01.064 PM 03/17/2016,Teleop Enabled,11,FALSE,0,NO ERROR,-0.000000,0.000000,0.000000,-0.006417,TRUE,FALSE,FALSE,FALSE,FALSE,FALSE,Disabled,0.000000,0.000000,0.000000,TRUE,1.177567,-0.171432,0.000000,0.050247,-0.078995,0.000000,0.076000,0.206000,0.082000,-0.110000,-0.130000,1.380000,-0.086962,Hold,0.972412,0.000000,Hold,-201.000000,2.000000,Suck,672.363281,-2181.818182,Speed,313.110352,-2181.818182,Speed,On,Off0.000000,0,,,,
07:58:01.165 PM 03/17/2016,Teleop Enabled,11,FALSE,0,NO ERROR,-0.000000,0.000000,0.000000,-0.006417,TRUE,FALSE,FALSE,FALSE,FALSE,FALSE,Disabled,0.000000,0.000000,0.000000,TRUE,1.180420,-0.173859,0.000000,0.047470,-0.019592,0.000000,0.079000,0.048000,-0.044000,-0.100000,-0.110000,1.380000,-0.092853,Hold,0.972412,0.000000,Hold,-201.000000,2.000000,Suck,672.363281,-2181.818182,Speed,313.110352,-2181.818182,Speed,On,Off0.000000,0,,,,
07:58:01.266 PM 03/17/2016,Teleop Enabled,10,FALSE,0,NO ERROR,-0.000000,0.000000,0.000000,-0.006417,TRUE,FALSE,FALSE,FALSE,FALSE,FALSE,Disabled,0.000000,0.000000,0.000000,TRUE,1.182999,-0.173187,0.000000,0.061264,0.048523,0.000000,-0.166000,0.097000,0.213000,-0.100000,-0.130000,1.380000,-0.093063,Hold,0.972412,0.000000,Hold,-201.000000,2.000000,Suck,672.363281,-2181.818182,Speed,313.110352,-2181.818182,Speed,On,Off0.000000,0,,,,
07:58:01.366 PM 03/17/2016,Teleop Enabled,12,FALSE,0,NO ERROR,-0.000000,0.000000,0.000000,-0.006417,TRUE,FALSE,FALSE,FALSE,FALSE,FALSE,Disabled,0.000000,0.000000,0.000000,TRUE,1.183289,-0.170792,0.000000,-0.021713,0.047348,0.000000,0.115000,-0.085000,0.010000,-0.100000,-0.170000,1.370000,-0.087035,Hold,0.972412,0.000000,Hold,-201.000000,2.000000,Suck,672.363281,-2181.818182,Speed,313.110352,-2181.818182,Speed,On,Off0.000000,0,,,,
07:58:01.467 PM 03/17/2016,Teleop Enabled,11,FALSE,0,NO ERROR,-0.000000,0.000000,0.000000,-0.006417,TRUE,FALSE,FALSE,FALSE,FALSE,FALSE,Disabled,0.000000,0.000000,0.000000,TRUE,1.183777,-0.168030,0.000000,0.024200,0.058624,0.000000,-0.160000,-0.151000,0.029000,-0.110000,-0.080000,1.370000,-0.114455,Hold,0.972412,0.000000,Hold,-201.000000,2.000000,Suck,672.363281,-2181.818182,Speed,312.011719,-2181.818182,Speed,On,Off0.000000,0,,,,
07:58:01.568 PM 03/17/2016,Teleop Enabled,9,FALSE,0,NO ERROR,-0.000000,0.000000,0.000000,-0.006417,TRUE,FALSE,FALSE,FALSE,FALSE,FALSE,Disabled,0.000000,0.000000,0.000000,TRUE,1.182480,-0.167694,0.000000,-0.060623,-0.034241,0.000000,-0.042000,-0.058000,0.034000,-0.110000,-0.150000,1.370000,-0.116710,Hold,0.972412,0.000000,Hold,-201.000000,2.000000,Suck,671.264648,-2181.818182,Speed,313.110352,-2181.818182,Speed,On,Off0.000000,0,,,,
07:58:01.669 PM 03/17/2016,Teleop Disabled,11,FALSE,0,NO ERROR,-0.000000,0.000000,0.000000,-0.006417,TRUE,FALSE,FALSE,FALSE,FALSE,FALSE,Disabled,0.000000,0.000000,0.000000,TRUE,1.179138,-0.171738,0.000000,-0.067688,-0.108810,0.000000,-0.018000,-0.247000,-0.246000,-0.110000,-0.180000,1.300000,-0.121388,Hold,0.972656,0.000000,Hold,-793.000000,2.000000,Suck,671.264648,-2181.818182,Speed,312.011719,-2181.818182,Speed,On,Off0.000000,0,,,,
07:58:01.770 PM 03/17/2016,Teleop Disabled,10,FALSE,0,NO ERROR,-0.000000,0.000000,0.000000,-0.006417,TRUE,FALSE,FALSE,FALSE,FALSE,FALSE,Disabled,0.000000,0.000000,0.000000,TRUE,1.174713,-0.180450,0.000000,-0.090652,-0.198303,0.000000,-0.016000,0.010000,0.082000,-0.110000,-0.170000,1.310000,-0.119491,Hold,0.972656,0.000000,Hold,-10748.000000,2.000000,Suck,642.700195,-2181.818182,Speed,298.828125,-2181.818182,Speed,On,Off0.000000,0,,,,
07:58:01.870 PM 03/17/2016,Teleop Disabled,11,FALSE,0,NO ERROR,-0.000000,0.000000,0.000000,-0.006417,TRUE,FALSE,FALSE,FALSE,FALSE,FALSE,Disabled,0.000000,0.000000,0.000000,TRUE,1.171677,-0.184341,0.000000,-0.044693,0.018570,0.000000,0.047000,-0.082000,0.132000,-0.120000,-0.190000,1.230000,-0.124097,Hold,0.972656,0.000000,Hold,-10748.000000,2.000000,Suck,597.656250,-2181.818182,Speed,270.263672,-2181.818182,Speed,On,Off0.000000,0,,,,
07:58:01.972 PM 03/17/2016,Teleop Disabled,10,FALSE,0,NO ERROR,-0.000000,0.000000,0.000000,-0.006417,TRUE,FALSE,FALSE,FALSE,FALSE,FALSE,Disabled,0.000000,0.000000,0.000000,TRUE,1.170227,-0.184601,0.000000,0.001099,-0.004440,0.000000,0.098000,0.035000,0.090000,-0.110000,-0.160000,1.210000,-0.138797,Hold,0.972656,0.000000,Hold,-15949.000000,2.000000,Suck,554.809570,-2181.818182,Speed,242.797852,-2181.818182,Speed,On,Off0.000000,0,,,,
07:58:02.073 PM 03/17/2016,Teleop Disabled,9,FALSE,0,NO ERROR,-0.000000,0.000000,0.000000,-0.006417,TRUE,FALSE,FALSE,FALSE,FALSE,FALSE,Disabled,0.000000,0.000000,0.000000,TRUE,1.171997,-0.184891,0.000000,0.046463,-0.007935,0.000000,-0.010000,0.015000,0.046000,-0.120000,-0.150000,1.220000,-0.158361,Hold,0.972656,0.000000,Hold,-16157.000000,2.000000,Suck,524.047852,-2181.818182,Speed,215.332031,-2181.818182,Speed,On,Off0.000000,0,,,,
07:58:02.174 PM 03/17/2016,Teleop Disabled,10,FALSE,0,NO ERROR,-0.000000,0.000000,0.000000,-0.006417,TRUE,FALSE,FALSE,FALSE,FALSE,FALSE,Disabled,0.000000,0.000000,0.000000,TRUE,1.174164,-0.185745,0.000000,0.047256,-0.024765,0.000000,0.046000,0.049000,0.035000,-0.120000,-0.140000,1.240000,-0.170506,Hold,0.972656,0.000000,Hold,-16157.000000,2.000000,Suck,488.891602,-2181.818182,Speed,190.063477,-2181.818182,Speed,On,Off0.000000,0,,,,
07:58:02.274 PM 03/17/2016,Teleop Disabled,12,FALSE,0,NO ERROR,-0.000000,0.000000,0.000000,-0.006417,TRUE,FALSE,FALSE,FALSE,FALSE,FALSE,Disabled,0.000000,0.000000,0.000000,TRUE,1.177795,-0.187363,0.000000,0.085205,-0.036591,0.000000,-0.047000,-0.030000,0.104000,-0.130000,-0.120000,1.220000,-0.171371,Hold,0.972656,0.000000,Hold,-16157.000000,2.000000,Suck,455.932617,-2181.818182,Speed,165.893555,-2181.818182,Speed,On,Off0.000000,0,,,,
07:58:02.375 PM 03/17/2016,Teleop Disabled,9,FALSE,0,NO ERROR,-0.000000,0.000000,0.000000,-0.006417,TRUE,FALSE,FALSE,FALSE,FALSE,FALSE,Disabled,0.000000,0.000000,0.000000,TRUE,1.181259,-0.189148,0.000000,0.076019,-0.039200,0.000000,0.014000,-0.040000,0.010000,-0.130000,-0.130000,1.230000,-0.145045,Hold,0.972656,0.000000,Hold,-16157.000000,2.000000,Suck,425.170898,-2181.818182,Speed,140.625000,-2181.818182,Speed,On,Off0.000000,0,,,,
07:58:02.476 PM 03/17/2016,Teleop Disabled,11,FALSE,0,NO ERROR,-0.000000,0.000000,0.000000,-0.006417,TRUE,FALSE,FALSE,FALSE,FALSE,FALSE,Disabled,0.000000,0.000000,0.000000,TRUE,1.181992,-0.191467,0.000000,0.023376,-0.044342,0.000000,0.071000,-0.057000,-0.078000,-0.130000,-0.140000,1.270000,-0.146605,Hold,0.972656,0.000000,Hold,-16157.000000,2.000000,Suck,396.606445,-2181.818182,Speed,117.553711,-2181.818182,Speed,On,Off0.000000,0,,,,
07:58:02.576 PM 03/17/2016,Teleop Disabled,10,FALSE,0,NO ERROR,-0.000000,0.000000,0.000000,-0.006417,TRUE,FALSE,FALSE,FALSE,FALSE,FALSE,Disabled,0.000000,0.000000,0.000000,TRUE,1.183899,-0.194016,0.000000,0.038254,-0.052872,0.000000,0.001000,-0.010000,0.165000,-0.130000,-0.110000,1.240000,-0.142288,Hold,0.972656,0.000000,Hold,-16157.000000,2.000000,Suck,369.140625,-2181.818182,Speed,98.876953,-2181.818182,Speed,On,Off0.000000,0,,,,
07:58:02.677 PM 03/17/2016,Teleop Disabled,11,FALSE,0,NO ERROR,-0.000000,0.000000,0.000000,-0.006417,TRUE,FALSE,FALSE,FALSE,FALSE,FALSE,Disabled,0.000000,0.000000,0.000000,TRUE,1.185822,-0.194412,0.000000,0.030090,0.007385,0.000000,0.035000,-0.031000,0.072000,-0.130000,-0.110000,1.220000,-0.136793,Hold,0.972656,0.000000,Hold,-16157.000000,2.000000,Suck,343.872070,-2181.818182,Speed,75.805664,-2181.818182,Speed,On,Off0.000000,0,,,,
07:58:02.778 PM 03/17/2016,Teleop Disabled,10,FALSE,0,NO ERROR,-0.000000,0.000000,0.000000,-0.006417,TRUE,FALSE,FALSE,FALSE,FALSE,FALSE,Disabled,0.000000,0.000000,0.000000,TRUE,1.186752,-0.194382,0.000000,0.011993,0.004578,0.000000,0.095000,-0.015000,0.000000,-0.130000,-0.070000,1.220000,-0.138188,Hold,0.972656,0.000000,Hold,-16157.000000,2.000000,Suck,319.702148,-2181.818182,Speed,75.805664,-2181.818182,Speed,On,Off0.000000,0,,,,
07:58:02.878 PM 03/17/2016,Teleop Disabled,9,FALSE,0,NO ERROR,-0.000000,0.000000,0.000000,-0.006417,TRUE,FALSE,FALSE,FALSE,FALSE,FALSE,Disabled,0.000000,0.000000,0.000000,TRUE,1.189499,-0.194275,0.000000,0.073029,0.003677,0.000000,-0.049000,0.042000,-0.038000,-0.140000,-0.050000,1.180000,-0.142119,Hold,0.972656,0.000000,Hold,-16157.000000,2.000000,Suck,299.926758,-2181.818182,Speed,54.931641,-2181.818182,Speed,On,Off0.000000,0,,,,
07:58:02.979 PM 03/17/2016,Teleop Disabled,9,FALSE,0,NO ERROR,-0.000000,0.000000,0.000000,-0.006417,TRUE,FALSE,FALSE,FALSE,FALSE,FALSE,Disabled,0.000000,0.000000,0.000000,TRUE,1.192017,-0.193420,0.000000,0.050552,0.015564,0.000000,0.017000,0.023000,-0.008000,-0.130000,-0.110000,1.170000,-0.136849,Hold,0.972656,0.000000,Hold,-16157.000000,2.000000,Suck,276.855469,-2181.818182,Speed,31.860352,-2181.818182,Speed,On,Off0.000000,0,,,,
07:58:03.080 PM 03/17/2016,Teleop Disabled,10,FALSE,0,NO ERROR,-0.000000,0.000000,0.000000,-0.006417,TRUE,FALSE,FALSE,FALSE,FALSE,FALSE,Disabled,0.000000,0.000000,0.000000,TRUE,1.194733,-0.192352,0.000000,0.025818,0.000000,0.000000,-0.011000,0.009000,0.023000,-0.140000,-0.120000,1.170000,-0.138714,Hold,0.972656,0.000000,Hold,-16157.000000,2.000000,Suck,254.882812,-2181.818182,Speed,14.282227,-2181.818182,Speed,On,Off0.000000,0,,,,
07:58:03.181 PM 03/17/2016,Teleop Disabled,10,FALSE,0,NO ERROR,-0.000000,0.000000,0.000000,-0.006417,TRUE,FALSE,FALSE,FALSE,FALSE,FALSE,Disabled,0.000000,0.000000,0.000000,TRUE,1.194794,-0.192352,0.000000,-0.016220,0.000000,0.000000,-0.086000,0.008000,0.026000,-0.140000,-0.130000,1.180000,-0.143493,Hold,0.972656,0.000000,Hold,-16157.000000,2.000000,Suck,254.882812,-2181.818182,Speed,2.197266,-2181.818182,Speed,On,Off0.000000,0,,,,
07:58:03.281 PM 03/17/2016,Teleop Disabled,10,FALSE,0,NO ERROR,-0.000000,0.000000,0.000000,-0.006417,TRUE,FALSE,FALSE,FALSE,FALSE,FALSE,Disabled,0.000000,0.000000,0.000000,TRUE,1.194672,-0.192352,0.000000,0.007172,0.000000,0.000000,-0.008000,0.000000,-0.033000,-0.140000,-0.140000,1.180000,-0.138236,Hold,0.972656,0.000000,Hold,-16157.000000,2.000000,Suck,232.910156,-2181.818182,Speed,0.000000,-2181.818182,Speed,On,Off0.000000,0,,,,
07:58:03.382 PM 03/17/2016,Teleop Disabled,11,FALSE,0,NO ERROR,-0.000000,0.000000,0.000000,-0.006417,TRUE,TRUE,FALSE,FALSE,FALSE,FALSE,Disabled,0.000000,0.000000,0.000000,TRUE,1.194916,-0.192459,0.000000,0.002838,-0.006409,0.000000,-0.021000,-0.001000,0.046000,-0.150000,-0.120000,1.170000,-0.150123,Hold,0.972656,0.000000,Hold,-16157.000000,2.000000,Suck,212.036133,-2181.818182,Speed,0.000000,-2181.818182,Speed,On,Off0.000000,0,,,,
07:58:03.483 PM 03/17/2016,Teleop Disabled,10,FALSE,0,NO ERROR,-0.000000,0.000000,0.000000,-0.006417,TRUE,TRUE,FALSE,FALSE,FALSE,FALSE,Disabled,0.000000,0.000000,0.000000,TRUE,1.194656,-0.192566,0.000000,-0.011154,-0.003204,0.000000,0.009000,0.026000,0.045000,-0.150000,-0.130000,1.180000,-0.155308,Hold,0.972656,0.000000,Hold,-16157.000000,2.000000,Suck,192.260742,0.000000,Speed,0.000000,0.000000,Speed,On,Off0.000000,0,,,,
07:58:03.585 PM 03/17/2016,Teleop Disabled,10,FALSE,0,NO ERROR,-0.000000,0.000000,0.000000,-0.006417,TRUE,FALSE,FALSE,FALSE,FALSE,FALSE,Disabled,0.000000,0.000000,0.000000,TRUE,1.194305,-0.192688,0.000000,-0.014145,-0.002869,0.000000,-0.080000,0.012000,0.000000,-0.150000,-0.140000,1.170000,-0.156891,Hold,0.972656,0.000000,Hold,-16157.000000,2.000000,Suck,175.781250,0.000000,Speed,0.000000,0.000000,Speed,On,Off0.000000,0,,,,
07:58:03.685 PM 03/17/2016,Teleop Disabled,10,FALSE,0,NO ERROR,-0.000000,0.000000,0.000000,-0.006417,TRUE,FALSE,FALSE,FALSE,FALSE,FALSE,Disabled,0.000000,0.000000,0.000000,TRUE,1.192520,-0.192062,0.000000,-0.029541,0.022598,0.000000,0.043000,-0.009000,0.004000,-0.150000,-0.170000,1.170000,-0.157707,Hold,0.972656,0.000000,Hold,-16157.000000,2.000000,Suck,153.808594,-2181.818182,Speed,0.000000,-2181.818182,Speed,On,Off0.000000,0,,,,
07:58:03.786 PM 03/17/2016,Teleop Disabled,10,FALSE,0,NO ERROR,-0.000000,0.000000,0.000000,-0.006417,TRUE,FALSE,FALSE,FALSE,FALSE,FALSE,Disabled,0.000000,0.000000,0.000000,TRUE,1.191803,-0.191818,0.000000,-0.009964,0.000000,0.000000,0.016000,-0.010000,0.019000,-0.160000,-0.180000,1.170000,-0.176713,Hold,0.972656,0.000000,Hold,-16157.000000,2.000000,Suck,138.427734,-2181.818182,Speed,0.000000,-2181.818182,Speed,On,Off0.000000,0,,,,
07:58:03.888 PM 03/17/2016,Teleop Disabled,10,FALSE,0,NO ERROR,-0.000000,0.000000,0.000000,-0.006417,TRUE,FALSE,FALSE,FALSE,FALSE,FALSE,Disabled,0.000000,0.000000,0.000000,TRUE,1.191086,-0.191818,0.000000,-0.010147,0.000000,0.000000,-0.037000,-0.016000,0.011000,-0.150000,-0.190000,1.180000,-0.180955,Hold,0.972656,0.000000,Hold,-16157.000000,2.000000,Suck,119.750977,-2181.818182,Speed,0.000000,-2181.818182,Speed,On,Off0.000000,0,,,,
07:58:03.988 PM 03/17/2016,Teleop Disabled,11,FALSE,0,NO ERROR,-0.000000,0.000000,0.000000,-0.006417,TRUE,FALSE,FALSE,FALSE,FALSE,FALSE,Disabled,0.000000,0.000000,0.000000,TRUE,1.190521,-0.191849,0.000000,-0.006622,-0.003723,0.000000,0.053000,-0.013000,0.043000,-0.160000,-0.190000,1.180000,-0.184910,Hold,0.972656,0.000000,Hold,-16157.000000,2.000000,Suck,103.271484,-2181.818182,Speed,0.000000,-2181.818182,Speed,On,Off0.000000,0,,,,
07:58:04.088 PM 03/17/2016,Teleop Disabled,11,FALSE,0,NO ERROR,-0.000000,0.000000,0.000000,-0.006417,TRUE,FALSE,FALSE,FALSE,FALSE,FALSE,Disabled,0.000000,0.000000,0.000000,TRUE,1.190704,-0.192017,0.000000,0.000000,0.000000,0.000000,0.008000,0.010000,-0.016000,-0.160000,-0.170000,1.170000,-0.181368,Hold,0.972656,0.000000,Hold,-16157.000000,2.000000,Suck,85.693359,-2181.818182,Speed,0.000000,-2181.818182,Speed,On,Off0.000000,0,,,,
07:58:04.188 PM 03/17/2016,Teleop Disabled,11,FALSE,0,NO ERROR,-0.000000,0.000000,0.000000,-0.006417,TRUE,TRUE,FALSE,FALSE,FALSE,FALSE,Disabled,0.000000,0.000000,0.000000,TRUE,1.190582,-0.192017,0.000000,-0.009430,0.000000,0.000000,0.003000,-0.009000,0.039000,-0.160000,-0.180000,1.170000,-0.180252,Hold,0.972656,0.000000,Hold,-16157.000000,2.000000,Suck,69.213867,-2181.818182,Speed,0.000000,-2181.818182,Speed,On,Off0.000000,0,,,,
07:58:04.288 PM 03/17/2016,Teleop Disabled,9,FALSE,0,NO ERROR,-0.000000,0.000000,0.000000,-0.006417,TRUE,TRUE,FALSE,FALSE,FALSE,FALSE,Disabled,0.000000,0.000000,0.000000,TRUE,1.190460,-0.192017,0.000000,0.000000,0.000000,0.000000,-0.001000,0.010000,-0.002000,-0.160000,-0.200000,1.170000,-0.193661,Hold,0.972656,0.000000,Hold,-16157.000000,2.000000,Suck,57.128906,0.000000,Speed,0.000000,0.000000,Speed,On,Off0.000000,0,,,,
07:58:04.388 PM 03/17/2016,Teleop Disabled,11,FALSE,0,NO ERROR,-0.000000,0.000000,0.000000,-0.006417,TRUE,FALSE,FALSE,FALSE,FALSE,FALSE,Disabled,0.000000,0.000000,0.000000,TRUE,1.190460,-0.192017,0.000000,0.000000,0.000000,0.000000,-0.002000,-0.003000,0.031000,-0.160000,-0.210000,1.170000,-0.197431,Hold,0.972656,0.000000,Hold,-16157.000000,2.000000,Suck,39.550781,0.000000,Speed,0.000000,0.000000,Speed,On,Off0.000000,0,,,,
07:58:04.488 PM 03/17/2016,Teleop Disabled,10,FALSE,0,NO ERROR,-0.000000,0.000000,0.000000,-0.006417,TRUE,FALSE,FALSE,FALSE,FALSE,FALSE,Disabled,0.000000,0.000000,0.000000,TRUE,1.190460,-0.192017,0.000000,0.000000,0.000000,0.000000,-0.004000,0.005000,0.014000,-0.160000,-0.210000,1.170000,-0.200567,Hold,0.972656,0.000000,Hold,-16157.000000,2.000000,Suck,25.268555,-2181.818182,Speed,0.000000,-2181.818182,Speed,On,Off0.000000,0,,,,
07:58:04.589 PM 03/17/2016,Teleop Disabled,10,FALSE,0,NO ERROR,-0.000000,0.000000,0.000000,-0.006417,TRUE,FALSE,FALSE,FALSE,FALSE,FALSE,Disabled,0.000000,0.000000,0.000000,TRUE,1.190460,-0.192017,0.000000,0.000000,0.000000,0.000000,0.016000,-0.003000,0.016000,-0.160000,-0.210000,1.180000,-0.190539,Hold,0.972656,0.000000,Hold,-16157.000000,2.000000,Suck,13.183594,-2181.818182,Speed,0.000000,-2181.818182,Speed,On,Off0.000000,0,,,,
07:58:04.689 PM 03/17/2016,Teleop Disabled,10,FALSE,0,NO ERROR,-0.000000,0.000000,0.000000,-0.006417,TRUE,FALSE,FALSE,FALSE,FALSE,FALSE,Disabled,0.000000,0.000000,0.000000,TRUE,1.190460,-0.192017,0.000000,0.000000,0.000000,0.000000,-0.005000,0.000000,0.020000,-0.160000,-0.240000,1.200000,-0.181316,Hold,0.972656,0.000000,Hold,-16157.000000,2.000000,Suck,1.098633,-2181.818182,Speed,0.000000,-2181.818182,Speed,On,Off0.000000,0,,,,
07:58:04.789 PM 03/17/2016,Teleop Disabled,11,FALSE,0,NO ERROR,-0.000000,0.000000,0.000000,-0.006417,TRUE,FALSE,FALSE,FALSE,FALSE,FALSE,Disabled,0.000000,0.000000,0.000000,TRUE,1.190460,-0.192017,0.000000,0.000000,0.000000,0.000000,0.008000,0.008000,0.002000,-0.160000,-0.300000,1.240000,-0.179684,Hold,0.972656,0.000000,Hold,-16175.000000,2.000000,Suck,0.000000,-2181.818182,Speed,0.000000,-2181.818182,Speed,On,Off0.000000,0,,,,
07:58:04.889 PM 03/17/2016,Teleop Disabled,10,FALSE,0,NO ERROR,-0.000000,0.000000,0.000000,-0.006417,TRUE,FALSE,FALSE,FALSE,FALSE,FALSE,Disabled,0.000000,0.000000,0.000000,TRUE,1.190460,-0.192017,0.000000,0.000000,0.000000,0.000000,0.001000,-0.007000,0.021000,-0.150000,-0.220000,1.210000,-0.195104,Hold,0.972656,0.000000,Hold,-16322.000000,2.000000,Suck,0.000000,-2181.818182,Speed,0.000000,-2181.818182,Speed,On,Off0.000000,0,,,,
07:58:04.989 PM 03/17/2016,Teleop Disabled,11,FALSE,0,NO ERROR,-0.000000,0.000000,0.000000,-0.006417,TRUE,TRUE,FALSE,FALSE,FALSE,FALSE,Disabled,0.000000,0.000000,0.000000,TRUE,1.190460,-0.192017,0.000000,0.000000,0.000000,0.000000,0.002000,0.001000,0.005000,-0.160000,-0.230000,1.220000,-0.192177,Hold,0.972656,0.000000,Hold,-16704.000000,2.000000,Suck,0.000000,-2181.818182,Speed,0.000000,-2181.818182,Speed,On,Off0.000000,0,,,,
07:58:05.089 PM 03/17/2016,Teleop Disabled,11,FALSE,0,NO ERROR,-0.000000,0.000000,0.000000,-0.006417,TRUE,TRUE,FALSE,FALSE,FALSE,FALSE,Disabled,0.000000,0.000000,0.000000,TRUE,1.190460,-0.192017,0.000000,0.000000,0.000000,0.000000,-0.005000,0.000000,0.002000,-0.160000,-0.220000,1.210000,-0.179622,Hold,0.972656,0.000000,Hold,-16704.000000,2.000000,Suck,0.000000,0.000000,Speed,0.000000,0.000000,Speed,On,Off0.000000,0,,,,
