Time,Robot Mode,Loop Time,Error Status,Error Code,Error Source,Left Motor Output,Left Motor Encoder,Right Motor Output,Right Motor Encoder,Is Level,Is Stalled,Ball Detector Photoeye,Vision Enabled,Vision Teleop Control,Vision Auto Control,Vision Current State,Vision X Output,Vision NavX Error,Vision NavX Target,NavX Connection Status,NavX Displacement X,NavX Displacement Y,NavX Displacement Z,NavX Velocity X,NavX Velocity Y,NavX Velocity Z,NavX Acceleration X,NavX Acceleration Y,NavX Acceleration Z,NavX Pitch,NavX Yaw,NavX Roll,Gyro Angle,Roller Arm State,Roller Arm Actual,Roller Arm Desired,Shooter Arm State,Shooter Arm Actual,Shooter Arm Desired,Shooter State,Actual RPM Left,Desired RPM Left,Control Mode Left,Actual RPM Right,Desired RPM Right,Scaler Motor Output,Auto To Run,Auto Current File,Auto File Status,Auto Current Command,Auto Trimmed Command
02:43:20.853 PM 03/19/2016,Teleop Enabled,11,FALSE,0,NO ERROR,-0.000000,0.000000,0.000000,0.000000,TRUE,FALSE,TRUE,FALSE,FALSE,FALSE,Disabled,0.000000,0.000000,0.000000,TRUE,-0.005768,0.004349,0.000000,0.000000,0.000000,0.000000,0.003000,-0.002000,0.021000,0.000000,-0.420000,2.250000,0.029899,ResetBack,0.894287,-0.200000,ResetBack,50682.000000,-0.300000,Empty,0.000000,0.000000,Speed,0.000000,0.000000,Speed,Off,Off0.000000,0,,,,
02:43:20.953 PM 03/19/2016,Teleop Enabled,11,FALSE,0,NO ERROR,-0.000000,0.000000,0.000000,0.000000,TRUE,FALSE,TRUE,FALSE,FALSE,FALSE,Disabled,0.000000,0.000000,0.000000,TRUE,-0.005768,0.004318,0.000000,0.000000,-0.002884,0.000000,0.021000,-0.010000,0.043000,-0.010000,-0.430000,2.260000,0.013849,ResetBack,0.355713,-0.200000,ResetBack,51651.000000,-0.300000,Empty,0.000000,0.000000,Speed,0.000000,0.000000,Speed,Off,Off0.000000,0,,,,
02:43:21.053 PM 03/19/2016,Teleop Enabled,10,FALSE,0,NO ERROR,-0.000000,-0.006417,0.000000,-0.006417,TRUE,FALSE,TRUE,FALSE,FALSE,FALSE,Disabled,0.000000,0.000000,0.000000,TRUE,-0.005142,0.004196,0.000000,0.020065,0.000000,0.000000,0.009000,-0.016000,0.015000,-0.020000,-0.440000,2.240000,0.005653,ResetBack,-0.002686,-0.200000,ResetBack,60123.000000,-0.300000,Empty,0.000000,0.000000,Speed,0.000000,0.000000,Speed,Off,Off0.000000,0,,,,
02:43:21.153 PM 03/19/2016,Teleop Enabled,11,FALSE,0,NO ERROR,-0.000000,-0.019250,0.000000,-0.032083,TRUE,FALSE,TRUE,FALSE,FALSE,FALSE,Disabled,0.000000,0.000000,0.000000,TRUE,-0.005081,0.003632,0.000000,-0.008286,-0.026917,0.000000,0.111000,-0.086000,0.176000,-0.020000,-0.280000,2.320000,-0.008231,ResetBack,-0.002930,-0.200000,ResetBack,60123.000000,-0.300000,Empty,0.000000,0.000000,Speed,0.000000,0.000000,Speed,Off,Off0.000000,0,,,,
02:43:21.253 PM 03/19/2016,Teleop Enabled,10,FALSE,0,NO ERROR,-0.000000,-0.006417,0.000000,-0.012833,TRUE,FALSE,TRUE,FALSE,FALSE,FALSE,Disabled,0.000000,0.000000,0.000000,TRUE,-0.004562,0.001556,0.000000,0.020294,-0.045532,0.000000,0.033000,0.044000,0.054000,0.080000,-0.340000,2.230000,0.106323,Reset,-0.003174,0.000000,ResetBack,67643.000000,-0.300000,Suck,0.000000,2181.818182,Speed,0.000000,2181.818182,Speed,Off,Off0.000000,0,,,,
02:43:21.353 PM 03/19/2016,Teleop Enabled,10,FALSE,0,NO ERROR,-0.000000,-0.012833,0.000000,-0.012833,TRUE,FALSE,TRUE,FALSE,FALSE,FALSE,Disabled,0.000000,0.000000,0.000000,TRUE,-0.003647,0.001312,0.000000,0.021057,0.002029,0.000000,-0.015000,-0.004000,-0.013000,-0.020000,-0.420000,2.220000,-0.007863,Hold,1.199951,0.000000,ResetBack,70125.000000,-0.300000,Hold,-67.500000,0.000000,Speed,-30.000000,0.000000,Speed,Off,Off0.000000,0,,,,
02:43:21.454 PM 03/19/2016,Teleop Enabled,10,FALSE,0,NO ERROR,-0.000000,-0.012833,0.000000,-0.012833,TRUE,FALSE,TRUE,FALSE,FALSE,FALSE,Disabled,0.000000,0.000000,0.000000,TRUE,-0.004456,0.001205,0.000000,-0.030182,-0.000214,0.000000,0.003000,0.025000,0.021000,-0.020000,-0.460000,2.250000,-0.020693,Hold,0.930420,0.000000,ResetBack,70260.000000,-0.300000,Hold,-757.500000,0.000000,Speed,-570.000000,0.000000,Speed,Off,Off0.000000,0,,,,
02:43:21.556 PM 03/19/2016,Teleop Enabled,11,FALSE,0,NO ERROR,-0.000000,-0.012833,0.000000,-0.012833,TRUE,FALSE,TRUE,FALSE,FALSE,FALSE,Disabled,0.000000,0.000000,0.000000,TRUE,-0.006088,0.001129,0.000000,-0.035995,0.007660,0.000000,0.019000,-0.050000,0.024000,0.000000,-0.440000,2.270000,-0.011240,Hold,0.898682,0.000000,ResetBack,71174.000000,-0.300000,Hold,-832.500000,0.000000,Speed,-592.500000,0.000000,Speed,Off,Off0.000000,0,,,,
02:43:21.655 PM 03/19/2016,Teleop Enabled,10,FALSE,0,NO ERROR,-0.000000,-0.012833,0.000000,-0.012833,TRUE,FALSE,TRUE,FALSE,FALSE,FALSE,Disabled,0.000000,0.000000,0.000000,TRUE,-0.007324,0.001129,0.000000,0.000000,0.003754,0.000000,-0.017000,-0.052000,-0.048000,0.000000,-0.400000,2.250000,-0.016225,Hold,0.898682,0.000000,ResetBack,71497.000000,-0.300000,Hold,-585.000000,0.000000,Speed,-592.500000,0.000000,Speed,Off,Off0.000000,0,,,,
02:43:21.756 PM 03/19/2016,Teleop Enabled,11,FALSE,0,NO ERROR,-0.000000,-0.012833,0.000000,-0.012833,TRUE,FALSE,TRUE,FALSE,FALSE,FALSE,Disabled,0.000000,0.000000,0.000000,TRUE,-0.007248,0.000854,0.000000,0.000443,0.000000,0.000000,0.005000,0.003000,0.000000,0.000000,-0.370000,2.180000,-0.008538,Hold,0.898682,0.000000,ResetBack,71497.000000,-0.300000,Hold,-375.000000,0.000000,Speed,-375.000000,0.000000,Speed,Off,Off0.000000,0,,,,
02:43:21.857 PM 03/19/2016,Teleop Enabled,10,FALSE,0,NO ERROR,-0.000000,-0.012833,0.000000,-0.012833,TRUE,FALSE,TRUE,FALSE,FALSE,FALSE,Disabled,0.000000,0.000000,0.000000,TRUE,-0.007217,0.000778,0.000000,0.000000,0.000000,0.000000,0.007000,-0.004000,0.013000,0.000000,-0.360000,2.160000,0.008882,Hold,0.898682,0.000000,ResetBack,71746.000000,-0.300000,Hold,-217.500000,0.000000,Speed,-60.000000,0.000000,Speed,Off,Off0.000000,0,,,,
02:43:21.958 PM 03/19/2016,Teleop Enabled,11,FALSE,0,NO ERROR,-0.000000,-0.012833,0.000000,-0.012833,TRUE,FALSE,TRUE,FALSE,FALSE,FALSE,Disabled,0.000000,0.000000,0.000000,TRUE,-0.007217,0.000687,0.000000,0.000000,-0.003677,0.000000,-0.001000,-0.002000,0.007000,0.000000,-0.380000,2.150000,0.012293,Hold,0.898682,0.000000,ResetBack,71819.000000,-0.300000,Hold,-67.500000,0.000000,Speed,0.000000,0.000000,Speed,Off,Off0.000000,0,,,,
02:43:22.058 PM 03/19/2016,Teleop Enabled,10,FALSE,0,NO ERROR,-0.000000,-0.012833,0.000000,-0.012833,TRUE,FALSE,TRUE,FALSE,FALSE,FALSE,Disabled,0.000000,0.000000,0.000000,TRUE,-0.007217,0.000687,0.000000,0.000000,0.000000,0.000000,0.000000,-0.001000,0.030000,0.000000,-0.380000,2.180000,0.002293,Hold,0.898682,0.000000,ResetBack,71819.000000,-0.300000,Hold,0.000000,0.000000,Speed,0.000000,0.000000,Speed,Off,Off0.000000,0,,,,
02:43:22.158 PM 03/19/2016,Teleop Enabled,10,FALSE,0,NO ERROR,-0.000000,-0.012833,0.000000,-0.012833,TRUE,FALSE,TRUE,FALSE,FALSE,FALSE,Disabled,0.000000,0.000000,0.000000,TRUE,-0.007217,0.000687,0.000000,0.000000,0.000000,0.000000,-0.001000,0.001000,0.014000,0.000000,-0.380000,2.180000,-0.002671,Hold,0.898682,0.000000,Reset,71819.000000,2.000000,Hold,0.000000,0.000000,Speed,0.000000,0.000000,Speed,Off,Off0.000000,0,,,,
02:43:22.259 PM 03/19/2016,Teleop Enabled,10,FALSE,0,NO ERROR,-0.000000,-0.012833,0.000000,-0.012833,TRUE,FALSE,TRUE,FALSE,FALSE,FALSE,Disabled,0.000000,0.000000,0.000000,TRUE,-0.007217,0.000687,0.000000,0.000000,0.000000,0.000000,0.012000,0.006000,0.035000,0.000000,-0.380000,2.180000,-0.004172,Hold,0.898682,0.000000,Hold,71820.000000,2.000000,Hold,0.000000,0.000000,Speed,0.000000,0.000000,Speed,Off,Off0.000000,0,,,,
02:43:22.360 PM 03/19/2016,Teleop Enabled,9,FALSE,0,NO ERROR,-0.000000,-0.012833,0.000000,-0.012833,TRUE,FALSE,TRUE,FALSE,FALSE,FALSE,Disabled,0.000000,0.000000,0.000000,TRUE,-0.007217,0.000687,0.000000,0.000000,0.000000,0.000000,-0.003000,0.000000,0.016000,0.000000,-0.390000,2.180000,0.004420,Hold,0.898682,0.000000,Hold,-366.000000,2.000000,Hold,0.000000,0.000000,Speed,0.000000,0.000000,Speed,Off,Off0.000000,0,,,,
02:43:22.460 PM 03/19/2016,Teleop Enabled,9,FALSE,0,NO ERROR,-0.000000,-0.012833,0.000000,-0.012833,TRUE,FALSE,TRUE,FALSE,FALSE,FALSE,Disabled,0.000000,0.000000,0.000000,TRUE,-0.007217,0.000687,0.000000,0.000000,0.000000,0.000000,-0.001000,0.000000,0.013000,0.000000,-0.400000,2.190000,0.013705,Hold,0.898682,0.000000,Hold,-228.000000,2.000000,Hold,0.000000,0.000000,Speed,0.000000,0.000000,Speed,Off,Off0.000000,0,,,,
02:43:22.561 PM 03/19/2016,Teleop Enabled,10,FALSE,0,NO ERROR,-0.000000,-0.012833,0.000000,-0.012833,TRUE,FALSE,TRUE,FALSE,FALSE,FALSE,Disabled,0.000000,0.000000,0.000000,TRUE,-0.007217,0.000687,0.000000,0.000000,0.000000,0.000000,0.004000,0.001000,0.024000,0.000000,-0.400000,2.190000,0.027733,Hold,0.898682,0.000000,Hold,-228.000000,2.000000,Hold,0.000000,0.000000,Speed,0.000000,0.000000,Speed,Off,Off0.000000,0,,,,
02:43:22.662 PM 03/19/2016,Teleop Enabled,10,FALSE,0,NO ERROR,-0.000000,-0.012833,0.000000,-0.012833,TRUE,FALSE,TRUE,FALSE,FALSE,FALSE,Disabled,0.000000,0.000000,0.000000,TRUE,-0.007217,0.000687,0.000000,0.000000,0.000000,0.000000,-0.001000,-0.002000,0.018000,0.000000,-0.380000,2.190000,0.042213,Hold,0.898682,0.000000,Hold,-228.000000,2.000000,LowGoal,0.000000,-1454.545455,Speed,0.000000,-1454.545455,Speed,Off,Off0.000000,0,,,,
02:43:22.763 PM 03/19/2016,Teleop Enabled,10,FALSE,0,NO ERROR,-0.000000,-0.012833,0.000000,-0.012833,TRUE,FALSE,TRUE,FALSE,FALSE,FALSE,Disabled,0.000000,0.000000,0.000000,TRUE,-0.007828,0.000641,0.000000,-0.003540,-0.003937,0.000000,-0.022000,-0.002000,-0.009000,0.000000,-0.410000,2.200000,0.049191,Hold,0.898682,0.000000,Hold,-278.000000,2.000000,LowGoal,60.000000,-1454.545455,Speed,75.000000,-1454.545455,Speed,Off,Off0.000000,0,,,,
02:43:22.864 PM 03/19/2016,Teleop Enabled,10,FALSE,0,NO ERROR,-0.000000,-0.012833,0.000000,-0.012833,TRUE,FALSE,TRUE,FALSE,FALSE,FALSE,Disabled,0.000000,0.000000,0.000000,TRUE,-0.008194,0.000290,0.000000,-0.000717,-0.013931,0.000000,0.027000,-0.007000,-0.061000,0.000000,-0.430000,2.180000,0.047669,Hold,0.898682,0.000000,Hold,-278.000000,2.000000,LowGoal,735.000000,-1454.545455,Speed,967.500000,-1454.545455,Speed,Off,Off0.000000,0,,,,
02:43:22.965 PM 03/19/2016,Teleop Enabled,11,FALSE,0,NO ERROR,-0.000000,-0.012833,0.000000,-0.012833,TRUE,FALSE,TRUE,FALSE,FALSE,FALSE,Disabled,0.000000,0.000000,0.000000,TRUE,-0.008514,0.000092,0.000000,-0.007278,-0.001022,0.000000,-0.005000,-0.036000,0.043000,0.000000,-0.400000,2.160000,0.046602,Hold,0.898682,0.000000,Hold,-278.000000,2.000000,LowGoal,1440.000000,-1454.545455,Speed,1477.500000,-1454.545455,Speed,Off,Off0.000000,0,,,,
02:43:23.065 PM 03/19/2016,Teleop Enabled,10,FALSE,0,NO ERROR,-0.000000,-0.012833,0.000000,-0.012833,TRUE,FALSE,TRUE,FALSE,FALSE,FALSE,Disabled,0.000000,0.000000,0.000000,TRUE,-0.008163,-0.000671,0.000000,0.012527,0.000000,0.000000,-0.039000,0.005000,0.031000,0.000000,-0.340000,2.180000,0.050451,Hold,0.898682,0.000000,Hold,-236.000000,2.000000,LowGoal,1560.000000,-1454.545455,Speed,1545.000000,-1454.545455,Speed,Off,Off0.000000,0,,,,
02:43:23.167 PM 03/19/2016,Teleop Enabled,11,FALSE,0,NO ERROR,-0.000000,-0.012833,0.000000,-0.012833,TRUE,FALSE,TRUE,FALSE,FALSE,FALSE,Disabled,0.000000,0.000000,0.000000,TRUE,-0.008255,-0.000900,0.000000,0.001099,-0.013367,0.000000,0.007000,0.010000,0.020000,0.000000,-0.410000,2.230000,0.059598,Hold,0.898682,0.000000,Hold,-235.000000,2.000000,LowGoal,1327.500000,-1454.545455,Speed,1327.500000,-1454.545455,Speed,Off,Off0.000000,0,,,,
02:43:23.268 PM 03/19/2016,Teleop Enabled,11,FALSE,0,NO ERROR,-0.000000,-0.012833,0.000000,-0.012833,TRUE,FALSE,TRUE,FALSE,FALSE,FALSE,Disabled,0.000000,0.000000,0.000000,TRUE,-0.008804,-0.000473,0.000000,-0.025528,0.013306,0.000000,-0.076000,-0.054000,0.011000,0.000000,-0.390000,2.290000,0.055697,Hold,0.898682,0.000000,Hold,-235.000000,2.000000,LowGoal,1297.500000,-1454.545455,Speed,1297.500000,-1454.545455,Speed,Off,Off0.000000,0,,,,
02:43:23.368 PM 03/19/2016,Teleop Enabled,10,FALSE,0,NO ERROR,-0.000000,-0.012833,0.000000,-0.012833,TRUE,FALSE,TRUE,FALSE,FALSE,FALSE,Disabled,0.000000,0.000000,0.000000,TRUE,-0.009521,-0.000336,0.000000,-0.003174,0.010727,0.000000,-0.065000,0.002000,-0.011000,0.000000,-0.410000,2.220000,0.059845,Hold,0.898682,0.000000,Hold,-235.000000,2.000000,LowGoal,1402.500000,-1454.545455,Speed,1387.500000,-1454.545455,Speed,Off,Off0.000000,0,,,,
02:43:23.468 PM 03/19/2016,Teleop Enabled,11,FALSE,0,NO ERROR,-0.000000,-0.012833,0.000000,-0.012833,TRUE,FALSE,TRUE,FALSE,FALSE,FALSE,Disabled,0.000000,0.000000,0.000000,TRUE,-0.009628,0.000671,0.000000,0.000000,0.004059,0.000000,-0.015000,0.002000,0.054000,0.000000,-0.420000,2.200000,0.072215,Hold,0.898682,0.000000,Hold,-235.000000,2.000000,LowGoal,1402.500000,-1454.545455,Speed,1380.000000,-1454.545455,Speed,Off,Off0.000000,0,,,,
02:43:23.569 PM 03/19/2016,Teleop Enabled,10,FALSE,0,NO ERROR,-0.000000,-0.012833,0.000000,-0.012833,TRUE,FALSE,TRUE,FALSE,FALSE,FALSE,Disabled,0.000000,0.000000,0.000000,TRUE,-0.009720,0.000931,0.000000,0.003952,-0.003082,0.000000,0.020000,-0.045000,0.018000,0.000000,-0.450000,2.220000,0.078143,Hold,0.898682,0.000000,Hold,-235.000000,2.000000,LowGoal,1350.000000,-1454.545455,Speed,1350.000000,-1454.545455,Speed,Off,Off0.000000,0,,,,
02:43:23.669 PM 03/19/2016,Teleop Enabled,11,FALSE,0,NO ERROR,-0.000000,-0.012833,0.000000,-0.012833,TRUE,FALSE,TRUE,FALSE,FALSE,FALSE,Disabled,0.000000,0.000000,0.000000,TRUE,-0.009186,0.000183,0.000000,0.019104,-0.012894,0.000000,-0.004000,-0.061000,-0.039000,0.000000,-0.430000,2.220000,0.075612,Hold,0.898682,0.000000,Hold,-235.000000,2.000000,LowGoal,1365.000000,-1454.545455,Speed,1342.500000,-1454.545455,Speed,Off,Off0.000000,0,,,,
02:43:23.770 PM 03/19/2016,Teleop Enabled,11,FALSE,0,NO ERROR,-0.000000,-0.012833,0.000000,-0.012833,TRUE,FALSE,TRUE,FALSE,FALSE,FALSE,Disabled,0.000000,0.000000,0.000000,TRUE,-0.009003,-0.000656,0.000000,0.003036,-0.017624,0.000000,0.034000,-0.120000,-0.026000,0.000000,-0.450000,2.240000,0.090481,Hold,0.898682,0.000000,Hold,-235.000000,2.000000,LowGoal,1380.000000,-1454.545455,Speed,1365.000000,-1454.545455,Speed,Off,Off0.000000,0,,,,
02:43:23.870 PM 03/19/2016,Teleop Enabled,11,FALSE,0,NO ERROR,-0.000000,-0.012833,0.000000,-0.012833,TRUE,FALSE,TRUE,FALSE,FALSE,FALSE,Disabled,0.000000,0.000000,0.000000,TRUE,-0.007553,-0.002655,0.000000,0.025223,-0.045425,0.000000,-0.060000,0.100000,0.014000,0.000000,-0.430000,2.200000,0.094681,Hold,0.898682,0.000000,Hold,-235.000000,2.000000,LowGoal,1372.500000,-1454.545455,Speed,1357.500000,-1454.545455,Speed,Off,Off0.000000,0,,,,
02:43:23.970 PM 03/19/2016,Teleop Enabled,10,FALSE,0,NO ERROR,-0.000000,-0.012833,0.000000,-0.012833,TRUE,FALSE,TRUE,FALSE,FALSE,FALSE,Disabled,0.000000,0.000000,0.000000,TRUE,-0.007080,-0.003952,0.000000,0.011490,-0.021164,0.000000,-0.116000,0.036000,0.049000,0.000000,-0.410000,2.210000,0.096519,Hold,0.898682,0.000000,Hold,-235.000000,2.000000,LowGoal,1365.000000,-1454.545455,Speed,1357.500000,-1454.545455,Speed,Off,Off0.000000,0,,,,
02:43:24.070 PM 03/19/2016,Teleop Enabled,11,FALSE,0,NO ERROR,-0.000000,-0.012833,0.000000,-0.012833,TRUE,FALSE,TRUE,FALSE,FALSE,FALSE,Disabled,0.000000,0.000000,0.000000,TRUE,-0.007431,-0.004333,0.000000,-0.012512,0.000000,0.000000,-0.023000,0.032000,0.017000,0.000000,-0.420000,2.200000,0.101586,Hold,0.898682,0.000000,Hold,-235.000000,2.000000,LowGoal,1372.500000,-1454.545455,Speed,1357.500000,-1454.545455,Speed,Off,Off0.000000,0,,,,
02:43:24.171 PM 03/19/2016,Teleop Enabled,9,FALSE,0,NO ERROR,-0.000000,-0.012833,0.000000,-0.012833,TRUE,FALSE,TRUE,FALSE,FALSE,FALSE,Disabled,0.000000,0.000000,0.000000,TRUE,-0.008530,-0.003754,0.000000,-0.020523,0.000000,0.000000,-0.023000,0.032000,0.017000,0.000000,-0.450000,2.210000,0.104292,Hold,0.898682,0.000000,Hold,-234.000000,2.000000,LowGoal,1365.000000,-1454.545455,Speed,1357.500000,-1454.545455,Speed,Off,Off0.000000,0,,,,
02:43:24.270 PM 03/19/2016,Teleop Enabled,10,FALSE,0,NO ERROR,-0.000000,-0.012833,0.000000,-0.012833,TRUE,FALSE,TRUE,FALSE,FALSE,FALSE,Disabled,0.000000,0.000000,0.000000,TRUE,-0.009171,-0.003708,0.000000,-0.007828,0.010056,0.000000,0.105000,-0.008000,0.025000,0.000000,-0.440000,2.220000,0.111708,Hold,0.898682,0.000000,Hold,-234.000000,2.000000,LowGoal,1372.500000,-1454.545455,Speed,1357.500000,-1454.545455,Speed,Off,Off0.000000,0,,,,
02:43:24.370 PM 03/19/2016,Teleop Enabled,11,FALSE,0,NO ERROR,-0.000000,-0.012833,0.000000,-0.012833,TRUE,FALSE,TRUE,FALSE,FALSE,FALSE,Disabled,0.000000,0.000000,0.000000,TRUE,-0.009857,-0.003265,0.000000,-0.023163,0.007217,0.000000,-0.038000,-0.059000,-0.058000,0.000000,-0.440000,2.210000,0.126600,Hold,0.898682,0.000000,Hold,-234.000000,2.000000,LowGoal,1365.000000,-1454.545455,Speed,1357.500000,-1454.545455,Speed,Off,Off0.000000,0,,,,
02:43:24.471 PM 03/19/2016,Teleop Enabled,9,FALSE,0,NO ERROR,-0.000000,-0.012833,0.000000,-0.012833,TRUE,FALSE,TRUE,FALSE,FALSE,FALSE,Disabled,0.000000,0.000000,0.000000,TRUE,-0.010040,-0.002930,0.000000,0.003052,0.010376,0.000000,-0.026000,-0.016000,0.003000,0.000000,-0.450000,2.170000,0.125705,Hold,0.898682,0.000000,Hold,-234.000000,2.000000,LowGoal,1365.000000,-1454.545455,Speed,1365.000000,-1454.545455,Speed,Off,Off0.000000,0,,,,
02:43:24.573 PM 03/19/2016,Teleop Enabled,9,FALSE,0,NO ERROR,-0.000000,-0.012833,0.000000,-0.012833,TRUE,FALSE,TRUE,FALSE,FALSE,FALSE,Disabled,0.000000,0.000000,0.000000,TRUE,-0.010040,-0.002930,0.000000,0.003052,0.010376,0.000000,-0.026000,-0.016000,0.003000,0.000000,-0.450000,2.170000,0.129117,Hold,0.898682,0.000000,Hold,-234.000000,2.000000,LowGoal,1365.000000,-1454.545455,Speed,1350.000000,-1454.545455,Speed,Off,Off0.000000,0,,,,
02:43:24.673 PM 03/19/2016,Teleop Enabled,11,FALSE,0,NO ERROR,-0.000000,-0.012833,0.000000,-0.012833,TRUE,FALSE,TRUE,FALSE,FALSE,FALSE,Disabled,0.000000,0.000000,0.000000,TRUE,-0.009476,-0.002243,0.000000,0.010513,-0.003647,0.000000,0.009000,0.021000,-0.034000,-0.010000,-0.410000,2.250000,0.134742,Hold,0.898682,0.000000,Hold,-234.000000,2.000000,LowGoal,1372.500000,-1454.545455,Speed,1357.500000,-1454.545455,Speed,Off,Off0.000000,0,,,,
02:43:24.775 PM 03/19/2016,Teleop Enabled,9,FALSE,0,NO ERROR,-0.000000,-0.012833,0.000000,-0.012833,TRUE,FALSE,TRUE,FALSE,FALSE,FALSE,Disabled,0.000000,0.000000,0.000000,TRUE,-0.009109,-0.002808,0.000000,0.015274,-0.018814,0.000000,0.019000,0.015000,-0.009000,-0.010000,-0.400000,2.170000,0.126920,Hold,0.898682,0.000000,Hold,-234.000000,2.000000,LowGoal,1372.500000,-1454.545455,Speed,1357.500000,-1454.545455,Speed,Off,Off0.000000,0,,,,
02:43:24.875 PM 03/19/2016,Teleop Enabled,9,FALSE,0,NO ERROR,-0.000000,-0.012833,0.000000,-0.012833,TRUE,FALSE,TRUE,FALSE,FALSE,FALSE,Disabled,0.000000,0.000000,0.000000,TRUE,-0.008408,-0.003647,0.000000,0.002213,-0.011337,0.000000,0.004000,0.000000,0.037000,-0.010000,-0.400000,2.170000,0.127833,Hold,0.898682,0.000000,Hold,-234.000000,2.000000,LowGoal,1372.500000,-1454.545455,Speed,1365.000000,-1454.545455,Speed,Off,Off0.000000,0,,,,
02:43:24.975 PM 03/19/2016,Teleop Enabled,11,FALSE,0,NO ERROR,-0.000000,-0.012833,0.000000,-0.012833,TRUE,FALSE,TRUE,FALSE,FALSE,FALSE,Disabled,0.000000,0.000000,0.000000,TRUE,-0.008408,-0.003647,0.000000,0.002213,-0.011337,0.000000,0.007000,-0.089000,-0.005000,-0.010000,-0.400000,2.220000,0.127096,Hold,0.898682,0.000000,Hold,-234.000000,2.000000,LowGoal,1372.500000,-1454.545455,Speed,1357.500000,-1454.545455,Speed,Off,Off0.000000,0,,,,
02:43:25.077 PM 03/19/2016,Teleop Enabled,10,FALSE,0,NO ERROR,-0.000000,-0.012833,0.000000,-0.012833,TRUE,FALSE,TRUE,FALSE,FALSE,FALSE,Disabled,0.000000,0.000000,0.000000,TRUE,-0.006409,-0.005920,0.000000,0.024139,-0.030624,0.000000,-0.041000,-0.076000,-0.014000,-0.010000,-0.440000,2.170000,0.125612,Hold,0.898682,0.000000,Hold,-234.000000,2.000000,LowGoal,1372.500000,-1454.545455,Speed,1357.500000,-1454.545455,Speed,Off,Off0.000000,0,,,,
02:43:25.177 PM 03/19/2016,Teleop Enabled,9,FALSE,0,NO ERROR,-0.000000,-0.012833,0.000000,-0.012833,TRUE,FALSE,TRUE,FALSE,FALSE,FALSE,Disabled,0.000000,0.000000,0.000000,TRUE,-0.006180,-0.006668,0.000000,-0.004135,-0.022125,0.000000,0.063000,0.079000,0.013000,-0.010000,-0.440000,2.170000,0.125302,Hold,0.898682,0.000000,Hold,-234.000000,2.000000,LowGoal,1372.500000,-1454.545455,Speed,1357.500000,-1454.545455,Speed,Off,Off0.000000,0,,,,
02:43:25.278 PM 03/19/2016,Teleop Enabled,10,FALSE,0,NO ERROR,-0.000000,-0.012833,0.000000,-0.012833,TRUE,FALSE,TRUE,FALSE,FALSE,FALSE,Disabled,0.000000,0.000000,0.000000,TRUE,-0.006607,-0.008438,0.000000,-0.002457,-0.038895,0.000000,-0.012000,-0.033000,0.072000,-0.010000,-0.430000,2.200000,0.130886,Hold,0.898682,0.000000,Hold,-234.000000,2.000000,LowGoal,1372.500000,-1454.545455,Speed,1357.500000,-1454.545455,Speed,Off,Off0.000000,0,,,,
02:43:25.378 PM 03/19/2016,Teleop Enabled,10,FALSE,0,NO ERROR,-0.000000,-0.012833,0.000000,-0.012833,TRUE,FALSE,TRUE,FALSE,FALSE,FALSE,Disabled,0.000000,0.000000,0.000000,TRUE,-0.005753,-0.009506,0.000000,0.007568,-0.020935,0.000000,0.098000,0.066000,0.221000,-0.010000,-0.400000,2.180000,0.119946,Hold,0.898682,0.000000,Hold,-234.000000,2.000000,LowGoal,1372.500000,-1454.545455,Speed,1350.000000,-1454.545455,Speed,Off,Off0.000000,0,,,,
02:43:25.479 PM 03/19/2016,Teleop Enabled,9,FALSE,0,NO ERROR,-0.000000,-0.012833,0.000000,-0.012833,TRUE,FALSE,TRUE,FALSE,FALSE,FALSE,Disabled,0.000000,0.000000,0.000000,TRUE,-0.005371,-0.011871,0.000000,0.004196,-0.048340,0.000000,0.064000,-0.039000,0.137000,-0.010000,-0.380000,2.190000,0.118300,Hold,0.898682,0.000000,Hold,-234.000000,2.000000,LowGoal,1365.000000,-1454.545455,Speed,1357.500000,-1454.545455,Speed,Off,Off0.000000,0,,,,
02:43:25.579 PM 03/19/2016,Teleop Enabled,10,FALSE,0,NO ERROR,-0.000000,-0.012833,0.000000,-0.012833,TRUE,FALSE,TRUE,FALSE,FALSE,FALSE,Disabled,0.000000,0.000000,0.000000,TRUE,-0.005371,-0.011871,0.000000,0.004196,-0.048340,0.000000,-0.038000,0.000000,-0.016000,-0.020000,-0.340000,2.200000,0.118063,Hold,0.898682,0.000000,Hold,-234.000000,2.000000,LowGoal,1372.500000,-1454.545455,Speed,1357.500000,-1454.545455,Speed,Off,Off0.000000,0,,,,
02:43:25.679 PM 03/19/2016,Teleop Enabled,10,FALSE,0,NO ERROR,-0.000000,-0.012833,0.000000,-0.012833,TRUE,FALSE,TRUE,FALSE,FALSE,FALSE,Disabled,0.000000,0.000000,0.000000,TRUE,-0.004517,-0.015152,0.000000,0.019470,-0.037720,0.000000,-0.010000,-0.058000,-0.012000,-0.020000,-0.320000,2.180000,0.125684,Hold,0.898682,0.000000,Hold,-234.000000,2.000000,LowGoal,1372.500000,-1454.545455,Speed,1357.500000,-1454.545455,Speed,Off,Off0.000000,0,,,,
02:43:25.779 PM 03/19/2016,Teleop Enabled,11,FALSE,0,NO ERROR,-0.000000,-0.012833,0.000000,-0.012833,TRUE,FALSE,TRUE,FALSE,FALSE,FALSE,Disabled,0.000000,0.000000,0.000000,TRUE,-0.004517,-0.015152,0.000000,0.019470,-0.037720,0.000000,0.034000,-0.059000,-0.048000,-0.020000,-0.370000,2.180000,0.125684,Hold,0.898682,0.000000,Hold,-234.000000,2.000000,LowGoal,1372.500000,-1454.545455,Speed,1357.500000,-1454.545455,Speed,Off,Off0.000000,0,,,,
02:43:25.879 PM 03/19/2016,Teleop Enabled,11,FALSE,0,NO ERROR,-0.000000,-0.012833,0.000000,-0.012833,TRUE,FALSE,TRUE,FALSE,FALSE,FALSE,Disabled,0.000000,0.000000,0.000000,TRUE,-0.004852,-0.016068,0.000000,0.000000,0.001099,0.000000,0.033000,-0.077000,0.034000,-0.020000,-0.390000,2.230000,0.130167,Hold,0.898682,0.000000,Hold,-234.000000,2.000000,LowGoal,1372.500000,-1454.545455,Speed,1365.000000,-1454.545455,Speed,Off,Off0.000000,0,,,,
02:43:25.979 PM 03/19/2016,Teleop Enabled,10,FALSE,0,NO ERROR,-0.000000,-0.012833,0.000000,-0.012833,TRUE,FALSE,TRUE,FALSE,FALSE,FALSE,Disabled,0.000000,0.000000,0.000000,TRUE,-0.004456,-0.016495,0.000000,0.002792,-0.001617,0.000000,-0.070000,-0.025000,0.030000,-0.020000,-0.390000,2.250000,0.151290,Hold,0.898682,3.000000,LowGoal,-234.000000,122880.000000,LowGoal,1372.500000,-1454.545455,Speed,1365.000000,-1454.545455,Speed,Off,Off0.000000,0,,,,
02:43:26.081 PM 03/19/2016,Teleop Enabled,10,FALSE,0,NO ERROR,-0.000000,-0.012833,0.000000,-0.012833,TRUE,FALSE,TRUE,FALSE,FALSE,FALSE,Disabled,0.000000,0.000000,0.000000,TRUE,-0.005096,-0.015900,0.000000,-0.018372,0.008865,0.000000,0.033000,-0.062000,-0.033000,-0.020000,-0.430000,2.280000,0.168854,Hold,0.898682,3.000000,Hold,-7964.000000,122880.000000,LowGoal,1372.500000,-1454.545455,Speed,1357.500000,-1454.545455,Speed,Off,Off0.000000,0,,,,
02:43:26.181 PM 03/19/2016,Teleop Enabled,11,FALSE,0,NO ERROR,-0.000000,-0.012833,0.000000,-0.012833,TRUE,FALSE,TRUE,FALSE,FALSE,FALSE,Disabled,0.000000,0.000000,0.000000,TRUE,-0.005417,-0.016449,0.000000,-0.007370,-0.007324,0.000000,0.057000,0.030000,0.046000,-0.020000,-0.370000,2.270000,0.169956,Hold,0.898682,3.000000,LowGoal,-22248.000000,122880.000000,LowGoal,1380.000000,-1454.545455,Speed,1372.500000,-1454.545455,Speed,Off,Off0.000000,0,,,,
02:43:26.281 PM 03/19/2016,Teleop Enabled,10,FALSE,0,NO ERROR,-0.000000,-0.012833,0.000000,-0.012833,TRUE,FALSE,TRUE,FALSE,FALSE,FALSE,Disabled,0.000000,0.000000,0.000000,TRUE,-0.005615,-0.016235,0.000000,-0.005646,0.004608,0.000000,0.079000,0.048000,0.106000,-0.020000,-0.420000,2.310000,0.152457,Hold,0.898682,3.000000,Hold,-22248.000000,122880.000000,LowGoal,1372.500000,-1454.545455,Speed,1372.500000,-1454.545455,Speed,Off,Off0.000000,0,,,,
02:43:26.381 PM 03/19/2016,Teleop Enabled,10,FALSE,0,NO ERROR,-0.000000,-0.006417,0.000000,-0.012833,TRUE,FALSE,TRUE,FALSE,FALSE,FALSE,Disabled,0.000000,0.000000,0.000000,TRUE,-0.004929,-0.015732,0.000000,0.019089,0.008209,0.000000,0.026000,0.040000,0.079000,0.010000,-0.330000,2.370000,0.185519,Hold,0.898682,3.000000,Hold,-33658.000000,122880.000000,LowGoal,1372.500000,-1454.545455,Speed,1372.500000,-1454.545455,Speed,Off,Off0.000000,0,,,,
02:43:26.481 PM 03/19/2016,Teleop Enabled,9,FALSE,0,NO ERROR,-0.000000,-0.006417,0.000000,-0.006417,TRUE,FALSE,TRUE,FALSE,FALSE,FALSE,Disabled,0.000000,0.000000,0.000000,TRUE,-0.004288,-0.015640,0.000000,0.021591,0.001099,0.000000,-0.041000,-0.025000,-0.087000,0.000000,-0.290000,2.350000,0.217966,Hold,0.898682,3.000000,Hold,-45457.000000,122880.000000,LowGoal,1372.500000,-1454.545455,Speed,1365.000000,-1454.545455,Speed,Off,Off0.000000,0,,,,
02:43:26.582 PM 03/19/2016,Teleop Enabled,7,FALSE,0,NO ERROR,-0.000000,-0.006417,0.000000,-0.006417,TRUE,FALSE,TRUE,FALSE,FALSE,FALSE,Disabled,0.000000,0.000000,0.000000,TRUE,-0.003845,-0.015961,0.000000,-0.011917,-0.006653,0.000000,0.040000,0.052000,0.039000,-0.030000,-0.370000,2.360000,0.116672,Hold,0.898682,3.000000,Hold,-58553.000000,122880.000000,LowGoal,1380.000000,-1454.545455,Speed,1372.500000,-1454.545455,Speed,Off,Off0.000000,0,,,,
02:43:26.683 PM 03/19/2016,Teleop Enabled,10,FALSE,0,NO ERROR,-0.000000,-0.006417,0.000000,-0.006417,TRUE,FALSE,TRUE,FALSE,FALSE,FALSE,Disabled,0.000000,0.000000,0.000000,TRUE,-0.003830,-0.016266,0.000000,0.012924,-0.022827,0.000000,0.114000,-0.004000,0.050000,0.010000,-0.350000,2.320000,0.175467,Hold,0.898682,3.000000,Hold,-73028.000000,122880.000000,LowGoal,1372.500000,-1454.545455,Speed,1372.500000,-1454.545455,Speed,Off,Off0.000000,0,,,,
02:43:26.782 PM 03/19/2016,Teleop Enabled,10,FALSE,0,NO ERROR,-0.000000,-0.057750,0.000000,-0.064167,TRUE,FALSE,TRUE,FALSE,FALSE,FALSE,Disabled,0.000000,0.000000,0.000000,TRUE,-0.001770,-0.017883,0.000000,0.045837,-0.034164,0.000000,0.014000,-0.021000,-0.121000,-0.070000,-0.730000,2.190000,0.129251,Hold,0.898682,3.000000,Hold,-90791.000000,122880.000000,LowGoal,1372.500000,-1454.545455,Speed,1372.500000,-1454.545455,Speed,Off,Off0.000000,0,,,,
02:43:26.882 PM 03/19/2016,Teleop Enabled,10,FALSE,0,NO ERROR,-0.000000,-0.186083,0.000000,-0.128333,TRUE,FALSE,TRUE,FALSE,FALSE,FALSE,Disabled,0.000000,0.000000,0.000000,TRUE,-0.000870,-0.020203,0.000000,-0.010529,-0.033890,0.000000,0.033000,-0.031000,-0.018000,-0.140000,-0.720000,2.390000,-0.024353,Hold,0.898682,3.000000,Hold,-90791.000000,122880.000000,LowGoal,1372.500000,-1454.545455,Speed,1365.000000,-1454.545455,Speed,Off,Off0.000000,0,,,,
02:43:26.985 PM 03/19/2016,Teleop Enabled,11,FALSE,0,NO ERROR,-0.000000,-0.173250,0.000000,-0.128333,TRUE,FALSE,TRUE,FALSE,FALSE,FALSE,Disabled,0.000000,0.000000,0.000000,TRUE,-0.000183,-0.022888,0.000000,0.009369,-0.080276,0.000000,0.017000,-0.043000,0.091000,-0.030000,-0.680000,2.190000,0.173026,Hold,0.898682,3.000000,Hold,-108415.000000,122880.000000,LowGoal,1380.000000,-1454.545455,Speed,1365.000000,-1454.545455,Speed,Off,Off0.000000,0,,,,
02:43:27.085 PM 03/19/2016,Teleop Enabled,11,FALSE,0,NO ERROR,-0.000000,-0.173250,0.000000,-0.128333,TRUE,FALSE,TRUE,FALSE,FALSE,FALSE,Disabled,0.000000,0.000000,0.000000,TRUE,0.000717,-0.027206,0.000000,0.033142,-0.074387,0.000000,0.073000,0.023000,0.114000,0.000000,-0.670000,2.250000,0.134332,Hold,0.898682,3.000000,Hold,-125067.000000,122880.000000,LowGoal,1380.000000,-1454.545455,Speed,1372.500000,-1454.545455,Speed,Off,Off0.000000,0,,,,
02:43:27.185 PM 03/19/2016,Teleop Enabled,11,FALSE,0,NO ERROR,-0.000000,-0.186083,0.000000,-0.154000,TRUE,FALSE,TRUE,FALSE,FALSE,FALSE,Disabled,0.000000,0.000000,0.000000,TRUE,0.004105,-0.031860,0.000000,0.000000,-0.092300,0.000000,-0.044000,-0.012000,0.051000,-0.100000,-1.030000,1.970000,0.177664,Hold,0.898682,3.000000,Hold,-125067.000000,122880.000000,LowGoal,1380.000000,-1454.545455,Speed,1372.500000,-1454.545455,Speed,Off,Off0.000000,0,,,,
02:43:27.285 PM 03/19/2016,Teleop Enabled,10,FALSE,0,NO ERROR,-0.000000,-0.327249,0.000000,-0.192500,TRUE,FALSE,TRUE,FALSE,FALSE,FALSE,Disabled,0.000000,0.000000,0.000000,TRUE,0.003433,-0.036423,0.000000,-0.021652,-0.069885,0.000000,-0.099000,0.054000,-0.132000,-0.290000,-0.530000,2.240000,-0.159549,Hold,0.898682,3.000000,Hold,-122985.000000,122880.000000,LowGoal,1372.500000,-1454.545455,Speed,1372.500000,-1454.545455,Speed,Off,Off0.000000,0,,,,
02:43:27.385 PM 03/19/2016,Teleop Enabled,10,FALSE,0,NO ERROR,-0.000000,-0.282333,0.000000,-0.128333,TRUE,FALSE,TRUE,FALSE,FALSE,FALSE,Disabled,0.000000,0.000000,0.000000,TRUE,0.002502,-0.040558,0.000000,-0.020111,-0.098953,0.000000,-0.006000,-0.008000,0.004000,-0.080000,-0.930000,2.100000,0.105170,Hold,0.898682,3.000000,Hold,-122964.000000,122880.000000,LowGoal,1365.000000,-1454.545455,Speed,1365.000000,-1454.545455,Speed,Off,Off0.000000,0,,,,
02:43:27.486 PM 03/19/2016,Teleop Enabled,10,FALSE,0,NO ERROR,-0.000000,-0.288749,0.000000,-0.128333,TRUE,FALSE,TRUE,FALSE,FALSE,FALSE,Disabled,0.000000,0.000000,0.000000,TRUE,0.002304,-0.044769,0.000000,0.011490,-0.055832,0.000000,-0.064000,0.095000,-0.008000,-0.330000,-0.470000,2.240000,-0.127378,Hold,0.898682,3.000000,Hold,-123001.000000,122880.000000,LowGoal,1380.000000,-1454.545455,Speed,1372.500000,-1454.545455,Speed,Off,Off0.000000,0,,,,
02:43:27.587 PM 03/19/2016,Teleop Enabled,10,FALSE,0,NO ERROR,-0.000000,-0.288749,0.000000,-0.128333,TRUE,FALSE,TRUE,FALSE,FALSE,FALSE,Disabled,0.000000,0.000000,0.000000,TRUE,0.002289,-0.046600,0.000000,0.007401,-0.050949,0.000000,-0.076000,0.023000,-0.038000,-0.150000,-0.760000,2.220000,0.030608,Hold,0.898682,3.000000,Hold,-123001.000000,122880.000000,LowGoal,1380.000000,-1454.545455,Speed,1372.500000,-1454.545455,Speed,Off,Off0.000000,0,,,,
02:43:27.687 PM 03/19/2016,Teleop Enabled,9,FALSE,0,NO ERROR,-0.000000,-0.288749,0.000000,-0.128333,TRUE,FALSE,TRUE,FALSE,FALSE,FALSE,Disabled,0.000000,0.000000,0.000000,TRUE,0.002594,-0.047791,0.000000,0.000748,-0.010559,0.000000,-0.153000,0.001000,0.042000,-0.230000,-0.610000,2.220000,-0.049201,Hold,0.898682,3.000000,Hold,-123001.000000,122880.000000,LowGoal,1365.000000,-1454.545455,Speed,1365.000000,-1454.545455,Speed,Off,Off0.000000,0,,,,
02:43:27.787 PM 03/19/2016,Teleop Enabled,10,FALSE,0,NO ERROR,-0.000000,-0.288749,0.000000,-0.128333,TRUE,FALSE,TRUE,FALSE,FALSE,FALSE,Disabled,0.000000,0.000000,0.000000,TRUE,0.003220,-0.047333,0.000000,0.013290,0.012085,0.000000,0.092000,0.117000,0.087000,-0.210000,-0.700000,2.250000,-0.021912,Hold,0.898682,3.000000,Hold,-123001.000000,122880.000000,LowGoal,1372.500000,-1454.545455,Speed,1365.000000,-1454.545455,Speed,Off,Off0.000000,0,,,,
02:43:27.887 PM 03/19/2016,Teleop Enabled,10,FALSE,0,NO ERROR,-0.000000,-0.288749,0.000000,-0.128333,TRUE,FALSE,TRUE,FALSE,FALSE,FALSE,Disabled,0.000000,0.000000,0.000000,TRUE,0.004623,-0.046097,0.000000,0.023346,0.028122,0.000000,0.034000,0.039000,0.010000,-0.230000,-0.630000,2.290000,-0.031062,Hold,0.898682,3.000000,Hold,-123001.000000,122880.000000,LowGoal,1372.500000,-1454.545455,Speed,1365.000000,-1454.545455,Speed,Off,Off0.000000,0,,,,
02:43:27.987 PM 03/19/2016,Teleop Enabled,11,FALSE,0,NO ERROR,-0.000000,-0.288749,0.000000,-0.128333,TRUE,FALSE,TRUE,FALSE,FALSE,FALSE,Disabled,0.000000,0.000000,0.000000,TRUE,0.005478,-0.044724,0.000000,0.013397,0.027023,0.000000,0.067000,-0.080000,0.001000,-0.210000,-0.680000,2.280000,-0.027830,Hold,0.898682,3.000000,Hold,-123001.000000,122880.000000,LowGoal,1372.500000,-1454.545455,Speed,1365.000000,-1454.545455,Speed,Off,Off0.000000,0,,,,
02:43:28.088 PM 03/19/2016,Teleop Enabled,11,FALSE,0,NO ERROR,-0.000000,-0.288749,0.000000,-0.128333,TRUE,FALSE,TRUE,FALSE,FALSE,FALSE,Disabled,0.000000,0.000000,0.000000,TRUE,0.006439,-0.044479,0.000000,0.022110,-0.000992,0.000000,-0.061000,0.002000,0.031000,-0.230000,-0.580000,2.230000,-0.023971,Hold,0.898682,3.000000,Hold,-123001.000000,122880.000000,LowGoal,1365.000000,-1454.545455,Speed,1365.000000,-1454.545455,Speed,Off,Off0.000000,0,,,,
02:43:28.189 PM 03/19/2016,Teleop Enabled,11,FALSE,0,NO ERROR,-0.000000,-0.288749,0.000000,-0.128333,TRUE,FALSE,TRUE,FALSE,FALSE,FALSE,Disabled,0.000000,0.000000,0.000000,TRUE,0.007690,-0.044754,0.000000,0.042038,-0.011047,0.000000,-0.113000,0.088000,0.012000,-0.220000,-0.660000,2.260000,-0.007519,Hold,0.898682,3.000000,Hold,-123001.000000,122880.000000,LowGoal,1372.500000,-1454.545455,Speed,1365.000000,-1454.545455,Speed,Off,Off0.000000,0,,,,
02:43:28.289 PM 03/19/2016,Teleop Enabled,10,FALSE,0,NO ERROR,-0.000000,-0.288749,0.000000,-0.128333,TRUE,FALSE,TRUE,FALSE,FALSE,FALSE,Disabled,0.000000,0.000000,0.000000,TRUE,0.008224,-0.045364,0.000000,-0.000702,-0.001892,0.000000,0.025000,-0.081000,0.019000,-0.220000,-0.710000,2.250000,-0.010458,Hold,0.898682,3.000000,Hold,-123001.000000,122880.000000,LowGoal,1372.500000,-1454.545455,Speed,1365.000000,-1454.545455,Speed,Off,Off0.000000,0,,,,
02:43:28.391 PM 03/19/2016,Teleop Enabled,10,FALSE,0,NO ERROR,-0.000000,-0.288749,0.000000,-0.128333,TRUE,FALSE,TRUE,FALSE,FALSE,FALSE,Disabled,0.000000,0.000000,0.000000,TRUE,0.008224,-0.045807,0.000000,0.001770,-0.013855,0.000000,0.014000,-0.086000,-0.017000,-0.230000,-0.690000,2.220000,-0.021519,Hold,0.898682,3.000000,Hold,-123001.000000,122880.000000,LowGoal,1380.000000,-1454.545455,Speed,1365.000000,-1454.545455,Speed,Off,Off0.000000,0,,,,
02:43:28.491 PM 03/19/2016,Teleop Enabled,10,FALSE,0,NO ERROR,-0.000000,-0.288749,0.000000,-0.128333,TRUE,FALSE,TRUE,FALSE,FALSE,FALSE,Disabled,0.000000,0.000000,0.000000,TRUE,0.008316,-0.046265,0.000000,0.007584,-0.009613,0.000000,-0.072000,0.080000,0.008000,-0.220000,-0.710000,2.230000,-0.016879,Hold,0.898682,3.000000,Hold,-123001.000000,122880.000000,LowGoal,1372.500000,-1454.545455,Speed,1365.000000,-1454.545455,Speed,Off,Off0.000000,0,,,,
02:43:28.591 PM 03/19/2016,Teleop Enabled,11,FALSE,0,NO ERROR,-0.000000,-0.288749,0.000000,-0.128333,TRUE,FALSE,TRUE,FALSE,FALSE,FALSE,Disabled,0.000000,0.000000,0.000000,TRUE,0.008179,-0.046173,0.000000,-0.018967,0.019760,0.000000,-0.102000,0.170000,0.100000,-0.230000,-0.740000,2.270000,-0.028735,Hold,0.898682,3.000000,Hold,-123001.000000,122880.000000,LowGoal,1372.500000,-1454.545455,Speed,1372.500000,-1454.545455,Speed,Off,Off0.000000,0,,,,
02:43:28.691 PM 03/19/2016,Teleop Enabled,10,FALSE,0,NO ERROR,-0.511811,-0.269499,0.511811,-0.147583,TRUE,FALSE,TRUE,FALSE,FALSE,FALSE,Disabled,0.000000,0.000000,0.000000,TRUE,0.006668,-0.044632,0.000000,-0.032623,0.032364,0.000000,0.082000,-0.050000,-0.043000,-0.220000,-0.800000,2.300000,-0.028467,Hold,0.898682,3.000000,Hold,-123001.000000,122880.000000,LowGoal,1372.500000,-1454.545455,Speed,1365.000000,-1454.545455,Speed,Off,Off0.000000,0,,,,
02:43:28.791 PM 03/19/2016,Teleop Enabled,10,FALSE,0,NO ERROR,-0.511811,0.051333,0.511811,-0.680165,TRUE,FALSE,TRUE,FALSE,FALSE,FALSE,Disabled,0.000000,0.000000,0.000000,TRUE,0.006348,-0.042862,0.000000,0.040192,0.056412,0.000000,0.590000,0.896000,0.027000,-0.200000,-0.770000,2.290000,-0.020986,Hold,0.898682,3.000000,Hold,-123001.000000,122880.000000,LowGoal,1372.500000,-1454.545455,Speed,1357.500000,-1454.545455,Speed,Off,Off0.000000,0,,,,
02:43:28.891 PM 03/19/2016,Teleop Enabled,9,FALSE,0,NO ERROR,-0.511811,2.001995,0.511811,-2.617994,FALSE,FALSE,TRUE,FALSE,FALSE,FALSE,Disabled,0.000000,0.000000,0.000000,TRUE,0.013290,-0.032043,0.000000,0.154724,0.308899,0.000000,-0.103000,-0.233000,-0.337000,6.270000,0.160000,4.080000,5.053816,Hold,0.905762,3.000000,Hold,-123001.000000,122880.000000,LowGoal,1350.000000,-1454.545455,Speed,1350.000000,-1454.545455,Speed,Off,Off0.000000,0,,,,
02:43:28.991 PM 03/19/2016,Teleop Enabled,9,FALSE,0,NO ERROR,-0.511811,4.241407,0.511811,-4.465990,TRUE,FALSE,TRUE,FALSE,FALSE,FALSE,Disabled,0.000000,0.000000,0.000000,TRUE,0.016830,-0.022293,0.000000,-0.016922,0.103546,0.000000,-0.077000,0.092000,0.003000,12.850000,1.250000,2.760000,11.774781,Hold,0.906006,3.000000,Hold,-123001.000000,122880.000000,LowGoal,1335.000000,-1454.545455,Speed,1342.500000,-1454.545455,Speed,Off,Off0.000000,0,,,,
02:43:29.095 PM 03/19/2016,Teleop Enabled,11,FALSE,0,NO ERROR,-0.000000,6.307569,0.000000,-5.774986,TRUE,FALSE,TRUE,FALSE,FALSE,FALSE,Disabled,0.000000,0.000000,0.000000,TRUE,0.012421,-0.018051,0.000000,-0.089218,0.095901,0.000000,-0.225000,-0.041000,-0.055000,18.610000,0.950000,2.860000,16.730165,Hold,0.906006,3.000000,Hold,-122934.000000,122880.000000,LowGoal,1342.500000,-1454.545455,Speed,1335.000000,-1454.545455,Speed,Off,Off0.000000,0,,,,
02:43:29.195 PM 03/19/2016,Teleop Enabled,10,FALSE,0,NO ERROR,0.527559,6.929984,0.527559,-4.915155,TRUE,FALSE,TRUE,FALSE,FALSE,FALSE,Disabled,0.000000,0.000000,0.000000,TRUE,0.003250,-0.012405,0.000000,-0.193375,0.000000,0.000000,-0.130000,0.325000,0.447000,17.760000,0.090000,2.640000,17.777401,Hold,0.906006,3.000000,Hold,-122934.000000,122880.000000,LowGoal,1357.500000,-1454.545455,Speed,1350.000000,-1454.545455,Speed,Off,Off0.000000,0,,,,
02:43:29.296 PM 03/19/2016,Teleop Enabled,7,FALSE,0,NO ERROR,0.716535,8.861396,0.716535,-2.476828,FALSE,FALSE,TRUE,FALSE,FALSE,FALSE,Disabled,0.000000,0.000000,0.000000,TRUE,-0.016342,-0.009171,0.000000,-0.548477,0.093842,0.000000,-0.130000,0.325000,0.447000,17.270000,-4.360000,2.360000,16.783228,Hold,0.906006,3.000000,Hold,-123014.000000,122880.000000,LowGoal,1372.500000,-1454.545455,Speed,1372.500000,-1454.545455,Speed,Off,Off0.000000,0,,,,
02:43:29.397 PM 03/19/2016,Teleop Enabled,11,FALSE,0,NO ERROR,0.716535,12.531721,0.716535,1.135747,FALSE,FALSE,TRUE,FALSE,FALSE,FALSE,Disabled,0.000000,0.000000,0.000000,TRUE,-0.051117,0.001419,0.000000,-0.812790,0.244644,0.000000,-0.277000,0.171000,-0.300000,17.360000,-7.040000,2.380000,16.830278,Hold,0.906006,3.000000,Hold,-123047.000000,122880.000000,LowGoal,1342.500000,-1454.545455,Speed,1365.000000,-1454.545455,Speed,Off,Off0.000000,0,,,,
02:43:29.497 PM 03/19/2016,Teleop Enabled,9,FALSE,0,NO ERROR,0.716535,16.978460,0.716535,5.473404,FALSE,FALSE,TRUE,FALSE,FALSE,FALSE,Disabled,0.000000,0.000000,0.000000,TRUE,-0.087036,0.012207,0.000000,-0.941711,0.276398,0.000000,-0.277000,0.171000,-0.300000,17.540000,-5.560000,2.510000,16.947569,Hold,0.906006,3.000000,Hold,-123048.000000,122880.000000,LowGoal,1335.000000,-1454.545455,Speed,1335.000000,-1454.545455,Speed,Off,Off0.000000,0,,,,
02:43:29.599 PM 03/19/2016,Teleop Enabled,9,FALSE,0,NO ERROR,0.716535,22.471114,0.716535,10.844141,FALSE,FALSE,TRUE,FALSE,FALSE,FALSE,Disabled,0.000000,0.000000,0.000000,TRUE,-0.143402,0.029465,0.000000,-0.945190,0.294968,0.000000,-0.123000,-0.030000,-0.203000,17.830000,-5.680000,2.530000,17.200642,Hold,0.906006,3.000000,Hold,-122986.000000,122880.000000,LowGoal,1350.000000,-1454.545455,Speed,1342.500000,-1454.545455,Speed,Off,Off0.000000,0,,,,
02:43:29.699 PM 03/19/2016,Teleop Enabled,10,FALSE,0,NO ERROR,0.716535,28.124184,0.716535,16.400962,FALSE,FALSE,TRUE,FALSE,FALSE,FALSE,Disabled,0.000000,0.000000,0.000000,TRUE,-0.179840,0.041412,0.000000,-0.892212,0.304474,0.000000,0.140000,0.006000,0.044000,18.110000,-5.970000,2.470000,17.512403,Hold,0.906006,3.000000,Hold,-123055.000000,122880.000000,LowGoal,1365.000000,-1454.545455,Speed,1365.000000,-1454.545455,Speed,Off,Off0.000000,0,,,,
02:43:29.799 PM 03/19/2016,Teleop Enabled,9,FALSE,0,NO ERROR,0.716535,33.802921,0.716535,22.021949,FALSE,FALSE,TRUE,FALSE,FALSE,FALSE,Disabled,0.000000,0.000000,0.000000,TRUE,-0.229584,0.059982,0.000000,-0.790253,0.307556,0.000000,0.142000,-0.011000,-0.064000,18.320000,-5.530000,2.500000,17.737206,Hold,0.906006,3.000000,Hold,-122987.000000,122880.000000,LowGoal,1357.500000,-1454.545455,Speed,1357.500000,-1454.545455,Speed,Off,Off0.000000,0,,,,
02:43:29.899 PM 03/19/2016,Teleop Enabled,10,FALSE,0,NO ERROR,0.716535,39.667741,0.716535,27.758435,FALSE,FALSE,TRUE,FALSE,FALSE,FALSE,Disabled,0.000000,0.000000,0.000000,TRUE,-0.259766,0.071747,0.000000,-0.730057,0.289581,0.000000,-0.004000,-0.100000,-0.031000,18.550000,-5.100000,2.550000,17.982140,Hold,0.906006,3.000000,Hold,-122987.000000,122880.000000,LowGoal,1357.500000,-1454.545455,Speed,1350.000000,-1454.545455,Speed,Off,Off0.000000,0,,,,
02:43:30.001 PM 03/19/2016,Teleop Enabled,11,FALSE,0,NO ERROR,0.530913,45.577477,0.902158,33.552672,FALSE,FALSE,TRUE,FALSE,FALSE,FALSE,Disabled,0.000000,0.000000,0.000000,TRUE,-0.301697,0.087860,0.000000,-0.683395,0.274353,0.000000,0.170000,-0.013000,0.173000,18.930000,-4.990000,2.570000,18.333250,Hold,0.906006,3.000000,Hold,-122994.000000,122880.000000,LowGoal,1357.500000,-1454.545455,Speed,1350.000000,-1454.545455,Speed,Off,Off0.000000,0,,,,
02:43:30.102 PM 03/19/2016,Teleop Enabled,9,FALSE,0,NO ERROR,0.420330,52.058295,1.012741,38.782243,FALSE,FALSE,TRUE,FALSE,FALSE,FALSE,Disabled,0.000000,0.000000,0.000000,TRUE,-0.320404,0.098984,0.000000,0.000000,0.305267,0.000000,0.116000,-0.031000,-0.025000,20.040000,-4.860000,2.820000,19.266683,Hold,0.906006,3.000000,Hold,-122994.000000,122880.000000,LowGoal,1365.000000,-1454.545455,Speed,1357.500000,-1454.545455,Speed,Off,Off0.000000,0,,,,
02:43:30.203 PM 03/19/2016,Teleop Enabled,6,FALSE,0,NO ERROR,0.408482,59.488778,1.024589,43.472815,FALSE,FALSE,TRUE,FALSE,FALSE,FALSE,Disabled,0.000000,0.000000,0.000000,TRUE,-0.308929,0.119507,0.000000,0.331116,0.368271,0.000000,0.010000,0.060000,-0.701000,24.530000,-6.420000,3.070000,22.756135,Hold,0.907227,3.000000,Hold,-122994.000000,122880.000000,LowGoal,1350.000000,-1454.545455,Speed,1350.000000,-1454.545455,Speed,Off,Off0.000000,0,,,,
02:43:30.305 PM 03/19/2016,Teleop Enabled,13,FALSE,0,NO ERROR,0.357015,66.598428,1.044559,47.829721,FALSE,FALSE,TRUE,FALSE,FALSE,FALSE,Disabled,0.000000,0.000000,0.000000,TRUE,-0.290619,0.141144,0.000000,0.386749,0.482117,0.000000,0.010000,0.060000,-0.701000,24.530000,-6.420000,3.070000,27.464312,Hold,0.907959,3.000000,Hold,-123060.000000,122880.000000,LowGoal,1357.500000,-1454.545455,Speed,1357.500000,-1454.545455,Speed,Off,Off0.000000,0,,,,
02:43:30.405 PM 03/19/2016,Teleop Enabled,3,FALSE,0,NO ERROR,0.349290,74.240660,1.052285,52.475377,FALSE,FALSE,TRUE,FALSE,FALSE,FALSE,Disabled,0.000000,0.000000,0.000000,TRUE,-0.263092,0.166626,0.000000,0.552429,0.477844,0.000000,-0.092000,-0.429000,-0.259000,32.070000,-3.700000,1.550000,30.979529,Hold,0.923096,3.000000,Hold,-122930.000000,122880.000000,LowGoal,1350.000000,-1454.545455,Speed,1350.000000,-1454.545455,Speed,Off,Off0.000000,0,,,,
02:43:30.505 PM 03/19/2016,Teleop Enabled,3,FALSE,0,NO ERROR,0.255093,81.645476,0.910261,56.126452,TRUE,FALSE,TRUE,FALSE,FALSE,FALSE,Disabled,0.000000,0.000000,0.000000,TRUE,-0.229706,0.192627,0.000000,0.703918,0.496964,0.000000,0.132000,0.178000,-0.085000,39.010000,-2.960000,1.920000,37.428373,Hold,0.924316,3.000000,Hold,-122967.000000,122880.000000,LowGoal,1350.000000,-1454.545455,Speed,1350.000000,-1454.545455,Speed,Off,Off0.000000,0,,,,
02:43:30.606 PM 03/19/2016,Teleop Enabled,10,FALSE,0,NO ERROR,0.157170,89.056708,0.630231,59.155112,TRUE,FALSE,TRUE,FALSE,FALSE,FALSE,Disabled,0.000000,0.000000,0.000000,TRUE,-0.185257,0.217560,0.000000,1.031082,0.486908,0.000000,0.201000,-0.058000,0.178000,39.010000,-2.960000,1.920000,45.768813,Hold,0.924316,3.000000,Hold,-122967.000000,122880.000000,LowGoal,1357.500000,-1454.545455,Speed,1357.500000,-1454.545455,Speed,Off,Off0.000000,0,,,,
02:43:30.707 PM 03/19/2016,Teleop Enabled,10,FALSE,0,NO ERROR,-0.858268,95.896859,0.858268,59.084529,TRUE,FALSE,TRUE,FALSE,FALSE,FALSE,Disabled,0.000000,0.000000,0.000000,TRUE,-0.185257,0.217560,0.000000,1.031082,0.486908,0.000000,0.136000,-0.090000,0.106000,47.670000,-1.970000,2.280000,55.569549,Hold,0.924316,3.000000,Hold,-122900.000000,122880.000000,LowGoal,1365.000000,-1454.545455,Speed,1372.500000,-1454.545455,Speed,Off,Off0.000000,0,,,,
02:43:30.807 PM 03/19/2016,Teleop Enabled,4,FALSE,0,NO ERROR,-0.000000,101.582012,0.000000,56.395951,TRUE,FALSE,TRUE,FALSE,FALSE,FALSE,Disabled,0.000000,0.000000,0.000000,TRUE,-0.124359,0.234772,0.000000,1.472656,0.137344,0.000000,1.004000,-1.019000,0.175000,60.820000,2.000000,2.670000,71.303644,Hold,0.924561,3.000000,Hold,-123007.000000,122880.000000,LowGoal,1342.500000,-1454.545455,Speed,1342.500000,-1454.545455,Speed,Off,Off0.000000,0,,,,
02:43:30.908 PM 03/19/2016,Teleop Enabled,9,FALSE,0,NO ERROR,-0.000000,103.827841,0.000000,55.401370,FALSE,FALSE,TRUE,FALSE,FALSE,FALSE,Disabled,0.000000,0.000000,0.000000,TRUE,-0.053497,0.224045,0.000000,1.785706,-0.422867,0.000000,-0.350000,0.001000,0.035000,78.060000,4.060000,3.500000,86.592444,Hold,0.924561,3.000000,Hold,-122936.000000,122880.000000,LowGoal,1320.000000,-1454.545455,Speed,1335.000000,-1454.545455,Speed,Off,Off0.000000,0,,,,
02:43:31.008 PM 03/19/2016,Teleop Enabled,9,FALSE,0,NO ERROR,0.818898,104.193590,-0.818898,55.863369,FALSE,FALSE,TRUE,FALSE,FALSE,FALSE,Disabled,0.000000,0.000000,0.000000,TRUE,0.120514,0.176559,0.000000,1.412064,-0.285797,0.000000,-0.005000,0.225000,-0.026000,89.370000,0.900000,4.600000,88.956861,Hold,0.924561,3.000000,Hold,-123003.000000,122880.000000,LowGoal,1395.000000,-1454.545455,Speed,1365.000000,-1454.545455,Speed,Off,Off0.000000,0,,,,
02:43:31.108 PM 03/19/2016,Teleop Enabled,10,FALSE,0,NO ERROR,0.913386,100.138266,-0.913386,59.655610,FALSE,FALSE,TRUE,FALSE,FALSE,FALSE,Disabled,0.000000,0.000000,0.000000,TRUE,0.120514,0.176559,0.000000,1.412064,-0.285797,0.000000,-0.320000,0.585000,0.008000,90.910000,-1.420000,4.010000,81.896863,Hold,0.924561,3.000000,Hold,-123001.000000,122880.000000,LowGoal,1372.500000,-1454.545455,Speed,1342.500000,-1454.545455,Speed,Off,Off0.000000,0,,,,
02:43:31.208 PM 03/19/2016,Teleop Enabled,10,FALSE,0,NO ERROR,0.921260,100.138266,-0.921260,64.667015,FALSE,FALSE,TRUE,FALSE,FALSE,FALSE,Disabled,0.000000,0.000000,0.000000,TRUE,0.226913,0.186325,0.000000,0.793976,0.091995,0.000000,-0.229000,0.222000,-0.081000,83.080000,-3.270000,2.450000,68.611408,Hold,0.924561,3.000000,Hold,-123025.000000,122880.000000,LowGoal,1305.000000,-1454.545455,Speed,1290.000000,-1454.545455,Speed,Off,Off0.000000,0,,,,
02:43:31.310 PM 03/19/2016,Teleop Enabled,13,FALSE,0,NO ERROR,0.952756,90.487622,-0.952756,70.531835,TRUE,FALSE,TRUE,FALSE,FALSE,FALSE,Disabled,0.000000,0.000000,0.000000,TRUE,0.226913,0.186325,0.000000,0.793976,0.091995,0.000000,0.011000,-0.161000,0.064000,72.330000,-1.840000,0.530000,49.413615,Hold,0.924561,3.000000,Hold,-123025.000000,122880.000000,LowGoal,1297.500000,-1454.545455,Speed,1297.500000,-1454.545455,Speed,Off,Off0.000000,0,,,,
02:43:31.411 PM 03/19/2016,Teleop Enabled,10,FALSE,0,NO ERROR,0.984252,84.186470,-0.984252,76.691821,TRUE,FALSE,TRUE,FALSE,FALSE,FALSE,Disabled,0.000000,0.000000,0.000000,TRUE,0.265610,0.182465,0.000000,0.717346,-0.225754,0.000000,0.428000,0.099000,0.409000,48.830000,1.140000,-0.760000,29.035199,Hold,0.924805,3.000000,Hold,-122939.000000,122880.000000,LowGoal,1335.000000,-1454.545455,Speed,1335.000000,-1454.545455,Speed,Off,Off0.000000,0,,,,
02:43:31.512 PM 03/19/2016,Teleop Enabled,9,FALSE,0,NO ERROR,0.992126,78.456400,-0.992126,81.760975,FALSE,FALSE,TRUE,FALSE,FALSE,FALSE,Disabled,0.000000,0.000000,0.000000,TRUE,0.314728,0.163147,0.000000,0.788223,-0.576355,0.000000,0.433000,-1.380000,-0.794000,28.040000,-3.280000,-0.700000,11.566066,Hold,0.960693,3.000000,Hold,-123284.000000,122880.000000,LowGoal,1342.500000,-1454.545455,Speed,1335.000000,-1454.545455,Speed,Off,Off0.000000,0,,,,
02:43:31.613 PM 03/19/2016,Teleop Enabled,9,FALSE,0,NO ERROR,1.000000,73.406495,-1.000000,87.837545,FALSE,FALSE,TRUE,FALSE,FALSE,FALSE,Disabled,0.000000,0.000000,0.000000,TRUE,0.357834,0.110672,0.000000,0.871323,-1.238297,0.000000,0.077000,-0.516000,-0.507000,10.240000,-3.580000,-3.980000,-7.482021,Hold,0.961182,3.000000,Hold,-122977.000000,122880.000000,LowGoal,1312.500000,-1454.545455,Speed,1312.500000,-1454.545455,Speed,Off,Off0.000000,0,,,,
02:43:31.713 PM 03/19/2016,Teleop Enabled,9,FALSE,0,NO ERROR,1.000000,67.098926,-1.000000,94.363279,TRUE,FALSE,TRUE,FALSE,FALSE,FALSE,Disabled,0.000000,0.000000,0.000000,TRUE,0.406296,0.054626,0.000000,0.982605,-0.725601,0.000000,-0.146000,-0.084000,-0.435000,-13.540000,-1.330000,-1.010000,-26.477547,Hold,1.044678,3.000000,Hold,-122951.000000,122880.000000,LowGoal,1305.000000,-1454.545455,Speed,1305.000000,-1454.545455,Speed,Off,Off0.000000,0,,,,
02:43:31.814 PM 03/19/2016,Teleop Enabled,12,FALSE,0,NO ERROR,-0.181102,62.748437,0.181102,98.752269,FALSE,FALSE,TRUE,FALSE,FALSE,FALSE,Disabled,0.000000,0.000000,0.000000,TRUE,0.460297,0.019699,0.000000,1.289825,-0.857681,0.000000,0.963000,-0.932000,-0.508000,-32.490000,-5.690000,-3.190000,-26.477547,Hold,1.104004,3.000000,Hold,-122931.000000,122880.000000,LowGoal,1335.000000,-1454.545455,Speed,1327.500000,-1454.545455,Speed,Off,Off0.000000,0,,,,
02:43:31.915 PM 03/19/2016,Teleop Enabled,10,FALSE,0,NO ERROR,-0.000000,62.748437,0.000000,98.752269,FALSE,FALSE,TRUE,FALSE,FALSE,FALSE,Disabled,0.000000,0.000000,0.000000,TRUE,0.541519,-0.027908,0.000000,1.726547,-0.679901,0.000000,0.165000,0.599000,-0.245000,-45.880000,-3.770000,-3.020000,-43.238468,Hold,1.104004,3.000000,Hold,-122931.000000,122880.000000,LowGoal,1335.000000,-1454.545455,Speed,1342.500000,-1454.545455,Speed,Off,Off0.000000,0,,,,
02:43:32.014 PM 03/19/2016,Teleop Enabled,10,FALSE,0,NO ERROR,-0.000000,62.498187,0.000000,99.239935,TRUE,FALSE,TRUE,FALSE,FALSE,FALSE,Disabled,0.000000,0.000000,0.000000,TRUE,0.628754,-0.042130,0.000000,1.663406,0.088501,0.000000,-0.219000,0.422000,0.520000,-52.770000,-1.160000,0.200000,-50.582587,Hold,0.970459,3.000000,Hold,-122996.000000,122880.000000,LowGoal,1365.000000,-1454.545455,Speed,1372.500000,-1454.545455,Speed,Off,Off0.000000,0,,,,
02:43:32.115 PM 03/19/2016,Teleop Enabled,11,FALSE,0,NO ERROR,-0.401575,62.549520,-0.401575,99.162935,TRUE,FALSE,TRUE,FALSE,FALSE,FALSE,Disabled,0.000000,0.000000,0.000000,TRUE,0.708359,-0.033066,0.000000,1.641312,0.114502,0.000000,0.352000,-0.230000,-0.334000,-51.650000,-1.650000,0.280000,-49.564705,Hold,0.940918,3.000000,Hold,-123033.000000,122880.000000,LowGoal,1387.500000,-1454.545455,Speed,1357.500000,-1454.545455,Speed,Off,Off0.000000,0,,,,
02:43:32.216 PM 03/19/2016,Teleop Enabled,10,FALSE,0,NO ERROR,-0.559055,61.683272,-0.559055,98.444270,TRUE,FALSE,TRUE,FALSE,FALSE,FALSE,Disabled,0.000000,0.000000,0.000000,TRUE,0.791718,-0.027451,0.000000,1.645279,0.220367,0.000000,0.308000,0.320000,-0.224000,-52.190000,-0.070000,0.520000,-50.075818,Hold,0.940918,3.000000,Hold,-123002.000000,122880.000000,LowGoal,1357.500000,-1454.545455,Speed,1335.000000,-1454.545455,Speed,Off,Off0.000000,0,,,,
02:43:32.316 PM 03/19/2016,Teleop Enabled,10,FALSE,0,NO ERROR,-0.574803,59.546527,-0.574803,96.159942,TRUE,FALSE,TRUE,FALSE,FALSE,FALSE,Disabled,0.000000,0.000000,0.000000,TRUE,0.902573,-0.000305,0.000000,1.946213,0.591934,0.000000,0.076000,0.340000,-0.222000,-52.240000,1.750000,1.040000,-50.148012,Hold,0.941650,3.000000,Hold,-123002.000000,122880.000000,LowGoal,1335.000000,-1454.545455,Speed,1335.000000,-1454.545455,Speed,Off,Off0.000000,0,,,,
02:43:32.416 PM 03/19/2016,Teleop Enabled,10,FALSE,0,NO ERROR,-0.590551,56.075119,-0.590551,92.694950,FALSE,FALSE,TRUE,FALSE,FALSE,FALSE,Disabled,0.000000,0.000000,0.000000,TRUE,0.982239,0.028564,0.000000,1.992569,0.790039,0.000000,0.159000,0.067000,-0.197000,-52.210000,3.400000,1.010000,-50.109618,Hold,0.941650,3.000000,Hold,-123016.000000,122880.000000,LowGoal,1335.000000,-1454.545455,Speed,1350.000000,-1454.545455,Speed,Off,Off0.000000,0,,,,
02:43:32.517 PM 03/19/2016,Teleop Enabled,10,FALSE,0,NO ERROR,-0.590551,51.846545,-0.590551,88.581876,FALSE,FALSE,TRUE,FALSE,FALSE,FALSE,Disabled,0.000000,0.000000,0.000000,TRUE,1.082489,0.068436,0.000000,1.988281,0.780182,0.000000,-0.078000,0.075000,-0.219000,-52.350000,4.240000,0.920000,-50.273432,Hold,0.941650,3.000000,Hold,-123016.000000,122880.000000,LowGoal,1372.500000,-1454.545455,Speed,1365.000000,-1454.545455,Speed,Off,Off0.000000,0,,,,
02:43:32.618 PM 03/19/2016,Teleop Enabled,10,FALSE,0,NO ERROR,-0.590551,47.540972,-0.590551,84.366136,FALSE,FALSE,TRUE,FALSE,FALSE,FALSE,Disabled,0.000000,0.000000,0.000000,TRUE,1.200912,0.116867,0.000000,1.953094,0.821152,0.000000,-0.053000,0.025000,0.054000,-52.680000,3.850000,1.110000,-50.565199,Hold,0.941650,3.000000,Hold,-122983.000000,122880.000000,LowGoal,1357.500000,-1454.545455,Speed,1357.500000,-1454.545455,Speed,Off,Off0.000000,0,,,,
02:43:32.719 PM 03/19/2016,Teleop Enabled,10,FALSE,0,NO ERROR,-0.590551,42.965900,-0.590551,80.028480,FALSE,FALSE,TRUE,FALSE,FALSE,FALSE,Disabled,0.000000,0.000000,0.000000,TRUE,1.298004,0.158585,0.000000,1.933884,0.837601,0.000000,-0.021000,0.013000,-0.039000,-53.030000,3.280000,1.080000,-50.933701,Hold,0.941650,3.000000,Hold,-122983.000000,122880.000000,LowGoal,1357.500000,-1454.545455,Speed,1357.500000,-1454.545455,Speed,Off,Off0.000000,0,,,,
02:43:32.820 PM 03/19/2016,Teleop Enabled,9,FALSE,0,NO ERROR,-0.590551,38.211161,-0.590551,75.421324,FALSE,FALSE,TRUE,FALSE,FALSE,FALSE,Disabled,0.000000,0.000000,0.000000,TRUE,1.392532,0.200714,0.000000,1.876541,0.843216,0.000000,-0.048000,-0.109000,0.055000,-53.490000,3.560000,1.260000,-51.388535,Hold,0.941650,3.000000,Hold,-123009.000000,122880.000000,LowGoal,1357.500000,-1454.545455,Speed,1357.500000,-1454.545455,Speed,Off,Off0.000000,0,,,,
02:43:32.920 PM 03/19/2016,Teleop Enabled,11,FALSE,0,NO ERROR,-0.590551,33.263922,-0.590551,70.801334,TRUE,FALSE,TRUE,FALSE,FALSE,FALSE,Disabled,0.000000,0.000000,0.000000,TRUE,1.484253,0.241028,0.000000,1.796417,0.790375,0.000000,-0.147000,-0.054000,0.098000,-54.060000,2.780000,1.490000,-51.863804,Hold,0.941650,3.000000,Hold,-123009.000000,122880.000000,LowGoal,1372.500000,-1454.545455,Speed,1372.500000,-1454.545455,Speed,Off,Off0.000000,0,,,,
02:43:33.021 PM 03/19/2016,Teleop Enabled,10,FALSE,0,NO ERROR,-0.590551,28.316684,-0.590551,66.219845,TRUE,FALSE,TRUE,FALSE,FALSE,FALSE,Disabled,0.000000,0.000000,0.000000,TRUE,1.571381,0.279205,0.000000,1.715424,0.756470,0.000000,-0.065000,0.002000,-0.050000,-54.560000,2.290000,1.580000,-52.483915,Hold,0.941650,3.000000,Hold,-123009.000000,122880.000000,LowGoal,1365.000000,-1454.545455,Speed,1372.500000,-1454.545455,Speed,Off,Off0.000000,0,,,,
02:43:33.122 PM 03/19/2016,Teleop Enabled,9,FALSE,0,NO ERROR,-0.590551,23.427195,-0.590551,61.728189,TRUE,FALSE,TRUE,FALSE,FALSE,FALSE,Disabled,0.000000,0.000000,0.000000,TRUE,1.655975,0.317856,0.000000,1.671631,0.772507,0.000000,0.040000,-0.080000,-0.065000,-55.360000,1.480000,1.760000,-53.139482,Hold,0.941650,3.000000,Hold,-123009.000000,122880.000000,LowGoal,1365.000000,-1454.545455,Speed,1365.000000,-1454.545455,Speed,Off,Off0.000000,0,,,,
02:43:33.223 PM 03/19/2016,Teleop Enabled,9,FALSE,0,NO ERROR,-0.488183,18.518457,-0.629927,57.172366,TRUE,FALSE,TRUE,FALSE,FALSE,FALSE,Disabled,0.000000,0.000000,0.000000,TRUE,1.739136,0.355408,0.000000,1.654816,0.733765,0.000000,-0.152000,-0.014000,0.073000,-56.170000,1.400000,1.910000,-53.937291,Hold,0.941650,3.000000,Hold,-123009.000000,122880.000000,LowGoal,1365.000000,-1454.545455,Speed,1357.500000,-1454.545455,Speed,Off,Off0.000000,0,,,,
02:43:33.324 PM 03/19/2016,Teleop Enabled,9,FALSE,0,NO ERROR,-0.482020,13.282469,-0.636090,52.347044,TRUE,FALSE,TRUE,FALSE,FALSE,FALSE,Disabled,0.000000,0.000000,0.000000,TRUE,1.818954,0.384583,0.000000,1.577438,0.000000,0.000000,-0.069000,-0.038000,0.123000,-56.790000,1.740000,1.950000,-54.721007,Hold,0.941650,3.000000,Hold,-123009.000000,122880.000000,LowGoal,1372.500000,-1454.545455,Speed,1357.500000,-1454.545455,Speed,Off,Off0.000000,0,,,,
02:43:33.425 PM 03/19/2016,Teleop Enabled,11,FALSE,0,NO ERROR,-0.482020,8.091398,-0.636090,48.022221,TRUE,FALSE,TRUE,FALSE,FALSE,FALSE,Disabled,0.000000,0.000000,0.000000,TRUE,1.910995,0.382050,0.000000,1.500259,-0.086365,0.000000,-0.116000,-0.130000,0.131000,-57.900000,1.010000,1.860000,-55.833958,Hold,0.941650,3.000000,Hold,-123009.000000,122880.000000,LowGoal,1365.000000,-1454.545455,Speed,1365.000000,-1454.545455,Speed,Off,Off0.000000,0,,,,
02:43:33.525 PM 03/19/2016,Teleop Enabled,11,FALSE,0,NO ERROR,-0.502387,2.996576,-0.662967,43.851397,TRUE,FALSE,TRUE,FALSE,FALSE,FALSE,Disabled,0.000000,0.000000,0.000000,TRUE,1.983246,0.374359,0.000000,1.413162,-0.183258,0.000000,-0.096000,-0.061000,-0.053000,-59.930000,0.860000,1.950000,-57.824277,Hold,0.941650,3.000000,Hold,-123009.000000,122880.000000,LowGoal,1365.000000,-1454.545455,Speed,1365.000000,-1454.545455,Speed,Off,Off0.000000,0,,,,
02:43:33.625 PM 03/19/2016,Teleop Enabled,10,FALSE,0,NO ERROR,-0.522754,-2.143162,-0.689844,39.905157,TRUE,FALSE,TRUE,FALSE,FALSE,FALSE,Disabled,0.000000,0.000000,0.000000,TRUE,2.051041,0.364563,0.000000,1.315811,-0.210266,0.000000,-0.092000,0.146000,0.085000,-62.120000,1.110000,2.160000,-59.990200,Hold,0.941650,3.000000,Hold,-123009.000000,122880.000000,LowGoal,1365.000000,-1454.545455,Speed,1365.000000,-1454.545455,Speed,Off,Off0.000000,0,,,,
02:43:33.725 PM 03/19/2016,Teleop Enabled,10,FALSE,0,NO ERROR,-0.529543,-7.526732,-0.698803,35.715083,TRUE,FALSE,TRUE,FALSE,FALSE,FALSE,Disabled,0.000000,0.000000,0.000000,TRUE,2.116257,0.353928,0.000000,1.289017,-0.189301,0.000000,-0.103000,-0.017000,-0.066000,-65.120000,1.210000,2.200000,-62.422705,Hold,0.941650,3.000000,Hold,-123009.000000,122880.000000,LowGoal,1365.000000,-1454.545455,Speed,1365.000000,-1454.545455,Speed,Off,Off0.000000,0,,,,
02:43:33.825 PM 03/19/2016,Teleop Enabled,10,FALSE,0,NO ERROR,-0.536332,-13.012970,-0.707762,31.435176,TRUE,FALSE,TRUE,FALSE,FALSE,FALSE,Disabled,0.000000,0.000000,0.000000,TRUE,2.177979,0.344894,0.000000,1.197891,-0.161957,0.000000,-0.049000,0.114000,-0.069000,-67.540000,1.270000,2.320000,-64.789852,Hold,0.941650,3.000000,Hold,-123009.000000,122880.000000,LowGoal,1365.000000,-1454.545455,Speed,1365.000000,-1454.545455,Speed,Off,Off0.000000,0,,,,
02:43:33.925 PM 03/19/2016,Teleop Enabled,10,FALSE,0,NO ERROR,-0.622047,-18.524873,-0.622047,27.245103,TRUE,FALSE,TRUE,FALSE,FALSE,FALSE,Disabled,0.000000,0.000000,0.000000,TRUE,2.236847,0.340637,0.000000,1.178406,-0.007980,0.000000,-0.085000,0.060000,0.167000,-70.260000,1.060000,2.420000,-67.394333,Hold,0.941650,3.000000,Hold,-123009.000000,122880.000000,LowGoal,1365.000000,-1454.545455,Speed,1357.500000,-1454.545455,Speed,Off,Off0.000000,0,,,,
02:43:34.025 PM 03/19/2016,Teleop Enabled,9,FALSE,0,NO ERROR,-0.622047,-24.094527,-0.622047,22.926696,TRUE,FALSE,TRUE,FALSE,FALSE,FALSE,Disabled,0.000000,0.000000,0.000000,TRUE,2.305222,0.340973,0.000000,1.095215,0.033829,0.000000,-0.093000,0.185000,-0.084000,-73.550000,1.170000,2.680000,-70.164130,Hold,0.941650,3.000000,Hold,-123009.000000,122880.000000,LowGoal,1372.500000,-1454.545455,Speed,1372.500000,-1454.545455,Speed,Off,Off0.000000,0,,,,
02:43:34.127 PM 03/19/2016,Teleop Enabled,11,FALSE,0,NO ERROR,-0.622047,-29.567931,-0.622047,18.216874,TRUE,FALSE,TRUE,FALSE,FALSE,FALSE,Disabled,0.000000,0.000000,0.000000,TRUE,2.357208,0.344833,0.000000,1.016434,0.074234,0.000000,0.066000,-0.057000,-0.105000,-74.890000,1.240000,2.830000,-71.986579,Hold,0.941650,3.000000,Hold,-123009.000000,122880.000000,LowGoal,1365.000000,-1454.545455,Speed,1365.000000,-1454.545455,Speed,Off,Off0.000000,0,,,,
