Time,Robot Mode,Loop Time,Error Status,Error Code,Error Source,Left Motor Output,Left Motor Encoder,Right Motor Output,Right Motor Encoder,Is Level,Is Stalled,Ball Detector Photoeye,Vision Enabled,Vision Teleop Control,Vision Auto Control,Vision Current State,Vision X Output,Vision NavX Error,Vision NavX Target,NavX Connection Status,NavX Displacement X,NavX Displacement Y,NavX Displacement Z,NavX Velocity X,NavX Velocity Y,NavX Velocity Z,NavX Acceleration X,NavX Acceleration Y,NavX Acceleration Z,NavX Pitch,NavX Yaw,NavX Roll,Gyro Angle,Roller Arm State,Roller Arm Actual,Roller Arm Desired,Shooter Arm State,Shooter Arm Actual,Shooter Arm Desired,Shooter State,Actual RPM Left,Desired RPM Left,Control Mode Left,Actual RPM Right,Desired RPM Right,Scaler Motor Output,Auto To Run,Auto Current File,Auto File Status,Auto Current Command,Auto Trimmed Command
02:23:52.353 PM 03/19/2016,Teleop Enabled,117026,FALSE,0,NO ERROR,-0.000000,-0.012833,0.000000,0.000000,TRUE,TRUE,FALSE,FALSE,FALSE,FALSE,Disabled,0.000000,0.000000,0.000000,TRUE,-0.453552,1.920319,0.000000,0.000000,0.000000,0.000000,-0.003000,0.000000,0.019000,-0.140000,-0.060000,2.400000,1.055399,Hold,0.917725,0.000000,Hold,-13208.000000,2.000000,Suck,0.000000,2181.818182,Speed,0.000000,2181.818182,Speed,Off,On0.000000,0,,,,
02:23:52.466 PM 03/19/2016,Teleop Enabled,19,FALSE,0,NO ERROR,-0.000000,-0.032083,0.000000,-0.070583,TRUE,TRUE,FALSE,FALSE,FALSE,FALSE,Disabled,0.000000,0.000000,0.000000,TRUE,-0.453552,1.920319,0.000000,0.000000,0.000000,0.000000,-0.003000,0.000000,0.019000,-0.140000,-0.060000,2.400000,0.004548,ResetBack,0.917725,-0.200000,ResetBack,-257.000000,-0.300000,Empty,0.000000,0.000000,Speed,0.000000,0.000000,Speed,Off,Off0.000000,0,,,,
02:23:52.556 PM 03/19/2016,Teleop Enabled,10,FALSE,0,NO ERROR,-0.000000,-0.032083,0.000000,-0.070583,TRUE,FALSE,FALSE,FALSE,FALSE,FALSE,Disabled,0.000000,0.000000,0.000000,TRUE,-0.454147,1.920975,0.000000,0.001556,-0.002731,0.000000,-0.016000,0.022000,0.025000,0.000000,-0.100000,2.440000,-0.028945,ResetBack,0.011475,-0.200000,ResetBack,-250.000000,-0.300000,Empty,0.000000,0.000000,Speed,0.000000,0.000000,Speed,Off,Off0.000000,0,,,,
02:23:52.658 PM 03/19/2016,Teleop Enabled,11,FALSE,0,NO ERROR,-0.000000,-0.032083,0.000000,-0.070583,TRUE,FALSE,FALSE,FALSE,FALSE,FALSE,Disabled,0.000000,0.000000,0.000000,TRUE,-0.454147,1.920959,0.000000,0.000000,0.001251,0.000000,0.001000,0.000000,0.021000,0.000000,-0.120000,2.440000,-0.019068,ResetBack,0.005127,-0.200000,ResetBack,-248.000000,-0.300000,Empty,0.000000,0.000000,Speed,0.000000,0.000000,Speed,Off,Off0.000000,0,,,,
02:23:52.757 PM 03/19/2016,Teleop Enabled,10,FALSE,0,NO ERROR,-0.000000,-0.032083,0.000000,-0.070583,TRUE,FALSE,FALSE,FALSE,FALSE,FALSE,Disabled,0.000000,0.000000,0.000000,TRUE,-0.454147,1.921051,0.000000,0.000000,0.003235,0.000000,0.001000,-0.017000,0.031000,0.000000,-0.110000,2.460000,-0.019068,Reset,0.004883,0.000000,ResetBack,-248.000000,-0.300000,Empty,0.000000,0.000000,Speed,0.000000,0.000000,Speed,Off,Off0.000000,0,,,,
02:23:52.857 PM 03/19/2016,Teleop Enabled,10,FALSE,0,NO ERROR,-0.000000,-0.032083,0.000000,-0.070583,TRUE,FALSE,FALSE,FALSE,FALSE,FALSE,Disabled,0.000000,0.000000,0.000000,TRUE,-0.454147,1.921234,0.000000,0.000000,0.000168,0.000000,-0.009000,0.004000,0.025000,0.000000,-0.100000,2.420000,-0.019784,Hold,0.646240,0.000000,ResetBack,-248.000000,-0.300000,Empty,0.000000,0.000000,Speed,0.000000,0.000000,Speed,Off,Off0.000000,0,,,,
02:23:52.957 PM 03/19/2016,Teleop Enabled,10,FALSE,0,NO ERROR,-0.000000,-0.032083,0.000000,-0.070583,TRUE,FALSE,FALSE,FALSE,FALSE,FALSE,Disabled,0.000000,0.000000,0.000000,TRUE,-0.454147,1.921188,0.000000,0.000000,-0.003464,0.000000,0.013000,-0.024000,0.036000,-0.010000,-0.120000,2.440000,-0.019323,Hold,0.973877,0.000000,ResetBack,-248.000000,-0.300000,Empty,0.000000,0.000000,Speed,0.000000,0.000000,Speed,Off,Off0.000000,0,,,,
02:23:53.058 PM 03/19/2016,Teleop Enabled,12,FALSE,0,NO ERROR,-0.000000,-0.032083,0.000000,-0.070583,TRUE,FALSE,FALSE,FALSE,FALSE,FALSE,Disabled,0.000000,0.000000,0.000000,TRUE,-0.454147,1.920837,0.000000,0.000000,-0.000870,0.000000,-0.006000,0.012000,0.025000,-0.010000,-0.110000,2.460000,-0.004634,Hold,0.902344,0.000000,ResetBack,-247.000000,-0.300000,Empty,0.000000,0.000000,Speed,0.000000,0.000000,Speed,Off,Off0.000000,0,,,,
02:23:53.159 PM 03/19/2016,Teleop Enabled,11,FALSE,0,NO ERROR,-0.000000,-0.032083,0.000000,-0.070583,TRUE,FALSE,FALSE,FALSE,FALSE,FALSE,Disabled,0.000000,0.000000,0.000000,TRUE,-0.454147,1.920380,0.000000,0.000000,-0.002899,0.000000,0.001000,-0.007000,0.015000,0.000000,-0.110000,2.460000,-0.001139,Hold,0.902344,0.000000,ResetBack,-247.000000,-0.300000,Empty,0.000000,0.000000,Speed,0.000000,0.000000,Speed,Off,Off0.000000,0,,,,
02:23:53.259 PM 03/19/2016,Teleop Enabled,10,FALSE,0,NO ERROR,-0.000000,-0.032083,0.000000,-0.070583,TRUE,FALSE,FALSE,FALSE,FALSE,FALSE,Disabled,0.000000,0.000000,0.000000,TRUE,-0.454147,1.920044,0.000000,0.000000,-0.011292,0.000000,-0.004000,0.028000,0.018000,0.000000,-0.110000,2.440000,-0.003763,Hold,0.902344,0.000000,ResetBack,-247.000000,-0.300000,Empty,0.000000,0.000000,Speed,0.000000,0.000000,Speed,Off,Off0.000000,0,,,,
02:23:53.359 PM 03/19/2016,Teleop Enabled,9,FALSE,0,NO ERROR,-0.000000,-0.032083,0.000000,-0.070583,TRUE,FALSE,FALSE,FALSE,FALSE,FALSE,Disabled,0.000000,0.000000,0.000000,TRUE,-0.454147,1.919678,0.000000,0.000000,0.000000,0.000000,0.000000,0.017000,0.018000,0.000000,-0.100000,2.420000,-0.010300,Hold,0.902344,0.000000,ResetBack,-126.000000,-0.300000,Empty,0.000000,0.000000,Speed,0.000000,0.000000,Speed,Off,Off0.000000,0,,,,
02:23:53.459 PM 03/19/2016,Teleop Enabled,10,FALSE,0,NO ERROR,-0.000000,-0.032083,0.000000,-0.070583,TRUE,FALSE,FALSE,FALSE,FALSE,FALSE,Disabled,0.000000,0.000000,0.000000,TRUE,-0.454147,1.919678,0.000000,0.000000,0.000000,0.000000,-0.002000,-0.002000,0.027000,0.000000,-0.100000,2.420000,-0.011398,Hold,0.902344,0.000000,ResetBack,-59.000000,-0.300000,Empty,0.000000,0.000000,Speed,0.000000,0.000000,Speed,Off,Off0.000000,0,,,,
02:23:53.561 PM 03/19/2016,Teleop Enabled,9,FALSE,0,NO ERROR,-0.000000,-0.032083,0.000000,-0.070583,TRUE,FALSE,FALSE,FALSE,FALSE,FALSE,Disabled,0.000000,0.000000,0.000000,TRUE,-0.454147,1.919678,0.000000,0.000000,0.000000,0.000000,0.000000,-0.005000,0.021000,0.000000,-0.100000,2.430000,0.005202,Hold,0.902344,0.000000,ResetBack,-59.000000,-0.300000,Empty,0.000000,0.000000,Speed,0.000000,0.000000,Speed,Off,On0.000000,0,,,,
02:23:53.661 PM 03/19/2016,Teleop Enabled,10,FALSE,0,NO ERROR,-0.000000,-0.032083,0.000000,-0.070583,TRUE,FALSE,FALSE,FALSE,FALSE,FALSE,Disabled,0.000000,0.000000,0.000000,TRUE,-0.454102,1.919678,0.000000,0.003662,0.000000,0.000000,0.043000,-0.005000,0.048000,0.000000,-0.100000,2.430000,0.017557,Hold,0.902344,0.000000,Reset,-59.000000,2.000000,Suck,0.000000,2181.818182,Speed,0.000000,2181.818182,Speed,Off,On0.000000,0,,,,
02:23:53.761 PM 03/19/2016,Teleop Enabled,10,FALSE,0,NO ERROR,-0.000000,-0.032083,0.000000,-0.070583,TRUE,FALSE,FALSE,FALSE,FALSE,FALSE,Disabled,0.000000,0.000000,0.000000,TRUE,-0.453705,1.919464,0.000000,0.000000,-0.007263,0.000000,0.003000,-0.039000,0.003000,0.000000,-0.050000,2.440000,0.017258,Hold,0.902344,0.000000,Hold,-403.000000,2.000000,Suck,-15.000000,2181.818182,Speed,-52.500000,2181.818182,Speed,Off,On0.000000,0,,,,
02:23:53.861 PM 03/19/2016,Teleop Enabled,10,FALSE,0,NO ERROR,-0.000000,-0.032083,0.000000,-0.070583,TRUE,FALSE,FALSE,FALSE,FALSE,FALSE,Disabled,0.000000,0.000000,0.000000,TRUE,-0.453751,1.919296,0.000000,0.002502,-0.002853,0.000000,-0.090000,-0.001000,-0.022000,0.000000,-0.070000,2.430000,0.017457,Hold,0.902344,0.000000,Hold,-450.000000,2.000000,Suck,-547.500000,2181.818182,Speed,-690.000000,2181.818182,Speed,Off,On0.000000,0,,,,
02:23:53.962 PM 03/19/2016,Teleop Enabled,9,FALSE,0,NO ERROR,-0.000000,-0.032083,0.000000,-0.070583,TRUE,FALSE,FALSE,FALSE,FALSE,FALSE,Disabled,0.000000,0.000000,0.000000,TRUE,-0.454224,1.918869,0.000000,-0.012543,0.000015,0.000000,-0.005000,-0.013000,0.015000,0.000000,-0.090000,2.510000,0.029310,Hold,0.902344,0.000000,Hold,-331.000000,2.000000,Suck,-1282.500000,2181.818182,Speed,-1417.500000,2181.818182,Speed,Off,On0.000000,0,,,,
02:23:54.062 PM 03/19/2016,Teleop Enabled,12,FALSE,0,NO ERROR,-0.000000,-0.032083,0.000000,-0.070583,TRUE,FALSE,FALSE,FALSE,FALSE,FALSE,Disabled,0.000000,0.000000,0.000000,TRUE,-0.454208,1.919342,0.000000,0.013565,0.007553,0.000000,0.068000,0.008000,0.064000,0.000000,-0.120000,2.510000,0.033069,Hold,0.902344,0.000000,Hold,-327.000000,2.000000,Suck,-1860.000000,2181.818182,Speed,-1987.500000,2181.818182,Speed,Off,On0.000000,0,,,,
02:23:54.162 PM 03/19/2016,Teleop Enabled,10,FALSE,0,NO ERROR,-0.000000,-0.032083,0.000000,-0.070583,TRUE,FALSE,FALSE,FALSE,FALSE,FALSE,Disabled,0.000000,0.000000,0.000000,TRUE,-0.453568,1.920197,0.000000,-0.002701,0.037903,0.000000,-0.030000,0.149000,0.104000,0.000000,-0.070000,2.490000,0.027482,Hold,0.902344,0.000000,Hold,-327.000000,2.000000,Suck,-2235.000000,2181.818182,Speed,-2250.000000,2181.818182,Speed,Off,On0.000000,0,,,,
02:23:54.261 PM 03/19/2016,Teleop Enabled,9,FALSE,0,NO ERROR,-0.000000,-0.032083,0.000000,-0.070583,TRUE,FALSE,FALSE,FALSE,FALSE,FALSE,Disabled,0.000000,0.000000,0.000000,TRUE,-0.453888,1.925644,0.000000,-0.010071,0.160843,0.000000,-0.048000,0.052000,0.113000,0.000000,-0.150000,2.480000,0.022838,Hold,0.902344,0.000000,Hold,-300.000000,2.000000,Suck,-2197.500000,2181.818182,Speed,-2190.000000,2181.818182,Speed,Off,On0.000000,0,,,,
02:23:54.362 PM 03/19/2016,Teleop Enabled,13,FALSE,0,NO ERROR,-0.000000,-0.032083,0.000000,-0.070583,TRUE,FALSE,FALSE,FALSE,FALSE,FALSE,Disabled,0.000000,0.000000,0.000000,TRUE,-0.454742,1.929550,0.000000,-0.003235,0.020309,0.000000,-0.056000,0.083000,0.117000,0.000000,-0.150000,2.440000,0.026188,Hold,0.902344,0.000000,Hold,-299.000000,2.000000,Suck,-2085.000000,2181.818182,Speed,-2085.000000,2181.818182,Speed,Off,On0.000000,0,,,,
02:23:54.462 PM 03/19/2016,Teleop Enabled,10,FALSE,0,NO ERROR,-0.000000,-0.032083,0.000000,-0.070583,TRUE,FALSE,FALSE,FALSE,FALSE,FALSE,Disabled,0.000000,0.000000,0.000000,TRUE,-0.456009,1.929764,0.000000,-0.022980,-0.020859,0.000000,0.035000,-0.086000,-0.020000,0.000000,-0.130000,2.450000,0.036209,Hold,0.902344,0.000000,Hold,-292.000000,2.000000,Suck,-2077.500000,2181.818182,Speed,-2100.000000,2181.818182,Speed,Off,On0.000000,0,,,,
02:23:54.565 PM 03/19/2016,Teleop Enabled,10,FALSE,0,NO ERROR,-0.000000,-0.032083,0.000000,-0.070583,TRUE,FALSE,FALSE,FALSE,FALSE,FALSE,Disabled,0.000000,0.000000,0.000000,TRUE,-0.457230,1.929077,0.000000,-0.021835,-0.013290,0.000000,0.044000,-0.034000,-0.041000,0.000000,-0.160000,2.450000,0.022504,Hold,0.902344,0.000000,Hold,-291.000000,2.000000,Suck,-2130.000000,2181.818182,Speed,-2137.500000,2181.818182,Speed,Off,On0.000000,0,,,,
02:23:54.666 PM 03/19/2016,Teleop Enabled,10,FALSE,0,NO ERROR,-0.000000,-0.032083,0.000000,-0.070583,TRUE,FALSE,FALSE,FALSE,FALSE,FALSE,Disabled,0.000000,0.000000,0.000000,TRUE,-0.456039,1.927521,0.000000,0.050217,-0.031586,0.000000,-0.029000,-0.028000,-0.115000,0.000000,-0.120000,2.430000,0.029334,Hold,0.902344,0.000000,Hold,-290.000000,2.000000,Suck,-2130.000000,2181.818182,Speed,-2130.000000,2181.818182,Speed,Off,On0.000000,0,,,,
02:23:54.767 PM 03/19/2016,Teleop Enabled,11,FALSE,0,NO ERROR,-0.000000,-0.032083,0.000000,-0.070583,TRUE,FALSE,FALSE,FALSE,FALSE,FALSE,Disabled,0.000000,0.000000,0.000000,TRUE,-0.454025,1.924713,0.000000,0.018738,-0.055176,0.000000,-0.021000,0.062000,0.071000,0.000000,-0.170000,2.400000,0.021303,Hold,0.902344,0.000000,Hold,-290.000000,2.000000,Suck,-2107.500000,2181.818182,Speed,-2122.500000,2181.818182,Speed,Off,On0.000000,0,,,,
02:23:54.867 PM 03/19/2016,Teleop Enabled,10,FALSE,0,NO ERROR,-0.000000,-0.032083,0.000000,-0.070583,TRUE,FALSE,FALSE,FALSE,FALSE,FALSE,Disabled,0.000000,0.000000,0.000000,TRUE,-0.453217,1.923782,0.000000,0.032562,0.003586,0.000000,-0.035000,0.078000,0.067000,-0.010000,-0.050000,2.410000,0.009188,Hold,0.902344,0.000000,Hold,-290.000000,2.000000,Suck,-2115.000000,2181.818182,Speed,-2122.500000,2181.818182,Speed,Off,On0.000000,0,,,,
02:23:54.967 PM 03/19/2016,Teleop Enabled,9,FALSE,0,NO ERROR,-0.000000,-0.032083,0.000000,-0.070583,TRUE,FALSE,FALSE,FALSE,FALSE,FALSE,Disabled,0.000000,0.000000,0.000000,TRUE,-0.452240,1.927200,0.000000,0.000198,0.115067,0.000000,0.100000,-0.080000,0.022000,0.000000,-0.080000,2.460000,0.009753,Hold,0.902344,0.000000,Hold,-289.000000,2.000000,Suck,-2115.000000,2181.818182,Speed,-2122.500000,2181.818182,Speed,Off,On0.000000,0,,,,
02:23:55.068 PM 03/19/2016,Teleop Enabled,11,FALSE,0,NO ERROR,-0.000000,-0.032083,0.000000,-0.070583,TRUE,FALSE,FALSE,FALSE,FALSE,FALSE,Disabled,0.000000,0.000000,0.000000,TRUE,-0.450806,1.926788,0.000000,0.041519,0.001617,0.000000,-0.099000,0.120000,0.030000,-0.010000,-0.020000,2.430000,0.026029,Hold,0.902344,0.000000,Hold,-288.000000,2.000000,Suck,-2115.000000,2181.818182,Speed,-2122.500000,2181.818182,Speed,Off,On0.000000,0,,,,
02:23:55.168 PM 03/19/2016,Teleop Enabled,11,FALSE,0,NO ERROR,-0.000000,-0.032083,0.000000,-0.070583,TRUE,FALSE,FALSE,FALSE,FALSE,FALSE,Disabled,0.000000,0.000000,0.000000,TRUE,-0.449722,1.928131,0.000000,0.016312,0.001816,0.000000,-0.013000,-0.002000,-0.005000,-0.010000,-0.070000,2.450000,0.008930,Hold,0.902344,0.000000,Hold,-288.000000,2.000000,Suck,-2115.000000,2181.818182,Speed,-2122.500000,2181.818182,Speed,Off,On0.000000,0,,,,
02:23:55.270 PM 03/19/2016,Teleop Enabled,9,FALSE,0,NO ERROR,-0.000000,-0.032083,0.000000,-0.070583,TRUE,FALSE,FALSE,FALSE,FALSE,FALSE,Disabled,0.000000,0.000000,0.000000,TRUE,-0.449768,1.927399,0.000000,-0.009064,-0.014908,0.000000,0.006000,-0.099000,-0.082000,-0.010000,-0.050000,2.460000,0.001955,Hold,0.902344,0.000000,Hold,-287.000000,2.000000,Suck,-2115.000000,2181.818182,Speed,-2122.500000,2181.818182,Speed,Off,On0.000000,0,,,,
02:23:55.370 PM 03/19/2016,Teleop Enabled,10,FALSE,0,NO ERROR,-0.000000,-0.032083,0.000000,-0.070583,TRUE,FALSE,FALSE,FALSE,FALSE,FALSE,Disabled,0.000000,0.000000,0.000000,TRUE,-0.449341,1.924805,0.000000,0.026642,-0.070374,0.000000,0.023000,-0.066000,0.013000,-0.010000,-0.090000,2.440000,-0.011629,Hold,0.902344,0.000000,Hold,-287.000000,2.000000,Suck,-2115.000000,2181.818182,Speed,-2115.000000,2181.818182,Speed,Off,On0.000000,0,,,,
02:23:55.471 PM 03/19/2016,Teleop Enabled,9,FALSE,0,NO ERROR,-0.000000,-0.032083,0.000000,-0.070583,TRUE,FALSE,FALSE,FALSE,FALSE,FALSE,Disabled,0.000000,0.000000,0.000000,TRUE,-0.448212,1.919418,0.000000,-0.003540,-0.103424,0.000000,-0.074000,0.061000,-0.013000,-0.010000,-0.060000,2.430000,-0.010837,Hold,0.902344,0.000000,Hold,-287.000000,2.000000,Suck,-2122.500000,2181.818182,Speed,-2122.500000,2181.818182,Speed,Off,On0.000000,0,,,,
02:23:55.571 PM 03/19/2016,Teleop Enabled,10,FALSE,0,NO ERROR,-0.000000,-0.032083,0.000000,-0.070583,TRUE,FALSE,FALSE,FALSE,FALSE,FALSE,Disabled,0.000000,0.000000,0.000000,TRUE,-0.449127,1.915588,0.000000,-0.016281,-0.062469,0.000000,-0.057000,0.027000,0.070000,-0.010000,-0.030000,2.420000,-0.006176,Hold,0.902344,0.000000,Hold,-287.000000,2.000000,Suck,-2115.000000,2181.818182,Speed,-2122.500000,2181.818182,Speed,Off,On0.000000,0,,,,
02:23:55.671 PM 03/19/2016,Teleop Enabled,10,FALSE,0,NO ERROR,-0.000000,-0.032083,0.000000,-0.070583,TRUE,FALSE,FALSE,FALSE,FALSE,FALSE,Disabled,0.000000,0.000000,0.000000,TRUE,-0.449799,1.914307,0.000000,-0.018677,0.008820,0.000000,-0.027000,-0.037000,0.000000,-0.010000,0.000000,2.430000,-0.002833,Hold,0.902344,0.000000,Hold,-286.000000,2.000000,Suck,-2115.000000,2181.818182,Speed,-2115.000000,2181.818182,Speed,Off,On0.000000,0,,,,
02:23:55.771 PM 03/19/2016,Teleop Enabled,9,FALSE,0,NO ERROR,-0.000000,-0.032083,0.000000,-0.070583,TRUE,FALSE,FALSE,FALSE,FALSE,FALSE,Disabled,0.000000,0.000000,0.000000,TRUE,-0.450882,1.915024,0.000000,-0.020477,0.033249,0.000000,0.002000,0.066000,0.181000,-0.010000,-0.020000,2.410000,-0.018466,Hold,0.902344,0.000000,Hold,-286.000000,2.000000,Suck,-2122.500000,2181.818182,Speed,-2122.500000,2181.818182,Speed,Off,On0.000000,0,,,,
02:23:55.871 PM 03/19/2016,Teleop Enabled,11,FALSE,0,NO ERROR,-0.000000,-0.032083,0.000000,-0.070583,TRUE,FALSE,FALSE,FALSE,FALSE,FALSE,Disabled,0.000000,0.000000,0.000000,TRUE,-0.451599,1.917557,0.000000,-0.006027,0.036407,0.000000,-0.022000,0.001000,0.006000,-0.010000,0.000000,2.440000,-0.004524,Hold,0.902344,0.000000,Hold,-286.000000,2.000000,Suck,-2115.000000,2181.818182,Speed,-2122.500000,2181.818182,Speed,Off,On0.000000,0,,,,
02:23:55.972 PM 03/19/2016,Teleop Enabled,11,FALSE,0,NO ERROR,-0.000000,-0.032083,0.000000,-0.070583,TRUE,FALSE,FALSE,FALSE,FALSE,FALSE,Disabled,0.000000,0.000000,0.000000,TRUE,-0.453033,1.918869,0.000000,-0.039154,0.014587,0.000000,0.021000,-0.114000,-0.085000,-0.010000,-0.010000,2.450000,-0.001102,Hold,0.902344,0.000000,Hold,-286.000000,2.000000,Suck,-2115.000000,2181.818182,Speed,-2122.500000,2181.818182,Speed,Off,On0.000000,0,,,,
02:23:56.072 PM 03/19/2016,Teleop Enabled,9,FALSE,0,NO ERROR,-0.000000,-0.032083,0.000000,-0.070583,TRUE,FALSE,FALSE,FALSE,FALSE,FALSE,Disabled,0.000000,0.000000,0.000000,TRUE,-0.454514,1.917358,0.000000,-0.035629,-0.049500,0.000000,0.027000,0.023000,-0.018000,-0.010000,-0.040000,2.420000,0.010737,Hold,0.902344,0.000000,Hold,-286.000000,2.000000,Suck,-2115.000000,2181.818182,Speed,-2122.500000,2181.818182,Speed,Off,On0.000000,0,,,,
02:23:56.172 PM 03/19/2016,Teleop Enabled,11,FALSE,0,NO ERROR,-0.000000,-0.032083,0.000000,-0.070583,TRUE,FALSE,FALSE,FALSE,FALSE,FALSE,Disabled,0.000000,0.000000,0.000000,TRUE,-0.455734,1.913116,0.000000,-0.005264,-0.085251,0.000000,-0.045000,-0.018000,0.032000,-0.010000,0.000000,2.400000,0.011801,Hold,0.902344,0.000000,Hold,-286.000000,2.000000,Suck,-2122.500000,2181.818182,Speed,-2122.500000,2181.818182,Speed,Off,On0.000000,0,,,,
02:23:56.273 PM 03/19/2016,Teleop Enabled,9,FALSE,0,NO ERROR,-0.000000,-0.032083,0.000000,-0.070583,TRUE,FALSE,FALSE,FALSE,FALSE,FALSE,Disabled,0.000000,0.000000,0.000000,TRUE,-0.456924,1.910172,0.000000,-0.043365,-0.065018,0.000000,0.065000,0.040000,0.036000,-0.010000,-0.090000,2.370000,0.003553,Hold,0.902344,0.000000,Hold,-286.000000,2.000000,Suck,-2115.000000,2181.818182,Speed,-2122.500000,2181.818182,Speed,Off,On0.000000,0,,,,
02:23:56.374 PM 03/19/2016,Teleop Enabled,10,FALSE,0,NO ERROR,-0.000000,-0.032083,0.000000,-0.070583,TRUE,FALSE,FALSE,FALSE,FALSE,FALSE,Disabled,0.000000,0.000000,0.000000,TRUE,-0.458923,1.907700,0.000000,-0.036438,-0.036636,0.000000,-0.002000,0.014000,0.116000,-0.010000,-0.030000,2.390000,0.008885,Hold,0.902344,0.000000,Hold,-285.000000,2.000000,Suck,-2115.000000,2181.818182,Speed,-2122.500000,2181.818182,Speed,Off,On0.000000,0,,,,
02:23:56.475 PM 03/19/2016,Teleop Enabled,9,FALSE,0,NO ERROR,-0.000000,-0.032083,0.000000,-0.070583,TRUE,FALSE,FALSE,FALSE,FALSE,FALSE,Disabled,0.000000,0.000000,0.000000,TRUE,-0.459869,1.907318,0.000000,-0.015915,0.021988,0.000000,0.000000,0.060000,0.079000,0.000000,-0.080000,2.370000,0.008717,Hold,0.902344,0.000000,Hold,-285.000000,2.000000,Suck,-2115.000000,2181.818182,Speed,-2122.500000,2181.818182,Speed,Off,On0.000000,0,,,,
02:23:56.575 PM 03/19/2016,Teleop Enabled,10,FALSE,0,NO ERROR,-0.000000,-0.032083,0.000000,-0.070583,TRUE,FALSE,FALSE,FALSE,FALSE,FALSE,Disabled,0.000000,0.000000,0.000000,TRUE,-0.461044,1.909607,0.000000,-0.011444,0.048416,0.000000,0.048000,0.018000,0.136000,0.000000,-0.020000,2.370000,0.013595,Hold,0.902344,0.000000,Hold,-285.000000,2.000000,Suck,-2115.000000,2181.818182,Speed,-2122.500000,2181.818182,Speed,Off,On0.000000,0,,,,
02:23:56.677 PM 03/19/2016,Teleop Enabled,10,FALSE,0,NO ERROR,-0.000000,-0.032083,0.000000,-0.070583,TRUE,FALSE,FALSE,FALSE,FALSE,FALSE,Disabled,0.000000,0.000000,0.000000,TRUE,-0.461716,1.911896,0.000000,-0.023544,0.034576,0.000000,-0.009000,-0.064000,-0.096000,0.000000,-0.110000,2.410000,0.016331,Hold,0.902344,0.000000,Hold,-285.000000,2.000000,Suck,-2115.000000,2181.818182,Speed,-2122.500000,2181.818182,Speed,Off,On0.000000,0,,,,
02:23:56.779 PM 03/19/2016,Teleop Enabled,9,FALSE,0,NO ERROR,-0.000000,-0.032083,0.000000,-0.070583,TRUE,FALSE,FALSE,FALSE,FALSE,FALSE,Disabled,0.000000,0.000000,0.000000,TRUE,-0.462891,1.912170,0.000000,-0.026215,-0.003479,0.000000,-0.042000,-0.082000,-0.021000,0.000000,-0.110000,2.410000,0.005460,Hold,0.902344,0.000000,Hold,-285.000000,2.000000,Suck,-2115.000000,2181.818182,Speed,-2122.500000,2181.818182,Speed,Off,On0.000000,0,,,,
02:23:56.879 PM 03/19/2016,Teleop Enabled,3,FALSE,0,NO ERROR,-0.000000,-0.032083,0.000000,-0.070583,TRUE,FALSE,FALSE,FALSE,FALSE,FALSE,Disabled,0.000000,0.000000,0.000000,TRUE,-0.464554,1.909927,0.000000,-0.014008,-0.054169,0.000000,0.027000,-0.059000,0.002000,0.000000,-0.100000,2.340000,0.011928,Hold,0.902344,0.000000,Hold,-283.000000,2.000000,Suck,-2115.000000,2181.818182,Speed,-2122.500000,2181.818182,Speed,Off,On0.000000,0,,,,
02:23:56.979 PM 03/19/2016,Teleop Enabled,8,FALSE,0,NO ERROR,-0.000000,-0.032083,0.000000,-0.070583,TRUE,FALSE,FALSE,FALSE,FALSE,FALSE,Disabled,0.000000,0.000000,0.000000,TRUE,-0.464478,1.907379,0.000000,-0.000626,-0.040985,0.000000,-0.055000,0.070000,-0.044000,0.000000,-0.090000,2.350000,0.007405,Hold,0.902344,0.000000,Hold,-278.000000,2.000000,Suck,-2122.500000,2181.818182,Speed,-2122.500000,2181.818182,Speed,Off,On0.000000,0,,,,
02:23:57.079 PM 03/19/2016,Teleop Enabled,9,FALSE,0,NO ERROR,-0.000000,-0.032083,0.000000,-0.070583,TRUE,FALSE,FALSE,FALSE,FALSE,FALSE,Disabled,0.000000,0.000000,0.000000,TRUE,-0.464706,1.906555,0.000000,0.000000,-0.003326,0.000000,0.024000,-0.049000,0.046000,0.000000,-0.100000,2.370000,0.007040,Hold,0.902344,0.000000,Hold,-273.000000,2.000000,Suck,-2122.500000,2181.818182,Speed,-2122.500000,2181.818182,Speed,Off,On0.000000,0,,,,
02:23:57.179 PM 03/19/2016,Teleop Enabled,13,FALSE,0,NO ERROR,-0.000000,-0.032083,0.000000,-0.070583,TRUE,FALSE,FALSE,FALSE,FALSE,FALSE,Disabled,0.000000,0.000000,0.000000,TRUE,-0.464752,1.906433,0.000000,-0.019928,0.018433,0.000000,-0.086000,0.100000,0.087000,0.000000,-0.130000,2.330000,0.004124,Hold,0.902344,0.000000,Hold,-273.000000,2.000000,Suck,-2115.000000,2181.818182,Speed,-2130.000000,2181.818182,Speed,Off,On0.000000,0,,,,
02:23:57.280 PM 03/19/2016,Teleop Enabled,9,FALSE,0,NO ERROR,-0.000000,-0.032083,0.000000,-0.070583,TRUE,FALSE,FALSE,FALSE,FALSE,FALSE,Disabled,0.000000,0.000000,0.000000,TRUE,-0.467285,1.908585,0.000000,-0.048965,0.040070,0.000000,-0.012000,0.088000,0.034000,0.000000,-0.090000,2.320000,0.002486,Hold,0.902344,0.000000,Hold,-273.000000,2.000000,Suck,-2115.000000,2181.818182,Speed,-2130.000000,2181.818182,Speed,Off,On0.000000,0,,,,
02:23:57.380 PM 03/19/2016,Teleop Enabled,11,FALSE,0,NO ERROR,-0.000000,-0.032083,0.000000,-0.070583,TRUE,FALSE,FALSE,FALSE,FALSE,FALSE,Disabled,0.000000,0.000000,0.000000,TRUE,-0.469727,1.911819,0.000000,-0.045288,0.062271,0.000000,-0.012000,0.088000,0.034000,0.000000,-0.110000,2.380000,0.004847,Hold,0.902344,0.000000,Hold,-273.000000,2.000000,Suck,-2115.000000,2181.818182,Speed,-2122.500000,2181.818182,Speed,Off,On0.000000,0,,,,
02:23:57.481 PM 03/19/2016,Teleop Enabled,11,FALSE,0,NO ERROR,-0.000000,-0.032083,0.000000,-0.070583,TRUE,FALSE,FALSE,FALSE,FALSE,FALSE,Disabled,0.000000,0.000000,0.000000,TRUE,-0.471893,1.912231,0.000000,-0.052719,-0.015869,0.000000,-0.009000,-0.037000,0.043000,0.000000,-0.080000,2.350000,0.003019,Hold,0.902344,0.000000,Hold,-273.000000,2.000000,Suck,-2122.500000,2181.818182,Speed,-2122.500000,2181.818182,Speed,Off,On0.000000,0,,,,
02:23:57.582 PM 03/19/2016,Teleop Enabled,11,FALSE,0,NO ERROR,-0.000000,-0.032083,0.000000,-0.070583,TRUE,FALSE,FALSE,FALSE,FALSE,FALSE,Disabled,0.000000,0.000000,0.000000,TRUE,-0.472061,1.910385,0.000000,0.000000,-0.049469,0.000000,-0.007000,-0.027000,0.034000,0.000000,-0.100000,2.400000,0.012076,Hold,0.902344,0.000000,Hold,-273.000000,2.000000,Suck,-2115.000000,2181.818182,Speed,-2122.500000,2181.818182,Speed,Off,On0.000000,0,,,,
02:23:57.682 PM 03/19/2016,Teleop Enabled,10,FALSE,0,NO ERROR,-0.000000,-0.032083,0.000000,-0.070583,TRUE,FALSE,FALSE,FALSE,FALSE,FALSE,Disabled,0.000000,0.000000,0.000000,TRUE,-0.471375,1.908844,0.000000,0.035202,0.000000,0.000000,0.081000,-0.010000,-0.025000,0.000000,-0.070000,2.400000,0.003470,Hold,0.902344,0.000000,Hold,-273.000000,2.000000,Suck,-2115.000000,2181.818182,Speed,-2122.500000,2181.818182,Speed,Off,On0.000000,0,,,,
02:23:57.783 PM 03/19/2016,Teleop Enabled,11,FALSE,0,NO ERROR,-0.000000,-0.032083,0.000000,-0.070583,TRUE,FALSE,FALSE,FALSE,FALSE,FALSE,Disabled,0.000000,0.000000,0.000000,TRUE,-0.468338,1.909103,0.000000,0.055054,0.020309,0.000000,-0.014000,0.023000,-0.013000,0.000000,-0.090000,2.410000,0.005783,Hold,0.902344,0.000000,Hold,-273.000000,2.000000,Suck,-2122.500000,2181.818182,Speed,-2122.500000,2181.818182,Speed,Off,On0.000000,0,,,,
02:23:57.883 PM 03/19/2016,Teleop Enabled,10,FALSE,0,NO ERROR,-0.000000,-0.032083,0.000000,-0.070583,TRUE,FALSE,FALSE,FALSE,FALSE,FALSE,Disabled,0.000000,0.000000,0.000000,TRUE,-0.467926,1.910721,0.000000,-0.006424,0.034988,0.000000,-0.027000,0.058000,0.121000,0.000000,-0.070000,2.400000,0.018635,Hold,0.902344,0.000000,Hold,-273.000000,2.000000,Suck,-2122.500000,2181.818182,Speed,-2130.000000,2181.818182,Speed,Off,On0.000000,0,,,,
02:23:57.985 PM 03/19/2016,Teleop Enabled,10,FALSE,0,NO ERROR,-0.000000,-0.032083,0.000000,-0.070583,TRUE,FALSE,FALSE,FALSE,FALSE,FALSE,Disabled,0.000000,0.000000,0.000000,TRUE,-0.468857,1.913620,0.000000,-0.002396,0.063385,0.000000,-0.029000,0.043000,0.030000,0.000000,-0.090000,2.380000,0.020993,Hold,0.902344,0.000000,Hold,-273.000000,2.000000,Suck,-2122.500000,2181.818182,Speed,-2122.500000,2181.818182,Speed,Off,On0.000000,0,,,,
02:23:58.086 PM 03/19/2016,Teleop Enabled,10,FALSE,0,NO ERROR,-0.000000,-0.032083,0.000000,-0.070583,TRUE,FALSE,FALSE,FALSE,FALSE,FALSE,Disabled,0.000000,0.000000,0.000000,TRUE,-0.468994,1.917603,0.000000,0.010056,0.081360,0.000000,0.060000,-0.015000,-0.043000,0.000000,-0.060000,2.410000,0.014748,Hold,0.902344,0.000000,Hold,-273.000000,2.000000,Suck,-2122.500000,2181.818182,Speed,-2122.500000,2181.818182,Speed,Off,On0.000000,0,,,,
02:23:58.188 PM 03/19/2016,Teleop Enabled,11,FALSE,0,NO ERROR,-0.000000,-0.032083,0.000000,-0.070583,TRUE,FALSE,FALSE,FALSE,FALSE,FALSE,Disabled,0.000000,0.000000,0.000000,TRUE,-0.467834,1.918335,0.000000,0.014954,-0.003250,0.000000,-0.009000,-0.140000,-0.119000,0.000000,-0.080000,2.410000,0.004090,Hold,0.902344,0.000000,Hold,-273.000000,2.000000,Suck,-2115.000000,2181.818182,Speed,-2130.000000,2181.818182,Speed,Off,On0.000000,0,,,,
02:23:58.288 PM 03/19/2016,Teleop Enabled,9,FALSE,0,NO ERROR,-0.000000,-0.032083,0.000000,-0.070583,TRUE,FALSE,FALSE,FALSE,FALSE,FALSE,Disabled,0.000000,0.000000,0.000000,TRUE,-0.467865,1.916245,0.000000,-0.010147,0.000000,0.000000,-0.045000,-0.013000,0.000000,0.000000,-0.110000,2.440000,0.015901,Hold,0.902344,0.000000,Hold,-273.000000,2.000000,Suck,-2122.500000,2181.818182,Speed,-2122.500000,2181.818182,Speed,Off,On0.000000,0,,,,
02:23:58.388 PM 03/19/2016,Teleop Enabled,9,FALSE,0,NO ERROR,-0.000000,-0.032083,0.000000,-0.070583,TRUE,FALSE,FALSE,FALSE,FALSE,FALSE,Disabled,0.000000,0.000000,0.000000,TRUE,-0.469269,1.916702,0.000000,-0.027435,-0.005936,0.000000,0.124000,0.038000,-0.011000,0.000000,-0.150000,2.420000,0.021320,Hold,0.902344,0.000000,Hold,-273.000000,2.000000,Suck,-2122.500000,2181.818182,Speed,-2122.500000,2181.818182,Speed,Off,On0.000000,0,,,,
02:23:58.488 PM 03/19/2016,Teleop Enabled,11,FALSE,0,NO ERROR,-0.000000,-0.032083,0.000000,-0.070583,TRUE,FALSE,FALSE,FALSE,FALSE,FALSE,Disabled,0.000000,0.000000,0.000000,TRUE,-0.468536,1.917084,0.000000,0.028931,0.027039,0.000000,-0.013000,-0.086000,-0.102000,0.000000,-0.170000,2.450000,0.030064,Hold,0.902344,0.000000,Hold,-273.000000,2.000000,Suck,-2122.500000,2181.818182,Speed,-2122.500000,2181.818182,Speed,Off,On0.000000,0,,,,
02:23:58.588 PM 03/19/2016,Teleop Enabled,9,FALSE,0,NO ERROR,-0.000000,-0.032083,0.000000,-0.070583,TRUE,FALSE,FALSE,FALSE,FALSE,FALSE,Disabled,0.000000,0.000000,0.000000,TRUE,-0.468063,1.917480,0.000000,-0.015152,0.008087,0.000000,-0.096000,0.074000,0.098000,0.000000,-0.190000,2.430000,0.026064,Hold,0.902344,0.000000,Hold,-273.000000,2.000000,Suck,-2122.500000,2181.818182,Speed,-2122.500000,2181.818182,Speed,Off,On0.000000,0,,,,
02:23:58.691 PM 03/19/2016,Teleop Enabled,10,FALSE,0,NO ERROR,-0.000000,-0.032083,0.000000,-0.070583,TRUE,FALSE,FALSE,FALSE,FALSE,FALSE,Disabled,0.000000,0.000000,0.000000,TRUE,-0.470825,1.919250,0.000000,-0.041183,0.025101,0.000000,0.008000,0.012000,0.122000,0.000000,-0.160000,2.450000,0.030904,Hold,0.902344,0.000000,Hold,-273.000000,2.000000,Suck,-2122.500000,2181.818182,Speed,-2122.500000,2181.818182,Speed,Off,On0.000000,0,,,,
02:23:58.791 PM 03/19/2016,Teleop Enabled,11,FALSE,0,NO ERROR,-0.000000,-0.032083,0.000000,-0.070583,TRUE,FALSE,FALSE,FALSE,FALSE,FALSE,Disabled,0.000000,0.000000,0.000000,TRUE,-0.472946,1.921478,0.000000,-0.062042,0.063538,0.000000,0.017000,0.035000,0.092000,0.000000,-0.200000,2.440000,0.026945,Hold,0.902344,0.000000,Hold,-273.000000,2.000000,Suck,-2122.500000,2181.818182,Speed,-2130.000000,2181.818182,Speed,Off,On0.000000,0,,,,
02:23:58.892 PM 03/19/2016,Teleop Enabled,11,FALSE,0,NO ERROR,-0.000000,-0.032083,0.000000,-0.070583,TRUE,FALSE,FALSE,FALSE,FALSE,FALSE,Disabled,0.000000,0.000000,0.000000,TRUE,-0.475204,1.925064,0.000000,-0.031784,0.084900,0.000000,0.035000,-0.048000,-0.028000,-0.010000,-0.130000,2.440000,0.029224,Hold,0.902344,0.000000,Hold,-273.000000,2.000000,Suck,-2122.500000,2181.818182,Speed,-2122.500000,2181.818182,Speed,Off,On0.000000,0,,,,
02:23:58.994 PM 03/19/2016,Teleop Enabled,11,FALSE,0,NO ERROR,-0.000000,-0.032083,0.000000,-0.070583,TRUE,FALSE,FALSE,FALSE,FALSE,FALSE,Disabled,0.000000,0.000000,0.000000,TRUE,-0.476456,1.927856,0.000000,-0.037949,0.024429,0.000000,-0.132000,0.033000,-0.048000,0.000000,-0.150000,2.440000,0.026642,Hold,0.902344,0.000000,Hold,-273.000000,2.000000,Suck,-2122.500000,2181.818182,Speed,-2122.500000,2181.818182,Speed,Off,On0.000000,0,,,,
02:23:59.096 PM 03/19/2016,Teleop Enabled,10,FALSE,0,NO ERROR,-0.000000,-0.032083,0.000000,-0.070583,TRUE,FALSE,FALSE,FALSE,FALSE,FALSE,Disabled,0.000000,0.000000,0.000000,TRUE,-0.478790,1.928543,0.000000,-0.034286,0.000000,0.000000,0.045000,0.007000,-0.013000,-0.010000,-0.080000,2.460000,0.037245,Hold,0.902344,0.000000,Hold,-273.000000,2.000000,Suck,-2122.500000,2181.818182,Speed,-2122.500000,2181.818182,Speed,Off,On0.000000,0,,,,
02:23:59.196 PM 03/19/2016,Teleop Enabled,10,FALSE,0,NO ERROR,-0.000000,-0.032083,0.000000,-0.070583,TRUE,FALSE,FALSE,FALSE,FALSE,FALSE,Disabled,0.000000,0.000000,0.000000,TRUE,-0.480072,1.929108,0.000000,-0.023697,0.027557,0.000000,0.079000,-0.095000,-0.078000,-0.010000,-0.160000,2.520000,0.048843,Hold,0.902344,0.000000,Hold,-273.000000,2.000000,Suck,-2122.500000,2181.818182,Speed,-2122.500000,2181.818182,Speed,Off,On0.000000,0,,,,
02:23:59.297 PM 03/19/2016,Teleop Enabled,11,FALSE,0,NO ERROR,-0.000000,-0.032083,0.000000,-0.070583,TRUE,FALSE,FALSE,FALSE,FALSE,FALSE,Disabled,0.000000,0.000000,0.000000,TRUE,-0.478333,1.929230,0.000000,0.038162,-0.003067,0.000000,0.004000,-0.002000,0.059000,-0.010000,-0.060000,2.510000,0.036223,Hold,0.902344,0.000000,Hold,-273.000000,2.000000,Suck,-2122.500000,2181.818182,Speed,-2122.500000,2181.818182,Speed,Off,On0.000000,0,,,,
02:23:59.397 PM 03/19/2016,Teleop Enabled,11,FALSE,0,NO ERROR,-0.000000,-0.032083,0.000000,-0.070583,TRUE,FALSE,FALSE,FALSE,FALSE,FALSE,Disabled,0.000000,0.000000,0.000000,TRUE,-0.477097,1.929214,0.000000,0.022842,0.001663,0.000000,-0.019000,-0.025000,0.078000,-0.010000,-0.090000,2.500000,0.028139,Hold,0.902344,0.000000,Hold,-273.000000,2.000000,Suck,-2122.500000,2181.818182,Speed,-2122.500000,2181.818182,Speed,Off,On0.000000,0,,,,
02:23:59.497 PM 03/19/2016,Teleop Enabled,10,FALSE,0,NO ERROR,-0.000000,-0.032083,0.000000,-0.070583,TRUE,FALSE,FALSE,FALSE,FALSE,FALSE,Disabled,0.000000,0.000000,0.000000,TRUE,-0.476105,1.929367,0.000000,0.021301,0.006073,0.000000,0.020000,0.060000,0.134000,-0.020000,-0.030000,2.480000,0.021244,Hold,0.902344,0.000000,Hold,-273.000000,2.000000,Suck,-2122.500000,2181.818182,Speed,-2122.500000,2181.818182,Speed,Off,On0.000000,0,,,,
02:23:59.597 PM 03/19/2016,Teleop Enabled,9,FALSE,0,NO ERROR,-0.000000,-0.032083,0.000000,-0.070583,TRUE,FALSE,FALSE,FALSE,FALSE,FALSE,Disabled,0.000000,0.000000,0.000000,TRUE,-0.475296,1.930573,0.000000,0.021042,0.028397,0.000000,0.020000,0.060000,0.134000,-0.020000,-0.030000,2.480000,0.002100,Hold,0.902344,0.000000,Hold,-273.000000,2.000000,Suck,-2122.500000,2181.818182,Speed,-2130.000000,2181.818182,Speed,Off,On0.000000,0,,,,
02:23:59.699 PM 03/19/2016,Teleop Enabled,9,FALSE,0,NO ERROR,-0.000000,-0.032083,0.000000,-0.070583,TRUE,FALSE,FALSE,FALSE,FALSE,FALSE,Disabled,0.000000,0.000000,0.000000,TRUE,-0.472778,1.931656,0.000000,0.060989,0.012238,0.000000,0.064000,-0.034000,-0.017000,-0.020000,-0.040000,2.480000,0.006307,Hold,0.902344,0.000000,Hold,-273.000000,2.000000,Suck,-2122.500000,2181.818182,Speed,-2122.500000,2181.818182,Speed,Off,On0.000000,0,,,,
02:23:59.799 PM 03/19/2016,Teleop Enabled,10,FALSE,0,NO ERROR,-0.000000,-0.032083,0.000000,-0.070583,TRUE,FALSE,FALSE,FALSE,FALSE,FALSE,Disabled,0.000000,0.000000,0.000000,TRUE,-0.470398,1.930496,0.000000,0.037842,-0.041153,0.000000,0.006000,-0.035000,-0.033000,-0.020000,-0.040000,2.480000,0.019265,Hold,0.902344,0.000000,Hold,-273.000000,2.000000,Suck,-2130.000000,2181.818182,Speed,-2122.500000,2181.818182,Speed,Off,On0.000000,0,,,,
02:23:59.899 PM 03/19/2016,Teleop Enabled,9,FALSE,0,NO ERROR,-0.000000,-0.032083,0.000000,-0.070583,TRUE,FALSE,FALSE,FALSE,FALSE,FALSE,Disabled,0.000000,0.000000,0.000000,TRUE,-0.470383,1.929977,0.000000,0.005920,-0.003738,0.000000,0.006000,-0.035000,-0.033000,-0.020000,-0.020000,2.510000,0.010734,Hold,0.902344,0.000000,Hold,-273.000000,2.000000,Suck,-2122.500000,2181.818182,Speed,-2122.500000,2181.818182,Speed,Off,On0.000000,0,,,,
02:24:00.000 PM 03/19/2016,Teleop Enabled,10,FALSE,0,NO ERROR,-0.000000,-0.032083,0.000000,-0.070583,TRUE,FALSE,FALSE,FALSE,FALSE,FALSE,Disabled,0.000000,0.000000,0.000000,TRUE,-0.469055,1.929596,0.000000,0.048264,-0.008759,0.000000,0.008000,-0.040000,-0.075000,-0.020000,-0.020000,2.490000,0.013942,Hold,0.902344,0.000000,Hold,-273.000000,2.000000,Suck,-2122.500000,2181.818182,Speed,-2130.000000,2181.818182,Speed,Off,On0.000000,0,,,,
02:24:00.102 PM 03/19/2016,Teleop Enabled,10,FALSE,0,NO ERROR,-0.000000,-0.032083,0.000000,-0.070583,TRUE,FALSE,FALSE,FALSE,FALSE,FALSE,Disabled,0.000000,0.000000,0.000000,TRUE,-0.467712,1.928986,0.000000,-0.004578,-0.030045,0.000000,-0.074000,0.034000,0.045000,-0.030000,-0.010000,2.470000,0.019822,Hold,0.902344,0.000000,Hold,-273.000000,2.000000,Suck,-2122.500000,2181.818182,Speed,-2130.000000,2181.818182,Speed,Off,On0.000000,0,,,,
02:24:00.202 PM 03/19/2016,Teleop Enabled,10,FALSE,0,NO ERROR,-0.000000,-0.032083,0.000000,-0.070583,TRUE,FALSE,FALSE,FALSE,FALSE,FALSE,Disabled,0.000000,0.000000,0.000000,TRUE,-0.469864,1.927994,0.000000,-0.053787,-0.012344,0.000000,-0.074000,0.034000,0.045000,-0.030000,-0.010000,2.470000,0.020628,Hold,0.902344,0.000000,Hold,-273.000000,2.000000,Suck,-2130.000000,2181.818182,Speed,-2122.500000,2181.818182,Speed,Off,On0.000000,0,,,,
02:24:00.302 PM 03/19/2016,Teleop Enabled,10,FALSE,0,NO ERROR,-0.000000,-0.032083,0.000000,-0.070583,TRUE,FALSE,FALSE,FALSE,FALSE,FALSE,Disabled,0.000000,0.000000,0.000000,TRUE,-0.470963,1.927353,0.000000,-0.008530,-0.004776,0.000000,0.056000,-0.013000,0.070000,-0.030000,-0.040000,2.470000,0.017058,Hold,0.902344,0.000000,Hold,-273.000000,2.000000,Suck,-2130.000000,2181.818182,Speed,-2130.000000,2181.818182,Speed,Off,On0.000000,0,,,,
02:24:00.402 PM 03/19/2016,Teleop Enabled,10,FALSE,0,NO ERROR,-0.000000,-0.032083,0.000000,-0.070583,TRUE,FALSE,FALSE,FALSE,FALSE,FALSE,Disabled,0.000000,0.000000,0.000000,TRUE,-0.471634,1.927933,0.000000,0.006241,0.024582,0.000000,-0.036000,0.000000,0.065000,-0.030000,-0.060000,2.470000,0.035937,Hold,0.902344,0.000000,Hold,-273.000000,2.000000,Suck,-2122.500000,2181.818182,Speed,-2130.000000,2181.818182,Speed,Off,On0.000000,0,,,,
02:24:00.502 PM 03/19/2016,Teleop Enabled,10,FALSE,0,NO ERROR,-0.000000,-0.032083,0.000000,-0.070583,TRUE,FALSE,FALSE,FALSE,FALSE,FALSE,Disabled,0.000000,0.000000,0.000000,TRUE,-0.470154,1.927902,0.000000,0.032608,-0.014053,0.000000,0.074000,-0.031000,0.101000,-0.030000,-0.060000,2.470000,0.023919,Hold,0.902344,0.000000,Hold,-273.000000,2.000000,Suck,-2122.500000,2181.818182,Speed,-2122.500000,2181.818182,Speed,Off,On0.000000,0,,,,
02:24:00.602 PM 03/19/2016,Teleop Enabled,10,FALSE,0,NO ERROR,-0.000000,-0.032083,0.000000,-0.070583,TRUE,FALSE,FALSE,FALSE,FALSE,FALSE,Disabled,0.000000,0.000000,0.000000,TRUE,-0.470154,1.927902,0.000000,0.032608,-0.014053,0.000000,-0.032000,0.018000,-0.093000,-0.030000,0.000000,2.450000,0.015006,Hold,0.902344,0.000000,Hold,-273.000000,2.000000,Suck,-2122.500000,2181.818182,Speed,-2122.500000,2181.818182,Speed,Off,On0.000000,0,,,,
02:24:00.702 PM 03/19/2016,Teleop Enabled,10,FALSE,0,NO ERROR,-0.000000,-0.032083,0.000000,-0.070583,TRUE,FALSE,FALSE,FALSE,FALSE,FALSE,Disabled,0.000000,0.000000,0.000000,TRUE,-0.469650,1.926300,0.000000,-0.008606,-0.061874,0.000000,-0.054000,0.016000,-0.075000,-0.030000,-0.020000,2.420000,0.028184,Hold,0.902344,0.000000,Hold,-273.000000,2.000000,Suck,-2122.500000,2181.818182,Speed,-2130.000000,2181.818182,Speed,Off,On0.000000,0,,,,
02:24:00.803 PM 03/19/2016,Teleop Enabled,10,FALSE,0,NO ERROR,-0.000000,-0.032083,0.000000,-0.070583,TRUE,FALSE,FALSE,FALSE,FALSE,FALSE,Disabled,0.000000,0.000000,0.000000,TRUE,-0.470703,1.923294,0.000000,-0.013763,-0.056122,0.000000,0.026000,-0.051000,-0.037000,-0.030000,-0.030000,2.430000,0.014689,Hold,0.902344,0.000000,Hold,-273.000000,2.000000,Suck,-2130.000000,2181.818182,Speed,-2130.000000,2181.818182,Speed,Off,On0.000000,0,,,,
02:24:00.903 PM 03/19/2016,Teleop Enabled,10,FALSE,0,NO ERROR,-0.000000,-0.032083,0.000000,-0.070583,TRUE,FALSE,FALSE,FALSE,FALSE,FALSE,Disabled,0.000000,0.000000,0.000000,TRUE,-0.470459,1.920303,0.000000,0.019043,-0.046143,0.000000,0.093000,-0.045000,0.047000,-0.020000,-0.150000,2.420000,0.014689,Hold,0.902344,0.000000,Hold,-273.000000,2.000000,Suck,-2122.500000,2181.818182,Speed,-2130.000000,2181.818182,Speed,Off,On0.000000,0,,,,
02:24:01.003 PM 03/19/2016,Teleop Enabled,10,FALSE,0,NO ERROR,-0.000000,-0.032083,0.000000,-0.070583,TRUE,FALSE,FALSE,FALSE,FALSE,FALSE,Disabled,0.000000,0.000000,0.000000,TRUE,-0.468109,1.916901,0.000000,0.041046,-0.073227,0.000000,-0.043000,0.030000,0.037000,-0.020000,-0.150000,2.380000,0.012527,Hold,0.902344,0.000000,Hold,-273.000000,2.000000,Suck,-2122.500000,2181.818182,Speed,-2130.000000,2181.818182,Speed,Off,On0.000000,0,,,,
02:24:01.103 PM 03/19/2016,Teleop Enabled,11,FALSE,0,NO ERROR,-0.000000,-0.032083,0.000000,-0.070583,TRUE,FALSE,FALSE,FALSE,FALSE,FALSE,Disabled,0.000000,0.000000,0.000000,TRUE,-0.467438,1.914230,0.000000,0.000854,0.000000,0.000000,0.034000,0.047000,0.099000,-0.020000,-0.200000,2.340000,0.018221,Hold,0.902344,0.000000,Hold,-273.000000,2.000000,Suck,-2130.000000,2181.818182,Speed,-2130.000000,2181.818182,Speed,Off,On0.000000,0,,,,
02:24:01.204 PM 03/19/2016,Teleop Enabled,10,FALSE,0,NO ERROR,-0.000000,-0.032083,0.000000,-0.070583,TRUE,FALSE,FALSE,FALSE,FALSE,FALSE,Disabled,0.000000,0.000000,0.000000,TRUE,-0.467590,1.914780,0.000000,0.000702,-0.002090,0.000000,0.003000,0.059000,0.016000,-0.020000,-0.180000,2.300000,0.018604,Hold,0.902344,0.000000,Hold,-273.000000,2.000000,Suck,-2122.500000,2181.818182,Speed,-2122.500000,2181.818182,Speed,Off,On0.000000,0,,,,
02:24:01.304 PM 03/19/2016,Teleop Enabled,9,FALSE,0,NO ERROR,-0.000000,-0.032083,0.000000,-0.070583,TRUE,FALSE,FALSE,FALSE,FALSE,FALSE,Disabled,0.000000,0.000000,0.000000,TRUE,-0.467773,1.916199,0.000000,0.000000,0.033737,0.000000,-0.003000,-0.144000,-0.068000,-0.020000,-0.220000,2.340000,0.014634,Hold,0.902344,0.000000,Hold,-273.000000,2.000000,Suck,-2122.500000,2181.818182,Speed,-2130.000000,2181.818182,Speed,Off,On0.000000,0,,,,
02:24:01.403 PM 03/19/2016,Teleop Enabled,10,FALSE,0,NO ERROR,-0.000000,-0.032083,0.000000,-0.070583,TRUE,FALSE,FALSE,FALSE,FALSE,FALSE,Disabled,0.000000,0.000000,0.000000,TRUE,-0.467163,1.916534,0.000000,0.019760,0.018555,0.000000,-0.023000,0.083000,0.075000,-0.030000,-0.150000,2.280000,0.026725,Hold,0.902344,0.000000,Hold,-273.000000,2.000000,Suck,-2122.500000,2181.818182,Speed,-2130.000000,2181.818182,Speed,Off,On0.000000,0,,,,
02:24:01.504 PM 03/19/2016,Teleop Enabled,10,FALSE,0,NO ERROR,-0.000000,-0.032083,0.000000,-0.070583,TRUE,FALSE,FALSE,FALSE,FALSE,FALSE,Disabled,0.000000,0.000000,0.000000,TRUE,-0.466797,1.918030,0.000000,0.003250,0.000031,0.000000,-0.025000,0.019000,-0.043000,-0.020000,-0.180000,2.300000,0.030253,Hold,0.902344,0.000000,Hold,-273.000000,2.000000,Suck,-2130.000000,2181.818182,Speed,-2130.000000,2181.818182,Speed,Off,On0.000000,0,,,,
02:24:01.604 PM 03/19/2016,Teleop Enabled,10,FALSE,0,NO ERROR,-0.000000,-0.032083,0.000000,-0.070583,TRUE,FALSE,FALSE,FALSE,FALSE,FALSE,Disabled,0.000000,0.000000,0.000000,TRUE,-0.467010,1.919174,0.000000,0.001846,0.023468,0.000000,0.062000,-0.102000,-0.039000,-0.040000,-0.100000,2.370000,0.016800,Hold,0.902344,0.000000,Hold,-273.000000,2.000000,Suck,-2130.000000,2181.818182,Speed,-2122.500000,2181.818182,Speed,Off,On0.000000,0,,,,
02:24:01.704 PM 03/19/2016,Teleop Enabled,10,FALSE,0,NO ERROR,-0.000000,-0.032083,0.000000,-0.070583,TRUE,FALSE,FALSE,FALSE,FALSE,FALSE,Disabled,0.000000,0.000000,0.000000,TRUE,-0.465759,1.919708,0.000000,0.045822,0.014648,0.000000,0.031000,0.012000,-0.013000,-0.030000,-0.150000,2.360000,0.019172,Hold,0.902344,0.000000,Hold,-273.000000,2.000000,Suck,-2122.500000,2181.818182,Speed,-2130.000000,2181.818182,Speed,Off,On0.000000,0,,,,
02:24:01.804 PM 03/19/2016,Teleop Enabled,10,FALSE,0,NO ERROR,-0.000000,-0.032083,0.000000,-0.070583,TRUE,FALSE,FALSE,FALSE,FALSE,FALSE,Disabled,0.000000,0.000000,0.000000,TRUE,-0.462677,1.919403,0.000000,0.098694,-0.020264,0.000000,-0.004000,0.025000,-0.002000,-0.040000,-0.060000,2.380000,0.021189,Hold,0.902344,0.000000,Hold,-273.000000,2.000000,Suck,-2130.000000,2181.818182,Speed,-2130.000000,2181.818182,Speed,Off,On0.000000,0,,,,
02:24:01.905 PM 03/19/2016,Teleop Enabled,10,FALSE,0,NO ERROR,-0.000000,-0.032083,0.000000,-0.070583,TRUE,FALSE,FALSE,FALSE,FALSE,FALSE,Disabled,0.000000,0.000000,0.000000,TRUE,-0.457031,1.918915,0.000000,0.079620,0.000000,0.000000,-0.009000,-0.034000,-0.005000,-0.040000,-0.070000,2.430000,0.009137,Hold,0.902344,0.000000,Hold,-273.000000,2.000000,Suck,-2130.000000,2181.818182,Speed,-2130.000000,2181.818182,Speed,Off,On0.000000,0,,,,
02:24:02.006 PM 03/19/2016,Teleop Enabled,10,FALSE,0,NO ERROR,-0.000000,-0.032083,0.000000,-0.070583,TRUE,FALSE,FALSE,FALSE,FALSE,FALSE,Disabled,0.000000,0.000000,0.000000,TRUE,-0.457062,1.918777,0.000000,-0.000641,-0.007584,0.000000,0.039000,0.005000,0.047000,-0.040000,0.000000,2.420000,-0.007770,Hold,0.902344,0.000000,Hold,-273.000000,2.000000,Suck,-2130.000000,2181.818182,Speed,-2122.500000,2181.818182,Speed,Off,On0.000000,0,,,,
02:24:02.108 PM 03/19/2016,Teleop Enabled,10,FALSE,0,NO ERROR,-0.000000,-0.032083,0.000000,-0.070583,TRUE,FALSE,FALSE,FALSE,FALSE,FALSE,Disabled,0.000000,0.000000,0.000000,TRUE,-0.456390,1.918762,0.000000,0.004044,0.014999,0.000000,-0.042000,-0.035000,0.029000,-0.030000,-0.080000,2.460000,-0.015109,Hold,0.902344,0.000000,Hold,-273.000000,2.000000,Suck,-2122.500000,2181.818182,Speed,-2130.000000,2181.818182,Speed,Off,On0.000000,0,,,,
02:24:02.208 PM 03/19/2016,Teleop Enabled,11,FALSE,0,NO ERROR,-0.000000,-0.032083,0.000000,-0.070583,TRUE,FALSE,FALSE,FALSE,FALSE,FALSE,Disabled,0.000000,0.000000,0.000000,TRUE,-0.455643,1.918335,0.000000,0.024063,-0.008698,0.000000,-0.012000,0.094000,0.081000,-0.040000,-0.050000,2.410000,-0.017485,Hold,0.902344,0.000000,Hold,-273.000000,2.000000,Suck,-2122.500000,2181.818182,Speed,-2130.000000,2181.818182,Speed,Off,On0.000000,0,,,,
02:24:02.308 PM 03/19/2016,Teleop Enabled,10,FALSE,0,NO ERROR,-0.000000,-0.032083,0.000000,-0.070583,TRUE,FALSE,FALSE,FALSE,FALSE,FALSE,Disabled,0.000000,0.000000,0.000000,TRUE,-0.454895,1.917786,0.000000,0.015747,-0.042572,0.000000,-0.023000,-0.027000,-0.058000,-0.040000,-0.060000,2.460000,-0.027771,Hold,0.902344,0.000000,Hold,-273.000000,2.000000,Suck,-2130.000000,2181.818182,Speed,-2122.500000,2181.818182,Speed,Off,On0.000000,0,,,,
02:24:02.409 PM 03/19/2016,Teleop Enabled,10,FALSE,0,NO ERROR,-0.000000,-0.032083,0.000000,-0.070583,TRUE,FALSE,FALSE,FALSE,FALSE,FALSE,Disabled,0.000000,0.000000,0.000000,TRUE,-0.455048,1.915955,0.000000,-0.020020,-0.035385,0.000000,0.000000,-0.059000,0.009000,-0.040000,-0.020000,2.440000,-0.039104,Hold,0.902344,0.000000,Hold,-273.000000,2.000000,Suck,-2130.000000,2181.818182,Speed,-2130.000000,2181.818182,Speed,Off,On0.000000,0,,,,
02:24:02.510 PM 03/19/2016,Teleop Enabled,10,FALSE,0,NO ERROR,-0.000000,-0.032083,0.000000,-0.070583,TRUE,FALSE,FALSE,FALSE,FALSE,FALSE,Disabled,0.000000,0.000000,0.000000,TRUE,-0.455612,1.912903,0.000000,0.000000,-0.047714,0.000000,-0.008000,0.016000,0.003000,-0.040000,-0.040000,2.480000,-0.040412,Hold,0.902344,0.000000,Hold,-273.000000,2.000000,Suck,-2130.000000,2181.818182,Speed,-2130.000000,2181.818182,Speed,Off,On0.000000,0,,,,
02:24:02.611 PM 03/19/2016,Teleop Enabled,10,FALSE,0,NO ERROR,-0.000000,-0.032083,0.000000,-0.070583,TRUE,FALSE,FALSE,FALSE,FALSE,FALSE,Disabled,0.000000,0.000000,0.000000,TRUE,-0.454834,1.909668,0.000000,0.033188,-0.084564,0.000000,0.046000,-0.031000,0.038000,-0.040000,-0.060000,2.430000,-0.035772,Hold,0.902344,0.000000,Hold,-273.000000,2.000000,Suck,-2122.500000,2181.818182,Speed,-2122.500000,2181.818182,Speed,Off,On0.000000,0,,,,
02:24:02.712 PM 03/19/2016,Teleop Enabled,9,FALSE,0,NO ERROR,-0.000000,-0.032083,0.000000,-0.070583,TRUE,FALSE,FALSE,FALSE,FALSE,FALSE,Disabled,0.000000,0.000000,0.000000,TRUE,-0.453568,1.905487,0.000000,0.007370,-0.091736,0.000000,-0.066000,0.011000,0.057000,-0.040000,-0.070000,2.480000,-0.026587,Hold,0.902344,0.000000,Hold,-273.000000,2.000000,Suck,-2130.000000,2181.818182,Speed,-2130.000000,2181.818182,Speed,Off,On0.000000,0,,,,
02:24:02.811 PM 03/19/2016,Teleop Enabled,9,FALSE,0,NO ERROR,-0.000000,-0.032083,0.000000,-0.070583,TRUE,FALSE,FALSE,FALSE,FALSE,FALSE,Disabled,0.000000,0.000000,0.000000,TRUE,-0.454559,1.904938,0.000000,-0.030136,0.012558,0.000000,0.020000,-0.117000,0.039000,-0.040000,-0.060000,2.460000,-0.018858,Hold,0.902344,0.000000,Hold,-273.000000,2.000000,Suck,-2130.000000,2181.818182,Speed,-2130.000000,2181.818182,Speed,Off,On0.000000,0,,,,
02:24:02.912 PM 03/19/2016,Teleop Enabled,10,FALSE,0,NO ERROR,-0.000000,-0.032083,0.000000,-0.070583,TRUE,FALSE,FALSE,FALSE,FALSE,FALSE,Disabled,0.000000,0.000000,0.000000,TRUE,-0.456238,1.905090,0.000000,-0.038574,0.023819,0.000000,-0.073000,0.091000,0.116000,-0.040000,-0.070000,2.470000,-0.007522,Hold,0.902344,0.000000,Hold,-273.000000,2.000000,Suck,-2122.500000,2181.818182,Speed,-2122.500000,2181.818182,Speed,Off,On0.000000,0,,,,
02:24:03.012 PM 03/19/2016,Teleop Enabled,11,FALSE,0,NO ERROR,-0.000000,-0.032083,0.000000,-0.070583,TRUE,FALSE,FALSE,FALSE,FALSE,FALSE,Disabled,0.000000,0.000000,0.000000,TRUE,-0.457291,1.906525,0.000000,0.003479,0.017624,0.000000,0.104000,-0.044000,0.066000,-0.050000,-0.090000,2.470000,-0.022053,Hold,0.902344,0.000000,Hold,-273.000000,2.000000,Suck,-2122.500000,2181.818182,Speed,-2130.000000,2181.818182,Speed,Off,On0.000000,0,,,,
02:24:03.112 PM 03/19/2016,Teleop Enabled,9,FALSE,0,NO ERROR,-0.000000,-0.032083,0.000000,-0.070583,TRUE,FALSE,FALSE,FALSE,FALSE,FALSE,Disabled,0.000000,0.000000,0.000000,TRUE,-0.456406,1.907532,0.000000,0.012268,0.023636,0.000000,-0.057000,-0.027000,-0.119000,-0.050000,-0.080000,2.490000,-0.033761,Hold,0.902344,0.000000,Hold,-273.000000,2.000000,Suck,-2130.000000,2181.818182,Speed,-2130.000000,2181.818182,Speed,Off,On0.000000,0,,,,
02:24:03.212 PM 03/19/2016,Teleop Enabled,9,FALSE,0,NO ERROR,-0.000000,-0.032083,0.000000,-0.070583,TRUE,FALSE,FALSE,FALSE,FALSE,FALSE,Disabled,0.000000,0.000000,0.000000,TRUE,-0.456924,1.907410,0.000000,-0.029358,-0.011353,0.000000,0.003000,0.047000,0.067000,-0.040000,-0.120000,2.450000,-0.028549,Hold,0.902344,0.000000,Hold,-273.000000,2.000000,Suck,-2130.000000,2181.818182,Speed,-2130.000000,2181.818182,Speed,Off,On0.000000,0,,,,
02:24:03.312 PM 03/19/2016,Teleop Enabled,7,FALSE,0,NO ERROR,-0.000000,-0.032083,0.000000,-0.070583,TRUE,FALSE,FALSE,FALSE,FALSE,FALSE,Disabled,0.000000,0.000000,0.000000,TRUE,-0.457123,1.907791,0.000000,0.005463,0.021271,0.000000,-0.013000,-0.022000,-0.024000,-0.050000,-0.080000,2.490000,-0.014624,Hold,0.902344,0.000000,Hold,-273.000000,2.000000,Suck,-2130.000000,2181.818182,Speed,-2122.500000,2181.818182,Speed,Off,On0.000000,0,,,,
02:24:03.413 PM 03/19/2016,Teleop Enabled,8,FALSE,0,NO ERROR,-0.000000,-0.032083,0.000000,-0.070583,TRUE,FALSE,FALSE,FALSE,FALSE,FALSE,Disabled,0.000000,0.000000,0.000000,TRUE,-0.455612,1.908569,0.000000,0.058838,0.007462,0.000000,0.044000,0.001000,0.033000,-0.050000,-0.070000,2.460000,-0.032040,Hold,0.902344,0.000000,Hold,-273.000000,2.000000,Suck,-2122.500000,2181.818182,Speed,-2122.500000,2181.818182,Speed,Off,On0.000000,0,,,,
02:24:03.514 PM 03/19/2016,Teleop Enabled,5,FALSE,0,NO ERROR,-0.000000,-0.032083,0.000000,-0.070583,TRUE,FALSE,FALSE,FALSE,FALSE,FALSE,Disabled,0.000000,0.000000,0.000000,TRUE,-0.451172,1.909027,0.000000,0.065506,0.000305,0.000000,-0.058000,-0.039000,0.012000,-0.050000,-0.060000,2.460000,-0.015629,Hold,0.902344,0.000000,Hold,-273.000000,2.000000,Suck,-2130.000000,2181.818182,Speed,-2130.000000,2181.818182,Speed,Off,On0.000000,0,,,,
02:24:03.614 PM 03/19/2016,Teleop Enabled,11,FALSE,0,NO ERROR,-0.000000,-0.032083,0.000000,-0.070583,TRUE,FALSE,FALSE,FALSE,FALSE,FALSE,Disabled,0.000000,0.000000,0.000000,TRUE,-0.449982,1.909790,0.000000,0.014465,0.034973,0.000000,-0.022000,-0.005000,0.055000,-0.050000,-0.110000,2.410000,-0.014882,Hold,0.902344,0.000000,Hold,-273.000000,2.000000,Suck,-2122.500000,2181.818182,Speed,-2130.000000,2181.818182,Speed,Off,On0.000000,0,,,,
02:24:03.718 PM 03/19/2016,Teleop Enabled,9,FALSE,0,NO ERROR,-0.000000,-0.032083,0.000000,-0.070583,TRUE,FALSE,FALSE,FALSE,FALSE,FALSE,Disabled,0.000000,0.000000,0.000000,TRUE,-0.449158,1.909119,0.000000,0.015320,-0.009811,0.000000,-0.039000,0.126000,0.015000,-0.060000,-0.080000,2.400000,-0.022194,Hold,0.902344,0.000000,Hold,-273.000000,2.000000,Suck,-2122.500000,2181.818182,Speed,-2122.500000,2181.818182,Speed,Off,On0.000000,0,,,,
02:24:03.816 PM 03/19/2016,Teleop Enabled,10,FALSE,0,NO ERROR,-0.000000,-0.032083,0.000000,-0.070583,TRUE,FALSE,FALSE,FALSE,FALSE,FALSE,Disabled,0.000000,0.000000,0.000000,TRUE,-0.449097,1.910049,0.000000,0.012604,0.002289,0.000000,0.054000,0.015000,0.000000,-0.060000,-0.100000,2.390000,-0.028009,Hold,0.902344,0.000000,Hold,-273.000000,2.000000,Suck,-2130.000000,2181.818182,Speed,-2122.500000,2181.818182,Speed,Off,On0.000000,0,,,,
02:24:03.917 PM 03/19/2016,Teleop Enabled,10,FALSE,0,NO ERROR,-0.000000,-0.032083,0.000000,-0.070583,TRUE,FALSE,FALSE,FALSE,FALSE,FALSE,Disabled,0.000000,0.000000,0.000000,TRUE,-0.448761,1.911102,0.000000,0.005569,0.019409,0.000000,0.000000,-0.058000,-0.104000,-0.060000,-0.090000,2.400000,-0.012390,Hold,0.902344,0.000000,Hold,-273.000000,2.000000,Suck,-2130.000000,2181.818182,Speed,-2130.000000,2181.818182,Speed,Off,On0.000000,0,,,,
02:24:04.017 PM 03/19/2016,Teleop Enabled,20,FALSE,0,NO ERROR,-0.000000,-0.032083,0.000000,-0.070583,TRUE,FALSE,FALSE,FALSE,FALSE,FALSE,Disabled,0.000000,0.000000,0.000000,TRUE,-0.449631,1.911316,0.000000,-0.038895,0.008133,0.000000,-0.019000,-0.009000,0.004000,-0.050000,-0.130000,2.400000,-0.013330,Hold,0.902344,0.000000,Hold,-273.000000,2.000000,Suck,-2130.000000,2181.818182,Speed,-2130.000000,2181.818182,Speed,Off,On0.000000,0,,,,
02:24:04.119 PM 03/19/2016,Teleop Enabled,10,FALSE,0,NO ERROR,-0.000000,-0.032083,0.000000,-0.070583,TRUE,FALSE,FALSE,FALSE,FALSE,FALSE,Disabled,0.000000,0.000000,0.000000,TRUE,-0.450790,1.911606,0.000000,-0.020462,0.020767,0.000000,0.011000,0.017000,-0.073000,-0.060000,-0.110000,2.360000,-0.023671,Hold,0.902344,0.000000,Hold,-273.000000,2.000000,Suck,-2130.000000,2181.818182,Speed,-2122.500000,2181.818182,Speed,Off,On0.000000,0,,,,
02:24:04.219 PM 03/19/2016,Teleop Enabled,10,FALSE,0,NO ERROR,-0.000000,-0.032083,0.000000,-0.070583,TRUE,FALSE,FALSE,FALSE,FALSE,FALSE,Disabled,0.000000,0.000000,0.000000,TRUE,-0.450760,1.911514,0.000000,0.032669,-0.020477,0.000000,0.061000,-0.036000,-0.023000,-0.050000,-0.130000,2.350000,-0.011071,Hold,0.902344,0.000000,Hold,-273.000000,2.000000,Suck,-2122.500000,2181.818182,Speed,-2122.500000,2181.818182,Speed,Off,On0.000000,0,,,,
02:24:04.319 PM 03/19/2016,Teleop Enabled,10,FALSE,0,NO ERROR,-0.000000,-0.032083,0.000000,-0.070583,TRUE,FALSE,FALSE,FALSE,FALSE,FALSE,Disabled,0.000000,0.000000,0.000000,TRUE,-0.448593,1.911163,0.000000,0.039825,-0.009796,0.000000,0.025000,-0.065000,0.069000,-0.050000,-0.140000,2.350000,-0.004689,Hold,0.902344,0.000000,Hold,-273.000000,2.000000,Suck,-2130.000000,2181.818182,Speed,-2130.000000,2181.818182,Speed,Off,On0.000000,0,,,,
02:24:04.419 PM 03/19/2016,Teleop Enabled,10,FALSE,0,NO ERROR,-0.000000,-0.032083,0.000000,-0.070583,TRUE,FALSE,FALSE,FALSE,FALSE,FALSE,Disabled,0.000000,0.000000,0.000000,TRUE,-0.447678,1.911957,0.000000,0.005005,0.049500,0.000000,-0.041000,0.067000,0.042000,-0.050000,-0.170000,2.320000,-0.001718,Hold,0.902344,0.000000,Hold,-273.000000,2.000000,Suck,-2130.000000,2181.818182,Speed,-2130.000000,2181.818182,Speed,Off,On0.000000,0,,,,
02:24:04.519 PM 03/19/2016,Teleop Enabled,10,FALSE,0,NO ERROR,-0.000000,-0.032083,0.000000,-0.070583,TRUE,FALSE,FALSE,FALSE,FALSE,FALSE,Disabled,0.000000,0.000000,0.000000,TRUE,-0.447495,1.913940,0.000000,0.000000,0.039551,0.000000,-0.026000,0.100000,0.099000,-0.050000,-0.130000,2.290000,-0.015130,Hold,0.902344,0.000000,Hold,-273.000000,2.000000,Suck,-2130.000000,2181.818182,Speed,-2122.500000,2181.818182,Speed,Off,On0.000000,0,,,,
02:24:04.619 PM 03/19/2016,Teleop Enabled,12,FALSE,0,NO ERROR,-0.000000,-0.032083,0.000000,-0.070583,TRUE,FALSE,FALSE,FALSE,FALSE,FALSE,Disabled,0.000000,0.000000,0.000000,TRUE,-0.447906,1.917648,0.000000,-0.000412,0.070068,0.000000,0.029000,0.006000,-0.020000,-0.050000,-0.180000,2.300000,-0.015399,Hold,0.902344,0.000000,Hold,-273.000000,2.000000,Suck,-2130.000000,2181.818182,Speed,-2122.500000,2181.818182,Speed,Off,On0.000000,0,,,,
02:24:04.719 PM 03/19/2016,Teleop Enabled,12,FALSE,0,NO ERROR,-0.000000,-0.032083,0.000000,-0.070583,TRUE,FALSE,FALSE,FALSE,FALSE,FALSE,Disabled,0.000000,0.000000,0.000000,TRUE,-0.447891,1.921432,0.000000,0.000000,0.073288,0.000000,0.054000,-0.066000,0.064000,-0.060000,-0.200000,2.290000,-0.007061,Hold,0.902344,0.000000,Hold,-273.000000,2.000000,Suck,-2130.000000,2181.818182,Speed,-2122.500000,2181.818182,Speed,Off,On0.000000,0,,,,
02:24:04.819 PM 03/19/2016,Teleop Enabled,10,FALSE,0,NO ERROR,-0.000000,-0.032083,0.000000,-0.070583,TRUE,FALSE,FALSE,FALSE,FALSE,FALSE,Disabled,0.000000,0.000000,0.000000,TRUE,-0.448578,1.922607,0.000000,-0.042603,0.003418,0.000000,-0.032000,-0.006000,-0.010000,-0.060000,-0.250000,2.320000,-0.014851,Hold,0.902344,0.000000,Hold,-273.000000,2.000000,Suck,-2130.000000,2181.818182,Speed,-2130.000000,2181.818182,Speed,Off,On0.000000,0,,,,
02:24:04.919 PM 03/19/2016,Teleop Enabled,11,FALSE,0,NO ERROR,-0.000000,-0.032083,0.000000,-0.070583,TRUE,FALSE,FALSE,FALSE,FALSE,FALSE,Disabled,0.000000,0.000000,0.000000,TRUE,-0.450790,1.922745,0.000000,-0.032700,0.006271,0.000000,-0.038000,0.061000,0.064000,-0.060000,-0.190000,2.320000,-0.012947,Hold,0.902344,0.000000,Hold,-273.000000,2.000000,Suck,-2137.500000,2181.818182,Speed,-2122.500000,2181.818182,Speed,Off,On0.000000,0,,,,
02:24:05.019 PM 03/19/2016,Teleop Enabled,11,FALSE,0,NO ERROR,-0.000000,-0.032083,0.000000,-0.070583,TRUE,FALSE,FALSE,FALSE,FALSE,FALSE,Disabled,0.000000,0.000000,0.000000,TRUE,-0.452255,1.923553,0.000000,-0.011246,-0.005814,0.000000,0.095000,0.035000,0.008000,-0.050000,-0.230000,2.370000,-0.015023,Hold,0.902344,0.000000,Hold,-273.000000,2.000000,Suck,-2137.500000,2181.818182,Speed,-2122.500000,2181.818182,Speed,Off,On0.000000,0,,,,
02:24:05.120 PM 03/19/2016,Teleop Enabled,10,FALSE,0,NO ERROR,-0.000000,-0.032083,0.000000,-0.070583,TRUE,FALSE,FALSE,FALSE,FALSE,FALSE,Disabled,0.000000,0.000000,0.000000,TRUE,-0.451599,1.924347,0.000000,0.004089,0.027405,0.000000,-0.063000,-0.147000,-0.033000,-0.060000,-0.160000,2.380000,-0.025568,Hold,0.902344,0.000000,Hold,-273.000000,2.000000,Suck,-2130.000000,2181.818182,Speed,-2130.000000,2181.818182,Speed,Off,On0.000000,0,,,,
02:24:05.221 PM 03/19/2016,Teleop Enabled,10,FALSE,0,NO ERROR,-0.000000,-0.032083,0.000000,-0.070583,TRUE,FALSE,FALSE,FALSE,FALSE,FALSE,Disabled,0.000000,0.000000,0.000000,TRUE,-0.452103,1.924545,0.000000,-0.032013,0.029953,0.000000,-0.066000,0.072000,0.136000,-0.050000,-0.230000,2.380000,-0.048640,Hold,0.902344,0.000000,Hold,-273.000000,2.000000,Suck,-2130.000000,2181.818182,Speed,-2130.000000,2181.818182,Speed,Off,On0.000000,0,,,,
02:24:05.321 PM 03/19/2016,Teleop Enabled,12,FALSE,0,NO ERROR,-0.000000,-0.032083,0.000000,-0.070583,TRUE,FALSE,FALSE,FALSE,FALSE,FALSE,Disabled,0.000000,0.000000,0.000000,TRUE,-0.454865,1.927200,0.000000,0.000000,0.047058,0.000000,0.009000,0.101000,0.154000,-0.060000,-0.170000,2.370000,-0.047080,Hold,0.902344,0.000000,Hold,-273.000000,2.000000,Suck,-2130.000000,2181.818182,Speed,-2122.500000,2181.818182,Speed,Off,On0.000000,0,,,,
02:24:05.423 PM 03/19/2016,Teleop Enabled,10,FALSE,0,NO ERROR,-0.000000,-0.032083,0.000000,-0.070583,TRUE,FALSE,FALSE,FALSE,FALSE,FALSE,Disabled,0.000000,0.000000,0.000000,TRUE,-0.455902,1.931641,0.000000,-0.026794,0.097382,0.000000,0.037000,0.021000,0.034000,-0.060000,-0.250000,2.390000,-0.026700,Hold,0.902344,0.000000,Hold,-273.000000,2.000000,Suck,-2130.000000,2181.818182,Speed,-2130.000000,2181.818182,Speed,Off,On0.000000,0,,,,
02:24:05.524 PM 03/19/2016,Teleop Enabled,10,FALSE,0,NO ERROR,-0.000000,-0.032083,0.000000,-0.070583,TRUE,FALSE,FALSE,FALSE,FALSE,FALSE,Disabled,0.000000,0.000000,0.000000,TRUE,-0.456070,1.934723,0.000000,0.011032,-0.005325,0.000000,-0.025000,-0.073000,-0.087000,-0.070000,-0.180000,2.390000,-0.027148,Hold,0.902344,0.000000,Hold,-273.000000,2.000000,Suck,-2130.000000,2181.818182,Speed,-2130.000000,2181.818182,Speed,Off,On0.000000,0,,,,
02:24:05.625 PM 03/19/2016,Teleop Enabled,11,FALSE,0,NO ERROR,-0.000000,-0.032083,0.000000,-0.070583,TRUE,FALSE,FALSE,FALSE,FALSE,FALSE,Disabled,0.000000,0.000000,0.000000,TRUE,-0.456284,1.932343,0.000000,-0.033539,-0.057831,0.000000,-0.061000,-0.056000,-0.103000,-0.070000,-0.260000,2.380000,-0.042075,Hold,0.902344,0.000000,Hold,-273.000000,2.000000,Suck,-2130.000000,2181.818182,Speed,-2130.000000,2181.818182,Speed,Off,On0.000000,0,,,,
02:24:05.727 PM 03/19/2016,Teleop Enabled,10,FALSE,0,NO ERROR,-0.000000,-0.032083,0.000000,-0.070583,TRUE,FALSE,FALSE,FALSE,FALSE,FALSE,Disabled,0.000000,0.000000,0.000000,TRUE,-0.456635,1.929047,0.000000,0.002823,-0.082947,0.000000,0.032000,0.073000,0.060000,-0.070000,-0.220000,2.360000,-0.026308,Hold,0.902344,0.000000,Hold,-273.000000,2.000000,Suck,-2130.000000,2181.818182,Speed,-2122.500000,2181.818182,Speed,Off,On0.000000,0,,,,
02:24:05.828 PM 03/19/2016,Teleop Enabled,10,FALSE,0,NO ERROR,-0.000000,-0.032083,0.000000,-0.070583,TRUE,FALSE,FALSE,FALSE,FALSE,FALSE,Disabled,0.000000,0.000000,0.000000,TRUE,-0.456924,1.925278,0.000000,0.006592,-0.087021,0.000000,0.097000,-0.024000,0.048000,-0.070000,-0.270000,2.340000,-0.033944,Hold,0.902344,0.000000,Hold,-273.000000,2.000000,Suck,-2130.000000,2181.818182,Speed,-2130.000000,2181.818182,Speed,Off,On0.000000,0,,,,
