Time,Robot Mode,Loop Time,Error Status,Error Code,Error Source,Left Motor Output,Left Motor Encoder,Right Motor Output,Right Motor Encoder,Is Level,Is Stalled,Ball Detector Photoeye,Vision Enabled,Vision Teleop Control,Vision Auto Control,Vision Current State,Vision X Output,Vision NavX Error,Vision NavX Target,NavX Connection Status,NavX Displacement X,NavX Displacement Y,NavX Displacement Z,NavX Velocity X,NavX Velocity Y,NavX Velocity Z,NavX Acceleration X,NavX Acceleration Y,NavX Acceleration Z,NavX Pitch,NavX Yaw,NavX Roll,Gyro Angle,Roller Arm State,Roller Arm Actual,Roller Arm Desired,Shooter Arm State,Shooter Arm Actual,Shooter Arm Desired,Shooter State,Actual RPM Left,Desired RPM Left,Control Mode Left,Actual RPM Right,Desired RPM Right,Scaler Motor Output,Auto To Run,Auto Current File,Auto File Status,Auto Current Command,Auto Trimmed Command
01:18:00.474 PM 03/19/2016,Teleop Enabled,10,FALSE,0,NO ERROR,-0.000000,0.000000,0.000000,0.000000,TRUE,FALSE,FALSE,FALSE,FALSE,FALSE,Disabled,0.000000,-0.000000,-82.420000,TRUE,-7.481522,-0.073410,0.000000,0.000000,0.000000,0.000000,0.000000,-0.001000,0.018000,-0.050000,-0.070000,2.410000,0.286049,ResetBack,1.736328,-0.200000,ResetBack,-27165.000000,-0.300000,Suck,0.000000,2181.818182,Speed,0.000000,2181.818182,Speed,On,Off0.000000,0,,,,
01:18:00.575 PM 03/19/2016,Teleop Enabled,11,FALSE,0,NO ERROR,-0.000000,0.000000,0.000000,0.000000,TRUE,FALSE,FALSE,FALSE,FALSE,FALSE,Disabled,0.000000,-0.000000,-82.420000,TRUE,-7.481812,-0.073944,0.000000,-0.001572,-0.020081,0.000000,0.000000,-0.001000,0.018000,-0.060000,-0.050000,2.370000,0.280710,ResetBack,0.338623,-0.200000,ResetBack,-25242.000000,-0.300000,Suck,-157.500000,2181.818182,Speed,0.000000,2181.818182,Speed,On,Off0.000000,0,,,,
01:18:00.675 PM 03/19/2016,Teleop Enabled,10,FALSE,0,NO ERROR,-0.000000,0.000000,0.000000,-0.012833,TRUE,FALSE,FALSE,FALSE,FALSE,FALSE,Disabled,0.000000,-0.000000,-82.420000,TRUE,-7.481491,-0.074203,0.000000,0.015793,-0.011642,0.000000,-0.141000,0.065000,-0.011000,-0.050000,-0.050000,2.390000,0.276792,ResetBack,0.279785,-0.200000,ResetBack,-18693.000000,-0.300000,Suck,-960.000000,2181.818182,Speed,-487.500000,2181.818182,Speed,On,Off0.000000,0,,,,
01:18:00.776 PM 03/19/2016,Teleop Enabled,10,FALSE,0,NO ERROR,-0.000000,0.012833,0.000000,0.006417,TRUE,FALSE,FALSE,FALSE,FALSE,FALSE,Disabled,0.000000,-0.000000,-82.420000,TRUE,-7.482361,-0.074554,0.000000,-0.034698,-0.009674,0.000000,-0.027000,0.020000,0.163000,-0.050000,-0.090000,2.400000,0.280851,ResetBack,0.279785,-0.200000,ResetBack,-11318.000000,-0.300000,Suck,-1657.500000,2181.818182,Speed,-1357.500000,2181.818182,Speed,On,Off0.000000,0,,,,
01:18:00.877 PM 03/19/2016,Teleop Enabled,9,FALSE,0,NO ERROR,-0.000000,0.025667,0.000000,0.070583,TRUE,FALSE,FALSE,FALSE,FALSE,FALSE,Disabled,0.000000,-0.000000,-82.420000,TRUE,-7.485641,-0.072220,0.000000,-0.057968,0.059418,0.000000,0.025000,-0.091000,-0.078000,-0.050000,-0.040000,2.430000,0.294408,Reset,0.278076,0.000000,ResetBack,-11318.000000,-0.300000,Suck,-2092.500000,2181.818182,Speed,-2032.500000,2181.818182,Speed,On,Off0.000000,0,,,,
01:18:00.977 PM 03/19/2016,Teleop Enabled,11,FALSE,0,NO ERROR,-0.000000,0.019250,0.000000,0.057750,TRUE,FALSE,FALSE,FALSE,FALSE,FALSE,Disabled,0.000000,-0.000000,-82.420000,TRUE,-7.486572,-0.070877,0.000000,0.006607,0.017349,0.000000,0.037000,-0.070000,-0.021000,-0.050000,0.040000,2.420000,0.309806,Hold,0.974365,0.000000,ResetBack,-4961.000000,-0.300000,Suck,-2257.500000,2181.818182,Speed,-2332.500000,2181.818182,Speed,On,Off0.000000,0,,,,
01:18:01.080 PM 03/19/2016,Teleop Enabled,10,FALSE,0,NO ERROR,-0.000000,0.019250,0.000000,0.019250,TRUE,FALSE,FALSE,FALSE,FALSE,FALSE,Disabled,0.000000,-0.000000,-82.420000,TRUE,-7.485779,-0.071594,0.000000,0.018845,-0.012604,0.000000,0.037000,-0.070000,-0.021000,-0.050000,-0.050000,2.450000,0.320991,Hold,0.926514,0.000000,ResetBack,-1556.000000,-0.300000,Suck,-2107.500000,2181.818182,Speed,-2190.000000,2181.818182,Speed,On,Off0.000000,0,,,,
01:18:01.181 PM 03/19/2016,Teleop Enabled,10,FALSE,0,NO ERROR,-0.000000,0.019250,0.000000,0.019250,TRUE,FALSE,FALSE,FALSE,FALSE,FALSE,Disabled,0.000000,-0.000000,-82.420000,TRUE,-7.485794,-0.072128,0.000000,-0.005615,-0.006577,0.000000,-0.033000,0.131000,0.085000,-0.040000,-0.100000,2.380000,0.333605,Hold,0.915283,0.000000,ResetBack,-400.000000,-0.300000,Suck,-2070.000000,2181.818182,Speed,-2055.000000,2181.818182,Speed,On,Off0.000000,0,,,,
01:18:01.282 PM 03/19/2016,Teleop Enabled,10,FALSE,0,NO ERROR,-0.000000,0.019250,0.000000,0.019250,TRUE,FALSE,FALSE,FALSE,FALSE,FALSE,Disabled,0.000000,-0.000000,-82.420000,TRUE,-7.485596,-0.069962,0.000000,0.012863,0.078720,0.000000,0.026000,0.083000,0.039000,-0.050000,-0.020000,2.510000,0.354979,Hold,0.915283,0.000000,ResetBack,-394.000000,-0.300000,Suck,-2137.500000,2181.818182,Speed,-2085.000000,2181.818182,Speed,On,Off0.000000,0,,,,
01:18:01.382 PM 03/19/2016,Teleop Enabled,11,FALSE,0,NO ERROR,-0.000000,0.019250,0.000000,0.019250,TRUE,FALSE,FALSE,FALSE,FALSE,FALSE,Disabled,0.000000,-0.000000,-82.420000,TRUE,-7.484238,-0.062836,0.000000,0.030899,0.126511,0.000000,0.061000,0.001000,0.073000,-0.050000,0.000000,2.420000,0.365655,Hold,0.915283,0.000000,ResetBack,-382.000000,-0.300000,Suck,-2130.000000,2181.818182,Speed,-2152.500000,2181.818182,Speed,On,Off0.000000,0,,,,
01:18:01.483 PM 03/19/2016,Teleop Enabled,10,FALSE,0,NO ERROR,-0.000000,0.019250,0.000000,0.019250,TRUE,FALSE,FALSE,FALSE,FALSE,FALSE,Disabled,0.000000,-0.000000,-82.420000,TRUE,-7.482880,-0.061462,0.000000,0.023865,0.006531,0.000000,0.044000,0.040000,0.042000,-0.040000,-0.050000,2.450000,0.353410,Hold,0.915283,0.000000,ResetBack,-381.000000,-0.300000,Suck,-2107.500000,2181.818182,Speed,-2122.500000,2181.818182,Speed,On,Off0.000000,0,,,,
01:18:01.584 PM 03/19/2016,Teleop Enabled,9,FALSE,0,NO ERROR,-0.000000,0.019250,0.000000,0.019250,TRUE,FALSE,FALSE,FALSE,FALSE,FALSE,Disabled,0.000000,-0.000000,-82.420000,TRUE,-7.480850,-0.061264,0.000000,0.033386,-0.005188,0.000000,0.071000,0.005000,-0.082000,-0.040000,-0.060000,2.470000,0.347578,Hold,0.915283,0.000000,ResetBack,-381.000000,-0.300000,Suck,-2115.000000,2181.818182,Speed,-2107.500000,2181.818182,Speed,On,Off0.000000,0,,,,
01:18:01.685 PM 03/19/2016,Teleop Enabled,11,FALSE,0,NO ERROR,-0.000000,0.019250,0.000000,0.019250,TRUE,FALSE,FALSE,FALSE,FALSE,FALSE,Disabled,0.000000,-0.000000,-82.420000,TRUE,-7.478027,-0.061630,0.000000,0.072586,-0.020844,0.000000,0.039000,-0.029000,-0.028000,-0.040000,-0.060000,2.540000,0.335877,Hold,0.915283,0.000000,ResetBack,-327.000000,-0.300000,Suck,-2122.500000,2181.818182,Speed,-2115.000000,2181.818182,Speed,On,Off0.000000,0,,,,
01:18:01.786 PM 03/19/2016,Teleop Enabled,10,FALSE,0,NO ERROR,-0.000000,0.019250,0.000000,0.019250,TRUE,FALSE,FALSE,FALSE,FALSE,FALSE,Disabled,0.000000,-0.000000,-82.420000,TRUE,-7.473862,-0.063583,0.000000,0.069839,-0.043289,0.000000,-0.001000,-0.041000,-0.001000,-0.040000,-0.080000,2.490000,0.341770,Hold,0.915283,0.000000,Reset,-307.000000,2.000000,Suck,-2122.500000,2181.818182,Speed,-2122.500000,2181.818182,Speed,On,Off0.000000,0,,,,
01:18:01.886 PM 03/19/2016,Teleop Enabled,10,FALSE,0,NO ERROR,-0.000000,0.019250,0.000000,0.019250,TRUE,FALSE,FALSE,FALSE,FALSE,FALSE,Disabled,0.000000,-0.000000,-82.420000,TRUE,-7.471222,-0.064560,0.000000,0.043686,-0.002487,0.000000,-0.027000,0.064000,0.106000,-0.040000,-0.030000,2.510000,0.351909,Hold,0.915283,0.000000,Hold,-172.000000,2.000000,Suck,-2122.500000,2181.818182,Speed,-2115.000000,2181.818182,Speed,On,Off0.000000,0,,,,
01:18:01.986 PM 03/19/2016,Teleop Enabled,10,FALSE,0,NO ERROR,-0.000000,0.019250,0.000000,0.019250,TRUE,FALSE,FALSE,FALSE,FALSE,FALSE,Disabled,0.000000,-0.000000,-82.420000,TRUE,-7.469254,-0.064117,0.000000,0.041702,0.015930,0.000000,-0.004000,0.106000,0.091000,-0.040000,-0.040000,2.490000,0.356780,Hold,0.915283,0.000000,Hold,-255.000000,2.000000,Suck,-2122.500000,2181.818182,Speed,-2115.000000,2181.818182,Speed,On,Off0.000000,0,,,,
01:18:02.086 PM 03/19/2016,Teleop Enabled,10,FALSE,0,NO ERROR,-0.000000,0.019250,0.000000,0.019250,TRUE,FALSE,FALSE,FALSE,FALSE,FALSE,Disabled,0.000000,-0.000000,-82.420000,TRUE,-7.467392,-0.061584,0.000000,0.000000,0.046555,0.000000,0.027000,-0.097000,-0.018000,-0.040000,0.010000,2.500000,0.357888,Hold,0.915283,0.000000,Hold,-255.000000,2.000000,Suck,-2122.500000,2181.818182,Speed,-2115.000000,2181.818182,Speed,On,Off0.000000,0,,,,
01:18:02.187 PM 03/19/2016,Teleop Enabled,10,FALSE,0,NO ERROR,-0.000000,0.019250,0.000000,0.019250,TRUE,FALSE,FALSE,FALSE,FALSE,FALSE,Disabled,0.000000,-0.000000,-82.420000,TRUE,-7.466858,-0.060608,0.000000,0.010544,0.029068,0.000000,0.063000,-0.010000,0.090000,-0.040000,0.000000,2.490000,0.358863,Hold,0.915283,0.000000,Hold,-255.000000,2.000000,Suck,-2122.500000,2181.818182,Speed,-2122.500000,2181.818182,Speed,On,Off0.000000,0,,,,
01:18:02.287 PM 03/19/2016,Teleop Enabled,11,FALSE,0,NO ERROR,-0.000000,0.019250,0.000000,0.019250,TRUE,FALSE,FALSE,FALSE,FALSE,FALSE,Disabled,0.000000,-0.000000,-82.420000,TRUE,-7.466812,-0.060471,0.000000,-0.007690,-0.008469,0.000000,-0.037000,0.028000,-0.076000,-0.040000,-0.070000,2.480000,0.362839,Hold,0.915283,0.000000,Hold,-255.000000,2.000000,Suck,-2130.000000,2181.818182,Speed,-2115.000000,2181.818182,Speed,On,Off0.000000,0,,,,
01:18:02.387 PM 03/19/2016,Teleop Enabled,11,FALSE,0,NO ERROR,-0.000000,0.019250,0.000000,0.019250,TRUE,FALSE,FALSE,FALSE,FALSE,FALSE,Disabled,0.000000,-0.000000,-82.420000,TRUE,-7.466400,-0.061081,0.000000,0.043579,-0.029144,0.000000,0.091000,-0.059000,-0.065000,-0.040000,-0.010000,2.490000,0.353496,Hold,0.915283,0.000000,Hold,-255.000000,2.000000,Suck,-2122.500000,2181.818182,Speed,-2122.500000,2181.818182,Speed,On,Off0.000000,0,,,,
01:18:02.487 PM 03/19/2016,Teleop Enabled,10,FALSE,0,NO ERROR,-0.000000,0.019250,0.000000,0.019250,TRUE,FALSE,FALSE,FALSE,FALSE,FALSE,Disabled,0.000000,-0.000000,-82.420000,TRUE,-7.463928,-0.064484,0.000000,0.010590,-0.071182,0.000000,0.091000,-0.059000,-0.065000,-0.040000,-0.010000,2.490000,0.360487,Hold,0.915283,0.000000,Hold,-255.000000,2.000000,Suck,-2130.000000,2181.818182,Speed,-2122.500000,2181.818182,Speed,On,Off0.000000,0,,,,
01:18:02.588 PM 03/19/2016,Teleop Enabled,9,FALSE,0,NO ERROR,-0.000000,0.019250,0.000000,0.019250,TRUE,FALSE,FALSE,FALSE,FALSE,FALSE,Disabled,0.000000,-0.000000,-82.420000,TRUE,-7.463974,-0.067871,0.000000,-0.006943,-0.080521,0.000000,-0.066000,-0.057000,-0.070000,-0.030000,-0.050000,2.410000,0.354422,Hold,0.915283,0.000000,Hold,-255.000000,2.000000,Suck,-2130.000000,2181.818182,Speed,-2115.000000,2181.818182,Speed,On,Off0.000000,0,,,,
01:18:02.689 PM 03/19/2016,Teleop Enabled,10,FALSE,0,NO ERROR,-0.472441,0.096250,0.472441,0.006417,TRUE,FALSE,FALSE,FALSE,FALSE,FALSE,Disabled,0.000000,-0.000000,-82.420000,TRUE,-7.464554,-0.069077,0.000000,-0.003983,0.010757,0.000000,0.025000,0.018000,0.143000,-0.030000,-0.090000,2.410000,0.370061,Hold,0.915283,0.000000,Hold,-255.000000,2.000000,Suck,-2130.000000,2181.818182,Speed,-2115.000000,2181.818182,Speed,On,Off0.000000,0,,,,
01:18:02.788 PM 03/19/2016,Teleop Enabled,10,FALSE,0,NO ERROR,-0.535433,1.058748,0.535433,-0.846998,TRUE,FALSE,FALSE,FALSE,FALSE,FALSE,Disabled,0.000000,-0.000000,-82.420000,TRUE,-7.464447,-0.063065,0.000000,0.133820,0.307159,0.000000,0.025000,0.018000,0.143000,0.120000,-0.180000,2.580000,1.451073,Hold,0.917236,0.000000,Hold,-255.000000,2.000000,Suck,-2130.000000,2181.818182,Speed,-2115.000000,2181.818182,Speed,On,Off0.000000,0,,,,
01:18:02.888 PM 03/19/2016,Teleop Enabled,10,FALSE,0,NO ERROR,-0.322835,3.811491,0.322835,-3.529158,FALSE,FALSE,FALSE,FALSE,FALSE,FALSE,Disabled,0.000000,-0.000000,-82.420000,TRUE,-7.448532,-0.048248,0.000000,0.367432,0.219360,0.000000,0.887000,0.590000,-0.174000,12.710000,1.210000,3.650000,12.282882,Hold,0.916748,0.000000,Hold,-255.000000,2.000000,Suck,-2115.000000,2181.818182,Speed,-2092.500000,2181.818182,Speed,On,Off0.000000,0,,,,
01:18:02.988 PM 03/19/2016,Teleop Enabled,11,FALSE,0,NO ERROR,0.236220,6.256235,-0.236220,-5.922569,FALSE,FALSE,FALSE,FALSE,FALSE,FALSE,Disabled,0.000000,-0.000000,-82.420000,TRUE,-7.428909,-0.047043,0.000000,0.336441,-0.068481,0.000000,0.128000,-0.078000,0.212000,25.730000,0.750000,3.930000,24.963948,Hold,0.916504,0.000000,Hold,-255.000000,2.000000,Suck,-2092.500000,2181.818182,Speed,-2077.500000,2181.818182,Speed,On,Off0.000000,0,,,,
01:18:03.088 PM 03/19/2016,Teleop Enabled,10,FALSE,0,NO ERROR,0.559055,6.159986,-0.559055,-5.672320,TRUE,FALSE,FALSE,FALSE,FALSE,FALSE,Disabled,0.000000,-0.000000,-82.420000,TRUE,-7.431702,-0.055649,0.000000,-0.236893,-0.205719,0.000000,-1.041000,-0.224000,-0.080000,27.090000,-0.930000,2.050000,26.695578,Hold,0.916504,0.000000,Hold,-255.000000,2.000000,Suck,-2115.000000,2181.818182,Speed,-2122.500000,2181.818182,Speed,On,Off0.000000,0,,,,
01:18:03.188 PM 03/19/2016,Teleop Enabled,11,FALSE,0,NO ERROR,0.559055,3.503492,-0.559055,-2.990160,TRUE,FALSE,FALSE,FALSE,FALSE,FALSE,Disabled,0.000000,-0.000000,-82.420000,TRUE,-7.449203,-0.069809,0.000000,-0.409958,-0.383957,0.000000,-0.321000,-0.127000,-0.066000,16.760000,-1.830000,0.630000,16.905074,Hold,0.916504,0.000000,Hold,-255.000000,2.000000,Suck,-2115.000000,2181.818182,Speed,-2115.000000,2181.818182,Speed,On,Off0.000000,0,,,,
01:18:03.288 PM 03/19/2016,Teleop Enabled,11,FALSE,0,NO ERROR,0.559055,-0.160416,-0.559055,0.500499,TRUE,FALSE,FALSE,FALSE,FALSE,FALSE,Disabled,0.000000,-0.000000,-82.420000,TRUE,-7.468536,-0.090591,0.000000,-0.346085,-0.418030,0.000000,-0.017000,-0.332000,0.103000,16.760000,-1.830000,0.630000,3.001229,Hold,0.916504,0.000000,Hold,-255.000000,2.000000,Suck,-2085.000000,2181.818182,Speed,-2077.500000,2181.818182,Speed,On,Off0.000000,0,,,,
01:18:03.388 PM 03/19/2016,Teleop Enabled,10,FALSE,0,NO ERROR,0.559055,-3.805074,-0.559055,4.164407,TRUE,FALSE,FALSE,FALSE,FALSE,FALSE,Disabled,0.000000,-0.000000,-82.420000,TRUE,-7.480743,-0.116470,0.000000,-0.176788,-0.539429,0.000000,0.097000,-0.185000,-0.038000,2.360000,-1.570000,0.930000,-11.761107,Hold,0.916504,0.000000,Hold,-255.000000,2.000000,Suck,-2100.000000,2181.818182,Speed,-2092.500000,2181.818182,Speed,On,Off0.000000,0,,,,
01:18:03.489 PM 03/19/2016,Teleop Enabled,8,FALSE,0,NO ERROR,0.566929,-7.494649,-0.566929,7.866815,TRUE,FALSE,FALSE,FALSE,FALSE,FALSE,Disabled,0.000000,-0.000000,-82.420000,TRUE,-7.480743,-0.116470,0.000000,-0.176788,-0.539429,0.000000,0.044000,0.316000,0.065000,-12.850000,-1.070000,0.270000,-26.505635,Hold,0.916504,0.000000,Hold,-255.000000,2.000000,Suck,-2122.500000,2181.818182,Speed,-2107.500000,2181.818182,Speed,On,Off0.000000,0,,,,
01:18:03.590 PM 03/19/2016,Teleop Enabled,9,FALSE,0,NO ERROR,0.566929,-11.325390,-0.566929,11.569223,TRUE,FALSE,FALSE,FALSE,FALSE,FALSE,Disabled,0.000000,-0.000000,-82.420000,TRUE,-7.480270,-0.162903,0.000000,0.170822,-0.549118,0.000000,0.499000,-0.256000,0.132000,-43.590000,-1.120000,0.320000,-41.626662,Hold,0.916504,0.000000,Hold,-255.000000,2.000000,Suck,-2107.500000,2181.818182,Speed,-2107.500000,2181.818182,Speed,On,Off0.000000,0,,,,
01:18:03.690 PM 03/19/2016,Teleop Enabled,9,FALSE,0,NO ERROR,0.590551,-15.226714,-0.590551,15.335797,TRUE,FALSE,FALSE,FALSE,FALSE,FALSE,Disabled,0.000000,-0.000000,-82.420000,TRUE,-7.470917,-0.190140,0.000000,0.220459,-0.441360,0.000000,-0.142000,0.269000,-0.104000,-43.590000,-1.120000,0.320000,-56.817573,Hold,0.916504,0.000000,Hold,-255.000000,2.000000,Suck,-2100.000000,2181.818182,Speed,-2100.000000,2181.818182,Speed,On,Off0.000000,0,,,,
01:18:03.790 PM 03/19/2016,Teleop Enabled,3,FALSE,0,NO ERROR,0.590551,-19.275622,-0.590551,19.262788,TRUE,FALSE,FALSE,FALSE,FALSE,FALSE,Disabled,0.000000,-0.000000,-82.420000,TRUE,-7.470917,-0.190140,0.000000,0.220459,-0.441360,0.000000,0.201000,-0.020000,0.145000,-75.470000,-1.310000,-0.400000,-72.563472,Hold,0.916504,0.000000,Hold,-255.000000,2.000000,Suck,-2107.500000,2181.818182,Speed,-2100.000000,2181.818182,Speed,On,Off0.000000,0,,,,
01:18:03.890 PM 03/19/2016,Teleop Enabled,8,FALSE,0,NO ERROR,0.362205,-23.279612,-0.362205,23.330945,TRUE,FALSE,FALSE,FALSE,FALSE,FALSE,Disabled,0.000000,-0.000000,-82.420000,TRUE,-7.434036,-0.227783,0.000000,0.462906,-0.261429,0.000000,-0.053000,0.079000,0.098000,-75.470000,-1.310000,-0.400000,-88.596605,Hold,0.916504,0.000000,Hold,-255.000000,2.000000,Suck,-2115.000000,2181.818182,Speed,-2100.000000,2181.818182,Speed,On,Off0.000000,0,,,,
01:18:03.991 PM 03/19/2016,Teleop Enabled,9,FALSE,0,NO ERROR,-0.000000,-26.032356,0.000000,25.788523,TRUE,FALSE,FALSE,FALSE,FALSE,FALSE,Disabled,0.000000,-0.000000,-82.420000,TRUE,-7.408920,-0.234726,0.000000,0.363327,-0.069656,0.000000,0.315000,0.241000,-0.017000,-91.950000,-1.330000,-0.240000,-103.181870,Hold,0.916504,0.000000,Hold,-255.000000,2.000000,Suck,-2115.000000,2181.818182,Speed,-2100.000000,2181.818182,Speed,On,Off0.000000,0,,,,
01:18:04.091 PM 03/19/2016,Teleop Enabled,10,FALSE,0,NO ERROR,-0.000000,-26.718938,0.000000,26.340355,TRUE,FALSE,FALSE,FALSE,FALSE,FALSE,Disabled,0.000000,-0.000000,-82.420000,TRUE,-7.405609,-0.229630,0.000000,-0.028290,0.206436,0.000000,-0.754000,0.278000,-0.048000,-107.030000,-0.590000,0.230000,-108.234185,Hold,0.916504,0.000000,Hold,-255.000000,2.000000,Suck,-2130.000000,2181.818182,Speed,-2115.000000,2181.818182,Speed,On,Off0.000000,0,,,,
01:18:04.191 PM 03/19/2016,Teleop Enabled,8,FALSE,0,NO ERROR,-0.000000,-26.693271,0.000000,26.256939,TRUE,FALSE,FALSE,FALSE,FALSE,FALSE,Disabled,0.000000,-0.000000,-82.420000,TRUE,-7.410324,-0.220627,0.000000,-0.107315,0.144028,0.000000,-0.172000,-0.077000,0.000000,-112.310000,0.500000,1.250000,-107.257511,Hold,0.916504,0.000000,Hold,-255.000000,2.000000,Suck,-2137.500000,2181.818182,Speed,-2115.000000,2181.818182,Speed,On,Off0.000000,0,,,,
01:18:04.291 PM 03/19/2016,Teleop Enabled,10,FALSE,0,NO ERROR,-0.000000,-26.693271,0.000000,26.276189,TRUE,FALSE,FALSE,FALSE,FALSE,FALSE,Disabled,0.000000,-0.000000,-82.420000,TRUE,-7.410324,-0.220627,0.000000,-0.107315,0.144028,0.000000,0.055000,-0.109000,0.159000,-111.400000,0.530000,1.670000,-107.433556,Hold,0.916504,0.000000,Hold,-255.000000,2.000000,Suck,-2122.500000,2181.818182,Speed,-2115.000000,2181.818182,Speed,On,Off0.000000,0,,,,
01:18:04.391 PM 03/19/2016,Teleop Enabled,10,FALSE,0,NO ERROR,-0.000000,-26.693271,0.000000,26.282605,TRUE,FALSE,FALSE,FALSE,FALSE,FALSE,Disabled,0.000000,-0.000000,-82.420000,TRUE,-7.421906,-0.215195,0.000000,-0.162079,0.034378,0.000000,-0.124000,-0.028000,0.115000,-111.410000,0.320000,1.520000,-107.385092,Hold,0.916504,0.000000,Hold,-255.000000,2.000000,Suck,-2122.500000,2181.818182,Speed,-2115.000000,2181.818182,Speed,On,Off0.000000,0,,,,
01:18:04.491 PM 03/19/2016,Teleop Enabled,11,FALSE,0,NO ERROR,-0.000000,-26.693271,0.000000,26.282605,TRUE,FALSE,FALSE,FALSE,FALSE,FALSE,Disabled,0.000000,-0.000000,-82.420000,TRUE,-7.430695,-0.214752,0.000000,-0.190384,-0.008926,0.000000,0.023000,-0.064000,0.084000,-111.430000,0.320000,1.630000,-107.422619,Hold,0.916504,0.000000,Hold,-255.000000,2.000000,Suck,-2130.000000,2181.818182,Speed,-2115.000000,2181.818182,Speed,On,Off0.000000,0,,,,
01:18:04.592 PM 03/19/2016,Teleop Enabled,11,FALSE,0,NO ERROR,-0.000000,-26.693271,0.000000,26.282605,TRUE,FALSE,FALSE,FALSE,FALSE,FALSE,Disabled,0.000000,-0.000000,-82.420000,TRUE,-7.438644,-0.214966,0.000000,-0.147919,-0.015320,0.000000,0.058000,0.067000,-0.012000,-111.420000,0.210000,1.730000,-107.409975,Hold,0.916504,0.000000,Hold,-255.000000,2.000000,Suck,-2130.000000,2181.818182,Speed,-2122.500000,2181.818182,Speed,On,Off0.000000,0,,,,
01:18:04.693 PM 03/19/2016,Teleop Enabled,10,FALSE,0,NO ERROR,-0.000000,-26.693271,0.000000,26.282605,TRUE,FALSE,FALSE,FALSE,FALSE,FALSE,Disabled,0.000000,-0.000000,-82.420000,TRUE,-7.445465,-0.216797,0.000000,-0.138184,-0.062668,0.000000,0.011000,-0.073000,0.060000,-111.420000,0.210000,1.730000,-107.400029,Hold,0.916504,0.000000,Hold,-255.000000,2.000000,Suck,-2130.000000,2181.818182,Speed,-2122.500000,2181.818182,Speed,On,Off0.000000,0,,,,
01:18:04.793 PM 03/19/2016,Teleop Enabled,10,FALSE,0,NO ERROR,-0.000000,-26.693271,0.000000,26.282605,TRUE,FALSE,FALSE,FALSE,FALSE,FALSE,Disabled,0.000000,-0.000000,-82.420000,TRUE,-7.445465,-0.216797,0.000000,-0.138184,-0.062668,0.000000,-0.033000,-0.034000,0.000000,-111.430000,0.170000,1.810000,-107.381536,Hold,0.916504,0.000000,Hold,-255.000000,2.000000,Suck,-2130.000000,2181.818182,Speed,-2115.000000,2181.818182,Speed,On,Off0.000000,0,,,,
01:18:04.893 PM 03/19/2016,Teleop Enabled,11,FALSE,0,NO ERROR,-0.000000,-26.693271,0.000000,26.282605,TRUE,FALSE,FALSE,FALSE,FALSE,FALSE,Disabled,0.000000,-0.000000,-82.420000,TRUE,-7.454376,-0.219940,0.000000,-0.161423,-0.033356,0.000000,0.033000,0.002000,-0.042000,-111.420000,0.190000,1.830000,-107.366488,Hold,0.916504,0.000000,Hold,-255.000000,2.000000,Suck,-2130.000000,2181.818182,Speed,-2115.000000,2181.818182,Speed,On,Off0.000000,0,,,,
01:18:04.993 PM 03/19/2016,Teleop Enabled,9,FALSE,0,NO ERROR,-0.000000,-26.693271,0.000000,26.282605,TRUE,FALSE,FALSE,FALSE,FALSE,FALSE,Disabled,0.000000,-0.000000,-82.420000,TRUE,-7.462204,-0.221527,0.000000,-0.167999,-0.043961,0.000000,-0.055000,-0.056000,0.087000,-111.420000,0.170000,1.850000,-107.343365,Hold,0.916504,0.000000,Hold,-253.000000,2.000000,Suck,-2130.000000,2181.818182,Speed,-2115.000000,2181.818182,Speed,On,Off0.000000,0,,,,
01:18:05.093 PM 03/19/2016,Teleop Enabled,10,FALSE,0,NO ERROR,-0.000000,-26.693271,0.000000,26.282605,TRUE,FALSE,FALSE,FALSE,FALSE,FALSE,Disabled,0.000000,-0.000000,-82.420000,TRUE,-7.472763,-0.225861,0.000000,-0.227753,-0.083023,0.000000,0.030000,0.103000,0.094000,-111.420000,0.160000,1.930000,-107.358398,Hold,0.916504,0.000000,Hold,-244.000000,2.000000,Suck,-2130.000000,2181.818182,Speed,-2122.500000,2181.818182,Speed,On,Off0.000000,0,,,,
01:18:05.193 PM 03/19/2016,Teleop Enabled,11,FALSE,0,NO ERROR,-0.000000,-26.693271,0.000000,26.282605,TRUE,FALSE,FALSE,FALSE,FALSE,FALSE,Disabled,0.000000,-0.000000,-82.420000,TRUE,-7.482285,-0.229340,0.000000,-0.257629,-0.108047,0.000000,-0.133000,-0.042000,0.163000,-111.420000,0.140000,2.010000,-107.361366,Hold,0.916504,0.000000,Hold,-243.000000,2.000000,Suck,-2130.000000,2181.818182,Speed,-2115.000000,2181.818182,Speed,On,Off0.000000,0,,,,
01:18:05.294 PM 03/19/2016,Teleop Enabled,10,FALSE,0,NO ERROR,-0.000000,-26.693271,0.000000,26.282605,TRUE,FALSE,FALSE,FALSE,FALSE,FALSE,Disabled,0.000000,-0.000000,-82.420000,TRUE,-7.500427,-0.235580,0.000000,-0.304901,0.000000,0.000000,-0.005000,0.001000,0.062000,-111.420000,0.120000,2.070000,-107.364967,Hold,0.916504,0.000000,Hold,-241.000000,2.000000,Suck,-2122.500000,2181.818182,Speed,-2122.500000,2181.818182,Speed,On,Off0.000000,0,,,,
01:18:05.394 PM 03/19/2016,Teleop Enabled,9,FALSE,0,NO ERROR,-0.000000,-26.693271,0.000000,26.282605,TRUE,FALSE,FALSE,FALSE,FALSE,FALSE,Disabled,0.000000,-0.000000,-82.420000,TRUE,-7.516144,-0.236435,0.000000,-0.314682,-0.014267,0.000000,0.005000,-0.015000,-0.053000,-111.420000,0.030000,2.180000,-107.364967,Hold,0.916504,0.000000,Hold,-241.000000,2.000000,Suck,-2130.000000,2181.818182,Speed,-2122.500000,2181.818182,Speed,On,Off0.000000,0,,,,
01:18:05.497 PM 03/19/2016,Teleop Enabled,10,FALSE,0,NO ERROR,-0.000000,-26.693271,0.000000,26.282605,TRUE,FALSE,FALSE,FALSE,FALSE,FALSE,Disabled,0.000000,-0.000000,-82.420000,TRUE,-7.532120,-0.237350,0.000000,-0.318375,-0.020416,0.000000,0.024000,0.084000,-0.033000,-111.420000,0.010000,2.270000,-107.366333,Hold,0.916504,0.000000,Hold,-241.000000,2.000000,Suck,-2130.000000,2181.818182,Speed,-2122.500000,2181.818182,Speed,On,Off0.000000,0,,,,
01:18:05.595 PM 03/19/2016,Teleop Enabled,9,FALSE,0,NO ERROR,-0.000000,-26.693271,0.000000,26.282605,TRUE,FALSE,FALSE,FALSE,FALSE,FALSE,Disabled,0.000000,-0.000000,-82.420000,TRUE,-7.547455,-0.237122,0.000000,-0.313156,0.007675,0.000000,-0.032000,0.042000,0.015000,-111.420000,-0.070000,2.310000,-107.380668,Hold,0.916504,0.000000,Hold,-241.000000,2.000000,Suck,-2137.500000,2181.818182,Speed,-2122.500000,2181.818182,Speed,On,Off0.000000,0,,,,
01:18:05.698 PM 03/19/2016,Teleop Enabled,10,FALSE,0,NO ERROR,-0.000000,-26.693271,0.000000,26.282605,TRUE,FALSE,FALSE,FALSE,FALSE,FALSE,Disabled,0.000000,-0.000000,-82.420000,TRUE,-7.563019,-0.235764,0.000000,-0.298767,0.032364,0.000000,-0.027000,-0.048000,0.036000,-111.420000,-0.110000,2.340000,-107.375924,Hold,0.916504,0.000000,Hold,-240.000000,2.000000,Suck,-2130.000000,2181.818182,Speed,-2115.000000,2181.818182,Speed,On,Off0.000000,0,,,,
01:18:05.798 PM 03/19/2016,Teleop Enabled,11,FALSE,0,NO ERROR,-0.000000,-26.693271,0.000000,26.282605,TRUE,FALSE,FALSE,FALSE,FALSE,FALSE,Disabled,0.000000,-0.000000,-82.420000,TRUE,-7.578079,-0.235687,0.000000,-0.306610,-0.001373,0.000000,0.003000,0.081000,0.020000,-111.420000,-0.130000,2.340000,-107.366536,Hold,0.916504,0.000000,Hold,-240.000000,2.000000,Suck,-2130.000000,2181.818182,Speed,-2122.500000,2181.818182,Speed,On,Off0.000000,0,,,,
01:18:05.898 PM 03/19/2016,Teleop Enabled,11,FALSE,0,NO ERROR,-0.000000,-26.693271,0.000000,26.282605,TRUE,FALSE,FALSE,FALSE,FALSE,FALSE,Disabled,0.000000,-0.000000,-82.420000,TRUE,-7.595627,-0.236023,0.000000,-0.381912,-0.021652,0.000000,-0.069000,0.070000,0.057000,-111.420000,-0.150000,2.390000,-107.366085,Hold,0.916504,0.000000,Hold,-240.000000,2.000000,Suck,-2130.000000,2181.818182,Speed,-2122.500000,2181.818182,Speed,On,Off0.000000,0,,,,
01:18:05.999 PM 03/19/2016,Teleop Enabled,11,FALSE,0,NO ERROR,-0.000000,-26.693271,0.000000,26.282605,TRUE,FALSE,FALSE,FALSE,FALSE,FALSE,Disabled,0.000000,-0.000000,-82.420000,TRUE,-7.615463,-0.236679,0.000000,-0.405289,-0.025925,0.000000,-0.051000,-0.048000,0.184000,-111.420000,-0.200000,2.320000,-107.374819,Hold,0.916504,0.000000,Hold,-240.000000,2.000000,Suck,-2130.000000,2181.818182,Speed,-2122.500000,2181.818182,Speed,On,Off0.000000,0,,,,
01:18:06.099 PM 03/19/2016,Teleop Enabled,11,FALSE,0,NO ERROR,-0.000000,-26.693271,0.000000,26.282605,TRUE,FALSE,FALSE,FALSE,FALSE,FALSE,Disabled,0.000000,-0.000000,-82.420000,TRUE,-7.628021,-0.238785,0.000000,-0.003433,-0.045441,0.000000,-0.023000,-0.088000,0.049000,-111.420000,-0.210000,2.360000,-107.378393,Hold,0.916504,0.000000,Hold,-239.000000,2.000000,Suck,-2130.000000,2181.818182,Speed,-2122.500000,2181.818182,Speed,On,Off0.000000,0,,,,
01:18:06.199 PM 03/19/2016,Teleop Enabled,11,FALSE,0,NO ERROR,-0.000000,-26.693271,0.000000,26.282605,TRUE,FALSE,FALSE,FALSE,FALSE,FALSE,Disabled,0.000000,-0.000000,-82.420000,TRUE,-7.628174,-0.241074,0.000000,0.003265,-0.044067,0.000000,-0.010000,-0.040000,0.018000,-111.420000,-0.200000,2.410000,-107.370096,Hold,0.916504,0.000000,Hold,-239.000000,2.000000,Suck,-2130.000000,2181.818182,Speed,-2122.500000,2181.818182,Speed,On,Off0.000000,0,,,,
01:18:06.299 PM 03/19/2016,Teleop Enabled,11,FALSE,0,NO ERROR,-0.000000,-26.693271,0.000000,26.282605,TRUE,FALSE,FALSE,FALSE,FALSE,FALSE,Disabled,0.000000,-0.000000,-82.420000,TRUE,-7.628143,-0.243179,0.000000,-0.005264,-0.029877,0.000000,-0.043000,0.068000,-0.012000,-111.420000,-0.260000,2.420000,-107.366647,Hold,0.916504,0.000000,Hold,-239.000000,2.000000,Suck,-2137.500000,2181.818182,Speed,-2122.500000,2181.818182,Speed,On,Off0.000000,0,,,,
01:18:06.399 PM 03/19/2016,Teleop Enabled,11,FALSE,0,NO ERROR,-0.000000,-26.693271,0.000000,26.282605,TRUE,FALSE,FALSE,FALSE,FALSE,FALSE,Disabled,0.000000,-0.000000,-82.420000,TRUE,-7.628387,-0.242493,0.000000,0.004608,0.032227,0.000000,0.059000,0.018000,-0.079000,-111.420000,-0.180000,2.490000,-107.366030,Hold,0.916504,0.000000,Hold,-239.000000,2.000000,Suck,-2130.000000,2181.818182,Speed,-2122.500000,2181.818182,Speed,On,Off0.000000,0,,,,
01:18:06.500 PM 03/19/2016,Teleop Enabled,11,FALSE,0,NO ERROR,-0.000000,-26.693271,0.000000,26.282605,TRUE,FALSE,FALSE,FALSE,FALSE,FALSE,Disabled,0.000000,-0.000000,-82.420000,TRUE,-7.627319,-0.241608,0.000000,0.025742,0.011398,0.000000,0.018000,-0.107000,-0.017000,-111.420000,-0.210000,2.440000,-107.351651,Hold,0.916504,0.000000,Hold,-239.000000,2.000000,Suck,-2130.000000,2181.818182,Speed,-2130.000000,2181.818182,Speed,On,Off0.000000,0,,,,
01:18:06.600 PM 03/19/2016,Teleop Enabled,10,FALSE,0,NO ERROR,-0.000000,-26.693271,0.000000,26.282605,TRUE,FALSE,FALSE,FALSE,FALSE,FALSE,Disabled,0.000000,-0.000000,-82.420000,TRUE,-7.627350,-0.244797,0.000000,-0.013870,-0.052155,0.000000,-0.013000,0.003000,0.073000,-111.420000,-0.160000,2.540000,-107.372499,Hold,0.916504,0.000000,Hold,-239.000000,2.000000,Suck,-2130.000000,2181.818182,Speed,-2122.500000,2181.818182,Speed,On,Off0.000000,0,,,,
01:18:06.701 PM 03/19/2016,Teleop Enabled,10,FALSE,0,NO ERROR,-0.000000,-26.693271,0.000000,26.282605,TRUE,FALSE,FALSE,FALSE,FALSE,FALSE,Disabled,0.000000,-0.000000,-82.420000,TRUE,-7.628494,-0.245392,0.000000,-0.036041,-0.006836,0.000000,-0.066000,0.014000,0.123000,-111.420000,-0.210000,2.460000,-107.374124,Hold,0.916504,0.000000,Hold,-239.000000,2.000000,Suck,-2137.500000,2181.818182,Speed,-2122.500000,2181.818182,Speed,On,Off0.000000,0,,,,
01:18:06.802 PM 03/19/2016,Teleop Enabled,11,FALSE,0,NO ERROR,-0.000000,-26.693271,0.000000,26.282605,TRUE,FALSE,FALSE,FALSE,FALSE,FALSE,Disabled,0.000000,-0.000000,-82.420000,TRUE,-7.632309,-0.245514,0.000000,-0.103043,0.000000,0.000000,-0.030000,0.001000,0.044000,-111.430000,-0.150000,2.570000,-107.373776,Hold,0.916504,0.000000,Hold,-239.000000,2.000000,Suck,-2130.000000,2181.818182,Speed,-2130.000000,2181.818182,Speed,On,Off0.000000,0,,,,
01:18:06.902 PM 03/19/2016,Teleop Enabled,12,FALSE,0,NO ERROR,-0.000000,-26.693271,0.000000,26.282605,TRUE,FALSE,FALSE,FALSE,FALSE,FALSE,Disabled,0.000000,-0.000000,-82.420000,TRUE,-7.637955,-0.245956,0.000000,-0.074341,-0.013870,0.000000,-0.003000,-0.092000,0.064000,-111.430000,-0.180000,2.490000,-107.381704,Hold,0.916504,0.000000,Hold,-239.000000,2.000000,Suck,-2130.000000,2181.818182,Speed,-2130.000000,2181.818182,Speed,On,Off0.000000,0,,,,
01:18:07.003 PM 03/19/2016,Teleop Enabled,11,FALSE,0,NO ERROR,-0.000000,-26.693271,0.000000,26.282605,TRUE,FALSE,FALSE,FALSE,FALSE,FALSE,Disabled,0.000000,-0.000000,-82.420000,TRUE,-7.641281,-0.246826,0.000000,-0.087006,-0.020798,0.000000,-0.017000,0.020000,0.090000,-111.430000,-0.180000,2.580000,-107.384052,Hold,0.916504,0.000000,Hold,-239.000000,2.000000,Suck,-2130.000000,2181.818182,Speed,-2145.000000,2181.818182,Speed,On,Off0.000000,0,,,,
01:18:07.103 PM 03/19/2016,Teleop Enabled,9,FALSE,0,NO ERROR,-0.000000,-26.693271,0.000000,26.282605,TRUE,FALSE,FALSE,FALSE,FALSE,FALSE,Disabled,0.000000,-0.000000,-82.420000,TRUE,-7.640900,-0.247696,0.000000,0.013077,-0.019470,0.000000,0.012000,0.061000,0.019000,-111.430000,-0.180000,2.510000,-107.377518,Hold,0.916504,0.000000,Hold,-239.000000,2.000000,Suck,-2137.500000,2181.818182,Speed,-2137.500000,2181.818182,Speed,On,Off0.000000,0,,,,
01:18:07.203 PM 03/19/2016,Teleop Enabled,9,FALSE,0,NO ERROR,-0.000000,-26.693271,0.000000,26.282605,TRUE,FALSE,FALSE,FALSE,FALSE,FALSE,Disabled,0.000000,-0.000000,-82.420000,TRUE,-7.639435,-0.246552,0.000000,0.028397,0.044006,0.000000,-0.002000,0.051000,0.006000,-111.430000,-0.200000,2.480000,-107.365084,Hold,0.916504,0.000000,Hold,-239.000000,2.000000,Suck,-2137.500000,2181.818182,Speed,-2137.500000,2181.818182,Speed,On,Off0.000000,0,,,,
01:18:07.304 PM 03/19/2016,Teleop Enabled,10,FALSE,0,NO ERROR,-0.000000,-26.693271,0.000000,26.282605,TRUE,FALSE,FALSE,FALSE,FALSE,FALSE,Disabled,0.000000,-0.000000,-82.420000,TRUE,-7.637970,-0.242554,0.000000,0.050873,0.118652,0.000000,0.104000,0.130000,-0.070000,-111.430000,-0.110000,2.540000,-107.353469,Hold,0.916504,0.000000,Hold,-238.000000,2.000000,Suck,-2130.000000,2181.818182,Speed,-2145.000000,2181.818182,Speed,On,Off0.000000,0,,,,
01:18:07.406 PM 03/19/2016,Teleop Enabled,10,FALSE,0,NO ERROR,-0.000000,-26.693271,0.000000,26.282605,TRUE,FALSE,FALSE,FALSE,FALSE,FALSE,Disabled,0.000000,-0.000000,-82.420000,TRUE,-7.634171,-0.235641,0.000000,0.083298,0.128357,0.000000,-0.040000,-0.111000,0.006000,-111.430000,-0.120000,2.450000,-107.337753,Hold,0.916504,0.000000,Hold,-238.000000,2.000000,Suck,-2137.500000,2181.818182,Speed,-2145.000000,2181.818182,Speed,On,Off0.000000,0,,,,
01:18:07.507 PM 03/19/2016,Teleop Enabled,10,FALSE,0,NO ERROR,-0.000000,-26.693271,0.000000,26.282605,TRUE,FALSE,FALSE,FALSE,FALSE,FALSE,Disabled,0.000000,-0.000000,-82.420000,TRUE,-7.633362,-0.231781,0.000000,0.002502,0.076157,0.000000,0.021000,-0.019000,-0.001000,-111.430000,-0.140000,2.540000,-107.338042,Hold,0.916504,0.000000,Hold,-238.000000,2.000000,Suck,-2137.500000,2181.818182,Speed,-2137.500000,2181.818182,Speed,On,Off0.000000,0,,,,
01:18:07.607 PM 03/19/2016,Teleop Enabled,8,FALSE,0,NO ERROR,-0.000000,-26.693271,0.000000,26.282605,TRUE,FALSE,FALSE,FALSE,FALSE,FALSE,Disabled,0.000000,-0.000000,-82.420000,TRUE,-7.632751,-0.231842,0.000000,-0.010849,-0.002777,0.000000,-0.016000,0.038000,0.089000,-111.430000,-0.140000,2.490000,-107.339364,Hold,0.916504,0.000000,Hold,-238.000000,2.000000,Suck,-2130.000000,2181.818182,Speed,-2137.500000,2181.818182,Speed,On,Off0.000000,0,,,,
01:18:07.707 PM 03/19/2016,Teleop Enabled,10,FALSE,0,NO ERROR,-0.000000,-26.693271,0.000000,26.282605,TRUE,FALSE,FALSE,FALSE,FALSE,FALSE,Disabled,0.000000,-0.000000,-82.420000,TRUE,-7.633026,-0.231735,0.000000,-0.020233,-0.000107,0.000000,-0.058000,-0.030000,0.077000,-111.430000,-0.200000,2.480000,-107.329319,Hold,0.916504,0.000000,Hold,-238.000000,2.000000,Suck,-2130.000000,2181.818182,Speed,-2145.000000,2181.818182,Speed,On,Off0.000000,0,,,,
01:18:07.807 PM 03/19/2016,Teleop Enabled,9,FALSE,0,NO ERROR,-0.000000,-26.693271,0.000000,26.282605,TRUE,FALSE,FALSE,FALSE,FALSE,FALSE,Disabled,0.000000,-0.000000,-82.420000,TRUE,-7.635208,-0.232391,0.000000,-0.044556,-0.012405,0.000000,-0.018000,-0.005000,0.079000,-111.430000,-0.180000,2.390000,-107.338111,Hold,0.916504,0.000000,Hold,-238.000000,2.000000,Suck,-2137.500000,2181.818182,Speed,-2137.500000,2181.818182,Speed,On,Off0.000000,0,,,,
01:18:07.908 PM 03/19/2016,Teleop Enabled,9,FALSE,0,NO ERROR,-0.000000,-26.693271,0.000000,26.282605,TRUE,FALSE,FALSE,FALSE,FALSE,FALSE,Disabled,0.000000,-0.000000,-82.420000,TRUE,-7.638504,-0.232834,0.000000,-0.051285,-0.012482,0.000000,0.060000,-0.010000,-0.064000,-111.430000,-0.190000,2.420000,-107.341034,Hold,0.916504,0.000000,Hold,-238.000000,2.000000,Suck,-2130.000000,2181.818182,Speed,-2137.500000,2181.818182,Speed,On,Off0.000000,0,,,,
01:18:08.008 PM 03/19/2016,Teleop Enabled,8,FALSE,0,NO ERROR,-0.000000,-26.693271,0.000000,26.282605,TRUE,FALSE,FALSE,FALSE,FALSE,FALSE,Disabled,0.000000,-0.000000,-82.420000,TRUE,-7.639343,-0.233810,0.000000,0.005447,-0.026260,0.000000,0.039000,0.035000,0.102000,-111.430000,-0.230000,2.380000,-107.325181,Hold,0.916504,0.000000,Hold,-238.000000,2.000000,Suck,-2130.000000,2181.818182,Speed,-2137.500000,2181.818182,Speed,On,Off0.000000,0,,,,
01:18:08.108 PM 03/19/2016,Teleop Enabled,11,FALSE,0,NO ERROR,-0.000000,-26.693271,0.000000,26.282605,TRUE,FALSE,FALSE,FALSE,FALSE,FALSE,Disabled,0.000000,-0.000000,-82.420000,TRUE,-7.638351,-0.234070,0.000000,0.000000,0.011673,0.000000,-0.001000,0.061000,0.049000,-111.430000,-0.160000,2.370000,-107.319325,Hold,0.916504,0.000000,Hold,-238.000000,2.000000,Suck,-2137.500000,2181.818182,Speed,-2130.000000,2181.818182,Speed,On,Off0.000000,0,,,,
01:18:08.208 PM 03/19/2016,Teleop Enabled,9,FALSE,0,NO ERROR,-0.000000,-26.693271,0.000000,26.282605,TRUE,FALSE,FALSE,FALSE,FALSE,FALSE,Disabled,0.000000,-0.000000,-82.420000,TRUE,-7.638519,-0.232895,0.000000,0.012665,0.039505,0.000000,0.057000,0.029000,-0.042000,-111.430000,-0.170000,2.410000,-107.315401,Hold,0.916504,0.000000,Hold,-238.000000,2.000000,Suck,-2137.500000,2181.818182,Speed,-2130.000000,2181.818182,Speed,On,Off0.000000,0,,,,
01:18:08.309 PM 03/19/2016,Teleop Enabled,11,FALSE,0,NO ERROR,-0.000000,-26.693271,0.000000,26.282605,TRUE,FALSE,FALSE,FALSE,FALSE,FALSE,Disabled,0.000000,-0.000000,-82.420000,TRUE,-7.637772,-0.228668,0.000000,0.010727,0.096222,0.000000,0.003000,0.060000,-0.044000,-111.430000,-0.130000,2.420000,-107.306970,Hold,0.916504,0.000000,Hold,-238.000000,2.000000,Suck,-2130.000000,2181.818182,Speed,-2130.000000,2181.818182,Speed,On,Off0.000000,0,,,,
01:18:08.409 PM 03/19/2016,Teleop Enabled,11,FALSE,0,NO ERROR,-0.000000,-26.693271,0.000000,26.282605,TRUE,FALSE,FALSE,FALSE,FALSE,FALSE,Disabled,0.000000,-0.000000,-82.420000,TRUE,-7.637070,-0.224609,0.000000,0.009460,0.061462,0.000000,0.068000,-0.085000,-0.033000,-111.430000,-0.180000,2.510000,-107.301875,Hold,0.916504,0.000000,Hold,-238.000000,2.000000,Suck,-2130.000000,2181.818182,Speed,-2130.000000,2181.818182,Speed,On,Off0.000000,0,,,,
01:18:08.509 PM 03/19/2016,Teleop Enabled,9,FALSE,0,NO ERROR,-0.000000,-26.693271,0.000000,26.282605,TRUE,FALSE,FALSE,FALSE,FALSE,FALSE,Disabled,0.000000,-0.000000,-82.420000,TRUE,-7.635437,-0.223145,0.000000,0.040436,0.008820,0.000000,-0.022000,0.085000,0.058000,-111.430000,-0.230000,2.450000,-107.297730,Hold,0.916504,0.000000,Hold,-238.000000,2.000000,Suck,-2137.500000,2181.818182,Speed,-2130.000000,2181.818182,Speed,On,Off0.000000,0,,,,
01:18:08.609 PM 03/19/2016,Teleop Enabled,9,FALSE,0,NO ERROR,-0.000000,-26.693271,0.000000,26.282605,TRUE,FALSE,FALSE,FALSE,FALSE,FALSE,Disabled,0.000000,-0.000000,-82.420000,TRUE,-7.634384,-0.222794,0.000000,0.001495,0.000000,0.000000,-0.084000,-0.063000,0.021000,-111.430000,-0.230000,2.490000,-107.292360,Hold,0.916504,0.000000,Hold,-237.000000,2.000000,Suck,-2137.500000,2181.818182,Speed,-2130.000000,2181.818182,Speed,On,Off0.000000,0,,,,
01:18:08.709 PM 03/19/2016,Teleop Enabled,10,FALSE,0,NO ERROR,-0.000000,-26.693271,0.000000,26.282605,TRUE,FALSE,FALSE,FALSE,FALSE,FALSE,Disabled,0.000000,-0.000000,-82.420000,TRUE,-7.635193,-0.223236,0.000000,-0.002792,-0.001114,0.000000,-0.015000,0.037000,0.092000,-111.430000,-0.230000,2.490000,-107.300240,Hold,0.916504,0.000000,Hold,-237.000000,2.000000,Suck,-2130.000000,2181.818182,Speed,-2130.000000,2181.818182,Speed,On,Off0.000000,0,,,,
01:18:08.810 PM 03/19/2016,Teleop Enabled,10,FALSE,0,NO ERROR,-0.000000,-26.693271,0.000000,26.282605,TRUE,FALSE,FALSE,FALSE,FALSE,FALSE,Disabled,0.000000,-0.000000,-82.420000,TRUE,-7.636108,-0.223602,0.000000,0.000000,-0.028259,0.000000,0.056000,0.033000,-0.020000,-111.440000,-0.200000,2.540000,-107.303875,Hold,0.916504,0.000000,Hold,-237.000000,2.000000,Suck,-2137.500000,2181.818182,Speed,-2130.000000,2181.818182,Speed,On,Off0.000000,0,,,,
01:18:08.910 PM 03/19/2016,Teleop Enabled,11,FALSE,0,NO ERROR,-0.000000,-26.693271,0.000000,26.282605,TRUE,FALSE,FALSE,FALSE,FALSE,FALSE,Disabled,0.000000,-0.000000,-82.420000,TRUE,-7.635101,-0.224701,0.000000,0.026520,-0.024689,0.000000,0.043000,0.009000,0.114000,-111.440000,-0.200000,2.550000,-107.293169,Hold,0.916504,0.000000,Hold,-237.000000,2.000000,Suck,-2137.500000,2181.818182,Speed,-2130.000000,2181.818182,Speed,On,Off0.000000,0,,,,
01:18:09.010 PM 03/19/2016,Teleop Enabled,9,FALSE,0,NO ERROR,-0.000000,-26.693271,0.000000,26.282605,TRUE,FALSE,FALSE,FALSE,FALSE,FALSE,Disabled,0.000000,-0.000000,-82.420000,TRUE,-7.632935,-0.225098,0.000000,0.038910,0.007095,0.000000,-0.045000,-0.045000,-0.049000,-111.440000,-0.150000,2.520000,-107.293262,Hold,0.916504,0.000000,Hold,-237.000000,2.000000,Suck,-2130.000000,2181.818182,Speed,-2130.000000,2181.818182,Speed,On,Off0.000000,0,,,,
01:18:09.110 PM 03/19/2016,Teleop Enabled,8,FALSE,0,NO ERROR,-0.000000,-26.693271,0.000000,26.282605,TRUE,FALSE,FALSE,FALSE,FALSE,FALSE,Disabled,0.000000,-0.000000,-82.420000,TRUE,-7.632370,-0.225037,0.000000,0.000000,0.010834,0.000000,-0.013000,0.071000,0.031000,-111.440000,-0.170000,2.590000,-107.289991,Hold,0.916504,0.000000,Hold,-237.000000,2.000000,Suck,-2137.500000,2181.818182,Speed,-2130.000000,2181.818182,Speed,On,Off0.000000,0,,,,
01:18:09.210 PM 03/19/2016,Teleop Enabled,8,FALSE,0,NO ERROR,-0.000000,-26.693271,0.000000,26.282605,TRUE,FALSE,FALSE,FALSE,FALSE,FALSE,Disabled,0.000000,-0.000000,-82.420000,TRUE,-7.632126,-0.222580,0.000000,0.018143,0.065033,0.000000,0.048000,0.083000,-0.077000,-111.440000,-0.130000,2.610000,-107.286187,Hold,0.916504,0.000000,Hold,-237.000000,2.000000,Suck,-2137.500000,2181.818182,Speed,-2130.000000,2181.818182,Speed,On,Off0.000000,0,,,,
01:18:09.311 PM 03/19/2016,Teleop Enabled,10,FALSE,0,NO ERROR,-0.000000,-26.693271,0.000000,26.282605,TRUE,FALSE,FALSE,FALSE,FALSE,FALSE,Disabled,0.000000,-0.000000,-82.420000,TRUE,-7.631149,-0.220123,0.000000,0.012222,0.017899,0.000000,-0.016000,-0.185000,0.028000,-111.450000,-0.190000,2.620000,-107.289075,Hold,0.916504,0.000000,Hold,-237.000000,2.000000,Suck,-2130.000000,2181.818182,Speed,-2130.000000,2181.818182,Speed,On,Off0.000000,0,,,,
01:18:09.411 PM 03/19/2016,Teleop Enabled,10,FALSE,0,NO ERROR,-0.000000,-26.693271,0.000000,26.282605,TRUE,FALSE,FALSE,FALSE,FALSE,FALSE,Disabled,0.000000,-0.000000,-82.420000,TRUE,-7.630661,-0.220581,0.000000,0.002640,-0.020767,0.000000,-0.056000,-0.029000,0.128000,-111.450000,-0.160000,2.600000,-107.296425,Hold,0.916504,0.000000,Hold,-237.000000,2.000000,Suck,-2137.500000,2181.818182,Speed,-2130.000000,2181.818182,Speed,On,Off0.000000,0,,,,
01:18:09.511 PM 03/19/2016,Teleop Enabled,10,FALSE,0,NO ERROR,-0.000000,-26.693271,0.000000,26.282605,TRUE,FALSE,FALSE,FALSE,FALSE,FALSE,Disabled,0.000000,-0.000000,-82.420000,TRUE,-7.631607,-0.221756,0.000000,-0.029160,-0.014359,0.000000,-0.048000,0.008000,0.061000,-111.440000,-0.210000,2.560000,-107.299107,Hold,0.916504,0.000000,Hold,-237.000000,2.000000,Suck,-2137.500000,2181.818182,Speed,-2130.000000,2181.818182,Speed,On,Off0.000000,0,,,,
01:18:09.611 PM 03/19/2016,Teleop Enabled,10,FALSE,0,NO ERROR,-0.000000,-26.693271,0.000000,26.282605,TRUE,FALSE,FALSE,FALSE,FALSE,FALSE,Disabled,0.000000,-0.000000,-82.420000,TRUE,-7.634872,-0.222595,0.000000,-0.094498,-0.020844,0.000000,-0.032000,-0.026000,0.028000,-111.450000,-0.170000,2.580000,-107.287833,Hold,0.916504,208896.000000,Hold,-237.000000,143360.000000,Suck,-2130.000000,2181.818182,Speed,-2137.500000,2181.818182,Speed,On,Off0.000000,0,,,,
01:18:09.712 PM 03/19/2016,Teleop Enabled,11,FALSE,0,NO ERROR,-0.000000,-26.693271,0.000000,26.282605,TRUE,FALSE,FALSE,FALSE,FALSE,FALSE,Disabled,0.000000,-0.000000,-82.420000,TRUE,-7.639221,-0.223709,0.000000,-0.112778,-0.034592,0.000000,-0.043000,-0.025000,0.038000,-111.440000,-0.180000,2.520000,-107.294284,Hold,4.403809,208896.000000,Hold,-902.000000,143360.000000,Suck,-2137.500000,2181.818182,Speed,-2137.500000,2181.818182,Speed,On,Off0.000000,0,,,,
01:18:09.812 PM 03/19/2016,Teleop Enabled,10,FALSE,0,NO ERROR,-0.000000,-26.648354,0.000000,26.327522,TRUE,FALSE,FALSE,FALSE,FALSE,FALSE,Disabled,0.000000,-0.000000,-82.420000,TRUE,-7.642883,-0.226212,0.000000,-0.047623,-0.031387,0.000000,-0.040000,0.109000,0.179000,-111.420000,-0.230000,2.590000,-107.251163,Hold,7.744385,208896.000000,Hold,-15102.000000,143360.000000,Suck,-2130.000000,2181.818182,Speed,-2137.500000,2181.818182,Speed,On,Off0.000000,0,,,,
01:18:09.912 PM 03/19/2016,Teleop Enabled,10,FALSE,0,NO ERROR,-0.000000,-26.641938,0.000000,26.346772,TRUE,FALSE,FALSE,FALSE,FALSE,FALSE,Disabled,0.000000,-0.000000,-82.420000,TRUE,-7.644211,-0.224472,0.000000,0.012650,0.043793,0.000000,0.053000,-0.059000,0.080000,-111.430000,-0.120000,2.570000,-107.270999,Hold,13.366211,208896.000000,Hold,-28299.000000,143360.000000,Suck,-2122.500000,2181.818182,Speed,-2137.500000,2181.818182,Speed,On,Off0.000000,0,,,,
01:18:10.013 PM 03/19/2016,Teleop Enabled,7,FALSE,0,NO ERROR,-0.000000,-26.609854,0.000000,26.404522,TRUE,FALSE,FALSE,FALSE,FALSE,FALSE,Disabled,0.000000,-0.000000,-82.420000,TRUE,-7.642624,-0.223465,0.000000,0.047455,0.025330,0.000000,-0.067000,0.037000,0.104000,-111.400000,-0.190000,2.570000,-107.237761,Hold,19.856689,208896.000000,Hold,-39300.000000,143360.000000,Suck,-2130.000000,2181.818182,Speed,-2137.500000,2181.818182,Speed,On,Off0.000000,0,,,,
01:18:10.113 PM 03/19/2016,Teleop Enabled,11,FALSE,0,NO ERROR,-0.000000,-26.609854,0.000000,26.404522,TRUE,FALSE,FALSE,FALSE,FALSE,FALSE,Disabled,0.000000,-0.000000,-82.420000,TRUE,-7.641113,-0.222702,0.000000,0.012772,-0.010254,0.000000,-0.019000,0.009000,0.196000,-111.430000,-0.200000,2.560000,-107.246914,Hold,27.403809,208896.000000,Hold,-51930.000000,143360.000000,Suck,-2137.500000,2181.818182,Speed,-2145.000000,2181.818182,Speed,On,Off0.000000,0,,,,
01:18:10.214 PM 03/19/2016,Teleop Enabled,10,FALSE,0,NO ERROR,-0.000000,-26.609854,0.000000,26.404522,TRUE,FALSE,FALSE,FALSE,FALSE,FALSE,Disabled,0.000000,-0.000000,-82.420000,TRUE,-7.641922,-0.223572,0.000000,-0.050003,-0.031158,0.000000,-0.144000,-0.089000,-0.018000,-111.450000,-0.180000,2.620000,-107.252839,Hold,35.905762,208896.000000,Hold,-51930.000000,143360.000000,Suck,-2130.000000,2181.818182,Speed,-2145.000000,2181.818182,Speed,On,Off0.000000,0,,,,
01:18:10.315 PM 03/19/2016,Teleop Enabled,8,FALSE,0,NO ERROR,-0.000000,-26.654771,0.000000,26.321105,TRUE,FALSE,FALSE,FALSE,FALSE,FALSE,Disabled,0.000000,-0.000000,-82.420000,TRUE,-7.647781,-0.226013,0.000000,-0.139069,-0.054031,0.000000,0.033000,-0.109000,-0.203000,-111.470000,-0.490000,2.590000,-107.267918,Hold,46.497803,208896.000000,Hold,-65056.000000,143360.000000,Suck,-2130.000000,2181.818182,Speed,-2152.500000,2181.818182,Speed,On,Off0.000000,0,,,,
01:18:10.416 PM 03/19/2016,Teleop Enabled,9,FALSE,0,NO ERROR,-0.000000,-26.783104,0.000000,26.218439,TRUE,FALSE,FALSE,FALSE,FALSE,FALSE,Disabled,0.000000,-0.000000,-82.420000,TRUE,-7.654907,-0.235367,0.000000,-0.123993,-0.241623,0.000000,-0.080000,-0.146000,-0.003000,-111.600000,-0.960000,2.620000,-107.388435,Hold,53.739990,208896.000000,Hold,-81782.000000,143360.000000,Suck,-2137.500000,2181.818182,Speed,-2145.000000,2181.818182,Speed,On,Off0.000000,0,,,,
01:18:10.516 PM 03/19/2016,Teleop Enabled,9,FALSE,0,NO ERROR,-0.000000,-26.783104,0.000000,26.224855,TRUE,FALSE,FALSE,FALSE,FALSE,FALSE,Disabled,0.000000,-0.000000,-82.420000,TRUE,-7.660110,-0.245575,0.000000,0.000000,-0.251694,0.000000,0.019000,0.051000,-0.157000,-111.510000,-1.170000,2.690000,-107.322713,Hold,56.290283,208896.000000,Hold,-98200.000000,143360.000000,Suck,-2137.500000,2181.818182,Speed,-2145.000000,2181.818182,Speed,On,Off0.000000,0,,,,
01:18:10.616 PM 03/19/2016,Teleop Enabled,11,FALSE,0,NO ERROR,-0.000000,-26.783104,0.000000,26.224855,TRUE,FALSE,FALSE,FALSE,FALSE,FALSE,Disabled,0.000000,-0.000000,-82.420000,TRUE,-7.660568,-0.257919,0.000000,-0.006332,-0.277802,0.000000,-0.055000,-0.050000,0.014000,-111.480000,-0.600000,2.620000,-107.316285,Hold,55.814697,208896.000000,Hold,-115801.000000,143360.000000,Suck,-2122.500000,2181.818182,Speed,-2152.500000,2181.818182,Speed,On,Off0.000000,0,,,,
01:18:10.716 PM 03/19/2016,Teleop Enabled,9,FALSE,0,NO ERROR,-0.000000,-26.770271,0.000000,26.314688,TRUE,FALSE,FALSE,FALSE,FALSE,FALSE,Disabled,0.000000,-0.000000,-82.420000,TRUE,-7.660355,-0.273849,0.000000,0.022354,-0.340530,0.000000,0.098000,0.000000,-0.063000,-111.550000,-0.800000,2.670000,-107.348108,Hold,55.395996,208896.000000,Hold,-132983.000000,143360.000000,Suck,-2130.000000,2181.818182,Speed,-2145.000000,2181.818182,Speed,On,Off0.000000,0,,,,
01:18:10.816 PM 03/19/2016,Teleop Enabled,10,FALSE,0,NO ERROR,-0.000000,-26.770271,0.000000,26.282605,TRUE,FALSE,FALSE,FALSE,FALSE,FALSE,Disabled,0.000000,-0.000000,-82.420000,TRUE,-7.657272,-0.290054,0.000000,0.086853,-0.305038,0.000000,0.098000,0.000000,-0.063000,-111.530000,-0.660000,2.620000,-107.326641,Hold,55.395752,208896.000000,Hold,-143846.000000,143360.000000,Suck,-2137.500000,2181.818182,Speed,-2137.500000,2181.818182,Speed,On,Off0.000000,0,,,,
01:18:10.916 PM 03/19/2016,Teleop Enabled,12,FALSE,0,NO ERROR,-0.000000,-26.770271,0.000000,26.282605,TRUE,FALSE,FALSE,FALSE,FALSE,FALSE,Disabled,0.000000,-0.000000,-82.420000,TRUE,-7.652954,-0.305557,0.000000,0.076126,-0.296005,0.000000,0.071000,0.019000,-0.152000,-111.540000,-0.770000,2.610000,-107.336793,Hold,55.348877,208896.000000,Hold,-143846.000000,143360.000000,Suck,-2115.000000,2181.818182,Speed,-2137.500000,2181.818182,Speed,On,Off0.000000,0,,,,
01:18:11.018 PM 03/19/2016,Teleop Enabled,11,FALSE,0,NO ERROR,0.236220,-27.065437,-0.236220,26.520021,TRUE,FALSE,FALSE,FALSE,FALSE,FALSE,Disabled,0.000000,-0.000000,-82.420000,TRUE,-7.651489,-0.320862,0.000000,-0.009766,-0.327179,0.000000,0.071000,0.019000,-0.152000,-111.650000,-1.140000,2.520000,-107.381529,Hold,55.302979,208896.000000,Hold,-143522.000000,143360.000000,Suck,-2122.500000,2181.818182,Speed,-2152.500000,2181.818182,Speed,On,Off0.000000,0,,,,
01:18:11.118 PM 03/19/2016,Teleop Enabled,11,FALSE,0,NO ERROR,0.622047,-28.220434,-0.622047,27.713519,TRUE,FALSE,FALSE,FALSE,FALSE,FALSE,Disabled,0.000000,-0.000000,-82.420000,TRUE,-7.647736,-0.336197,0.000000,0.096161,-0.289642,0.000000,0.339000,0.006000,0.023000,-115.090000,-1.180000,1.780000,-110.274954,Hold,55.302979,208896.000000,Hold,-143446.000000,143360.000000,Suck,-2122.500000,2181.818182,Speed,-2152.500000,2181.818182,Speed,On,Off0.000000,0,,,,
01:18:11.219 PM 03/19/2016,Teleop Enabled,11,FALSE,0,NO ERROR,-0.000000,-29.991430,0.000000,29.529431,TRUE,FALSE,FALSE,FALSE,FALSE,FALSE,Disabled,0.000000,-0.000000,-82.420000,TRUE,-7.631180,-0.354172,0.000000,0.274002,-0.273163,0.000000,0.339000,0.006000,0.023000,-125.030000,-1.570000,1.120000,-119.489157,Hold,55.301025,208896.000000,Hold,-143449.000000,143360.000000,Suck,-2077.500000,2181.818182,Speed,-2107.500000,2181.818182,Speed,On,Off0.000000,0,,,,
01:18:11.320 PM 03/19/2016,Teleop Enabled,11,FALSE,0,NO ERROR,-0.000000,-30.684428,0.000000,30.055596,TRUE,FALSE,FALSE,FALSE,FALSE,FALSE,Disabled,0.000000,-0.000000,-82.420000,TRUE,-7.630981,-0.365570,0.000000,-0.098724,-0.273056,0.000000,-0.068000,-0.101000,-0.058000,-128.170000,-0.400000,2.640000,-123.402740,Hold,55.256104,208896.000000,Hold,-143450.000000,143360.000000,Suck,-2100.000000,2181.818182,Speed,-2115.000000,2181.818182,Speed,On,Off0.000000,0,,,,
01:18:11.421 PM 03/19/2016,Teleop Enabled,11,FALSE,0,NO ERROR,-0.551181,-31.165677,-0.551181,29.535848,TRUE,FALSE,FALSE,FALSE,FALSE,FALSE,Disabled,0.000000,-0.000000,-82.420000,TRUE,-7.637482,-0.384567,0.000000,-0.069290,-0.316666,0.000000,0.071000,0.379000,-0.162000,-127.150000,-0.460000,2.930000,-122.472874,Hold,55.256104,208896.000000,Hold,-143450.000000,143360.000000,Suck,-2160.000000,2181.818182,Speed,-2137.500000,2181.818182,Speed,On,Off0.000000,0,,,,
01:18:11.521 PM 03/19/2016,Teleop Enabled,13,FALSE,0,NO ERROR,-0.574803,-33.379422,-0.574803,27.193770,FALSE,FALSE,FALSE,FALSE,FALSE,FALSE,Disabled,0.000000,-0.000000,-82.420000,TRUE,-7.651276,-0.386353,0.000000,-0.379379,0.060455,0.000000,-0.239000,0.191000,-0.058000,-126.970000,3.560000,2.460000,-122.273515,Hold,55.300293,208896.000000,Hold,-143417.000000,143360.000000,Suck,-2107.500000,2181.818182,Speed,-2122.500000,2181.818182,Speed,On,Off0.000000,0,,,,
01:18:11.622 PM 03/19/2016,Teleop Enabled,9,FALSE,0,NO ERROR,-0.574803,-36.953497,-0.574803,23.651778,FALSE,FALSE,FALSE,FALSE,FALSE,FALSE,Disabled,0.000000,-0.000000,-82.420000,TRUE,-7.673798,-0.378159,0.000000,-0.468338,0.206833,0.000000,-0.239000,0.191000,-0.058000,-126.970000,3.560000,2.460000,-122.263735,Hold,54.768799,208896.000000,Hold,-143417.000000,143360.000000,Suck,-2070.000000,2181.818182,Speed,-2122.500000,2181.818182,Speed,On,Off0.000000,0,,,,
01:18:11.726 PM 03/19/2016,Teleop Enabled,11,FALSE,0,NO ERROR,-0.574803,-41.072987,-0.574803,19.596454,TRUE,FALSE,FALSE,FALSE,FALSE,FALSE,Disabled,0.000000,-0.000000,-82.420000,TRUE,-7.698349,-0.364319,0.000000,-0.493118,0.292145,0.000000,0.016000,-0.089000,-0.247000,-127.170000,2.790000,2.340000,-122.377147,Hold,54.768799,208896.000000,Hold,-143463.000000,143360.000000,Suck,-2100.000000,2181.818182,Speed,-2115.000000,2181.818182,Speed,On,Off0.000000,0,,,,
01:18:11.826 PM 03/19/2016,Teleop Enabled,12,FALSE,0,NO ERROR,-0.574803,-45.513310,-0.574803,15.322964,TRUE,FALSE,FALSE,FALSE,FALSE,FALSE,Disabled,0.000000,-0.000000,-82.420000,TRUE,-7.721634,-0.352173,0.000000,-0.440109,0.208817,0.000000,0.016000,-0.089000,-0.247000,-127.170000,2.790000,2.340000,-122.631910,Hold,55.076660,208896.000000,Hold,-143442.000000,143360.000000,Suck,-2130.000000,2181.818182,Speed,-2137.500000,2181.818182,Speed,On,Off0.000000,0,,,,
01:18:11.928 PM 03/19/2016,Teleop Enabled,10,FALSE,0,NO ERROR,-0.000000,-49.773967,0.000000,11.197057,TRUE,FALSE,FALSE,FALSE,FALSE,FALSE,Disabled,0.000000,-0.000000,-82.420000,TRUE,-7.742859,-0.343704,0.000000,-0.418350,0.158615,0.000000,0.115000,-0.073000,-0.107000,-127.700000,2.840000,2.400000,-122.928569,Hold,54.893799,208896.000000,Hold,-143451.000000,143360.000000,Suck,-2122.500000,2181.818182,Speed,-2122.500000,2181.818182,Speed,On,Off0.000000,0,,,,
01:18:12.029 PM 03/19/2016,Teleop Enabled,9,FALSE,0,NO ERROR,0.220472,-51.968462,-0.220472,9.920143,TRUE,FALSE,FALSE,FALSE,FALSE,FALSE,Disabled,0.000000,-0.000000,-82.420000,TRUE,-7.751160,-0.350906,0.000000,0.104385,-0.423096,0.000000,0.115000,-0.073000,-0.107000,-128.500000,-2.700000,1.950000,-123.618671,Hold,54.638916,208896.000000,Hold,-143389.000000,143360.000000,Suck,-2122.500000,2181.818182,Speed,-2122.500000,2181.818182,Speed,On,Off0.000000,0,,,,
01:18:12.129 PM 03/19/2016,Teleop Enabled,10,FALSE,0,NO ERROR,0.283465,-53.816457,-0.283465,10.074143,TRUE,FALSE,FALSE,FALSE,FALSE,FALSE,Disabled,0.000000,-0.000000,-82.420000,TRUE,-7.735168,-0.377136,0.000000,0.379120,-0.602020,0.000000,-0.332000,-0.247000,0.130000,-132.000000,-1.720000,2.240000,-126.961777,Hold,54.638916,208896.000000,Hold,-143452.000000,143360.000000,Suck,-2122.500000,2181.818182,Speed,-2122.500000,2181.818182,Speed,On,Off0.000000,0,,,,
01:18:12.229 PM 03/19/2016,Teleop Enabled,10,FALSE,0,NO ERROR,-0.000000,-55.183204,0.000000,11.254807,TRUE,FALSE,FALSE,FALSE,FALSE,FALSE,Disabled,0.000000,-0.000000,-82.420000,TRUE,-7.716278,-0.421036,0.000000,0.443588,-0.709213,0.000000,0.573000,0.310000,-0.030000,-136.340000,-2.360000,1.780000,-131.028818,Hold,55.023193,208896.000000,Hold,-143452.000000,143360.000000,Suck,-2115.000000,2181.818182,Speed,-2122.500000,2181.818182,Speed,On,Off0.000000,0,,,,
01:18:12.332 PM 03/19/2016,Teleop Enabled,9,FALSE,0,NO ERROR,-0.000000,-55.966036,0.000000,11.813056,TRUE,FALSE,FALSE,FALSE,FALSE,FALSE,Disabled,0.000000,-0.000000,-82.420000,TRUE,-7.698639,-0.445175,0.000000,0.330963,-0.633072,0.000000,-0.594000,-0.376000,-0.037000,-136.340000,-2.360000,1.780000,-136.591741,Hold,54.335938,208896.000000,Hold,-143467.000000,143360.000000,Suck,-2107.500000,2181.818182,Speed,-2107.500000,2181.818182,Speed,On,Off0.000000,0,,,,
01:18:12.432 PM 03/19/2016,Teleop Enabled,10,FALSE,0,NO ERROR,-0.000000,-55.991702,0.000000,11.716806,TRUE,FALSE,FALSE,FALSE,FALSE,FALSE,Disabled,0.000000,-0.000000,-82.420000,TRUE,-7.695938,-0.490829,0.000000,-0.011337,-0.749313,0.000000,-0.594000,-0.376000,-0.037000,-141.900000,-1.730000,2.450000,-135.719590,Hold,54.551025,208896.000000,Hold,-143467.000000,143360.000000,Suck,-2137.500000,2181.818182,Speed,-2122.500000,2181.818182,Speed,On,Off0.000000,0,,,,
01:18:12.533 PM 03/19/2016,Teleop Enabled,11,FALSE,0,NO ERROR,-0.401575,-56.087952,-0.401575,11.626973,TRUE,FALSE,FALSE,FALSE,FALSE,FALSE,Disabled,0.000000,-0.000000,-82.420000,TRUE,-7.694061,-0.525391,0.000000,0.051727,-0.655487,0.000000,0.066000,0.116000,0.201000,-140.040000,-1.390000,2.620000,-134.863715,Hold,54.543945,208896.000000,Hold,-143467.000000,143360.000000,Suck,-2137.500000,2181.818182,Speed,-2137.500000,2181.818182,Speed,On,Off0.000000,0,,,,
01:18:12.634 PM 03/19/2016,Teleop Enabled,11,FALSE,0,NO ERROR,-0.519685,-57.801198,-0.519685,9.945810,TRUE,FALSE,FALSE,FALSE,FALSE,FALSE,Disabled,0.000000,-0.000000,-82.420000,TRUE,-7.700073,-0.545380,0.000000,-0.379456,-0.425018,0.000000,-0.068000,0.370000,-0.132000,-141.160000,2.090000,2.740000,-135.923076,Hold,54.544434,208896.000000,Hold,-143467.000000,143360.000000,Suck,-2107.500000,2181.818182,Speed,-2115.000000,2181.818182,Speed,On,Off0.000000,0,,,,
01:18:12.736 PM 03/19/2016,Teleop Enabled,12,FALSE,0,NO ERROR,-0.527559,-60.861941,-0.527559,7.032650,TRUE,FALSE,FALSE,FALSE,FALSE,FALSE,Disabled,0.000000,-0.000000,-82.420000,TRUE,-7.731644,-0.560120,0.000000,-0.600067,-0.179459,0.000000,-0.181000,0.358000,-0.098000,-141.160000,2.090000,2.740000,-136.307916,Hold,54.793945,208896.000000,Hold,-143467.000000,143360.000000,Suck,-2085.000000,2181.818182,Speed,-2085.000000,2181.818182,Speed,On,Off0.000000,0,,,,
01:18:12.836 PM 03/19/2016,Teleop Enabled,12,FALSE,0,NO ERROR,-0.519685,-64.551516,-0.519685,3.490659,TRUE,FALSE,FALSE,FALSE,FALSE,FALSE,Disabled,0.000000,-0.000000,-82.420000,TRUE,-7.763962,-0.566864,0.000000,-0.655807,-0.131195,0.000000,-0.061000,0.135000,-0.174000,-141.580000,2.810000,2.520000,-136.489559,Hold,54.757080,208896.000000,Hold,-143467.000000,143360.000000,Suck,-2100.000000,2181.818182,Speed,-2092.500000,2181.818182,Speed,On,Off0.000000,0,,,,
01:18:12.936 PM 03/19/2016,Teleop Enabled,9,FALSE,0,NO ERROR,-0.314961,-68.446423,-0.314961,-0.186083,TRUE,FALSE,TRUE,FALSE,FALSE,FALSE,Disabled,0.000000,-0.000000,-82.420000,TRUE,-7.798477,-0.571854,0.000000,-0.666840,-0.121445,0.000000,-0.283000,0.229000,-0.303000,-141.800000,1.880000,2.650000,-136.995178,Hold,54.637939,208896.000000,Hold,-143467.000000,143360.000000,Suck,-1095.000000,2181.818182,Speed,-1072.500000,2181.818182,Speed,On,Off0.000000,0,,,,
01:18:13.037 PM 03/19/2016,Teleop Enabled,10,FALSE,0,NO ERROR,-0.000000,-71.019501,0.000000,-2.592327,TRUE,FALSE,TRUE,FALSE,FALSE,FALSE,Disabled,0.000000,-0.000000,-82.420000,TRUE,-7.827393,-0.581375,0.000000,-0.451233,-0.261154,0.000000,0.172000,-0.114000,0.295000,-142.370000,2.300000,2.620000,-137.316833,Hold,54.450439,208896.000000,Hold,-143465.000000,143360.000000,Suck,-705.000000,2181.818182,Speed,-1072.500000,2181.818182,Speed,On,Off0.000000,0,,,,
01:18:13.139 PM 03/19/2016,Teleop Enabled,10,FALSE,0,NO ERROR,-0.000000,-72.257914,0.000000,-3.689575,TRUE,FALSE,TRUE,FALSE,FALSE,FALSE,Disabled,0.000000,-0.000000,-82.420000,TRUE,-7.833893,-0.609329,0.000000,-0.018677,-0.665573,0.000000,0.676000,-0.741000,0.039000,-142.700000,-1.120000,2.670000,-137.547798,Hold,54.424072,208896.000000,Hold,-143465.000000,143360.000000,Suck,-705.000000,2181.818182,Speed,-667.500000,2181.818182,Speed,On,Off0.000000,0,,,,
01:18:13.240 PM 03/19/2016,Teleop Enabled,11,FALSE,0,NO ERROR,-0.000000,-72.553080,0.000000,-3.965491,TRUE,FALSE,TRUE,FALSE,FALSE,FALSE,Disabled,0.000000,-0.000000,-82.420000,TRUE,-7.831070,-0.646240,0.000000,0.070312,-0.749313,0.000000,0.139000,-0.176000,-0.029000,-142.830000,-2.990000,2.700000,-137.662562,Hold,54.935547,208896.000000,Hold,-143392.000000,143360.000000,Suck,-2062.500000,2181.818182,Speed,-1477.500000,2181.818182,Speed,On,Off0.000000,0,,,,
01:18:13.340 PM 03/19/2016,Teleop Enabled,10,FALSE,0,NO ERROR,0.551181,-71.661166,0.551181,-3.099243,TRUE,FALSE,TRUE,FALSE,FALSE,FALSE,Disabled,0.000000,-0.000000,-82.420000,TRUE,-7.827072,-0.686172,0.000000,0.184586,-0.901184,0.000000,-0.074000,-0.028000,0.111000,-142.910000,-2.100000,2.700000,-137.607320,Hold,54.913330,208896.000000,Hold,-143466.000000,143360.000000,Suck,-2295.000000,2181.818182,Speed,-2100.000000,2181.818182,Speed,On,Off0.000000,0,,,,
01:18:13.440 PM 03/19/2016,Teleop Enabled,9,FALSE,0,NO ERROR,0.566929,-68.979005,0.566929,-0.442749,FALSE,FALSE,TRUE,FALSE,FALSE,FALSE,Disabled,0.000000,-0.000000,-82.420000,TRUE,-7.804077,-0.739700,0.000000,0.599106,-1.162338,0.000000,0.588000,-0.271000,0.072000,-142.700000,-4.750000,2.890000,-137.460102,Hold,54.541260,208896.000000,Hold,-143461.000000,143360.000000,Suck,-2295.000000,2181.818182,Speed,-2295.000000,2181.818182,Speed,On,Off0.000000,0,,,,
01:18:13.543 PM 03/19/2016,Teleop Enabled,11,FALSE,0,NO ERROR,0.700787,-65.289431,0.700787,3.163409,FALSE,FALSE,TRUE,FALSE,FALSE,FALSE,Disabled,0.000000,-0.000000,-82.420000,TRUE,-7.770493,-0.800812,0.000000,0.723450,-1.263336,0.000000,0.091000,-0.113000,-0.004000,-142.460000,-6.100000,2.740000,-137.345954,Hold,54.927246,208896.000000,Hold,-143398.000000,143360.000000,Suck,-2115.000000,2181.818182,Speed,-2115.000000,2181.818182,Speed,On,Off0.000000,0,,,,
