Time,Robot Mode,Loop Time,Error Status,Error Code,Error Source,Left Motor Output,Left Motor Encoder,Right Motor Output,Right Motor Encoder,Is Level,Is Stalled,Ball Detector Photoeye,Vision Enabled,Vision Teleop Control,Vision Auto Control,Vision Current State,Vision X Output,Vision NavX Error,Vision NavX Target,NavX Connection Status,NavX Displacement X,NavX Displacement Y,NavX Displacement Z,NavX Velocity X,NavX Velocity Y,NavX Velocity Z,NavX Acceleration X,NavX Acceleration Y,NavX Acceleration Z,NavX Pitch,NavX Yaw,NavX Roll,Gyro Angle,Roller Arm State,Roller Arm Actual,Roller Arm Desired,Shooter Arm State,Shooter Arm Actual,Shooter Arm Desired,Shooter State,Actual RPM Left,Desired RPM Left,Control Mode Left,Actual RPM Right,Desired RPM Right,Scaler Motor Output,Auto To Run,Auto Current File,Auto File Status,Auto Current Command,Auto Trimmed Command
04:42:26.166 PM 03/19/2016,Autonomous Disabled,4,FALSE,0,NO ERROR,-0.000000,-0.006417,0.000000,0.109083,TRUE,FALSE,TRUE,FALSE,FALSE,FALSE,Disabled,0.000000,0.000000,0.000000,TRUE,0.017899,-0.029617,0.000000,0.000000,0.000000,0.000000,0.000000,0.001000,0.014000,-0.130000,-0.500000,2.350000,-0.282765,Hold,0.955078,0.000000,Hold,-114.000000,2.000000,LowGoal,0.000000,-1454.545455,Speed,0.000000,-1454.545455,Speed,Off,Off0.000000,0,,,,
04:42:26.266 PM 03/19/2016,Teleop Disabled,11,FALSE,0,NO ERROR,-0.000000,0.198916,0.000000,0.083416,TRUE,TRUE,TRUE,FALSE,FALSE,FALSE,Disabled,0.000000,0.000000,0.000000,TRUE,0.019775,-0.029022,0.000000,0.000000,0.000000,0.000000,-0.002000,-0.002000,0.010000,0.000000,-0.660000,2.370000,0.010961,ResetBack,-53.738037,-0.200000,ResetBack,-115.000000,-0.300000,Empty,0.000000,0.000000,Speed,0.000000,0.000000,Speed,Off,Off0.000000,0,,,,
04:42:26.366 PM 03/19/2016,Teleop Disabled,10,FALSE,0,NO ERROR,-0.000000,0.173250,0.000000,0.077000,TRUE,FALSE,TRUE,FALSE,FALSE,FALSE,Disabled,0.000000,0.000000,0.000000,TRUE,0.019775,-0.029022,0.000000,0.000000,0.000000,0.000000,-0.002000,0.011000,0.028000,0.000000,-0.660000,2.350000,-0.000919,ResetBack,-54.679688,-0.200000,ResetBack,-115.000000,-0.300000,Empty,0.000000,0.000000,Speed,0.000000,0.000000,Speed,Off,Off0.000000,0,,,,
04:42:26.467 PM 03/19/2016,Teleop Disabled,10,FALSE,0,NO ERROR,-0.000000,0.160416,0.000000,0.070583,TRUE,FALSE,TRUE,FALSE,FALSE,FALSE,Disabled,0.000000,0.000000,0.000000,TRUE,0.019775,-0.029022,0.000000,0.000000,0.000000,0.000000,-0.005000,-0.002000,0.020000,0.000000,-0.680000,2.360000,0.011546,ResetBack,-55.541992,-0.200000,ResetBack,-115.000000,-0.300000,Empty,0.000000,0.000000,Speed,0.000000,0.000000,Speed,Off,Off0.000000,0,,,,
04:42:26.567 PM 03/19/2016,Teleop Disabled,10,FALSE,0,NO ERROR,-0.000000,0.134750,0.000000,0.051333,TRUE,FALSE,TRUE,FALSE,FALSE,FALSE,Disabled,0.000000,0.000000,0.000000,TRUE,0.019775,-0.029022,0.000000,0.000000,0.000000,0.000000,0.000000,0.008000,0.015000,0.000000,-0.660000,2.350000,0.018087,ResetBack,-56.392334,-0.200000,ResetBack,-115.000000,-0.300000,Empty,0.000000,0.000000,Speed,0.000000,0.000000,Speed,Off,Off0.000000,0,,,,
04:42:26.667 PM 03/19/2016,Teleop Disabled,10,FALSE,0,NO ERROR,-0.000000,0.121916,0.000000,0.038500,TRUE,FALSE,TRUE,FALSE,FALSE,FALSE,Disabled,0.000000,0.000000,0.000000,TRUE,0.019775,-0.029022,0.000000,0.000000,0.000000,0.000000,-0.001000,-0.004000,0.017000,0.000000,-0.680000,2.350000,0.035434,ResetBack,-57.048584,-0.200000,ResetBack,-115.000000,-0.300000,Empty,0.000000,0.000000,Speed,0.000000,0.000000,Speed,Off,Off0.000000,0,,,,
04:42:26.767 PM 03/19/2016,Teleop Disabled,9,FALSE,0,NO ERROR,-0.000000,0.121916,0.000000,0.038500,TRUE,FALSE,TRUE,FALSE,FALSE,FALSE,Disabled,0.000000,0.000000,0.000000,TRUE,0.019775,-0.029022,0.000000,0.000000,0.000000,0.000000,-0.001000,-0.002000,0.020000,0.000000,-0.670000,2.350000,0.046571,ResetBack,-58.037354,-0.200000,ResetBack,-115.000000,-0.300000,Empty,0.000000,0.000000,Speed,0.000000,0.000000,Speed,Off,Off0.000000,0,,,,
04:42:26.867 PM 03/19/2016,Teleop Disabled,10,FALSE,0,NO ERROR,-0.000000,0.121916,0.000000,0.025667,TRUE,FALSE,TRUE,FALSE,FALSE,FALSE,Disabled,0.000000,0.000000,0.000000,TRUE,0.019775,-0.029022,0.000000,0.000000,0.000000,0.000000,0.002000,-0.002000,0.019000,0.010000,-0.690000,2.360000,0.056207,ResetBack,-58.977295,-0.200000,ResetBack,-115.000000,-0.300000,Empty,0.000000,0.000000,Speed,0.000000,0.000000,Speed,Off,Off0.000000,0,,,,
04:42:26.967 PM 03/19/2016,Teleop Disabled,9,FALSE,0,NO ERROR,-0.000000,0.109083,0.000000,0.006417,TRUE,FALSE,TRUE,FALSE,FALSE,FALSE,Disabled,0.000000,0.000000,0.000000,TRUE,0.019775,-0.029022,0.000000,0.000000,0.000000,0.000000,-0.006000,-0.004000,0.019000,0.030000,-0.690000,2.360000,0.083362,ResetBack,-59.602295,-0.200000,ResetBack,-115.000000,-0.300000,Empty,0.000000,0.000000,Speed,0.000000,0.000000,Speed,Off,Off0.000000,0,,,,
04:42:27.068 PM 03/19/2016,Teleop Disabled,11,FALSE,0,NO ERROR,-0.000000,0.102666,0.000000,-0.012833,TRUE,FALSE,TRUE,FALSE,FALSE,FALSE,Disabled,0.000000,0.000000,0.000000,TRUE,0.019775,-0.029022,0.000000,0.000000,0.000000,0.000000,-0.006000,0.002000,0.007000,0.040000,-0.700000,2.360000,0.095899,ResetBack,-60.207520,-0.200000,ResetBack,-115.000000,-0.300000,Empty,0.000000,0.000000,Speed,0.000000,0.000000,Speed,Off,Off0.000000,0,,,,
04:42:27.168 PM 03/19/2016,Teleop Disabled,10,FALSE,0,NO ERROR,-0.000000,0.102666,0.000000,-0.019250,TRUE,FALSE,TRUE,FALSE,FALSE,FALSE,Disabled,0.000000,0.000000,0.000000,TRUE,0.019775,-0.029022,0.000000,0.000000,0.000000,0.000000,0.007000,0.000000,0.010000,0.060000,-0.720000,2.360000,0.117112,ResetBack,-60.924805,-0.200000,ResetBack,-115.000000,-0.300000,Empty,0.000000,0.000000,Speed,0.000000,0.000000,Speed,Off,Off0.000000,0,,,,
04:42:27.268 PM 03/19/2016,Teleop Disabled,10,FALSE,0,NO ERROR,-0.000000,0.102666,0.000000,-0.025667,TRUE,FALSE,TRUE,FALSE,FALSE,FALSE,Disabled,0.000000,0.000000,0.000000,TRUE,0.019775,-0.029022,0.000000,0.000000,0.000000,0.000000,0.002000,0.005000,0.006000,0.080000,-0.730000,2.360000,0.133829,ResetBack,-61.644287,-0.200000,ResetBack,-115.000000,-0.300000,Empty,0.000000,0.000000,Speed,0.000000,0.000000,Speed,Off,Off0.000000,0,,,,
04:42:27.368 PM 03/19/2016,Teleop Disabled,10,FALSE,0,NO ERROR,-0.000000,0.083416,0.000000,-0.038500,TRUE,FALSE,TRUE,FALSE,FALSE,FALSE,Disabled,0.000000,0.000000,0.000000,TRUE,0.019775,-0.029022,0.000000,0.000000,0.000000,0.000000,-0.002000,-0.001000,0.009000,0.100000,-0.720000,2.360000,0.145441,ResetBack,-62.499756,-0.200000,ResetBack,-115.000000,-0.300000,Empty,0.000000,0.000000,Speed,0.000000,0.000000,Speed,Off,Off0.000000,0,,,,
04:42:27.470 PM 03/19/2016,Teleop Disabled,10,FALSE,0,NO ERROR,-0.000000,0.038500,0.000000,-0.044917,TRUE,FALSE,TRUE,FALSE,FALSE,FALSE,Disabled,0.000000,0.000000,0.000000,TRUE,0.019775,-0.029022,0.000000,0.000000,0.000000,0.000000,0.005000,0.007000,0.029000,0.070000,-0.670000,2.350000,0.120899,ResetBack,-63.826904,-0.200000,ResetBack,-115.000000,-0.300000,Suck,0.000000,2181.818182,Speed,0.000000,2181.818182,Speed,Off,Off0.000000,0,,,,
04:42:27.571 PM 03/19/2016,Teleop Disabled,10,FALSE,0,NO ERROR,-0.000000,0.025667,0.000000,-0.064167,TRUE,FALSE,TRUE,FALSE,FALSE,FALSE,Disabled,0.000000,0.000000,0.000000,TRUE,0.019775,-0.029022,0.000000,0.000000,0.000000,0.000000,-0.020000,-0.008000,0.013000,0.090000,-0.710000,2.370000,0.150526,ResetBack,-65.144531,-0.200000,ResetBack,-115.000000,-0.300000,Hold,0.000000,0.000000,Speed,0.000000,0.000000,Speed,Off,Off0.000000,0,,,,
04:42:27.671 PM 03/19/2016,Teleop Disabled,10,FALSE,0,NO ERROR,-0.000000,0.019250,0.000000,-0.064167,TRUE,FALSE,TRUE,FALSE,FALSE,FALSE,Disabled,0.000000,0.000000,0.000000,TRUE,0.019547,-0.029053,0.000000,0.000000,-0.002640,0.000000,-0.012000,-0.028000,0.059000,0.110000,-0.700000,2.380000,0.145751,ResetBack,-66.034668,-0.200000,ResetBack,-115.000000,-0.300000,Hold,0.000000,0.000000,Speed,0.000000,0.000000,Speed,Off,Off0.000000,0,,,,
04:42:27.771 PM 03/19/2016,Teleop Disabled,10,FALSE,0,NO ERROR,-0.000000,0.019250,0.000000,-0.064167,TRUE,FALSE,TRUE,FALSE,FALSE,FALSE,Disabled,0.000000,0.000000,0.000000,TRUE,0.019547,-0.029144,0.000000,0.000000,0.000000,0.000000,0.010000,0.010000,0.005000,0.060000,-0.650000,2.360000,0.112327,ResetBack,-66.041504,-0.200000,ResetBack,-115.000000,-0.300000,Hold,0.000000,0.000000,Speed,0.000000,0.000000,Speed,Off,Off0.000000,0,,,,
04:42:27.871 PM 03/19/2016,Teleop Disabled,10,FALSE,0,NO ERROR,-0.000000,0.025667,0.000000,-0.064167,TRUE,FALSE,TRUE,FALSE,FALSE,FALSE,Disabled,0.000000,0.000000,0.000000,TRUE,0.019547,-0.029144,0.000000,0.000000,0.000000,0.000000,-0.003000,0.008000,0.031000,0.050000,-0.630000,2.360000,0.111807,ResetBack,-66.041504,-0.200000,ResetBack,-115.000000,-0.300000,Hold,0.000000,0.000000,Speed,0.000000,0.000000,Speed,Off,Off0.000000,0,,,,
04:42:27.971 PM 03/19/2016,Teleop Disabled,10,FALSE,0,NO ERROR,-0.000000,0.025667,0.000000,-0.064167,TRUE,FALSE,TRUE,FALSE,FALSE,FALSE,Disabled,0.000000,0.000000,0.000000,TRUE,0.019547,-0.029144,0.000000,0.000000,0.000000,0.000000,0.002000,-0.007000,0.014000,0.030000,-0.610000,2.360000,0.096502,ResetBack,-66.041504,-0.200000,ResetBack,-115.000000,-0.300000,Hold,0.000000,0.000000,Speed,0.000000,0.000000,Speed,Off,Off0.000000,0,,,,
04:42:28.071 PM 03/19/2016,Teleop Disabled,9,FALSE,0,NO ERROR,-0.000000,0.044917,0.000000,-0.064167,TRUE,FALSE,TRUE,FALSE,FALSE,FALSE,Disabled,0.000000,0.000000,0.000000,TRUE,0.019547,-0.029144,0.000000,0.000000,0.000000,0.000000,0.007000,0.000000,0.011000,0.020000,-0.600000,2.370000,0.083768,ResetBack,-66.041504,-0.200000,ResetBack,-115.000000,-0.300000,Hold,0.000000,0.000000,Speed,0.000000,0.000000,Speed,Off,Off0.000000,0,,,,
04:42:28.172 PM 03/19/2016,Teleop Disabled,10,FALSE,0,NO ERROR,-0.000000,0.064167,0.000000,-0.064167,TRUE,FALSE,TRUE,FALSE,FALSE,FALSE,Disabled,0.000000,0.000000,0.000000,TRUE,0.019547,-0.029144,0.000000,0.000000,0.000000,0.000000,0.003000,0.000000,0.009000,0.010000,-0.580000,2.370000,0.080026,ResetBack,-66.041504,-0.200000,ResetBack,-115.000000,-0.300000,Hold,0.000000,0.000000,Speed,0.000000,0.000000,Speed,Off,Off0.000000,0,,,,
04:42:28.272 PM 03/19/2016,Teleop Disabled,10,FALSE,0,NO ERROR,-0.000000,0.070583,0.000000,-0.064167,TRUE,FALSE,TRUE,FALSE,FALSE,FALSE,Disabled,0.000000,0.000000,0.000000,TRUE,0.019547,-0.029144,0.000000,0.000000,0.000000,0.000000,0.000000,-0.003000,0.020000,0.010000,-0.550000,2.370000,0.081754,ResetBack,-66.041504,-0.200000,ResetBack,-115.000000,-0.300000,Hold,0.000000,0.000000,Speed,0.000000,0.000000,Speed,Off,Off0.000000,0,,,,
04:42:28.372 PM 03/19/2016,Teleop Disabled,10,FALSE,0,NO ERROR,-0.000000,0.070583,0.000000,-0.057750,TRUE,FALSE,TRUE,FALSE,FALSE,FALSE,Disabled,0.000000,0.000000,0.000000,TRUE,0.019547,-0.029144,0.000000,0.000000,0.000000,0.000000,0.000000,0.002000,0.017000,0.020000,-0.550000,2.370000,0.088952,ResetBack,-66.041504,-0.200000,ResetBack,-115.000000,-0.300000,Hold,0.000000,0.000000,Speed,0.000000,0.000000,Speed,Off,Off0.000000,0,,,,
04:42:28.473 PM 03/19/2016,Teleop Disabled,10,FALSE,0,NO ERROR,-0.000000,0.070583,0.000000,-0.057750,TRUE,FALSE,TRUE,FALSE,FALSE,FALSE,Disabled,0.000000,0.000000,0.000000,TRUE,0.019547,-0.029144,0.000000,0.000000,0.000000,0.000000,-0.005000,0.007000,0.010000,0.020000,-0.570000,2.370000,0.079162,ResetBack,-66.041504,-0.200000,ResetBack,-115.000000,-0.300000,Hold,0.000000,0.000000,Speed,0.000000,0.000000,Speed,Off,Off0.000000,0,,,,
04:42:28.574 PM 03/19/2016,Teleop Disabled,10,FALSE,0,NO ERROR,-0.000000,0.077000,0.000000,-0.057750,TRUE,FALSE,TRUE,FALSE,FALSE,FALSE,Disabled,0.000000,0.000000,0.000000,TRUE,0.019547,-0.029144,0.000000,0.000000,0.000000,0.000000,0.003000,-0.002000,0.014000,0.020000,-0.550000,2.370000,0.081482,ResetBack,-66.041504,-0.200000,ResetBack,-115.000000,-0.300000,Hold,0.000000,0.000000,Speed,0.000000,0.000000,Speed,Off,Off0.000000,0,,,,
04:42:28.675 PM 03/19/2016,Teleop Disabled,10,FALSE,0,NO ERROR,-0.000000,0.077000,0.000000,-0.057750,TRUE,FALSE,TRUE,FALSE,FALSE,FALSE,Disabled,0.000000,0.000000,0.000000,TRUE,0.019547,-0.029144,0.000000,0.000000,0.000000,0.000000,-0.007000,0.000000,0.018000,0.030000,-0.560000,2.370000,0.074060,ResetBack,-66.041504,-0.200000,ResetBack,-115.000000,-0.300000,Hold,0.000000,0.000000,Speed,0.000000,0.000000,Speed,Off,Off0.000000,0,,,,
04:42:28.775 PM 03/19/2016,Teleop Disabled,10,FALSE,0,NO ERROR,-0.000000,0.077000,0.000000,-0.057750,TRUE,FALSE,TRUE,FALSE,FALSE,FALSE,Disabled,0.000000,0.000000,0.000000,TRUE,0.019547,-0.029144,0.000000,0.000000,0.000000,0.000000,0.002000,-0.005000,0.019000,0.030000,-0.560000,2.370000,0.071426,ResetBack,-66.041504,-0.200000,ResetBack,-115.000000,-0.300000,LowGoal,0.000000,-1454.545455,Speed,0.000000,-1454.545455,Speed,Off,Off0.000000,0,,,,
04:42:28.875 PM 03/19/2016,Teleop Disabled,10,FALSE,0,NO ERROR,-0.000000,0.077000,0.000000,-0.057750,TRUE,FALSE,TRUE,FALSE,FALSE,FALSE,Disabled,0.000000,0.000000,0.000000,TRUE,0.019547,-0.029144,0.000000,0.000000,0.000000,0.000000,-0.002000,-0.005000,0.010000,0.050000,-0.580000,2.390000,0.082384,ResetBack,-66.041504,-0.200000,ResetBack,-115.000000,-0.300000,LowGoal,0.000000,-1454.545455,Speed,0.000000,-1454.545455,Speed,Off,Off0.000000,0,,,,
04:42:28.975 PM 03/19/2016,Teleop Disabled,10,FALSE,0,NO ERROR,-0.000000,0.077000,0.000000,-0.057750,TRUE,FALSE,TRUE,FALSE,FALSE,FALSE,Disabled,0.000000,0.000000,0.000000,TRUE,0.019547,-0.029144,0.000000,0.000000,0.000000,0.000000,0.005000,0.000000,0.017000,0.040000,-0.600000,2.380000,0.096185,ResetBack,-66.041504,-0.200000,ResetBack,-115.000000,-0.300000,LowGoal,0.000000,-1454.545455,Speed,0.000000,-1454.545455,Speed,Off,Off0.000000,0,,,,
04:42:29.077 PM 03/19/2016,Teleop Disabled,10,FALSE,0,NO ERROR,-0.000000,0.077000,0.000000,-0.057750,TRUE,FALSE,TRUE,FALSE,FALSE,FALSE,Disabled,0.000000,0.000000,0.000000,TRUE,0.019547,-0.029144,0.000000,0.000000,0.000000,0.000000,0.003000,0.003000,0.013000,0.020000,-0.580000,2.370000,0.071233,ResetBack,-66.041504,-0.200000,ResetBack,-115.000000,-0.300000,LowGoal,0.000000,-1454.545455,Speed,0.000000,-1454.545455,Speed,Off,Off0.000000,0,,,,
04:42:29.178 PM 03/19/2016,Teleop Disabled,10,FALSE,0,NO ERROR,-0.000000,0.077000,0.000000,-0.057750,TRUE,FALSE,TRUE,FALSE,FALSE,FALSE,Disabled,0.000000,0.000000,0.000000,TRUE,0.019547,-0.029144,0.000000,0.000000,0.000000,0.000000,0.002000,0.003000,0.012000,0.020000,-0.570000,2.370000,0.056658,ResetBack,-66.041504,-0.200000,ResetBack,-115.000000,-0.300000,LowGoal,0.000000,-1454.545455,Speed,0.000000,-1454.545455,Speed,Off,Off0.000000,0,,,,
04:42:29.278 PM 03/19/2016,Teleop Disabled,10,FALSE,0,NO ERROR,-0.000000,0.077000,0.000000,-0.057750,TRUE,TRUE,TRUE,FALSE,FALSE,FALSE,Disabled,0.000000,0.000000,0.000000,TRUE,0.019547,-0.029144,0.000000,0.000000,0.000000,0.000000,-0.004000,0.002000,0.028000,0.030000,-0.580000,2.370000,0.056740,ResetBack,-66.041504,-0.200000,ResetBack,-115.000000,-0.300000,LowGoal,0.000000,-1454.545455,Speed,0.000000,-1454.545455,Speed,Off,Off0.000000,0,,,,
04:42:29.379 PM 03/19/2016,Teleop Disabled,9,FALSE,0,NO ERROR,-0.000000,0.077000,0.000000,-0.057750,TRUE,TRUE,TRUE,FALSE,FALSE,FALSE,Disabled,0.000000,0.000000,0.000000,TRUE,0.019547,-0.029144,0.000000,0.000000,0.000000,0.000000,0.006000,0.008000,0.013000,0.030000,-0.580000,2.360000,0.054657,ResetBack,-66.041504,-0.200000,ResetBack,-115.000000,-0.300000,LowGoal,0.000000,0.000000,Speed,0.000000,0.000000,Speed,Off,Off0.000000,0,,,,
04:42:29.479 PM 03/19/2016,Teleop Disabled,10,FALSE,0,NO ERROR,-0.000000,0.077000,0.000000,-0.057750,TRUE,FALSE,TRUE,FALSE,FALSE,FALSE,Disabled,0.000000,0.000000,0.000000,TRUE,0.019547,-0.029144,0.000000,0.000000,0.000000,0.000000,-0.003000,-0.003000,0.018000,0.010000,-0.580000,2.360000,0.053893,ResetBack,-66.041504,-0.200000,ResetBack,-115.000000,-0.300000,LowGoal,0.000000,0.000000,Speed,0.000000,0.000000,Speed,Off,Off0.000000,0,,,,
04:42:29.580 PM 03/19/2016,Teleop Disabled,10,FALSE,0,NO ERROR,-0.000000,0.083416,0.000000,-0.044917,TRUE,FALSE,TRUE,FALSE,FALSE,FALSE,Disabled,0.000000,0.000000,0.000000,TRUE,0.019653,-0.029144,0.000000,0.007355,0.000000,0.000000,-0.001000,0.012000,0.025000,0.000000,-0.570000,2.350000,0.048006,ResetBack,-66.041504,-0.200000,ResetBack,-115.000000,-0.300000,LowGoal,0.000000,-1454.545455,Speed,0.000000,-1454.545455,Speed,Off,Off0.000000,0,,,,
04:42:29.680 PM 03/19/2016,Teleop Disabled,10,FALSE,0,NO ERROR,-0.000000,0.083416,0.000000,-0.044917,TRUE,FALSE,TRUE,FALSE,FALSE,FALSE,Disabled,0.000000,0.000000,0.000000,TRUE,0.019730,-0.029144,0.000000,0.000000,0.000000,0.000000,0.006000,-0.003000,0.018000,0.000000,-0.550000,2.350000,0.058933,ResetBack,-66.041504,-0.200000,ResetBack,-115.000000,-0.300000,LowGoal,0.000000,-1454.545455,Speed,0.000000,-1454.545455,Speed,Off,Off0.000000,0,,,,
04:42:29.782 PM 03/19/2016,Teleop Disabled,10,FALSE,0,NO ERROR,-0.000000,0.128333,0.000000,0.000000,TRUE,FALSE,TRUE,FALSE,FALSE,FALSE,Disabled,0.000000,0.000000,0.000000,TRUE,0.019424,-0.029190,0.000000,-0.017700,-0.002350,0.000000,-0.053000,0.002000,0.061000,0.000000,-0.500000,2.350000,0.043951,ResetBack,-66.041504,-0.200000,ResetBack,-8.000000,-0.300000,LowGoal,0.000000,-1454.545455,Speed,0.000000,-1454.545455,Speed,Off,Off0.000000,0,,,,
04:42:29.883 PM 03/19/2016,Teleop Disabled,10,FALSE,0,NO ERROR,-0.000000,0.218166,0.000000,0.077000,TRUE,FALSE,TRUE,FALSE,FALSE,FALSE,Disabled,0.000000,0.000000,0.000000,TRUE,0.018143,-0.029190,0.000000,-0.010208,0.000000,0.000000,0.046000,-0.003000,0.001000,0.000000,-0.580000,2.340000,0.034722,ResetBack,-66.041504,-0.200000,ResetBack,861.000000,-0.300000,LowGoal,0.000000,-1454.545455,Speed,0.000000,-1454.545455,Speed,Off,Off0.000000,0,,,,
04:42:29.983 PM 03/19/2016,Teleop Disabled,9,FALSE,0,NO ERROR,-0.000000,0.224583,0.000000,0.077000,TRUE,FALSE,TRUE,FALSE,FALSE,FALSE,Disabled,0.000000,0.000000,0.000000,TRUE,0.018036,-0.029266,0.000000,-0.007950,-0.002411,0.000000,0.002000,-0.016000,0.031000,-0.010000,-0.460000,2.340000,0.040151,ResetBack,-66.041504,-0.200000,ResetBack,2354.000000,-0.300000,LowGoal,0.000000,-1454.545455,Speed,0.000000,-1454.545455,Speed,Off,Off0.000000,0,,,,
04:42:30.084 PM 03/19/2016,Teleop Disabled,10,FALSE,0,NO ERROR,-0.000000,0.224583,0.000000,0.077000,TRUE,TRUE,TRUE,FALSE,FALSE,FALSE,Disabled,0.000000,0.000000,0.000000,TRUE,0.017792,-0.029297,0.000000,-0.004028,-0.003372,0.000000,-0.040000,-0.027000,-0.012000,-0.010000,-0.430000,2.340000,0.040949,ResetBack,-66.041504,-0.200000,ResetBack,7303.000000,-0.300000,LowGoal,0.000000,-1454.545455,Speed,0.000000,-1454.545455,Speed,Off,Off0.000000,0,,,,
04:42:30.187 PM 03/19/2016,Teleop Disabled,9,FALSE,0,NO ERROR,-0.000000,0.230999,0.000000,0.077000,TRUE,TRUE,TRUE,FALSE,FALSE,FALSE,Disabled,0.000000,0.000000,0.000000,TRUE,0.017548,-0.029449,0.000000,0.000000,0.000000,0.000000,0.027000,-0.003000,-0.003000,-0.030000,-0.430000,2.340000,0.027093,ResetBack,-66.041504,-0.200000,ResetBack,15789.000000,-0.300000,LowGoal,0.000000,0.000000,Speed,0.000000,0.000000,Speed,Off,Off0.000000,0,,,,
04:42:30.286 PM 03/19/2016,Teleop Disabled,11,FALSE,0,NO ERROR,-0.000000,0.230999,0.000000,0.077000,TRUE,FALSE,TRUE,FALSE,FALSE,FALSE,Disabled,0.000000,0.000000,0.000000,TRUE,0.017731,-0.029449,0.000000,0.000000,0.000000,0.000000,0.000000,0.009000,0.016000,-0.020000,-0.440000,2.350000,0.044450,ResetBack,-66.041504,-0.200000,ResetBack,15789.000000,-0.300000,LowGoal,0.000000,0.000000,Speed,0.000000,0.000000,Speed,Off,Off0.000000,0,,,,
04:42:30.387 PM 03/19/2016,Teleop Disabled,10,FALSE,0,NO ERROR,-0.000000,0.230999,0.000000,0.077000,TRUE,FALSE,TRUE,FALSE,FALSE,FALSE,Disabled,0.000000,0.000000,0.000000,TRUE,0.017731,-0.029449,0.000000,0.000000,0.000000,0.000000,0.003000,0.005000,0.019000,-0.020000,-0.430000,2.350000,0.076397,ResetBack,-66.041504,-0.200000,ResetBack,15789.000000,-0.300000,LowGoal,0.000000,0.000000,Speed,0.000000,0.000000,Speed,Off,Off0.000000,0,,,,
04:42:30.491 PM 03/19/2016,Teleop Disabled,10,FALSE,0,NO ERROR,-0.000000,0.237416,0.000000,0.077000,TRUE,FALSE,TRUE,FALSE,FALSE,FALSE,Disabled,0.000000,0.000000,0.000000,TRUE,0.017609,-0.029449,0.000000,-0.007660,0.000000,0.000000,-0.037000,0.001000,0.005000,-0.020000,-0.460000,2.350000,0.077702,ResetBack,-66.041504,-0.200000,ResetBack,31176.000000,-0.300000,LowGoal,0.000000,-1454.545455,Speed,0.000000,-1454.545455,Speed,Off,Off0.000000,0,,,,
04:42:30.590 PM 03/19/2016,Teleop Disabled,9,FALSE,0,NO ERROR,-0.000000,0.275916,0.000000,0.089833,TRUE,FALSE,TRUE,FALSE,FALSE,FALSE,Disabled,0.000000,0.000000,0.000000,TRUE,0.017105,-0.029449,0.000000,0.000000,0.000000,0.000000,-0.001000,0.011000,0.022000,-0.010000,-0.380000,2.360000,0.097221,ResetBack,-66.041504,-0.200000,ResetBack,31176.000000,-0.300000,LowGoal,0.000000,-1454.545455,Speed,0.000000,-1454.545455,Speed,Off,Off0.000000,0,,,,
04:42:30.690 PM 03/19/2016,Teleop Disabled,10,FALSE,0,NO ERROR,-0.000000,0.275916,0.000000,0.089833,TRUE,FALSE,TRUE,FALSE,FALSE,FALSE,Disabled,0.000000,0.000000,0.000000,TRUE,0.017105,-0.029449,0.000000,0.000000,0.000000,0.000000,0.000000,-0.004000,0.035000,-0.020000,-0.360000,2.370000,0.081806,ResetBack,-66.041504,-0.200000,ResetBack,33493.000000,-0.300000,LowGoal,0.000000,-1454.545455,Speed,0.000000,-1454.545455,Speed,Off,Off0.000000,0,,,,
04:42:30.791 PM 03/19/2016,Teleop Disabled,11,FALSE,0,NO ERROR,-0.000000,0.275916,0.000000,0.089833,TRUE,FALSE,TRUE,FALSE,FALSE,FALSE,Disabled,0.000000,0.000000,0.000000,TRUE,0.017105,-0.029449,0.000000,0.000000,0.000000,0.000000,-0.009000,0.000000,0.015000,-0.020000,-0.390000,2.370000,0.079544,ResetBack,-66.041504,-0.200000,ResetBack,33493.000000,-0.300000,LowGoal,0.000000,-1454.545455,Speed,0.000000,-1454.545455,Speed,Off,Off0.000000,0,,,,
04:42:30.892 PM 03/19/2016,Teleop Disabled,10,FALSE,0,NO ERROR,-0.000000,0.275916,0.000000,0.089833,TRUE,FALSE,TRUE,FALSE,FALSE,FALSE,Disabled,0.000000,0.000000,0.000000,TRUE,0.017105,-0.029449,0.000000,0.000000,0.000000,0.000000,-0.009000,0.001000,0.016000,-0.010000,-0.430000,2.370000,0.079241,ResetBack,-66.041504,-0.200000,ResetBack,33493.000000,-0.300000,LowGoal,0.000000,-1454.545455,Speed,0.000000,-1454.545455,Speed,Off,Off0.000000,0,,,,
04:42:30.993 PM 03/19/2016,Teleop Disabled,11,FALSE,0,NO ERROR,-0.000000,0.269499,0.000000,0.089833,TRUE,TRUE,TRUE,FALSE,FALSE,FALSE,Disabled,0.000000,0.000000,0.000000,TRUE,0.017105,-0.029449,0.000000,0.000000,0.000000,0.000000,0.008000,0.001000,0.018000,-0.010000,-0.430000,2.370000,0.063329,ResetBack,-66.041748,-0.200000,ResetBack,33493.000000,-0.300000,LowGoal,0.000000,-1454.545455,Speed,0.000000,-1454.545455,Speed,Off,Off0.000000,0,,,,
04:42:31.093 PM 03/19/2016,Teleop Disabled,11,FALSE,0,NO ERROR,-0.000000,0.243833,0.000000,0.089833,TRUE,TRUE,TRUE,FALSE,FALSE,FALSE,Disabled,0.000000,0.000000,0.000000,TRUE,0.017105,-0.029449,0.000000,0.000000,0.000000,0.000000,0.005000,0.000000,0.007000,-0.030000,-0.450000,2.360000,0.048034,ResetBack,-66.041748,-0.200000,ResetBack,33493.000000,-0.300000,LowGoal,0.000000,0.000000,Speed,0.000000,0.000000,Speed,Off,Off0.000000,0,,,,
04:42:31.193 PM 03/19/2016,Teleop Disabled,10,FALSE,0,NO ERROR,-0.000000,0.218166,0.000000,0.089833,TRUE,FALSE,TRUE,FALSE,FALSE,FALSE,Disabled,0.000000,0.000000,0.000000,TRUE,0.017105,-0.029449,0.000000,0.000000,0.000000,0.000000,-0.003000,-0.002000,0.009000,-0.030000,-0.450000,2.370000,0.033276,ResetBack,-66.041748,-0.200000,ResetBack,33493.000000,-0.300000,LowGoal,0.000000,0.000000,Speed,0.000000,0.000000,Speed,Off,Off0.000000,0,,,,
04:42:31.295 PM 03/19/2016,Teleop Disabled,10,FALSE,0,NO ERROR,-0.000000,0.218166,0.000000,0.089833,TRUE,FALSE,TRUE,FALSE,FALSE,FALSE,Disabled,0.000000,0.000000,0.000000,TRUE,0.017105,-0.029449,0.000000,0.000000,0.000000,0.000000,0.000000,0.000000,0.016000,-0.030000,-0.480000,2.370000,0.058572,ResetBack,-66.041748,-0.200000,ResetBack,33493.000000,-0.300000,LowGoal,0.000000,-1454.545455,Speed,0.000000,-1454.545455,Speed,Off,Off0.000000,0,,,,
04:42:31.395 PM 03/19/2016,Teleop Disabled,9,FALSE,0,NO ERROR,-0.000000,0.218166,0.000000,0.089833,TRUE,FALSE,TRUE,FALSE,FALSE,FALSE,Disabled,0.000000,0.000000,0.000000,TRUE,0.017105,-0.029449,0.000000,0.000000,0.000000,0.000000,0.006000,0.000000,0.019000,-0.030000,-0.470000,2.360000,0.043060,ResetBack,-66.041748,-0.200000,ResetBack,33493.000000,-0.300000,LowGoal,0.000000,-1454.545455,Speed,0.000000,-1454.545455,Speed,Off,Off0.000000,0,,,,
04:42:31.495 PM 03/19/2016,Teleop Disabled,10,FALSE,0,NO ERROR,-0.000000,0.218166,0.000000,0.089833,TRUE,FALSE,TRUE,FALSE,FALSE,FALSE,Disabled,0.000000,0.000000,0.000000,TRUE,0.017105,-0.029449,0.000000,0.000000,0.000000,0.000000,0.000000,0.000000,0.018000,-0.030000,-0.480000,2.360000,0.050523,ResetBack,-66.041748,-0.200000,ResetBack,33493.000000,-0.300000,LowGoal,0.000000,-1454.545455,Speed,0.000000,-1454.545455,Speed,Off,Off0.000000,0,,,,
04:42:31.596 PM 03/19/2016,Teleop Disabled,9,FALSE,0,NO ERROR,-0.000000,0.218166,0.000000,0.089833,TRUE,FALSE,TRUE,FALSE,FALSE,FALSE,Disabled,0.000000,0.000000,0.000000,TRUE,0.017105,-0.029449,0.000000,0.000000,0.000000,0.000000,0.000000,-0.005000,0.014000,-0.030000,-0.470000,2.360000,0.055852,ResetBack,-66.041748,-0.200000,ResetBack,33493.000000,-0.300000,LowGoal,0.000000,-1454.545455,Speed,0.000000,-1454.545455,Speed,Off,Off0.000000,0,,,,
04:42:31.697 PM 03/19/2016,Teleop Disabled,10,FALSE,0,NO ERROR,-0.000000,0.218166,0.000000,0.089833,TRUE,FALSE,TRUE,FALSE,FALSE,FALSE,Disabled,0.000000,0.000000,0.000000,TRUE,0.017105,-0.029449,0.000000,0.000000,0.000000,0.000000,-0.001000,-0.003000,0.021000,-0.030000,-0.480000,2.360000,0.073891,ResetBack,-66.041748,-0.200000,ResetBack,33493.000000,-0.300000,LowGoal,0.000000,-1454.545455,Speed,0.000000,-1454.545455,Speed,Off,Off0.000000,0,,,,
04:42:31.797 PM 03/19/2016,Teleop Disabled,10,FALSE,0,NO ERROR,-0.000000,0.218166,0.000000,0.089833,TRUE,TRUE,TRUE,FALSE,FALSE,FALSE,Disabled,0.000000,0.000000,0.000000,TRUE,0.017105,-0.029449,0.000000,0.000000,0.000000,0.000000,-0.002000,-0.002000,0.017000,-0.030000,-0.480000,2.360000,0.079155,ResetBack,-66.041748,-0.200000,ResetBack,33493.000000,-0.300000,LowGoal,0.000000,-1454.545455,Speed,0.000000,-1454.545455,Speed,Off,Off0.000000,0,,,,
04:42:31.898 PM 03/19/2016,Teleop Disabled,10,FALSE,0,NO ERROR,-0.000000,0.218166,0.000000,0.089833,TRUE,TRUE,TRUE,FALSE,FALSE,FALSE,Disabled,0.000000,0.000000,0.000000,TRUE,0.017105,-0.029449,0.000000,0.000000,0.000000,0.000000,0.000000,-0.001000,0.017000,-0.030000,-0.470000,2.370000,0.078063,ResetBack,-66.041748,-0.200000,ResetBack,33493.000000,-0.300000,LowGoal,0.000000,0.000000,Speed,0.000000,0.000000,Speed,Off,Off0.000000,0,,,,
04:42:31.998 PM 03/19/2016,Teleop Disabled,10,FALSE,0,NO ERROR,-0.000000,0.218166,0.000000,0.089833,TRUE,FALSE,TRUE,FALSE,FALSE,FALSE,Disabled,0.000000,0.000000,0.000000,TRUE,0.017105,-0.029449,0.000000,0.000000,0.000000,0.000000,-0.001000,0.000000,0.010000,-0.030000,-0.480000,2.370000,0.085630,ResetBack,-66.041748,-0.200000,ResetBack,33493.000000,-0.300000,LowGoal,0.000000,0.000000,Speed,0.000000,0.000000,Speed,Off,Off0.000000,0,,,,
04:42:32.098 PM 03/19/2016,Teleop Disabled,10,FALSE,0,NO ERROR,-0.000000,0.218166,0.000000,0.089833,TRUE,FALSE,TRUE,FALSE,FALSE,FALSE,Disabled,0.000000,0.000000,0.000000,TRUE,0.017105,-0.029449,0.000000,0.000000,0.000000,0.000000,0.000000,0.000000,0.018000,-0.030000,-0.480000,2.370000,0.084566,ResetBack,-66.041748,-0.200000,ResetBack,33493.000000,-0.300000,LowGoal,0.000000,-1454.545455,Speed,0.000000,-1454.545455,Speed,Off,Off0.000000,0,,,,
04:42:32.199 PM 03/19/2016,Teleop Disabled,11,FALSE,0,NO ERROR,-0.000000,0.218166,0.000000,0.089833,TRUE,FALSE,TRUE,FALSE,FALSE,FALSE,Disabled,0.000000,0.000000,0.000000,TRUE,0.017105,-0.029449,0.000000,0.000000,0.000000,0.000000,0.000000,-0.002000,0.019000,-0.030000,-0.480000,2.370000,0.097893,ResetBack,-66.041748,-0.200000,ResetBack,33493.000000,-0.300000,LowGoal,0.000000,-1454.545455,Speed,0.000000,-1454.545455,Speed,Off,Off0.000000,0,,,,
04:42:32.299 PM 03/19/2016,Teleop Disabled,9,FALSE,0,NO ERROR,-0.000000,0.218166,0.000000,0.089833,TRUE,FALSE,TRUE,FALSE,FALSE,FALSE,Disabled,0.000000,0.000000,0.000000,TRUE,0.017105,-0.029449,0.000000,0.000000,0.000000,0.000000,-0.001000,-0.002000,0.016000,-0.030000,-0.480000,2.370000,0.093276,ResetBack,-66.041748,-0.200000,ResetBack,33493.000000,-0.300000,LowGoal,0.000000,-1454.545455,Speed,0.000000,-1454.545455,Speed,Off,Off0.000000,0,,,,
04:42:32.400 PM 03/19/2016,Teleop Disabled,11,FALSE,0,NO ERROR,-0.000000,0.218166,0.000000,0.089833,TRUE,FALSE,TRUE,FALSE,FALSE,FALSE,Disabled,0.000000,0.000000,0.000000,TRUE,0.017105,-0.029449,0.000000,0.000000,0.000000,0.000000,0.001000,0.000000,0.015000,-0.030000,-0.480000,2.370000,0.093613,ResetBack,-66.041748,-0.200000,ResetBack,33493.000000,-0.300000,LowGoal,0.000000,-1454.545455,Speed,0.000000,-1454.545455,Speed,Off,Off0.000000,0,,,,
04:42:32.500 PM 03/19/2016,Teleop Disabled,10,FALSE,0,NO ERROR,-0.000000,0.218166,0.000000,0.089833,TRUE,FALSE,TRUE,FALSE,FALSE,FALSE,Disabled,0.000000,0.000000,0.000000,TRUE,0.017105,-0.029449,0.000000,0.000000,0.000000,0.000000,0.000000,-0.004000,0.013000,-0.030000,-0.480000,2.360000,0.100616,ResetBack,-66.041748,-0.200000,ResetBack,33493.000000,-0.300000,LowGoal,0.000000,-1454.545455,Speed,0.000000,-1454.545455,Speed,Off,Off0.000000,0,,,,
04:42:32.600 PM 03/19/2016,Teleop Disabled,10,FALSE,0,NO ERROR,-0.000000,0.218166,0.000000,0.089833,TRUE,TRUE,TRUE,FALSE,FALSE,FALSE,Disabled,0.000000,0.000000,0.000000,TRUE,0.017105,-0.029449,0.000000,0.000000,0.000000,0.000000,0.001000,0.001000,0.019000,-0.030000,-0.480000,2.350000,0.093159,ResetBack,-66.041748,-0.200000,ResetBack,33493.000000,-0.300000,LowGoal,0.000000,-1454.545455,Speed,0.000000,-1454.545455,Speed,Off,Off0.000000,0,,,,
04:42:32.700 PM 03/19/2016,Teleop Disabled,10,FALSE,0,NO ERROR,-0.000000,0.218166,0.000000,0.089833,TRUE,TRUE,TRUE,FALSE,FALSE,FALSE,Disabled,0.000000,0.000000,0.000000,TRUE,0.017105,-0.029449,0.000000,0.000000,0.000000,0.000000,-0.003000,-0.003000,0.017000,-0.030000,-0.480000,2.360000,0.085038,ResetBack,-66.041748,-0.200000,ResetBack,33493.000000,-0.300000,LowGoal,0.000000,0.000000,Speed,0.000000,0.000000,Speed,Off,Off0.000000,0,,,,
04:42:32.800 PM 03/19/2016,Teleop Disabled,10,FALSE,0,NO ERROR,-0.000000,0.218166,0.000000,0.089833,TRUE,FALSE,TRUE,FALSE,FALSE,FALSE,Disabled,0.000000,0.000000,0.000000,TRUE,0.017105,-0.029449,0.000000,0.000000,0.000000,0.000000,0.001000,0.000000,0.016000,-0.030000,-0.480000,2.350000,0.093273,ResetBack,-66.041748,-0.200000,ResetBack,33493.000000,-0.300000,LowGoal,0.000000,0.000000,Speed,0.000000,0.000000,Speed,Off,Off0.000000,0,,,,
04:42:32.902 PM 03/19/2016,Teleop Disabled,10,FALSE,0,NO ERROR,-0.000000,0.218166,0.000000,0.089833,TRUE,FALSE,TRUE,FALSE,FALSE,FALSE,Disabled,0.000000,0.000000,0.000000,TRUE,0.017105,-0.029449,0.000000,0.000000,0.000000,0.000000,-0.002000,0.000000,0.013000,-0.030000,-0.480000,2.350000,0.082639,ResetBack,-66.041748,-0.200000,ResetBack,33493.000000,-0.300000,LowGoal,0.000000,-1454.545455,Speed,0.000000,-1454.545455,Speed,Off,Off0.000000,0,,,,
04:42:33.002 PM 03/19/2016,Teleop Disabled,10,FALSE,0,NO ERROR,-0.000000,0.218166,0.000000,0.089833,TRUE,FALSE,TRUE,FALSE,FALSE,FALSE,Disabled,0.000000,0.000000,0.000000,TRUE,0.017105,-0.029449,0.000000,0.000000,0.000000,0.000000,-0.001000,0.000000,0.016000,-0.030000,-0.480000,2.350000,0.063515,ResetBack,-66.041748,-0.200000,ResetBack,33493.000000,-0.300000,LowGoal,0.000000,-1454.545455,Speed,0.000000,-1454.545455,Speed,Off,Off0.000000,0,,,,
04:42:33.102 PM 03/19/2016,Teleop Disabled,11,FALSE,0,NO ERROR,-0.000000,0.218166,0.000000,0.089833,TRUE,FALSE,TRUE,FALSE,FALSE,FALSE,Disabled,0.000000,0.000000,0.000000,TRUE,0.017105,-0.029449,0.000000,0.000000,0.000000,0.000000,-0.003000,-0.002000,0.019000,-0.030000,-0.480000,2.350000,0.079303,ResetBack,-66.041748,-0.200000,ResetBack,33493.000000,-0.300000,LowGoal,0.000000,-1454.545455,Speed,0.000000,-1454.545455,Speed,Off,Off0.000000,0,,,,
04:42:33.203 PM 03/19/2016,Teleop Disabled,9,FALSE,0,NO ERROR,-0.000000,0.218166,0.000000,0.089833,TRUE,FALSE,TRUE,FALSE,FALSE,FALSE,Disabled,0.000000,0.000000,0.000000,TRUE,0.017105,-0.029449,0.000000,0.000000,0.000000,0.000000,0.000000,-0.001000,0.016000,-0.030000,-0.470000,2.350000,0.065185,ResetBack,-66.041748,-0.200000,ResetBack,33493.000000,-0.300000,LowGoal,0.000000,-1454.545455,Speed,0.000000,-1454.545455,Speed,Off,Off0.000000,0,,,,
04:42:33.303 PM 03/19/2016,Teleop Disabled,10,FALSE,0,NO ERROR,-0.000000,0.218166,0.000000,0.089833,TRUE,FALSE,TRUE,FALSE,FALSE,FALSE,Disabled,0.000000,0.000000,0.000000,TRUE,0.017105,-0.029449,0.000000,0.000000,0.000000,0.000000,0.000000,-0.001000,0.016000,-0.030000,-0.470000,2.350000,0.062365,ResetBack,-66.041748,-0.200000,ResetBack,33493.000000,-0.300000,LowGoal,0.000000,-1454.545455,Speed,0.000000,-1454.545455,Speed,Off,Off0.000000,0,,,,
04:42:33.404 PM 03/19/2016,Teleop Disabled,10,FALSE,0,NO ERROR,-0.000000,0.218166,0.000000,0.089833,TRUE,TRUE,TRUE,FALSE,FALSE,FALSE,Disabled,0.000000,0.000000,0.000000,TRUE,0.017105,-0.029449,0.000000,0.000000,0.000000,0.000000,0.005000,0.000000,0.017000,-0.030000,-0.480000,2.350000,0.053046,ResetBack,-66.041748,-0.200000,ResetBack,33493.000000,-0.300000,LowGoal,0.000000,-1454.545455,Speed,0.000000,-1454.545455,Speed,Off,Off0.000000,0,,,,
04:42:33.504 PM 03/19/2016,Teleop Disabled,10,FALSE,0,NO ERROR,-0.000000,0.218166,0.000000,0.089833,TRUE,TRUE,TRUE,FALSE,FALSE,FALSE,Disabled,0.000000,0.000000,0.000000,TRUE,0.017105,-0.029449,0.000000,0.000000,0.000000,0.000000,-0.002000,0.001000,0.014000,-0.030000,-0.480000,2.340000,0.044581,ResetBack,-66.041748,-0.200000,ResetBack,33493.000000,-0.300000,LowGoal,0.000000,0.000000,Speed,0.000000,0.000000,Speed,Off,Off0.000000,0,,,,
04:42:33.604 PM 03/19/2016,Teleop Disabled,10,FALSE,0,NO ERROR,-0.000000,0.218166,0.000000,0.089833,TRUE,FALSE,TRUE,FALSE,FALSE,FALSE,Disabled,0.000000,0.000000,0.000000,TRUE,0.017105,-0.029449,0.000000,0.000000,0.000000,0.000000,0.000000,0.003000,0.021000,-0.030000,-0.480000,2.340000,0.054947,ResetBack,-66.041748,-0.200000,ResetBack,33493.000000,-0.300000,LowGoal,0.000000,0.000000,Speed,0.000000,0.000000,Speed,Off,Off0.000000,0,,,,
04:42:33.705 PM 03/19/2016,Teleop Disabled,9,FALSE,0,NO ERROR,-0.000000,0.218166,0.000000,0.089833,TRUE,FALSE,TRUE,FALSE,FALSE,FALSE,Disabled,0.000000,0.000000,0.000000,TRUE,0.017105,-0.029449,0.000000,0.000000,0.000000,0.000000,0.000000,0.003000,0.021000,-0.030000,-0.480000,2.340000,0.057057,ResetBack,-66.041748,-0.200000,ResetBack,33493.000000,-0.300000,LowGoal,0.000000,-1454.545455,Speed,0.000000,-1454.545455,Speed,Off,Off0.000000,0,,,,
04:42:33.806 PM 03/19/2016,Teleop Disabled,9,FALSE,0,NO ERROR,-0.000000,0.218166,0.000000,0.089833,TRUE,FALSE,TRUE,FALSE,FALSE,FALSE,Disabled,0.000000,0.000000,0.000000,TRUE,0.017105,-0.029449,0.000000,0.000000,0.000000,0.000000,0.003000,0.001000,0.016000,-0.030000,-0.490000,2.340000,0.050382,ResetBack,-66.041748,-0.200000,ResetBack,33493.000000,-0.300000,LowGoal,0.000000,-1454.545455,Speed,0.000000,-1454.545455,Speed,Off,Off0.000000,0,,,,
04:42:33.907 PM 03/19/2016,Teleop Disabled,9,FALSE,0,NO ERROR,-0.000000,0.218166,0.000000,0.089833,TRUE,FALSE,TRUE,FALSE,FALSE,FALSE,Disabled,0.000000,0.000000,0.000000,TRUE,0.017105,-0.029449,0.000000,0.000000,0.000000,0.000000,0.002000,-0.001000,0.018000,-0.030000,-0.500000,2.340000,0.043979,ResetBack,-66.041748,-0.200000,ResetBack,33493.000000,-0.300000,LowGoal,0.000000,-1454.545455,Speed,0.000000,-1454.545455,Speed,Off,Off0.000000,0,,,,
04:42:34.007 PM 03/19/2016,Teleop Disabled,9,FALSE,0,NO ERROR,-0.000000,0.218166,0.000000,0.089833,TRUE,FALSE,TRUE,FALSE,FALSE,FALSE,Disabled,0.000000,0.000000,0.000000,TRUE,0.017105,-0.029449,0.000000,0.000000,0.000000,0.000000,0.002000,-0.001000,0.018000,-0.030000,-0.500000,2.340000,0.034611,ResetBack,-66.041748,-0.200000,ResetBack,33493.000000,-0.300000,LowGoal,0.000000,-1454.545455,Speed,0.000000,-1454.545455,Speed,Off,Off0.000000,0,,,,
04:42:34.107 PM 03/19/2016,Teleop Disabled,9,FALSE,0,NO ERROR,-0.000000,0.218166,0.000000,0.089833,TRUE,FALSE,TRUE,FALSE,FALSE,FALSE,Disabled,0.000000,0.000000,0.000000,TRUE,0.017105,-0.029449,0.000000,0.000000,0.000000,0.000000,-0.003000,-0.002000,0.021000,-0.030000,-0.480000,2.330000,0.027262,ResetBack,-66.041748,-0.200000,ResetBack,33493.000000,-0.300000,LowGoal,0.000000,-1454.545455,Speed,0.000000,-1454.545455,Speed,Off,Off0.000000,0,,,,
04:42:34.208 PM 03/19/2016,Teleop Disabled,10,FALSE,0,NO ERROR,-0.000000,0.218166,0.000000,0.089833,TRUE,TRUE,TRUE,FALSE,FALSE,FALSE,Disabled,0.000000,0.000000,0.000000,TRUE,0.017105,-0.029449,0.000000,0.000000,0.000000,0.000000,-0.003000,-0.002000,0.021000,-0.030000,-0.480000,2.330000,0.028088,ResetBack,-66.041748,-0.200000,ResetBack,33493.000000,-0.300000,LowGoal,0.000000,-1454.545455,Speed,0.000000,-1454.545455,Speed,Off,Off0.000000,0,,,,
04:42:34.308 PM 03/19/2016,Teleop Disabled,10,FALSE,0,NO ERROR,-0.000000,0.218166,0.000000,0.089833,TRUE,TRUE,TRUE,FALSE,FALSE,FALSE,Disabled,0.000000,0.000000,0.000000,TRUE,0.017105,-0.029449,0.000000,0.000000,0.000000,0.000000,-0.006000,0.009000,0.016000,-0.030000,-0.470000,2.330000,0.025485,ResetBack,-66.041748,-0.200000,ResetBack,33493.000000,-0.300000,LowGoal,0.000000,0.000000,Speed,0.000000,0.000000,Speed,Off,Off0.000000,0,,,,
04:42:34.409 PM 03/19/2016,Teleop Disabled,9,FALSE,0,NO ERROR,-0.000000,0.218166,0.000000,0.089833,TRUE,FALSE,TRUE,FALSE,FALSE,FALSE,Disabled,0.000000,0.000000,0.000000,TRUE,0.017105,-0.029449,0.000000,0.000000,0.000000,0.000000,-0.002000,-0.002000,0.013000,-0.030000,-0.470000,2.330000,0.015605,ResetBack,-66.041748,-0.200000,ResetBack,33493.000000,-0.300000,LowGoal,0.000000,0.000000,Speed,0.000000,0.000000,Speed,Off,Off0.000000,0,,,,
04:42:34.509 PM 03/19/2016,Teleop Disabled,9,FALSE,0,NO ERROR,-0.000000,0.218166,0.000000,0.089833,TRUE,FALSE,TRUE,FALSE,FALSE,FALSE,Disabled,0.000000,0.000000,0.000000,TRUE,0.017105,-0.029449,0.000000,0.000000,0.000000,0.000000,-0.002000,0.000000,0.018000,-0.030000,-0.470000,2.330000,-0.001198,ResetBack,-66.041748,-0.200000,ResetBack,33493.000000,-0.300000,LowGoal,0.000000,-1454.545455,Speed,0.000000,-1454.545455,Speed,Off,Off0.000000,0,,,,
04:42:34.610 PM 03/19/2016,Teleop Disabled,11,FALSE,0,NO ERROR,-0.000000,0.218166,0.000000,0.089833,TRUE,FALSE,TRUE,FALSE,FALSE,FALSE,Disabled,0.000000,0.000000,0.000000,TRUE,0.017105,-0.029449,0.000000,0.000000,0.000000,0.000000,0.002000,0.001000,0.018000,-0.020000,-0.470000,2.330000,-0.006513,ResetBack,-66.041748,-0.200000,ResetBack,33493.000000,-0.300000,LowGoal,0.000000,-1454.545455,Speed,0.000000,-1454.545455,Speed,Off,Off0.000000,0,,,,
04:42:34.712 PM 03/19/2016,Teleop Disabled,11,FALSE,0,NO ERROR,-0.000000,0.218166,0.000000,0.089833,TRUE,FALSE,TRUE,FALSE,FALSE,FALSE,Disabled,0.000000,0.000000,0.000000,TRUE,0.017105,-0.029449,0.000000,0.000000,0.000000,0.000000,0.002000,0.003000,0.017000,-0.030000,-0.480000,2.340000,-0.016548,ResetBack,-66.041748,-0.200000,ResetBack,33493.000000,-0.300000,LowGoal,0.000000,-1454.545455,Speed,0.000000,-1454.545455,Speed,Off,Off0.000000,0,,,,
04:42:34.812 PM 03/19/2016,Teleop Disabled,11,FALSE,0,NO ERROR,-0.000000,0.218166,0.000000,0.089833,TRUE,FALSE,TRUE,FALSE,FALSE,FALSE,Disabled,0.000000,0.000000,0.000000,TRUE,0.017105,-0.029449,0.000000,0.000000,0.000000,0.000000,0.001000,0.005000,0.014000,-0.030000,-0.480000,2.340000,-0.013946,ResetBack,-66.041748,-0.200000,ResetBack,33493.000000,-0.300000,LowGoal,0.000000,-1454.545455,Speed,0.000000,-1454.545455,Speed,Off,Off0.000000,0,,,,
04:42:34.912 PM 03/19/2016,Teleop Disabled,9,FALSE,0,NO ERROR,-0.000000,0.218166,0.000000,0.089833,TRUE,FALSE,TRUE,FALSE,FALSE,FALSE,Disabled,0.000000,0.000000,0.000000,TRUE,0.017105,-0.029449,0.000000,0.000000,0.000000,0.000000,0.003000,0.001000,0.012000,-0.030000,-0.480000,2.340000,-0.012903,ResetBack,-66.041748,-0.200000,ResetBack,33493.000000,-0.300000,LowGoal,0.000000,-1454.545455,Speed,0.000000,-1454.545455,Speed,Off,Off0.000000,0,,,,
04:42:35.013 PM 03/19/2016,Teleop Disabled,11,FALSE,0,NO ERROR,-0.000000,0.218166,0.000000,0.089833,TRUE,TRUE,TRUE,FALSE,FALSE,FALSE,Disabled,0.000000,0.000000,0.000000,TRUE,0.017105,-0.029449,0.000000,0.000000,0.000000,0.000000,0.004000,0.004000,0.012000,-0.030000,-0.480000,2.340000,0.004940,ResetBack,-66.041748,-0.200000,ResetBack,33493.000000,-0.300000,LowGoal,0.000000,-1454.545455,Speed,0.000000,-1454.545455,Speed,Off,Off0.000000,0,,,,
04:42:35.113 PM 03/19/2016,Teleop Disabled,11,FALSE,0,NO ERROR,-0.000000,0.218166,0.000000,0.089833,TRUE,TRUE,TRUE,FALSE,FALSE,FALSE,Disabled,0.000000,0.000000,0.000000,TRUE,0.017105,-0.029449,0.000000,0.000000,0.000000,0.000000,-0.003000,0.005000,0.017000,-0.030000,-0.480000,2.340000,0.009443,ResetBack,-66.041748,-0.200000,ResetBack,33493.000000,-0.300000,LowGoal,0.000000,0.000000,Speed,0.000000,0.000000,Speed,Off,Off0.000000,0,,,,
04:42:35.215 PM 03/19/2016,Teleop Disabled,10,FALSE,0,NO ERROR,-0.000000,0.218166,0.000000,0.089833,TRUE,FALSE,TRUE,FALSE,FALSE,FALSE,Disabled,0.000000,0.000000,0.000000,TRUE,0.017105,-0.029449,0.000000,0.000000,0.000000,0.000000,0.004000,-0.001000,0.020000,-0.030000,-0.480000,2.340000,0.015898,ResetBack,-66.041748,-0.200000,ResetBack,33493.000000,-0.300000,LowGoal,0.000000,0.000000,Speed,0.000000,0.000000,Speed,Off,Off0.000000,0,,,,
04:42:35.315 PM 03/19/2016,Teleop Disabled,10,FALSE,0,NO ERROR,-0.000000,0.218166,0.000000,0.089833,TRUE,FALSE,TRUE,FALSE,FALSE,FALSE,Disabled,0.000000,0.000000,0.000000,TRUE,0.017105,-0.029449,0.000000,0.000000,0.000000,0.000000,0.003000,-0.001000,0.016000,-0.030000,-0.480000,2.340000,0.007171,ResetBack,-66.041748,-0.200000,ResetBack,33493.000000,-0.300000,LowGoal,0.000000,-1454.545455,Speed,0.000000,-1454.545455,Speed,Off,Off0.000000,0,,,,
04:42:35.416 PM 03/19/2016,Teleop Disabled,10,FALSE,0,NO ERROR,-0.000000,0.218166,0.000000,0.089833,TRUE,FALSE,TRUE,FALSE,FALSE,FALSE,Disabled,0.000000,0.000000,0.000000,TRUE,0.017105,-0.029449,0.000000,0.000000,0.000000,0.000000,0.001000,-0.002000,0.020000,-0.030000,-0.470000,2.340000,0.007171,ResetBack,-66.041748,-0.200000,ResetBack,33493.000000,-0.300000,LowGoal,0.000000,-1454.545455,Speed,0.000000,-1454.545455,Speed,Off,Off0.000000,0,,,,
04:42:35.516 PM 03/19/2016,Teleop Disabled,10,FALSE,0,NO ERROR,-0.000000,0.218166,0.000000,0.089833,TRUE,FALSE,TRUE,FALSE,FALSE,FALSE,Disabled,0.000000,0.000000,0.000000,TRUE,0.017105,-0.029449,0.000000,0.000000,0.000000,0.000000,0.005000,-0.001000,0.018000,-0.020000,-0.480000,2.340000,0.005825,ResetBack,-66.041748,-0.200000,ResetBack,33493.000000,-0.300000,LowGoal,0.000000,-1454.545455,Speed,0.000000,-1454.545455,Speed,Off,Off0.000000,0,,,,
04:42:35.615 PM 03/19/2016,Teleop Disabled,11,FALSE,0,NO ERROR,-0.000000,0.218166,0.000000,0.089833,TRUE,FALSE,TRUE,FALSE,FALSE,FALSE,Disabled,0.000000,0.000000,0.000000,TRUE,0.017105,-0.029449,0.000000,0.000000,0.000000,0.000000,0.000000,0.000000,0.019000,-0.020000,-0.480000,2.330000,0.003659,ResetBack,-66.041748,-0.200000,ResetBack,33493.000000,-0.300000,LowGoal,0.000000,-1454.545455,Speed,0.000000,-1454.545455,Speed,Off,Off0.000000,0,,,,
04:42:35.715 PM 03/19/2016,Teleop Disabled,10,FALSE,0,NO ERROR,-0.000000,0.218166,0.000000,0.089833,TRUE,FALSE,TRUE,FALSE,FALSE,FALSE,Disabled,0.000000,0.000000,0.000000,TRUE,0.017105,-0.029449,0.000000,0.000000,0.000000,0.000000,0.002000,0.002000,0.013000,-0.020000,-0.470000,2.330000,0.007625,ResetBack,-66.041748,-0.200000,ResetBack,33493.000000,-0.300000,LowGoal,0.000000,-1454.545455,Speed,0.000000,-1454.545455,Speed,Off,Off0.000000,0,,,,
04:42:35.817 PM 03/19/2016,Teleop Disabled,10,FALSE,0,NO ERROR,-0.000000,0.218166,0.000000,0.089833,TRUE,FALSE,TRUE,FALSE,FALSE,FALSE,Disabled,0.000000,0.000000,0.000000,TRUE,0.017105,-0.029449,0.000000,0.000000,0.000000,0.000000,-0.001000,0.001000,0.019000,-0.020000,-0.480000,2.330000,0.015182,ResetBack,-66.041748,-0.200000,ResetBack,33493.000000,-0.300000,LowGoal,0.000000,-1454.545455,Speed,0.000000,-1454.545455,Speed,Off,Off0.000000,0,,,,
04:42:35.918 PM 03/19/2016,Teleop Disabled,10,FALSE,0,NO ERROR,-0.000000,0.218166,0.000000,0.089833,TRUE,TRUE,TRUE,FALSE,FALSE,FALSE,Disabled,0.000000,0.000000,0.000000,TRUE,0.017105,-0.029449,0.000000,0.000000,0.000000,0.000000,0.000000,0.001000,0.016000,-0.010000,-0.470000,2.330000,0.010693,ResetBack,-66.041748,-0.200000,ResetBack,33493.000000,-0.300000,LowGoal,0.000000,-1454.545455,Speed,0.000000,-1454.545455,Speed,Off,Off0.000000,0,,,,
04:42:36.020 PM 03/19/2016,Teleop Disabled,11,FALSE,0,NO ERROR,-0.000000,0.218166,0.000000,0.089833,TRUE,TRUE,TRUE,FALSE,FALSE,FALSE,Disabled,0.000000,0.000000,0.000000,TRUE,0.017105,-0.029449,0.000000,0.000000,0.000000,0.000000,-0.001000,0.000000,0.017000,-0.010000,-0.470000,2.330000,0.014104,ResetBack,-66.041748,-0.200000,ResetBack,33493.000000,-0.300000,LowGoal,0.000000,0.000000,Speed,0.000000,0.000000,Speed,Off,Off0.000000,0,,,,
04:42:36.120 PM 03/19/2016,Teleop Disabled,11,FALSE,0,NO ERROR,-0.000000,0.218166,0.000000,0.089833,TRUE,FALSE,TRUE,FALSE,FALSE,FALSE,Disabled,0.000000,0.000000,0.000000,TRUE,0.017105,-0.029449,0.000000,0.000000,0.000000,0.000000,0.002000,0.000000,0.020000,-0.010000,-0.480000,2.330000,0.012438,ResetBack,-66.041748,-0.200000,ResetBack,33493.000000,-0.300000,LowGoal,0.000000,0.000000,Speed,0.000000,0.000000,Speed,Off,Off0.000000,0,,,,
04:42:36.220 PM 03/19/2016,Teleop Disabled,11,FALSE,0,NO ERROR,-0.000000,0.218166,0.000000,0.089833,TRUE,FALSE,TRUE,FALSE,FALSE,FALSE,Disabled,0.000000,0.000000,0.000000,TRUE,0.017105,-0.029449,0.000000,0.000000,0.000000,0.000000,-0.001000,-0.001000,0.019000,-0.010000,-0.480000,2.330000,0.012104,ResetBack,-66.041748,-0.200000,ResetBack,33493.000000,-0.300000,LowGoal,0.000000,-1454.545455,Speed,0.000000,-1454.545455,Speed,Off,Off0.000000,0,,,,
04:42:36.320 PM 03/19/2016,Teleop Disabled,10,FALSE,0,NO ERROR,-0.000000,0.218166,0.000000,0.089833,TRUE,FALSE,TRUE,FALSE,FALSE,FALSE,Disabled,0.000000,0.000000,0.000000,TRUE,0.017105,-0.029449,0.000000,0.000000,0.000000,0.000000,0.000000,0.000000,0.014000,-0.010000,-0.470000,2.330000,0.006510,ResetBack,-66.041748,-0.200000,ResetBack,33493.000000,-0.300000,LowGoal,0.000000,-1454.545455,Speed,0.000000,-1454.545455,Speed,Off,Off0.000000,0,,,,
04:42:36.420 PM 03/19/2016,Teleop Disabled,10,FALSE,0,NO ERROR,-0.000000,0.218166,0.000000,0.089833,TRUE,FALSE,TRUE,FALSE,FALSE,FALSE,Disabled,0.000000,0.000000,0.000000,TRUE,0.017105,-0.029449,0.000000,0.000000,0.000000,0.000000,0.000000,-0.002000,0.014000,-0.010000,-0.470000,2.330000,0.014201,ResetBack,-66.041748,-0.200000,ResetBack,33493.000000,-0.300000,LowGoal,0.000000,-1454.545455,Speed,0.000000,-1454.545455,Speed,Off,Off0.000000,0,,,,
04:42:36.520 PM 03/19/2016,Teleop Disabled,10,FALSE,0,NO ERROR,-0.000000,0.218166,0.000000,0.089833,TRUE,FALSE,TRUE,FALSE,FALSE,FALSE,Disabled,0.000000,0.000000,0.000000,TRUE,0.017105,-0.029449,0.000000,0.000000,0.000000,0.000000,0.000000,0.000000,0.012000,-0.010000,-0.470000,2.330000,0.021650,ResetBack,-66.041748,-0.200000,ResetBack,33493.000000,-0.300000,LowGoal,0.000000,-1454.545455,Speed,0.000000,-1454.545455,Speed,Off,Off0.000000,0,,,,
04:42:36.620 PM 03/19/2016,Teleop Disabled,9,FALSE,0,NO ERROR,-0.000000,0.218166,0.000000,0.089833,TRUE,FALSE,TRUE,FALSE,FALSE,FALSE,Disabled,0.000000,0.000000,0.000000,TRUE,0.017105,-0.029449,0.000000,0.000000,0.000000,0.000000,0.000000,0.000000,0.019000,-0.010000,-0.470000,2.330000,0.017591,ResetBack,-66.041748,-0.200000,ResetBack,33493.000000,-0.300000,LowGoal,0.000000,-1454.545455,Speed,0.000000,-1454.545455,Speed,Off,Off0.000000,0,,,,
04:42:36.720 PM 03/19/2016,Teleop Disabled,10,FALSE,0,NO ERROR,-0.000000,0.218166,0.000000,0.089833,TRUE,TRUE,TRUE,FALSE,FALSE,FALSE,Disabled,0.000000,0.000000,0.000000,TRUE,0.017105,-0.029449,0.000000,0.000000,0.000000,0.000000,0.000000,0.001000,0.017000,-0.010000,-0.470000,2.330000,0.026305,ResetBack,-66.041748,-0.200000,ResetBack,33493.000000,-0.300000,LowGoal,0.000000,-1454.545455,Speed,0.000000,-1454.545455,Speed,Off,Off0.000000,0,,,,
04:42:36.820 PM 03/19/2016,Teleop Disabled,10,FALSE,0,NO ERROR,-0.000000,0.218166,0.000000,0.089833,TRUE,TRUE,TRUE,FALSE,FALSE,FALSE,Disabled,0.000000,0.000000,0.000000,TRUE,0.017105,-0.029449,0.000000,0.000000,0.000000,0.000000,0.000000,0.002000,0.017000,-0.010000,-0.470000,2.330000,0.027344,ResetBack,-66.041748,-0.200000,ResetBack,33493.000000,-0.300000,LowGoal,0.000000,0.000000,Speed,0.000000,0.000000,Speed,Off,Off0.000000,0,,,,
04:42:36.920 PM 03/19/2016,Teleop Disabled,10,FALSE,0,NO ERROR,-0.000000,0.218166,0.000000,0.089833,TRUE,FALSE,TRUE,FALSE,FALSE,FALSE,Disabled,0.000000,0.000000,0.000000,TRUE,0.017105,-0.029449,0.000000,0.000000,0.000000,0.000000,0.000000,0.002000,0.019000,-0.010000,-0.480000,2.340000,0.006682,ResetBack,-66.041748,-0.200000,ResetBack,33493.000000,-0.300000,LowGoal,0.000000,0.000000,Speed,0.000000,0.000000,Speed,Off,Off0.000000,0,,,,
04:42:37.020 PM 03/19/2016,Teleop Disabled,10,FALSE,0,NO ERROR,-0.000000,0.218166,0.000000,0.089833,TRUE,FALSE,TRUE,FALSE,FALSE,FALSE,Disabled,0.000000,0.000000,0.000000,TRUE,0.017105,-0.029449,0.000000,0.000000,0.000000,0.000000,0.002000,0.000000,0.016000,-0.010000,-0.480000,2.340000,0.004358,ResetBack,-66.041748,-0.200000,ResetBack,33493.000000,-0.300000,LowGoal,0.000000,-1454.545455,Speed,0.000000,-1454.545455,Speed,Off,Off0.000000,0,,,,
04:42:37.120 PM 03/19/2016,Teleop Disabled,10,FALSE,0,NO ERROR,-0.000000,0.218166,0.000000,0.089833,TRUE,FALSE,TRUE,FALSE,FALSE,FALSE,Disabled,0.000000,0.000000,0.000000,TRUE,0.017105,-0.029449,0.000000,0.000000,0.000000,0.000000,0.001000,0.000000,0.021000,-0.010000,-0.480000,2.340000,-0.000733,ResetBack,-66.041748,-0.200000,ResetBack,33493.000000,-0.300000,LowGoal,0.000000,-1454.545455,Speed,0.000000,-1454.545455,Speed,Off,Off0.000000,0,,,,
04:42:37.220 PM 03/19/2016,Teleop Disabled,10,FALSE,0,NO ERROR,-0.000000,0.218166,0.000000,0.089833,TRUE,FALSE,TRUE,FALSE,FALSE,FALSE,Disabled,0.000000,0.000000,0.000000,TRUE,0.017105,-0.029449,0.000000,0.000000,0.000000,0.000000,0.000000,0.000000,0.016000,-0.010000,-0.480000,2.340000,-0.010018,ResetBack,-66.041748,-0.200000,ResetBack,33493.000000,-0.300000,LowGoal,0.000000,-1454.545455,Speed,0.000000,-1454.545455,Speed,Off,Off0.000000,0,,,,
04:42:37.320 PM 03/19/2016,Teleop Disabled,10,FALSE,0,NO ERROR,-0.000000,0.218166,0.000000,0.089833,TRUE,FALSE,TRUE,FALSE,FALSE,FALSE,Disabled,0.000000,0.000000,0.000000,TRUE,0.017105,-0.029449,0.000000,0.000000,0.000000,0.000000,0.000000,0.003000,0.016000,-0.010000,-0.480000,2.340000,-0.020404,ResetBack,-66.041748,-0.200000,ResetBack,33493.000000,-0.300000,LowGoal,0.000000,-1454.545455,Speed,0.000000,-1454.545455,Speed,Off,Off0.000000,0,,,,
04:42:37.421 PM 03/19/2016,Teleop Disabled,11,FALSE,0,NO ERROR,-0.000000,0.218166,0.000000,0.089833,TRUE,FALSE,TRUE,FALSE,FALSE,FALSE,Disabled,0.000000,0.000000,0.000000,TRUE,0.017105,-0.029449,0.000000,0.000000,0.000000,0.000000,0.000000,0.000000,0.019000,-0.010000,-0.480000,2.340000,-0.036770,ResetBack,-66.041748,-0.200000,ResetBack,33493.000000,-0.300000,LowGoal,0.000000,-1454.545455,Speed,0.000000,-1454.545455,Speed,Off,Off0.000000,0,,,,
04:42:37.523 PM 03/19/2016,Teleop Disabled,10,FALSE,0,NO ERROR,-0.000000,0.218166,0.000000,0.089833,TRUE,TRUE,TRUE,FALSE,FALSE,FALSE,Disabled,0.000000,0.000000,0.000000,TRUE,0.017105,-0.029449,0.000000,0.000000,0.000000,0.000000,0.001000,0.000000,0.018000,-0.010000,-0.480000,2.340000,-0.049356,ResetBack,-66.041748,-0.200000,ResetBack,33493.000000,-0.300000,LowGoal,0.000000,-1454.545455,Speed,0.000000,-1454.545455,Speed,Off,Off0.000000,0,,,,
04:42:37.623 PM 03/19/2016,Teleop Disabled,10,FALSE,0,NO ERROR,-0.000000,0.218166,0.000000,0.089833,TRUE,TRUE,TRUE,FALSE,FALSE,FALSE,Disabled,0.000000,0.000000,0.000000,TRUE,0.017105,-0.029449,0.000000,0.000000,0.000000,0.000000,0.000000,0.000000,0.016000,-0.010000,-0.480000,2.340000,-0.059728,ResetBack,-66.041748,-0.200000,ResetBack,33493.000000,-0.300000,LowGoal,0.000000,0.000000,Speed,0.000000,0.000000,Speed,Off,Off0.000000,0,,,,
04:42:37.723 PM 03/19/2016,Teleop Disabled,11,FALSE,0,NO ERROR,-0.000000,0.218166,0.000000,0.089833,TRUE,FALSE,TRUE,FALSE,FALSE,FALSE,Disabled,0.000000,0.000000,0.000000,TRUE,0.017105,-0.029449,0.000000,0.000000,0.000000,0.000000,0.002000,0.000000,0.017000,-0.010000,-0.480000,2.340000,-0.045456,ResetBack,-66.041748,-0.200000,ResetBack,33493.000000,-0.300000,LowGoal,0.000000,0.000000,Speed,0.000000,0.000000,Speed,Off,Off0.000000,0,,,,
04:42:37.823 PM 03/19/2016,Teleop Disabled,10,FALSE,0,NO ERROR,-0.000000,0.218166,0.000000,0.089833,TRUE,FALSE,TRUE,FALSE,FALSE,FALSE,Disabled,0.000000,0.000000,0.000000,TRUE,0.017105,-0.029449,0.000000,0.000000,0.000000,0.000000,0.000000,0.002000,0.017000,-0.010000,-0.480000,2.330000,-0.034260,ResetBack,-66.041748,-0.200000,ResetBack,33493.000000,-0.300000,LowGoal,0.000000,-1454.545455,Speed,0.000000,-1454.545455,Speed,Off,Off0.000000,0,,,,
04:42:37.923 PM 03/19/2016,Teleop Disabled,10,FALSE,0,NO ERROR,-0.000000,0.218166,0.000000,0.089833,TRUE,FALSE,TRUE,FALSE,FALSE,FALSE,Disabled,0.000000,0.000000,0.000000,TRUE,0.017105,-0.029449,0.000000,0.000000,0.000000,0.000000,0.000000,0.001000,0.019000,-0.010000,-0.480000,2.340000,-0.038829,ResetBack,-66.041748,-0.200000,ResetBack,33493.000000,-0.300000,LowGoal,0.000000,-1454.545455,Speed,0.000000,-1454.545455,Speed,Off,Off0.000000,0,,,,
04:42:38.025 PM 03/19/2016,Teleop Disabled,10,FALSE,0,NO ERROR,-0.000000,0.218166,0.000000,0.089833,TRUE,FALSE,TRUE,FALSE,FALSE,FALSE,Disabled,0.000000,0.000000,0.000000,TRUE,0.017105,-0.029449,0.000000,0.000000,0.000000,0.000000,0.000000,0.000000,0.011000,-0.010000,-0.480000,2.340000,-0.046234,ResetBack,-66.041748,-0.200000,ResetBack,33493.000000,-0.300000,LowGoal,0.000000,-1454.545455,Speed,0.000000,-1454.545455,Speed,Off,Off0.000000,0,,,,
04:42:38.126 PM 03/19/2016,Teleop Disabled,11,FALSE,0,NO ERROR,-0.000000,0.218166,0.000000,0.089833,TRUE,FALSE,TRUE,FALSE,FALSE,FALSE,Disabled,0.000000,0.000000,0.000000,TRUE,0.017105,-0.029449,0.000000,0.000000,0.000000,0.000000,0.001000,-0.001000,0.019000,-0.010000,-0.480000,2.350000,-0.060100,ResetBack,-66.041748,-0.200000,ResetBack,33493.000000,-0.300000,LowGoal,0.000000,-1454.545455,Speed,0.000000,-1454.545455,Speed,Off,Off0.000000,0,,,,
04:42:38.226 PM 03/19/2016,Teleop Disabled,10,FALSE,0,NO ERROR,-0.000000,0.218166,0.000000,0.089833,TRUE,FALSE,TRUE,FALSE,FALSE,FALSE,Disabled,0.000000,0.000000,0.000000,TRUE,0.017105,-0.029449,0.000000,0.000000,0.000000,0.000000,0.000000,0.000000,0.019000,-0.010000,-0.480000,2.340000,-0.061288,ResetBack,-66.041748,-0.200000,ResetBack,33493.000000,-0.300000,LowGoal,0.000000,-1454.545455,Speed,0.000000,-1454.545455,Speed,Off,Off0.000000,0,,,,
04:42:38.326 PM 03/19/2016,Teleop Disabled,10,FALSE,0,NO ERROR,-0.000000,0.218166,0.000000,0.089833,TRUE,TRUE,TRUE,FALSE,FALSE,FALSE,Disabled,0.000000,0.000000,0.000000,TRUE,0.017105,-0.029449,0.000000,0.000000,0.000000,0.000000,-0.001000,-0.001000,0.019000,-0.010000,-0.480000,2.340000,-0.064995,ResetBack,-66.041748,-0.200000,ResetBack,33493.000000,-0.300000,LowGoal,0.000000,-1454.545455,Speed,0.000000,-1454.545455,Speed,Off,Off0.000000,0,,,,
04:42:38.426 PM 03/19/2016,Teleop Disabled,10,FALSE,0,NO ERROR,-0.000000,0.218166,0.000000,0.089833,TRUE,TRUE,TRUE,FALSE,FALSE,FALSE,Disabled,0.000000,0.000000,0.000000,TRUE,0.017105,-0.029449,0.000000,0.000000,0.000000,0.000000,0.000000,0.000000,0.021000,-0.010000,-0.480000,2.350000,-0.074759,ResetBack,-66.041748,-0.200000,ResetBack,33493.000000,-0.300000,LowGoal,0.000000,0.000000,Speed,0.000000,0.000000,Speed,Off,Off0.000000,0,,,,
04:42:38.526 PM 03/19/2016,Teleop Disabled,11,FALSE,0,NO ERROR,-0.000000,0.218166,0.000000,0.089833,TRUE,FALSE,TRUE,FALSE,FALSE,FALSE,Disabled,0.000000,0.000000,0.000000,TRUE,0.017105,-0.029449,0.000000,0.000000,0.000000,0.000000,0.002000,-0.001000,0.013000,-0.010000,-0.480000,2.340000,-0.077595,ResetBack,-66.041748,-0.200000,ResetBack,33493.000000,-0.300000,LowGoal,0.000000,0.000000,Speed,0.000000,0.000000,Speed,Off,Off0.000000,0,,,,
04:42:38.627 PM 03/19/2016,Teleop Disabled,10,FALSE,0,NO ERROR,-0.000000,0.218166,0.000000,0.089833,TRUE,FALSE,TRUE,FALSE,FALSE,FALSE,Disabled,0.000000,0.000000,0.000000,TRUE,0.017105,-0.029449,0.000000,0.000000,0.000000,0.000000,-0.002000,-0.001000,0.013000,-0.010000,-0.480000,2.340000,-0.070655,ResetBack,-66.041748,-0.200000,ResetBack,33493.000000,-0.300000,LowGoal,0.000000,-1454.545455,Speed,0.000000,-1454.545455,Speed,Off,Off0.000000,0,,,,
04:42:38.727 PM 03/19/2016,Teleop Disabled,10,FALSE,0,NO ERROR,-0.000000,0.218166,0.000000,0.089833,TRUE,FALSE,TRUE,FALSE,FALSE,FALSE,Disabled,0.000000,0.000000,0.000000,TRUE,0.017105,-0.029449,0.000000,0.000000,0.000000,0.000000,0.000000,-0.002000,0.019000,-0.010000,-0.480000,2.350000,-0.062896,ResetBack,-66.041748,-0.200000,ResetBack,33493.000000,-0.300000,LowGoal,0.000000,-1454.545455,Speed,0.000000,-1454.545455,Speed,Off,Off0.000000,0,,,,
04:42:38.828 PM 03/19/2016,Teleop Disabled,9,FALSE,0,NO ERROR,-0.000000,0.218166,0.000000,0.089833,TRUE,FALSE,TRUE,FALSE,FALSE,FALSE,Disabled,0.000000,0.000000,0.000000,TRUE,0.017105,-0.029449,0.000000,0.000000,0.000000,0.000000,0.003000,0.001000,0.018000,-0.010000,-0.480000,2.350000,-0.050668,ResetBack,-66.041748,-0.200000,ResetBack,33493.000000,-0.300000,LowGoal,0.000000,-1454.545455,Speed,0.000000,-1454.545455,Speed,Off,Off0.000000,0,,,,
04:42:38.928 PM 03/19/2016,Teleop Disabled,11,FALSE,0,NO ERROR,-0.000000,0.218166,0.000000,0.089833,TRUE,FALSE,TRUE,FALSE,FALSE,FALSE,Disabled,0.000000,0.000000,0.000000,TRUE,0.017105,-0.029449,0.000000,0.000000,0.000000,0.000000,0.000000,-0.001000,0.016000,-0.010000,-0.480000,2.340000,-0.039793,ResetBack,-66.041748,-0.200000,ResetBack,33493.000000,-0.300000,LowGoal,0.000000,-1454.545455,Speed,0.000000,-1454.545455,Speed,Off,Off0.000000,0,,,,
04:42:39.028 PM 03/19/2016,Teleop Disabled,10,FALSE,0,NO ERROR,-0.000000,0.218166,0.000000,0.089833,TRUE,FALSE,TRUE,FALSE,FALSE,FALSE,Disabled,0.000000,0.000000,0.000000,TRUE,0.017105,-0.029449,0.000000,0.000000,0.000000,0.000000,-0.001000,0.000000,0.021000,-0.010000,-0.480000,2.340000,-0.042553,ResetBack,-66.041748,-0.200000,ResetBack,33493.000000,-0.300000,LowGoal,0.000000,-1454.545455,Speed,0.000000,-1454.545455,Speed,Off,Off0.000000,0,,,,
04:42:39.128 PM 03/19/2016,Teleop Disabled,10,FALSE,0,NO ERROR,-0.000000,0.218166,0.000000,0.089833,TRUE,TRUE,TRUE,FALSE,FALSE,FALSE,Disabled,0.000000,0.000000,0.000000,TRUE,0.017105,-0.029449,0.000000,0.000000,0.000000,0.000000,-0.001000,-0.001000,0.017000,-0.010000,-0.480000,2.340000,-0.036629,ResetBack,-66.041748,-0.200000,ResetBack,33493.000000,-0.300000,LowGoal,0.000000,-1454.545455,Speed,0.000000,-1454.545455,Speed,Off,Off0.000000,0,,,,
04:42:39.228 PM 03/19/2016,Teleop Disabled,10,FALSE,0,NO ERROR,-0.000000,0.218166,0.000000,0.089833,TRUE,TRUE,TRUE,FALSE,FALSE,FALSE,Disabled,0.000000,0.000000,0.000000,TRUE,0.017105,-0.029449,0.000000,0.000000,0.000000,0.000000,0.000000,-0.001000,0.021000,0.000000,-0.480000,2.350000,-0.023162,ResetBack,-66.041748,-0.200000,ResetBack,33493.000000,-0.300000,LowGoal,0.000000,0.000000,Speed,0.000000,0.000000,Speed,Off,Off0.000000,0,,,,
04:42:39.328 PM 03/19/2016,Teleop Disabled,10,FALSE,0,NO ERROR,-0.000000,0.218166,0.000000,0.089833,TRUE,FALSE,TRUE,FALSE,FALSE,FALSE,Disabled,0.000000,0.000000,0.000000,TRUE,0.017105,-0.029449,0.000000,0.000000,0.000000,0.000000,0.000000,0.001000,0.016000,0.000000,-0.480000,2.350000,-0.015436,ResetBack,-66.041748,-0.200000,ResetBack,33493.000000,-0.300000,LowGoal,0.000000,0.000000,Speed,0.000000,0.000000,Speed,Off,Off0.000000,0,,,,
04:42:39.428 PM 03/19/2016,Teleop Disabled,10,FALSE,0,NO ERROR,-0.000000,0.218166,0.000000,0.089833,TRUE,FALSE,TRUE,FALSE,FALSE,FALSE,Disabled,0.000000,0.000000,0.000000,TRUE,0.017105,-0.029449,0.000000,0.000000,0.000000,0.000000,-0.002000,0.000000,0.019000,-0.010000,-0.480000,2.350000,-0.009791,ResetBack,-66.041748,-0.200000,ResetBack,33493.000000,-0.300000,LowGoal,0.000000,-1454.545455,Speed,0.000000,-1454.545455,Speed,Off,Off0.000000,0,,,,
