Time,Robot Mode,Loop Time,Error Status,Error Code,Error Source,Left Motor Output,Left Motor Encoder,Right Motor Output,Right Motor Encoder,Is Level,Is Stalled,Ball Detector Photoeye,Vision Enabled,Vision Teleop Control,Vision Auto Control,Vision Current State,Vision X Output,Vision NavX Error,Vision NavX Target,NavX Connection Status,NavX Displacement X,NavX Displacement Y,NavX Displacement Z,NavX Velocity X,NavX Velocity Y,NavX Velocity Z,NavX Acceleration X,NavX Acceleration Y,NavX Acceleration Z,NavX Pitch,NavX Yaw,NavX Roll,Gyro Angle,Roller Arm State,Roller Arm Actual,Roller Arm Desired,Shooter Arm State,Shooter Arm Actual,Shooter Arm Desired,Shooter State,Actual RPM Left,Desired RPM Left,Control Mode Left,Actual RPM Right,Desired RPM Right,Scaler Motor Output,Auto To Run,Auto Current File,Auto File Status,Auto Current Command,Auto Trimmed Command
03:18:32.454 PM 03/19/2016,Teleop Enabled,11,FALSE,0,NO ERROR,-0.000000,0.115500,0.000000,0.275916,TRUE,FALSE,TRUE,FALSE,FALSE,FALSE,Disabled,0.000000,0.000000,0.000000,TRUE,-0.002319,-0.008957,0.000000,0.000000,0.000000,0.000000,0.002000,0.000000,0.022000,-0.120000,-0.240000,2.820000,-0.905279,ResetBack,0.000000,-0.200000,ResetBack,146829.000000,-0.300000,LowGoal,0.000000,0.000000,Speed,0.000000,0.000000,Speed,Off,Off0.000000,0,,,,
03:18:32.554 PM 03/19/2016,Teleop Enabled,10,FALSE,0,NO ERROR,-0.000000,0.115500,0.000000,0.307999,TRUE,FALSE,TRUE,FALSE,FALSE,FALSE,Disabled,0.000000,0.000000,0.000000,TRUE,-0.002319,-0.008957,0.000000,0.000000,0.000000,0.000000,-0.023000,-0.070000,0.050000,-0.120000,-0.240000,2.820000,-0.907565,ResetBack,-1.023682,-0.200000,ResetBack,147409.000000,-0.300000,LowGoal,0.000000,-1454.545455,Speed,0.000000,-1454.545455,Speed,Off,Off0.000000,0,,,,
03:18:32.654 PM 03/19/2016,Teleop Enabled,10,FALSE,0,NO ERROR,-0.000000,0.314416,0.000000,0.359332,TRUE,FALSE,TRUE,FALSE,FALSE,FALSE,Disabled,0.000000,0.000000,0.000000,TRUE,-0.002548,-0.008728,0.000000,0.000000,0.018829,0.000000,-0.014000,0.029000,-0.171000,-0.110000,-0.410000,2.920000,-0.882224,ResetBack,-1.258789,-0.200000,ResetBack,153667.000000,-0.300000,LowGoal,97.500000,-1454.545455,Speed,22.500000,-1454.545455,Speed,Off,Off0.000000,0,,,,
03:18:32.755 PM 03/19/2016,Teleop Enabled,9,FALSE,0,NO ERROR,-0.000000,0.314416,0.000000,0.359332,TRUE,FALSE,TRUE,FALSE,FALSE,FALSE,Disabled,0.000000,0.000000,0.000000,TRUE,-0.002380,-0.007721,0.000000,0.004318,0.000000,0.000000,0.005000,0.020000,0.007000,-0.110000,-0.210000,2.920000,-0.896704,ResetBack,-1.258545,-0.200000,ResetBack,154865.000000,-0.300000,LowGoal,682.500000,-1454.545455,Speed,765.000000,-1454.545455,Speed,Off,Off0.000000,0,,,,
03:18:32.856 PM 03/19/2016,Teleop Enabled,9,FALSE,0,NO ERROR,-0.000000,0.314416,0.000000,0.359332,TRUE,FALSE,TRUE,FALSE,FALSE,FALSE,Disabled,0.000000,0.000000,0.000000,TRUE,-0.002411,-0.007736,0.000000,-0.013443,-0.001511,0.000000,0.032000,-0.073000,-0.023000,-0.130000,-0.400000,2.950000,-0.927164,Reset,-1.258545,0.000000,ResetBack,155477.000000,-0.300000,LowGoal,1425.000000,-1454.545455,Speed,1387.500000,-1454.545455,Speed,Off,Off0.000000,0,,,,
03:18:32.956 PM 03/19/2016,Teleop Enabled,10,FALSE,0,NO ERROR,-0.000000,0.314416,0.000000,0.359332,TRUE,FALSE,TRUE,FALSE,FALSE,FALSE,Disabled,0.000000,0.000000,0.000000,TRUE,-0.002335,-0.008362,0.000000,0.021011,-0.010666,0.000000,-0.045000,-0.003000,0.001000,-0.120000,-0.340000,2.900000,-0.898184,Hold,1.170654,0.000000,ResetBack,155477.000000,-0.300000,LowGoal,1582.500000,-1454.545455,Speed,1635.000000,-1454.545455,Speed,Off,Off0.000000,0,,,,
03:18:33.056 PM 03/19/2016,Teleop Enabled,9,FALSE,0,NO ERROR,-0.000000,0.314416,0.000000,0.359332,TRUE,FALSE,TRUE,FALSE,FALSE,FALSE,Disabled,0.000000,0.000000,0.000000,TRUE,-0.001846,-0.008789,0.000000,0.010605,-0.016983,0.000000,0.008000,0.068000,0.111000,-0.120000,-0.330000,2.880000,-0.918237,Hold,0.901855,0.000000,ResetBack,156903.000000,-0.300000,LowGoal,1387.500000,-1454.545455,Speed,1425.000000,-1454.545455,Speed,Off,Off0.000000,0,,,,
03:18:33.157 PM 03/19/2016,Teleop Enabled,11,FALSE,0,NO ERROR,-0.000000,0.314416,0.000000,0.359332,TRUE,FALSE,TRUE,FALSE,FALSE,FALSE,Disabled,0.000000,0.000000,0.000000,TRUE,-0.001862,-0.008881,0.000000,0.002075,-0.008530,0.000000,0.022000,0.062000,0.082000,-0.110000,-0.300000,2.900000,-0.921139,Hold,0.902344,0.000000,ResetBack,157616.000000,-0.300000,LowGoal,1327.500000,-1454.545455,Speed,1320.000000,-1454.545455,Speed,Off,Off0.000000,0,,,,
03:18:33.257 PM 03/19/2016,Teleop Enabled,10,FALSE,0,NO ERROR,-0.000000,0.314416,0.000000,0.359332,TRUE,FALSE,TRUE,FALSE,FALSE,FALSE,Disabled,0.000000,0.000000,0.000000,TRUE,-0.001648,-0.009003,0.000000,0.016800,-0.012253,0.000000,0.002000,-0.035000,0.019000,-0.120000,-0.270000,2.850000,-0.924113,Hold,0.902344,0.000000,ResetBack,157842.000000,-0.300000,LowGoal,1395.000000,-1454.545455,Speed,1410.000000,-1454.545455,Speed,Off,Off0.000000,0,,,,
03:18:33.358 PM 03/19/2016,Teleop Enabled,10,FALSE,0,NO ERROR,-0.000000,0.314416,0.000000,0.359332,TRUE,FALSE,TRUE,FALSE,FALSE,FALSE,Disabled,0.000000,0.000000,0.000000,TRUE,-0.001755,-0.011154,0.000000,-0.016403,-0.038879,0.000000,0.024000,0.046000,-0.046000,-0.120000,-0.320000,2.890000,-0.921363,Hold,0.902344,0.000000,ResetBack,157842.000000,-0.300000,LowGoal,1410.000000,-1454.545455,Speed,1425.000000,-1454.545455,Speed,Off,Off0.000000,0,,,,
03:18:33.458 PM 03/19/2016,Teleop Enabled,8,FALSE,0,NO ERROR,-0.000000,0.314416,0.000000,0.359332,TRUE,FALSE,TRUE,FALSE,FALSE,FALSE,Disabled,0.000000,0.000000,0.000000,TRUE,-0.002380,-0.013245,0.000000,0.000000,-0.048172,0.000000,0.009000,0.021000,-0.011000,-0.120000,-0.330000,2.890000,-0.921545,Hold,0.902344,0.000000,ResetBack,157842.000000,-0.300000,LowGoal,1372.500000,-1454.545455,Speed,1395.000000,-1454.545455,Speed,Off,Off0.000000,0,,,,
03:18:33.559 PM 03/19/2016,Teleop Enabled,10,FALSE,0,NO ERROR,-0.000000,0.314416,0.000000,0.359332,TRUE,FALSE,TRUE,FALSE,FALSE,FALSE,Disabled,0.000000,0.000000,0.000000,TRUE,-0.002441,-0.014221,0.000000,0.000198,0.000351,0.000000,-0.091000,-0.036000,-0.079000,-0.120000,-0.330000,2.920000,-0.926843,Hold,0.902344,0.000000,ResetBack,157842.000000,-0.300000,LowGoal,1372.500000,-1454.545455,Speed,1380.000000,-1454.545455,Speed,Off,Off0.000000,0,,,,
03:18:33.660 PM 03/19/2016,Teleop Enabled,9,FALSE,0,NO ERROR,-0.000000,0.314416,0.000000,0.359332,TRUE,FALSE,TRUE,FALSE,FALSE,FALSE,Disabled,0.000000,0.000000,0.000000,TRUE,-0.002869,-0.014191,0.000000,-0.011810,-0.002502,0.000000,0.019000,0.013000,0.026000,-0.120000,-0.340000,2.960000,-0.935002,Hold,0.902344,0.000000,ResetBack,157842.000000,-0.300000,LowGoal,1395.000000,-1454.545455,Speed,1387.500000,-1454.545455,Speed,Off,Off0.000000,0,,,,
03:18:33.762 PM 03/19/2016,Teleop Enabled,9,FALSE,0,NO ERROR,-0.000000,0.314416,0.000000,0.359332,TRUE,FALSE,TRUE,FALSE,FALSE,FALSE,Disabled,0.000000,0.000000,0.000000,TRUE,-0.003525,-0.013748,0.000000,-0.011139,0.016357,0.000000,0.057000,-0.079000,-0.016000,-0.120000,-0.330000,2.930000,-0.929563,Hold,0.902344,0.000000,Reset,157842.000000,2.000000,LowGoal,1387.500000,-1454.545455,Speed,1395.000000,-1454.545455,Speed,Off,Off0.000000,0,,,,
03:18:33.864 PM 03/19/2016,Teleop Enabled,11,FALSE,0,NO ERROR,-0.000000,0.314416,0.000000,0.359332,TRUE,FALSE,TRUE,FALSE,FALSE,FALSE,Disabled,0.000000,0.000000,0.000000,TRUE,-0.004211,-0.013672,0.000000,-0.026062,0.003250,0.000000,0.038000,0.029000,0.032000,-0.120000,-0.340000,2.910000,-0.924506,Hold,0.902344,0.000000,Hold,-12.000000,2.000000,LowGoal,1387.500000,-1454.545455,Speed,1395.000000,-1454.545455,Speed,Off,Off0.000000,0,,,,
03:18:33.966 PM 03/19/2016,Teleop Enabled,10,FALSE,0,NO ERROR,-0.000000,0.314416,0.000000,0.359332,TRUE,FALSE,TRUE,FALSE,FALSE,FALSE,Disabled,0.000000,0.000000,0.000000,TRUE,-0.005325,-0.013474,0.000000,-0.033890,0.021317,0.000000,0.044000,-0.021000,-0.015000,-0.110000,-0.360000,2.880000,-0.943192,Hold,0.902344,0.000000,Hold,-259.000000,2.000000,LowGoal,1395.000000,-1454.545455,Speed,1395.000000,-1454.545455,Speed,Off,Off0.000000,0,,,,
03:18:34.067 PM 03/19/2016,Teleop Enabled,10,FALSE,0,NO ERROR,-0.000000,0.314416,0.000000,0.359332,TRUE,FALSE,TRUE,FALSE,FALSE,FALSE,Disabled,0.000000,0.000000,0.000000,TRUE,-0.006363,-0.012466,0.000000,-0.023239,0.004883,0.000000,0.044000,-0.021000,-0.015000,-0.120000,-0.350000,2.900000,-0.940101,Hold,0.902344,0.000000,Hold,-259.000000,2.000000,LowGoal,1387.500000,-1454.545455,Speed,1395.000000,-1454.545455,Speed,Off,Off0.000000,0,,,,
03:18:34.167 PM 03/19/2016,Teleop Enabled,10,FALSE,0,NO ERROR,-0.000000,0.314416,0.000000,0.359332,TRUE,FALSE,TRUE,FALSE,FALSE,FALSE,Disabled,0.000000,0.000000,0.000000,TRUE,-0.007751,-0.012421,0.000000,-0.030228,-0.001785,0.000000,-0.055000,0.055000,0.039000,-0.120000,-0.350000,2.900000,-0.946821,Hold,0.902344,0.000000,Hold,-259.000000,2.000000,LowGoal,1380.000000,-1454.545455,Speed,1395.000000,-1454.545455,Speed,Off,Off0.000000,0,,,,
03:18:34.268 PM 03/19/2016,Teleop Enabled,9,FALSE,0,NO ERROR,-0.000000,0.314416,0.000000,0.359332,TRUE,FALSE,TRUE,FALSE,FALSE,FALSE,Disabled,0.000000,0.000000,0.000000,TRUE,-0.009674,-0.012115,0.000000,-0.030823,-0.001785,0.000000,0.028000,-0.081000,0.035000,-0.120000,-0.320000,2.910000,-0.953919,Hold,0.902344,0.000000,Hold,-259.000000,2.000000,LowGoal,1380.000000,-1454.545455,Speed,1395.000000,-1454.545455,Speed,Off,Off0.000000,0,,,,
03:18:34.369 PM 03/19/2016,Teleop Enabled,11,FALSE,0,NO ERROR,-0.000000,0.314416,0.000000,0.359332,TRUE,FALSE,TRUE,FALSE,FALSE,FALSE,Disabled,0.000000,0.000000,0.000000,TRUE,-0.010635,-0.012405,0.000000,0.000000,0.000000,0.000000,-0.003000,0.001000,0.039000,-0.120000,-0.320000,2.910000,-0.942504,Hold,0.902344,0.000000,Hold,-259.000000,2.000000,LowGoal,1387.500000,-1454.545455,Speed,1395.000000,-1454.545455,Speed,Off,Off0.000000,0,,,,
03:18:34.469 PM 03/19/2016,Teleop Enabled,10,FALSE,0,NO ERROR,-0.000000,0.314416,0.000000,0.359332,TRUE,FALSE,TRUE,FALSE,FALSE,FALSE,Disabled,0.000000,0.000000,0.000000,TRUE,-0.011154,-0.010635,0.000000,-0.004440,0.030075,0.000000,-0.003000,0.001000,0.039000,-0.120000,-0.320000,2.930000,-0.947850,Hold,0.902344,0.000000,Hold,-259.000000,2.000000,LowGoal,1380.000000,-1454.545455,Speed,1395.000000,-1454.545455,Speed,Off,Off0.000000,0,,,,
03:18:34.569 PM 03/19/2016,Teleop Enabled,9,FALSE,0,NO ERROR,-0.000000,0.314416,0.000000,0.359332,TRUE,FALSE,TRUE,FALSE,FALSE,FALSE,Disabled,0.000000,0.000000,0.000000,TRUE,-0.011154,-0.010635,0.000000,-0.004440,0.030075,0.000000,0.083000,-0.004000,0.133000,-0.120000,-0.320000,2.950000,-0.955578,Hold,0.902344,0.000000,Hold,-259.000000,2.000000,LowGoal,1380.000000,-1454.545455,Speed,1387.500000,-1454.545455,Speed,Off,Off0.000000,0,,,,
03:18:34.670 PM 03/19/2016,Teleop Enabled,9,FALSE,0,NO ERROR,-0.000000,0.314416,0.000000,0.359332,TRUE,FALSE,TRUE,FALSE,FALSE,FALSE,Disabled,0.000000,0.000000,0.000000,TRUE,-0.010788,-0.005463,0.000000,0.003464,0.056763,0.000000,-0.006000,0.026000,0.083000,-0.120000,-0.330000,2.930000,-0.973077,Hold,0.902344,0.000000,Hold,-259.000000,2.000000,LowGoal,1380.000000,-1454.545455,Speed,1387.500000,-1454.545455,Speed,Off,Off0.000000,0,,,,
03:18:34.771 PM 03/19/2016,Teleop Enabled,9,FALSE,0,NO ERROR,-0.000000,0.314416,0.000000,0.359332,TRUE,FALSE,TRUE,FALSE,FALSE,FALSE,Disabled,0.000000,0.000000,0.000000,TRUE,-0.010742,-0.002045,0.000000,0.004135,0.068695,0.000000,-0.008000,0.069000,-0.010000,-0.110000,-0.360000,2.910000,-0.985157,Hold,0.902344,0.000000,Hold,-259.000000,2.000000,LowGoal,1387.500000,-1454.545455,Speed,1395.000000,-1454.545455,Speed,Off,Off0.000000,0,,,,
03:18:34.875 PM 03/19/2016,Teleop Enabled,10,FALSE,0,NO ERROR,-0.000000,0.314416,0.000000,0.359332,TRUE,FALSE,TRUE,FALSE,FALSE,FALSE,Disabled,0.000000,0.000000,0.000000,TRUE,-0.010529,0.001266,0.000000,0.012344,0.057938,0.000000,-0.044000,0.077000,0.051000,-0.120000,-0.310000,2.850000,-0.994799,Hold,0.902344,0.000000,Hold,-259.000000,2.000000,LowGoal,1387.500000,-1454.545455,Speed,1395.000000,-1454.545455,Speed,Off,Off0.000000,0,,,,
03:18:34.977 PM 03/19/2016,Teleop Enabled,11,FALSE,0,NO ERROR,-0.000000,0.314416,0.000000,0.359332,TRUE,FALSE,TRUE,FALSE,FALSE,FALSE,Disabled,0.000000,0.000000,0.000000,TRUE,-0.010529,0.001266,0.000000,0.012344,0.057938,0.000000,-0.051000,0.009000,-0.009000,-0.120000,-0.280000,2.800000,-0.997677,Hold,0.902344,0.000000,Hold,-259.000000,2.000000,LowGoal,1395.000000,-1454.545455,Speed,1395.000000,-1454.545455,Speed,Off,Off0.000000,0,,,,
03:18:35.076 PM 03/19/2016,Teleop Enabled,10,FALSE,0,NO ERROR,-0.000000,0.314416,0.000000,0.359332,TRUE,FALSE,TRUE,FALSE,FALSE,FALSE,Disabled,0.000000,0.000000,0.000000,TRUE,-0.010300,0.003189,0.000000,0.012161,0.016678,0.000000,-0.018000,-0.060000,0.003000,-0.120000,-0.260000,2.820000,-0.992786,Hold,0.902344,0.000000,Hold,-259.000000,2.000000,LowGoal,1395.000000,-1454.545455,Speed,1387.500000,-1454.545455,Speed,Off,Off0.000000,0,,,,
03:18:35.178 PM 03/19/2016,Teleop Enabled,11,FALSE,0,NO ERROR,-0.000000,0.314416,0.000000,0.359332,TRUE,FALSE,TRUE,FALSE,FALSE,FALSE,Disabled,0.000000,0.000000,0.000000,TRUE,-0.009995,0.003845,0.000000,0.007614,0.017776,0.000000,-0.024000,-0.027000,0.041000,-0.110000,-0.260000,2.770000,-1.004862,Hold,0.902344,0.000000,Hold,-259.000000,2.000000,LowGoal,1395.000000,-1454.545455,Speed,1395.000000,-1454.545455,Speed,Off,Off0.000000,0,,,,
03:18:35.278 PM 03/19/2016,Teleop Enabled,9,FALSE,0,NO ERROR,-0.000000,0.314416,0.000000,0.359332,TRUE,FALSE,TRUE,FALSE,FALSE,FALSE,Disabled,0.000000,0.000000,0.000000,TRUE,-0.009216,0.003708,0.000000,0.000000,-0.012909,0.000000,-0.002000,0.001000,-0.001000,-0.110000,-0.280000,2.800000,-1.026168,Hold,0.902344,0.000000,Hold,-259.000000,2.000000,LowGoal,1387.500000,-1454.545455,Speed,1395.000000,-1454.545455,Speed,Off,Off0.000000,0,,,,
03:18:35.378 PM 03/19/2016,Teleop Enabled,9,FALSE,0,NO ERROR,-0.000000,0.314416,0.000000,0.359332,TRUE,FALSE,TRUE,FALSE,FALSE,FALSE,Disabled,0.000000,0.000000,0.000000,TRUE,-0.009247,0.003723,0.000000,-0.002029,-0.009155,0.000000,-0.039000,0.038000,0.022000,-0.110000,-0.280000,2.800000,-1.025318,Hold,0.902344,0.000000,Hold,-259.000000,2.000000,LowGoal,1395.000000,-1454.545455,Speed,1395.000000,-1454.545455,Speed,Off,Off0.000000,0,,,,
03:18:35.479 PM 03/19/2016,Teleop Enabled,10,FALSE,0,NO ERROR,-0.000000,0.314416,0.000000,0.359332,TRUE,FALSE,TRUE,FALSE,FALSE,FALSE,Disabled,0.000000,0.000000,0.000000,TRUE,-0.009338,0.003021,0.000000,0.005203,-0.014755,0.000000,0.007000,-0.030000,0.032000,-0.110000,-0.250000,2.830000,-1.011028,Hold,0.902344,0.000000,Hold,-259.000000,2.000000,LowGoal,1395.000000,-1454.545455,Speed,1387.500000,-1454.545455,Speed,Off,Off0.000000,0,,,,
03:18:35.582 PM 03/19/2016,Teleop Enabled,10,FALSE,0,NO ERROR,-0.000000,0.314416,0.000000,0.359332,TRUE,FALSE,TRUE,FALSE,FALSE,FALSE,Disabled,0.000000,0.000000,0.000000,TRUE,-0.009766,0.001846,0.000000,-0.020477,-0.015305,0.000000,0.016000,0.004000,0.035000,-0.110000,-0.250000,2.830000,-1.001957,Hold,0.902344,0.000000,Hold,-259.000000,2.000000,LowGoal,1395.000000,-1454.545455,Speed,1402.500000,-1454.545455,Speed,Off,Off0.000000,0,,,,
03:18:35.681 PM 03/19/2016,Teleop Enabled,11,FALSE,0,NO ERROR,-0.000000,0.314416,0.000000,0.359332,TRUE,FALSE,TRUE,FALSE,FALSE,FALSE,Disabled,0.000000,0.000000,0.000000,TRUE,-0.010727,0.000458,0.000000,-0.026047,-0.015991,0.000000,0.052000,-0.034000,-0.007000,-0.110000,-0.290000,2.890000,-1.006938,Hold,0.902344,0.000000,Hold,-259.000000,2.000000,LowGoal,1395.000000,-1454.545455,Speed,1395.000000,-1454.545455,Speed,Off,Off0.000000,0,,,,
03:18:35.783 PM 03/19/2016,Teleop Enabled,11,FALSE,0,NO ERROR,-0.000000,0.314416,0.000000,0.359332,TRUE,FALSE,TRUE,FALSE,FALSE,FALSE,Disabled,0.000000,0.000000,0.000000,TRUE,-0.011475,0.000214,0.000000,-0.015564,-0.017426,0.000000,0.051000,0.011000,0.049000,-0.110000,-0.300000,2.860000,-1.016333,Hold,0.902344,0.000000,Hold,-259.000000,2.000000,LowGoal,1395.000000,-1454.545455,Speed,1395.000000,-1454.545455,Speed,Off,Off0.000000,0,,,,
03:18:35.884 PM 03/19/2016,Teleop Enabled,10,FALSE,0,NO ERROR,-0.000000,0.314416,0.000000,0.359332,TRUE,FALSE,TRUE,FALSE,FALSE,FALSE,Disabled,0.000000,0.000000,0.000000,TRUE,-0.011261,0.000046,0.000000,0.011734,-0.007874,0.000000,0.000000,-0.047000,0.057000,-0.110000,-0.260000,2.850000,-1.007175,Hold,0.902344,0.000000,Hold,-259.000000,2.000000,LowGoal,1395.000000,-1454.545455,Speed,1387.500000,-1454.545455,Speed,Off,Off0.000000,0,,,,
03:18:35.985 PM 03/19/2016,Teleop Enabled,10,FALSE,0,NO ERROR,-0.000000,0.314416,0.000000,0.359332,TRUE,FALSE,TRUE,FALSE,FALSE,FALSE,Disabled,0.000000,0.000000,0.000000,TRUE,-0.010864,-0.000046,0.000000,0.018326,-0.004181,0.000000,0.000000,-0.047000,0.057000,-0.110000,-0.260000,2.890000,-1.016956,Hold,0.902344,0.000000,Hold,-259.000000,2.000000,LowGoal,1395.000000,-1454.545455,Speed,1395.000000,-1454.545455,Speed,Off,Off0.000000,0,,,,
03:18:36.087 PM 03/19/2016,Teleop Enabled,10,FALSE,0,NO ERROR,-0.000000,0.314416,0.000000,0.359332,TRUE,FALSE,TRUE,FALSE,FALSE,FALSE,Disabled,0.000000,0.000000,0.000000,TRUE,-0.009689,-0.001572,0.000000,0.013992,-0.017670,0.000000,0.078000,-0.109000,0.037000,-0.110000,-0.290000,2.860000,-1.015262,Hold,0.902344,0.000000,Hold,-259.000000,2.000000,LowGoal,1395.000000,-1454.545455,Speed,1395.000000,-1454.545455,Speed,Off,Off0.000000,0,,,,
03:18:36.186 PM 03/19/2016,Teleop Enabled,10,FALSE,0,NO ERROR,-0.000000,0.314416,0.000000,0.359332,TRUE,FALSE,TRUE,FALSE,FALSE,FALSE,Disabled,0.000000,0.000000,0.000000,TRUE,-0.008850,-0.002808,0.000000,0.011566,-0.022995,0.000000,0.030000,-0.054000,-0.027000,-0.110000,-0.290000,2.860000,-1.006752,Hold,0.902344,0.000000,Hold,-259.000000,2.000000,LowGoal,1395.000000,-1454.545455,Speed,1395.000000,-1454.545455,Speed,Off,Off0.000000,0,,,,
03:18:36.287 PM 03/19/2016,Teleop Enabled,10,FALSE,0,NO ERROR,-0.000000,0.314416,0.000000,0.359332,TRUE,FALSE,TRUE,FALSE,FALSE,FALSE,Disabled,0.000000,0.000000,0.000000,TRUE,-0.008621,-0.003159,0.000000,0.000000,-0.009415,0.000000,-0.048000,0.027000,0.039000,-0.110000,-0.300000,2.850000,-1.010811,Hold,0.902344,0.000000,Hold,-259.000000,2.000000,LowGoal,1395.000000,-1454.545455,Speed,1395.000000,-1454.545455,Speed,Off,Off0.000000,0,,,,
03:18:36.388 PM 03/19/2016,Teleop Enabled,10,FALSE,0,NO ERROR,-0.000000,0.314416,0.000000,0.359332,TRUE,FALSE,TRUE,FALSE,FALSE,FALSE,Disabled,0.000000,0.000000,0.000000,TRUE,-0.009186,-0.003326,0.000000,-0.008316,-0.011520,0.000000,-0.080000,0.044000,0.043000,-0.110000,-0.260000,2.840000,-1.034805,Hold,0.902344,0.000000,Hold,-259.000000,2.000000,LowGoal,1395.000000,-1454.545455,Speed,1395.000000,-1454.545455,Speed,Off,Off0.000000,0,,,,
03:18:36.492 PM 03/19/2016,Teleop Enabled,10,FALSE,0,NO ERROR,-0.000000,0.314416,0.000000,0.359332,TRUE,FALSE,TRUE,FALSE,FALSE,FALSE,Disabled,0.000000,0.000000,0.000000,TRUE,-0.010086,-0.003754,0.000000,-0.021362,0.009827,0.000000,0.058000,-0.040000,0.002000,-0.110000,-0.270000,2.860000,-1.036489,Hold,0.902344,0.000000,Hold,-259.000000,2.000000,LowGoal,1395.000000,-1454.545455,Speed,1395.000000,-1454.545455,Speed,Off,Off0.000000,0,,,,
03:18:36.593 PM 03/19/2016,Teleop Enabled,10,FALSE,0,NO ERROR,-0.000000,0.314416,0.000000,0.359332,TRUE,FALSE,TRUE,FALSE,FALSE,FALSE,Disabled,0.000000,0.000000,0.000000,TRUE,-0.010818,-0.003555,0.000000,-0.009506,0.008224,0.000000,0.058000,-0.040000,0.002000,-0.110000,-0.320000,2.860000,-1.031459,Hold,0.902344,0.000000,Hold,-259.000000,2.000000,LowGoal,1395.000000,-1454.545455,Speed,1387.500000,-1454.545455,Speed,Off,Off0.000000,0,,,,
03:18:36.693 PM 03/19/2016,Teleop Enabled,11,FALSE,0,NO ERROR,-0.000000,0.314416,0.000000,0.359332,TRUE,FALSE,TRUE,FALSE,FALSE,FALSE,Disabled,0.000000,0.000000,0.000000,TRUE,-0.010818,-0.003326,0.000000,-0.008331,0.002289,0.000000,0.054000,0.004000,-0.001000,-0.110000,-0.320000,2.860000,-1.031642,Hold,0.902344,0.000000,Hold,-259.000000,2.000000,LowGoal,1395.000000,-1454.545455,Speed,1387.500000,-1454.545455,Speed,Off,Off0.000000,0,,,,
03:18:36.794 PM 03/19/2016,Teleop Enabled,11,FALSE,0,NO ERROR,-0.000000,0.314416,0.000000,0.359332,TRUE,FALSE,TRUE,FALSE,FALSE,FALSE,Disabled,0.000000,0.000000,0.000000,TRUE,-0.010834,-0.003098,0.000000,0.005981,-0.001984,0.000000,0.030000,0.009000,0.043000,-0.110000,-0.280000,2.800000,-1.036606,Hold,0.902344,0.000000,Hold,-259.000000,2.000000,LowGoal,1395.000000,-1454.545455,Speed,1395.000000,-1454.545455,Speed,Off,Off0.000000,0,,,,
03:18:36.894 PM 03/19/2016,Teleop Enabled,9,FALSE,0,NO ERROR,-0.000000,0.314416,0.000000,0.359332,TRUE,FALSE,TRUE,FALSE,FALSE,FALSE,Disabled,0.000000,0.000000,0.000000,TRUE,-0.010742,-0.002869,0.000000,-0.003830,0.008362,0.000000,-0.032000,0.028000,0.013000,-0.110000,-0.280000,2.800000,-1.052287,Hold,0.902344,0.000000,Hold,-259.000000,2.000000,LowGoal,1395.000000,-1454.545455,Speed,1395.000000,-1454.545455,Speed,Off,Off0.000000,0,,,,
03:18:36.995 PM 03/19/2016,Teleop Enabled,10,FALSE,0,NO ERROR,-0.000000,0.314416,0.000000,0.359332,TRUE,FALSE,TRUE,FALSE,FALSE,FALSE,Disabled,0.000000,0.000000,0.000000,TRUE,-0.011917,-0.002365,0.000000,0.000000,0.005798,0.000000,0.015000,0.020000,0.005000,-0.110000,-0.250000,2.830000,-1.060903,Hold,0.902344,0.000000,Hold,-259.000000,2.000000,LowGoal,1395.000000,-1454.545455,Speed,1395.000000,-1454.545455,Speed,Off,Off0.000000,0,,,,
03:18:37.095 PM 03/19/2016,Teleop Enabled,10,FALSE,0,NO ERROR,-0.000000,0.314416,0.000000,0.359332,TRUE,FALSE,TRUE,FALSE,FALSE,FALSE,Disabled,0.000000,0.000000,0.000000,TRUE,-0.012283,-0.002106,0.000000,-0.017380,-0.004288,0.000000,-0.007000,0.023000,0.009000,-0.110000,-0.290000,2.890000,-1.080502,Hold,0.902344,0.000000,Hold,-259.000000,2.000000,LowGoal,1395.000000,-1454.545455,Speed,1387.500000,-1454.545455,Speed,Off,Off0.000000,0,,,,
03:18:37.195 PM 03/19/2016,Teleop Enabled,10,FALSE,0,NO ERROR,-0.000000,0.314416,0.000000,0.359332,TRUE,FALSE,TRUE,FALSE,FALSE,FALSE,Disabled,0.000000,0.000000,0.000000,TRUE,-0.012329,-0.003571,0.000000,0.001953,-0.018158,0.000000,0.006000,-0.042000,-0.001000,-0.110000,-0.320000,2.830000,-1.087755,Hold,0.902344,0.000000,Hold,-259.000000,2.000000,LowGoal,1395.000000,-1454.545455,Speed,1395.000000,-1454.545455,Speed,Off,Off0.000000,0,,,,
03:18:37.295 PM 03/19/2016,Teleop Enabled,10,FALSE,0,NO ERROR,-0.000000,0.314416,0.000000,0.359332,TRUE,FALSE,TRUE,FALSE,FALSE,FALSE,Disabled,0.000000,0.000000,0.000000,TRUE,-0.011520,-0.004150,0.000000,0.025467,-0.018829,0.000000,-0.003000,-0.010000,-0.055000,-0.110000,-0.290000,2.830000,-1.090079,Hold,0.902344,0.000000,Hold,-259.000000,2.000000,LowGoal,1395.000000,-1454.545455,Speed,1395.000000,-1454.545455,Speed,Off,Off0.000000,0,,,,
03:18:37.398 PM 03/19/2016,Teleop Enabled,11,FALSE,0,NO ERROR,-0.000000,0.314416,0.000000,0.359332,TRUE,FALSE,TRUE,FALSE,FALSE,FALSE,Disabled,0.000000,0.000000,0.000000,TRUE,-0.010040,-0.004517,0.000000,0.031281,0.000000,0.000000,0.007000,-0.014000,-0.019000,-0.110000,-0.300000,2.890000,-1.096971,Hold,0.902344,0.000000,Hold,-259.000000,2.000000,LowGoal,1395.000000,-1454.545455,Speed,1395.000000,-1454.545455,Speed,Off,Off0.000000,0,,,,
03:18:37.499 PM 03/19/2016,Teleop Enabled,10,FALSE,0,NO ERROR,-0.000000,0.314416,0.000000,0.359332,TRUE,FALSE,TRUE,FALSE,FALSE,FALSE,Disabled,0.000000,0.000000,0.000000,TRUE,-0.010056,-0.004639,0.000000,0.000000,0.003891,0.000000,0.007000,-0.014000,-0.019000,-0.110000,-0.300000,2.890000,-1.112229,Hold,0.902344,0.000000,Hold,-259.000000,2.000000,LowGoal,1395.000000,-1454.545455,Speed,1395.000000,-1454.545455,Speed,Off,Off0.000000,0,,,,
03:18:37.600 PM 03/19/2016,Teleop Enabled,11,FALSE,0,NO ERROR,-0.000000,0.314416,0.000000,0.359332,TRUE,FALSE,TRUE,FALSE,FALSE,FALSE,Disabled,0.000000,0.000000,0.000000,TRUE,-0.010345,-0.004684,0.000000,-0.008347,-0.000427,0.000000,-0.015000,-0.014000,-0.072000,-0.110000,-0.320000,2.900000,-1.109382,Hold,0.902344,0.000000,Hold,-259.000000,2.000000,LowGoal,1395.000000,-1454.545455,Speed,1395.000000,-1454.545455,Speed,Off,Off0.000000,0,,,,
03:18:37.702 PM 03/19/2016,Teleop Enabled,9,FALSE,0,NO ERROR,-0.000000,0.314416,0.000000,0.359332,TRUE,FALSE,TRUE,FALSE,FALSE,FALSE,Disabled,0.000000,0.000000,0.000000,TRUE,-0.011032,-0.005142,0.000000,-0.024841,0.000000,0.000000,-0.002000,-0.008000,0.021000,-0.110000,-0.370000,2.870000,-1.118849,Hold,0.902344,0.000000,Hold,-248.000000,2.000000,LowGoal,1395.000000,-1454.545455,Speed,1387.500000,-1454.545455,Speed,Off,Off0.000000,0,,,,
03:18:37.803 PM 03/19/2016,Teleop Enabled,11,FALSE,0,NO ERROR,-0.000000,0.314416,0.000000,0.359332,TRUE,FALSE,TRUE,FALSE,FALSE,FALSE,Disabled,0.000000,0.000000,0.000000,TRUE,-0.012589,-0.005112,0.000000,-0.026382,-0.000809,0.000000,-0.017000,0.019000,-0.020000,-0.110000,-0.370000,2.870000,-1.112545,Hold,0.902344,0.000000,Hold,-248.000000,2.000000,LowGoal,1395.000000,-1454.545455,Speed,1395.000000,-1454.545455,Speed,Off,Off0.000000,0,,,,
03:18:37.907 PM 03/19/2016,Teleop Enabled,9,FALSE,0,NO ERROR,-0.000000,0.314416,0.000000,0.359332,TRUE,FALSE,TRUE,FALSE,FALSE,FALSE,Disabled,0.000000,0.000000,0.000000,TRUE,-0.014343,-0.005554,0.000000,-0.031067,-0.015671,0.000000,0.010000,-0.084000,-0.025000,-0.110000,-0.320000,2.900000,-1.103553,Hold,0.902344,0.000000,Hold,-248.000000,2.000000,LowGoal,1395.000000,-1454.545455,Speed,1395.000000,-1454.545455,Speed,Off,Off0.000000,0,,,,
03:18:38.007 PM 03/19/2016,Teleop Enabled,10,FALSE,0,NO ERROR,-0.000000,0.314416,0.000000,0.359332,TRUE,FALSE,TRUE,FALSE,FALSE,FALSE,Disabled,0.000000,0.000000,0.000000,TRUE,-0.016098,-0.005508,0.000000,-0.026474,0.006866,0.000000,0.010000,-0.084000,-0.025000,-0.110000,-0.320000,2.900000,-1.096858,Hold,0.902344,0.000000,Hold,-247.000000,2.000000,LowGoal,1402.500000,-1454.545455,Speed,1395.000000,-1454.545455,Speed,Off,Off0.000000,0,,,,
03:18:38.108 PM 03/19/2016,Teleop Enabled,11,FALSE,0,NO ERROR,-0.000000,0.314416,0.000000,0.359332,TRUE,FALSE,TRUE,FALSE,FALSE,FALSE,Disabled,0.000000,0.000000,0.000000,TRUE,-0.016205,-0.005432,0.000000,-0.006088,-0.000153,0.000000,0.016000,-0.050000,0.012000,-0.110000,-0.350000,2.920000,-1.111840,Hold,0.902344,0.000000,Hold,-246.000000,2.000000,LowGoal,1395.000000,-1454.545455,Speed,1387.500000,-1454.545455,Speed,Off,Off0.000000,0,,,,
03:18:38.208 PM 03/19/2016,Teleop Enabled,9,FALSE,0,NO ERROR,-0.000000,0.314416,0.000000,0.359332,TRUE,FALSE,TRUE,FALSE,FALSE,FALSE,Disabled,0.000000,0.000000,0.000000,TRUE,-0.015976,-0.005508,0.000000,0.008408,-0.003708,0.000000,0.040000,0.053000,0.078000,-0.110000,-0.380000,2.870000,-1.113950,Hold,0.902344,0.000000,Hold,-246.000000,2.000000,LowGoal,1395.000000,-1454.545455,Speed,1395.000000,-1454.545455,Speed,Off,Off0.000000,0,,,,
03:18:38.308 PM 03/19/2016,Teleop Enabled,10,FALSE,0,NO ERROR,-0.000000,0.314416,0.000000,0.359332,TRUE,FALSE,TRUE,FALSE,FALSE,FALSE,Disabled,0.000000,0.000000,0.000000,TRUE,-0.015640,-0.005783,0.000000,0.006317,-0.002563,0.000000,-0.006000,0.000000,0.062000,-0.110000,-0.360000,2.880000,-1.125541,Hold,0.902344,0.000000,Hold,-246.000000,2.000000,LowGoal,1395.000000,-1454.545455,Speed,1395.000000,-1454.545455,Speed,Off,Off0.000000,0,,,,
03:18:38.409 PM 03/19/2016,Teleop Enabled,11,FALSE,0,NO ERROR,-0.000000,0.314416,0.000000,0.359332,TRUE,FALSE,TRUE,FALSE,FALSE,FALSE,Disabled,0.000000,0.000000,0.000000,TRUE,-0.015640,-0.005783,0.000000,0.006317,-0.002563,0.000000,-0.053000,0.040000,0.003000,-0.110000,-0.310000,2.860000,-1.123393,Hold,0.902344,0.000000,Hold,-246.000000,2.000000,LowGoal,1395.000000,-1454.545455,Speed,1395.000000,-1454.545455,Speed,Off,Off0.000000,0,,,,
03:18:38.509 PM 03/19/2016,Teleop Enabled,11,FALSE,0,NO ERROR,-0.000000,0.314416,0.000000,0.359332,TRUE,FALSE,TRUE,FALSE,FALSE,FALSE,Disabled,0.000000,0.000000,0.000000,TRUE,-0.017548,-0.005768,0.000000,-0.035324,0.007065,0.000000,0.009000,-0.051000,-0.025000,-0.110000,-0.290000,2.850000,-1.148165,Hold,0.902344,0.000000,Hold,-246.000000,2.000000,LowGoal,1387.500000,-1454.545455,Speed,1395.000000,-1454.545455,Speed,Off,Off0.000000,0,,,,
03:18:38.610 PM 03/19/2016,Teleop Enabled,10,FALSE,0,NO ERROR,-0.000000,0.314416,0.000000,0.359332,TRUE,FALSE,TRUE,FALSE,FALSE,FALSE,Disabled,0.000000,0.000000,0.000000,TRUE,-0.019440,-0.005737,0.000000,-0.046646,0.020874,0.000000,0.009000,-0.051000,-0.025000,-0.110000,-0.320000,2.840000,-1.132509,Hold,0.902344,0.000000,Hold,-245.000000,2.000000,LowGoal,1395.000000,-1454.545455,Speed,1395.000000,-1454.545455,Speed,Off,Off0.000000,0,,,,
03:18:38.713 PM 03/19/2016,Teleop Enabled,10,FALSE,0,NO ERROR,-0.000000,0.314416,0.000000,0.359332,TRUE,FALSE,TRUE,FALSE,FALSE,FALSE,Disabled,0.000000,0.000000,0.000000,TRUE,-0.021133,-0.005188,0.000000,-0.034988,0.009689,0.000000,0.077000,-0.005000,-0.049000,-0.110000,-0.350000,2.930000,-1.132350,Hold,0.902344,0.000000,Hold,-245.000000,2.000000,LowGoal,1402.500000,-1454.545455,Speed,1395.000000,-1454.545455,Speed,Off,Off0.000000,0,,,,
03:18:38.813 PM 03/19/2016,Teleop Enabled,10,FALSE,0,NO ERROR,-0.000000,0.314416,0.000000,0.359332,TRUE,FALSE,TRUE,FALSE,FALSE,FALSE,Disabled,0.000000,0.000000,0.000000,TRUE,-0.022949,-0.004288,0.000000,-0.026474,0.009064,0.000000,0.000000,0.028000,0.113000,-0.110000,-0.340000,2.940000,-1.144788,Hold,0.902344,0.000000,Hold,-245.000000,2.000000,LowGoal,1387.500000,-1454.545455,Speed,1395.000000,-1454.545455,Speed,Off,Off0.000000,0,,,,
03:18:38.913 PM 03/19/2016,Teleop Enabled,10,FALSE,0,NO ERROR,-0.000000,0.314416,0.000000,0.359332,TRUE,FALSE,TRUE,FALSE,FALSE,FALSE,Disabled,0.000000,0.000000,0.000000,TRUE,-0.024704,-0.004410,0.000000,-0.035980,-0.013840,0.000000,-0.031000,-0.073000,-0.010000,-0.110000,-0.340000,2.940000,-1.147288,Hold,0.902344,0.000000,Hold,-244.000000,2.000000,LowGoal,1395.000000,-1454.545455,Speed,1387.500000,-1454.545455,Speed,Off,Off0.000000,0,,,,
03:18:39.014 PM 03/19/2016,Teleop Enabled,10,FALSE,0,NO ERROR,-0.000000,0.314416,0.000000,0.359332,TRUE,FALSE,TRUE,FALSE,FALSE,FALSE,Disabled,0.000000,0.000000,0.000000,TRUE,-0.024704,-0.004410,0.000000,-0.035980,-0.013840,0.000000,-0.003000,0.092000,0.107000,-0.110000,-0.320000,2.920000,-1.151959,Hold,0.902344,0.000000,Hold,-244.000000,2.000000,LowGoal,1402.500000,-1454.545455,Speed,1395.000000,-1454.545455,Speed,Off,Off0.000000,0,,,,
03:18:39.114 PM 03/19/2016,Teleop Enabled,10,FALSE,0,NO ERROR,-0.000000,0.314416,0.000000,0.359332,TRUE,FALSE,TRUE,FALSE,FALSE,FALSE,Disabled,0.000000,0.000000,0.000000,TRUE,-0.026718,-0.004593,0.000000,-0.030975,-0.013596,0.000000,0.030000,-0.001000,-0.057000,-0.110000,-0.350000,2.980000,-1.164332,Hold,0.902344,0.000000,Hold,-244.000000,2.000000,LowGoal,1395.000000,-1454.545455,Speed,1402.500000,-1454.545455,Speed,Off,Off0.000000,0,,,,
03:18:39.215 PM 03/19/2016,Teleop Enabled,10,FALSE,0,NO ERROR,-0.000000,0.314416,0.000000,0.359332,TRUE,FALSE,TRUE,FALSE,FALSE,FALSE,Disabled,0.000000,0.000000,0.000000,TRUE,-0.028305,-0.004959,0.000000,-0.034393,0.002197,0.000000,-0.016000,-0.085000,0.009000,-0.110000,-0.330000,2.960000,-1.159158,Hold,0.902344,0.000000,Hold,-243.000000,2.000000,LowGoal,1380.000000,-1454.545455,Speed,1395.000000,-1454.545455,Speed,Off,Off0.000000,0,,,,
03:18:39.314 PM 03/19/2016,Teleop Enabled,9,FALSE,0,NO ERROR,-0.000000,0.314416,0.000000,0.359332,TRUE,FALSE,TRUE,FALSE,FALSE,FALSE,Disabled,0.000000,0.000000,0.000000,TRUE,-0.030090,-0.005676,0.000000,-0.045120,-0.009048,0.000000,-0.045000,0.099000,0.028000,-0.110000,-0.350000,2.950000,-1.159158,Hold,0.902344,0.000000,Hold,-243.000000,2.000000,LowGoal,1395.000000,-1454.545455,Speed,1395.000000,-1454.545455,Speed,Off,Off0.000000,0,,,,
03:18:39.418 PM 03/19/2016,Teleop Enabled,9,FALSE,0,NO ERROR,-0.000000,0.314416,0.000000,0.359332,TRUE,FALSE,TRUE,FALSE,FALSE,FALSE,Disabled,0.000000,0.000000,0.000000,TRUE,-0.032867,-0.004959,0.000000,-0.048721,0.013763,0.000000,0.031000,0.022000,0.025000,-0.110000,-0.350000,2.960000,-1.177575,Hold,0.902344,0.000000,Hold,-243.000000,2.000000,LowGoal,1395.000000,-1454.545455,Speed,1395.000000,-1454.545455,Speed,Off,Off0.000000,0,,,,
03:18:39.519 PM 03/19/2016,Teleop Enabled,10,FALSE,0,NO ERROR,-0.000000,0.314416,0.000000,0.359332,TRUE,FALSE,TRUE,FALSE,FALSE,FALSE,Disabled,0.000000,0.000000,0.000000,TRUE,-0.034790,-0.005051,0.000000,-0.029434,-0.015884,0.000000,0.049000,0.092000,0.142000,-0.120000,-0.320000,2.870000,-1.177575,Hold,0.902344,0.000000,Hold,-243.000000,2.000000,LowGoal,1402.500000,-1454.545455,Speed,1395.000000,-1454.545455,Speed,Off,Off0.000000,0,,,,
03:18:39.619 PM 03/19/2016,Teleop Enabled,10,FALSE,0,NO ERROR,-0.000000,0.314416,0.000000,0.359332,TRUE,FALSE,TRUE,FALSE,FALSE,FALSE,Disabled,0.000000,0.000000,0.000000,TRUE,-0.035660,-0.005646,0.000000,-0.009918,-0.016373,0.000000,0.079000,-0.092000,-0.035000,-0.110000,-0.310000,2.890000,-1.176587,Hold,0.902344,0.000000,Hold,-243.000000,2.000000,LowGoal,1395.000000,-1454.545455,Speed,1395.000000,-1454.545455,Speed,Off,Off0.000000,0,,,,
03:18:39.720 PM 03/19/2016,Teleop Enabled,10,FALSE,0,NO ERROR,-0.000000,0.314416,0.000000,0.359332,TRUE,FALSE,TRUE,FALSE,FALSE,FALSE,Disabled,0.000000,0.000000,0.000000,TRUE,-0.035385,-0.006271,0.000000,0.006714,0.008667,0.000000,0.017000,0.045000,-0.028000,-0.110000,-0.320000,2.940000,-1.172108,Hold,0.902344,0.000000,Hold,-243.000000,2.000000,LowGoal,1387.500000,-1454.545455,Speed,1395.000000,-1454.545455,Speed,Off,Off0.000000,0,,,,
03:18:39.820 PM 03/19/2016,Teleop Enabled,9,FALSE,0,NO ERROR,-0.000000,0.314416,0.000000,0.359332,TRUE,FALSE,TRUE,FALSE,FALSE,FALSE,Disabled,0.000000,0.000000,0.000000,TRUE,-0.034943,-0.006317,0.000000,-0.001663,0.006897,0.000000,-0.027000,0.005000,-0.040000,-0.110000,-0.310000,2.970000,-1.167884,Hold,0.902344,0.000000,Hold,-243.000000,2.000000,LowGoal,1402.500000,-1454.545455,Speed,1395.000000,-1454.545455,Speed,Off,Off0.000000,0,,,,
03:18:39.920 PM 03/19/2016,Teleop Enabled,10,FALSE,0,NO ERROR,-0.000000,0.314416,0.000000,0.359332,TRUE,FALSE,TRUE,FALSE,FALSE,FALSE,Disabled,0.000000,0.000000,0.000000,TRUE,-0.035004,-0.005997,0.000000,0.001221,0.009521,0.000000,0.005000,0.108000,0.010000,-0.110000,-0.290000,2.900000,-1.179754,Hold,0.902344,0.000000,Hold,-243.000000,2.000000,LowGoal,1410.000000,-1454.545455,Speed,1402.500000,-1454.545455,Speed,Off,Off0.000000,0,,,,
03:18:40.021 PM 03/19/2016,Teleop Enabled,10,FALSE,0,NO ERROR,-0.000000,0.314416,0.000000,0.359332,TRUE,FALSE,TRUE,FALSE,FALSE,FALSE,Disabled,0.000000,0.000000,0.000000,TRUE,-0.035599,-0.005386,0.000000,-0.007339,0.001587,0.000000,0.000000,-0.049000,0.010000,-0.110000,-0.290000,2.970000,-1.165416,Hold,0.902344,0.000000,Hold,-243.000000,2.000000,LowGoal,1395.000000,-1454.545455,Speed,1395.000000,-1454.545455,Speed,Off,Off0.000000,0,,,,
03:18:40.121 PM 03/19/2016,Teleop Enabled,11,FALSE,0,NO ERROR,-0.000000,0.314416,0.000000,0.359332,TRUE,FALSE,TRUE,FALSE,FALSE,FALSE,Disabled,0.000000,0.000000,0.000000,TRUE,-0.036331,-0.005203,0.000000,-0.013428,0.006226,0.000000,0.016000,-0.095000,0.055000,-0.110000,-0.310000,2.990000,-1.158500,Hold,0.902344,0.000000,Hold,-243.000000,2.000000,LowGoal,1387.500000,-1454.545455,Speed,1402.500000,-1454.545455,Speed,Off,Off0.000000,0,,,,
03:18:40.223 PM 03/19/2016,Teleop Enabled,10,FALSE,0,NO ERROR,-0.000000,0.314416,0.000000,0.359332,TRUE,FALSE,TRUE,FALSE,FALSE,FALSE,Disabled,0.000000,0.000000,0.000000,TRUE,-0.036209,-0.006119,0.000000,0.004318,-0.010574,0.000000,0.016000,-0.010000,0.081000,-0.110000,-0.310000,2.990000,-1.160559,Hold,0.902344,0.000000,Hold,-243.000000,2.000000,LowGoal,1395.000000,-1454.545455,Speed,1395.000000,-1454.545455,Speed,Off,Off0.000000,0,,,,
03:18:40.323 PM 03/19/2016,Teleop Enabled,11,FALSE,0,NO ERROR,-0.000000,0.314416,0.000000,0.359332,TRUE,FALSE,TRUE,FALSE,FALSE,FALSE,Disabled,0.000000,0.000000,0.000000,TRUE,-0.035751,-0.006271,0.000000,0.000000,-0.006180,0.000000,-0.085000,0.080000,0.039000,-0.110000,-0.290000,2.910000,-1.188357,Hold,0.902344,0.000000,Hold,-243.000000,2.000000,LowGoal,1402.500000,-1454.545455,Speed,1402.500000,-1454.545455,Speed,Off,Off0.000000,0,,,,
03:18:40.426 PM 03/19/2016,Teleop Enabled,10,FALSE,0,NO ERROR,-0.000000,0.314416,0.000000,0.359332,TRUE,FALSE,TRUE,FALSE,FALSE,FALSE,Disabled,0.000000,0.000000,0.000000,TRUE,-0.035950,-0.005295,0.000000,0.009933,0.015320,0.000000,0.020000,-0.003000,0.061000,-0.110000,-0.280000,2.880000,-1.201294,Hold,0.902344,0.000000,Hold,-243.000000,2.000000,LowGoal,1395.000000,-1454.545455,Speed,1387.500000,-1454.545455,Speed,Off,Off0.000000,0,,,,
03:18:40.526 PM 03/19/2016,Teleop Enabled,10,FALSE,0,NO ERROR,-0.000000,0.314416,0.000000,0.359332,TRUE,FALSE,TRUE,FALSE,FALSE,FALSE,Disabled,0.000000,0.000000,0.000000,TRUE,-0.035599,-0.005112,0.000000,0.000000,0.000519,0.000000,0.019000,-0.026000,0.048000,-0.110000,-0.230000,2.860000,-1.201759,Hold,0.902344,0.000000,Hold,-243.000000,2.000000,LowGoal,1402.500000,-1454.545455,Speed,1395.000000,-1454.545455,Speed,Off,Off0.000000,0,,,,
03:18:40.626 PM 03/19/2016,Teleop Enabled,10,FALSE,0,NO ERROR,-0.000000,0.314416,0.000000,0.359332,TRUE,FALSE,TRUE,FALSE,FALSE,FALSE,Disabled,0.000000,0.000000,0.000000,TRUE,-0.035934,-0.005020,0.000000,-0.006577,0.008759,0.000000,0.058000,-0.003000,0.050000,-0.110000,-0.280000,2.970000,-1.206858,Hold,0.902344,0.000000,Hold,-243.000000,2.000000,LowGoal,1402.500000,-1454.545455,Speed,1395.000000,-1454.545455,Speed,Off,Off0.000000,0,,,,
03:18:40.726 PM 03/19/2016,Teleop Enabled,10,FALSE,0,NO ERROR,-0.000000,0.314416,0.000000,0.359332,TRUE,FALSE,TRUE,FALSE,FALSE,FALSE,Disabled,0.000000,0.000000,0.000000,TRUE,-0.035751,-0.005829,0.000000,-0.005020,-0.019577,0.000000,0.026000,0.101000,0.013000,-0.110000,-0.270000,2.910000,-1.212755,Hold,0.902344,0.000000,Hold,-243.000000,2.000000,LowGoal,1402.500000,-1454.545455,Speed,1402.500000,-1454.545455,Speed,Off,Off0.000000,0,,,,
03:18:40.826 PM 03/19/2016,Teleop Enabled,9,FALSE,0,NO ERROR,-0.000000,0.314416,0.000000,0.359332,TRUE,FALSE,TRUE,FALSE,FALSE,FALSE,Disabled,0.000000,0.000000,0.000000,TRUE,-0.035797,-0.006393,0.000000,-0.000946,-0.026688,0.000000,-0.022000,0.008000,0.083000,-0.120000,-0.230000,2.870000,-1.225034,Hold,0.902344,0.000000,Hold,-243.000000,2.000000,LowGoal,1402.500000,-1454.545455,Speed,1395.000000,-1454.545455,Speed,Off,Off0.000000,0,,,,
03:18:40.930 PM 03/19/2016,Teleop Enabled,13,FALSE,0,NO ERROR,-0.000000,0.314416,0.000000,0.359332,TRUE,FALSE,TRUE,FALSE,FALSE,FALSE,Disabled,0.000000,0.000000,0.000000,TRUE,-0.035873,-0.006790,0.000000,0.008713,-0.004013,0.000000,0.024000,-0.039000,-0.019000,-0.120000,-0.250000,2.900000,-1.223010,Hold,0.902344,0.000000,Hold,-243.000000,2.000000,LowGoal,1402.500000,-1454.545455,Speed,1395.000000,-1454.545455,Speed,Off,Off0.000000,0,,,,
03:18:41.030 PM 03/19/2016,Teleop Enabled,10,FALSE,0,NO ERROR,-0.000000,0.314416,0.000000,0.359332,TRUE,FALSE,TRUE,FALSE,FALSE,FALSE,Disabled,0.000000,0.000000,0.000000,TRUE,-0.035492,-0.007401,0.000000,-0.005630,-0.003036,0.000000,0.035000,-0.006000,0.022000,-0.120000,-0.300000,2.900000,-1.240247,Hold,0.902344,0.000000,Hold,-243.000000,2.000000,LowGoal,1395.000000,-1454.545455,Speed,1395.000000,-1454.545455,Speed,Off,Off0.000000,0,,,,
03:18:41.130 PM 03/19/2016,Teleop Enabled,10,FALSE,0,NO ERROR,-0.000000,0.314416,0.000000,0.359332,TRUE,FALSE,TRUE,FALSE,FALSE,FALSE,Disabled,0.000000,0.000000,0.000000,TRUE,-0.035248,-0.008804,0.000000,-0.002441,-0.027756,0.000000,-0.011000,0.003000,-0.049000,-0.120000,-0.280000,2.810000,-1.241676,Hold,0.902344,0.000000,Hold,-243.000000,2.000000,LowGoal,1402.500000,-1454.545455,Speed,1402.500000,-1454.545455,Speed,Off,Off0.000000,0,,,,
03:18:41.230 PM 03/19/2016,Teleop Enabled,10,FALSE,0,NO ERROR,-0.000000,0.314416,0.000000,0.359332,TRUE,FALSE,TRUE,FALSE,FALSE,FALSE,Disabled,0.000000,0.000000,0.000000,TRUE,-0.035690,-0.009720,0.000000,-0.001770,-0.035553,0.000000,-0.067000,0.101000,0.101000,-0.120000,-0.210000,2.780000,-1.235923,Hold,0.902344,0.000000,Hold,-243.000000,2.000000,LowGoal,1395.000000,-1454.545455,Speed,1395.000000,-1454.545455,Speed,Off,Off0.000000,0,,,,
03:18:41.330 PM 03/19/2016,Teleop Enabled,9,FALSE,0,NO ERROR,-0.000000,0.314416,0.000000,0.359332,TRUE,FALSE,TRUE,FALSE,FALSE,FALSE,Disabled,0.000000,0.000000,0.000000,TRUE,-0.035858,-0.010818,0.000000,-0.002625,-0.014633,0.000000,-0.017000,-0.091000,0.041000,-0.130000,-0.180000,2.810000,-1.232443,Hold,0.902344,0.000000,Hold,-243.000000,2.000000,LowGoal,1395.000000,-1454.545455,Speed,1395.000000,-1454.545455,Speed,Off,Off0.000000,0,,,,
03:18:41.430 PM 03/19/2016,Teleop Enabled,10,FALSE,0,NO ERROR,-0.000000,0.314416,0.000000,0.359332,TRUE,FALSE,TRUE,FALSE,FALSE,FALSE,Disabled,0.000000,0.000000,0.000000,TRUE,-0.036209,-0.012268,0.000000,-0.004761,-0.020172,0.000000,-0.014000,0.002000,0.024000,-0.120000,-0.200000,2.850000,-1.232766,Hold,0.902344,0.000000,Hold,-243.000000,2.000000,LowGoal,1402.500000,-1454.545455,Speed,1395.000000,-1454.545455,Speed,Off,Off0.000000,0,,,,
03:18:41.530 PM 03/19/2016,Teleop Enabled,10,FALSE,0,NO ERROR,-0.000000,0.314416,0.000000,0.359332,TRUE,FALSE,TRUE,FALSE,FALSE,FALSE,Disabled,0.000000,0.000000,0.000000,TRUE,-0.036194,-0.013565,0.000000,-0.001450,-0.026825,0.000000,-0.012000,0.002000,0.049000,-0.130000,-0.220000,2.830000,-1.225795,Hold,0.902344,0.000000,Hold,-243.000000,2.000000,LowGoal,1395.000000,-1454.545455,Speed,1402.500000,-1454.545455,Speed,Off,Off0.000000,0,,,,
03:18:41.630 PM 03/19/2016,Teleop Enabled,10,FALSE,0,NO ERROR,-0.000000,0.314416,0.000000,0.359332,TRUE,FALSE,TRUE,FALSE,FALSE,FALSE,Disabled,0.000000,0.000000,0.000000,TRUE,-0.036285,-0.014801,0.000000,-0.001770,-0.030975,0.000000,0.036000,-0.078000,0.003000,-0.130000,-0.210000,2.780000,-1.235414,Hold,0.902344,0.000000,Hold,-243.000000,2.000000,LowGoal,1395.000000,-1454.545455,Speed,1395.000000,-1454.545455,Speed,Off,Off0.000000,0,,,,
03:18:41.730 PM 03/19/2016,Teleop Enabled,10,FALSE,0,NO ERROR,-0.000000,0.314416,0.000000,0.359332,TRUE,FALSE,TRUE,FALSE,FALSE,FALSE,Disabled,0.000000,0.000000,0.000000,TRUE,-0.036270,-0.017288,0.000000,-0.000168,0.000000,0.000000,-0.078000,-0.006000,-0.039000,-0.130000,-0.190000,2.750000,-1.249986,Hold,0.902344,0.000000,Hold,-243.000000,2.000000,LowGoal,1402.500000,-1454.545455,Speed,1395.000000,-1454.545455,Speed,Off,Off0.000000,0,,,,
03:18:41.830 PM 03/19/2016,Teleop Enabled,9,FALSE,0,NO ERROR,-0.000000,0.314416,0.000000,0.359332,TRUE,FALSE,TRUE,FALSE,FALSE,FALSE,Disabled,0.000000,0.000000,0.000000,TRUE,-0.037094,-0.017242,0.000000,-0.021683,-0.002533,0.000000,-0.041000,-0.002000,0.025000,-0.130000,-0.200000,2.770000,-1.261756,Hold,0.902344,0.000000,Hold,-243.000000,2.000000,LowGoal,1402.500000,-1454.545455,Speed,1395.000000,-1454.545455,Speed,Off,Off0.000000,0,,,,
03:18:41.930 PM 03/19/2016,Teleop Enabled,10,FALSE,0,NO ERROR,-0.000000,0.314416,0.000000,0.359332,TRUE,FALSE,TRUE,FALSE,FALSE,FALSE,Disabled,0.000000,0.000000,0.000000,TRUE,-0.038681,-0.016403,0.000000,-0.034851,0.020752,0.000000,-0.051000,-0.058000,0.045000,-0.130000,-0.210000,2.820000,-1.256788,Hold,0.902344,0.000000,Hold,-243.000000,2.000000,LowGoal,1395.000000,-1454.545455,Speed,1395.000000,-1454.545455,Speed,Off,Off0.000000,0,,,,
03:18:42.030 PM 03/19/2016,Teleop Enabled,10,FALSE,0,NO ERROR,-0.000000,0.314416,0.000000,0.359332,TRUE,FALSE,TRUE,FALSE,FALSE,FALSE,Disabled,0.000000,0.000000,0.000000,TRUE,-0.040359,-0.015381,0.000000,-0.034485,0.023041,0.000000,0.042000,-0.039000,-0.009000,-0.120000,-0.270000,2.860000,-1.266018,Hold,0.902344,0.000000,Hold,-242.000000,2.000000,LowGoal,1395.000000,-1454.545455,Speed,1395.000000,-1454.545455,Speed,Off,Off0.000000,0,,,,
03:18:42.132 PM 03/19/2016,Teleop Enabled,11,FALSE,0,NO ERROR,0.204724,0.314416,-0.204724,0.359332,TRUE,FALSE,TRUE,FALSE,FALSE,FALSE,Disabled,0.000000,0.000000,0.000000,TRUE,-0.041550,-0.015182,0.000000,-0.033218,-0.001724,0.000000,0.032000,-0.049000,-0.005000,-0.130000,-0.260000,2.790000,-1.267188,Hold,0.902344,0.000000,Hold,-242.000000,2.000000,LowGoal,1402.500000,-1454.545455,Speed,1395.000000,-1454.545455,Speed,Off,Off0.000000,0,,,,
03:18:42.232 PM 03/19/2016,Teleop Enabled,10,FALSE,0,NO ERROR,0.480315,-0.019250,-0.480315,0.635249,TRUE,FALSE,TRUE,FALSE,FALSE,FALSE,Disabled,0.000000,0.000000,0.000000,TRUE,-0.042404,-0.015900,0.000000,-0.015320,-0.020996,0.000000,-0.072000,0.039000,0.124000,-0.400000,-0.980000,2.680000,-1.368806,Hold,0.902344,0.000000,Hold,-242.000000,2.000000,LowGoal,1402.500000,-1454.545455,Speed,1402.500000,-1454.545455,Speed,Off,Off0.000000,0,,,,
03:18:42.332 PM 03/19/2016,Teleop Enabled,10,FALSE,0,NO ERROR,0.519685,-1.770996,-0.519685,2.367744,TRUE,FALSE,TRUE,FALSE,FALSE,FALSE,Disabled,0.000000,0.000000,0.000000,TRUE,-0.053116,-0.023026,0.000000,-0.241974,-0.192383,0.000000,-0.015000,-0.162000,-0.039000,-7.480000,-1.050000,1.920000,-6.881033,Hold,0.902344,0.000000,Hold,-242.000000,2.000000,LowGoal,1387.500000,-1454.545455,Speed,1380.000000,-1454.545455,Speed,Off,Off0.000000,0,,,,
03:18:42.431 PM 03/19/2016,Teleop Enabled,9,FALSE,0,NO ERROR,0.417323,-4.664906,-0.417323,5.235988,TRUE,FALSE,TRUE,FALSE,FALSE,FALSE,Disabled,0.000000,0.000000,0.000000,TRUE,-0.052399,-0.039444,0.000000,0.051590,-0.421631,0.000000,-0.004000,-0.029000,-0.064000,-19.470000,-1.260000,0.910000,-17.858780,Hold,0.902344,0.000000,Hold,-242.000000,2.000000,LowGoal,1380.000000,-1454.545455,Speed,1372.500000,-1454.545455,Speed,Off,Off0.000000,0,,,,
03:18:42.531 PM 03/19/2016,Teleop Enabled,8,FALSE,0,NO ERROR,-0.000000,-7.963065,0.000000,8.348064,TRUE,FALSE,TRUE,FALSE,FALSE,FALSE,Disabled,0.000000,0.000000,0.000000,TRUE,-0.048904,-0.059799,0.000000,0.079803,-0.372757,0.000000,0.108000,0.168000,-0.004000,-30.320000,-1.070000,1.200000,-30.930665,Hold,0.902588,0.000000,Hold,-242.000000,2.000000,LowGoal,1380.000000,-1454.545455,Speed,1372.500000,-1454.545455,Speed,Off,Off0.000000,0,,,,
03:18:42.631 PM 03/19/2016,Teleop Enabled,8,FALSE,0,NO ERROR,-0.000000,-10.189643,0.000000,10.285893,TRUE,FALSE,TRUE,FALSE,FALSE,FALSE,Disabled,0.000000,0.000000,0.000000,TRUE,-0.042633,-0.071991,0.000000,0.183792,-0.238419,0.000000,-0.293000,0.274000,-0.006000,-40.050000,-0.270000,1.280000,-42.102974,Hold,0.902832,0.000000,Hold,-242.000000,2.000000,LowGoal,1395.000000,-1454.545455,Speed,1402.500000,-1454.545455,Speed,Off,Off0.000000,0,,,,
03:18:42.732 PM 03/19/2016,Teleop Enabled,10,FALSE,0,NO ERROR,-0.000000,-10.805641,0.000000,10.581059,TRUE,FALSE,TRUE,FALSE,FALSE,FALSE,Disabled,0.000000,0.000000,0.000000,TRUE,-0.032761,-0.071487,0.000000,0.187469,0.133957,0.000000,-0.067000,-0.011000,0.135000,-45.560000,0.930000,2.520000,-45.329860,Hold,0.907471,0.000000,Hold,-242.000000,2.000000,LowGoal,1402.500000,-1454.545455,Speed,1395.000000,-1454.545455,Speed,Off,Off0.000000,0,,,,
03:18:42.832 PM 03/19/2016,Teleop Enabled,9,FALSE,0,NO ERROR,-0.314961,-10.619559,0.314961,10.478392,TRUE,FALSE,TRUE,FALSE,FALSE,FALSE,Disabled,0.000000,0.000000,0.000000,TRUE,-0.027084,-0.064651,0.000000,0.076309,0.126297,0.000000,-0.002000,-0.103000,0.022000,-45.010000,0.370000,2.700000,-44.818302,Hold,0.907471,0.000000,Hold,-242.000000,2.000000,LowGoal,1395.000000,-1454.545455,Speed,1395.000000,-1454.545455,Speed,Off,Off0.000000,0,,,,
03:18:42.932 PM 03/19/2016,Teleop Enabled,10,FALSE,0,NO ERROR,-0.409449,-9.515894,0.409449,9.470978,FALSE,FALSE,TRUE,FALSE,FALSE,FALSE,Disabled,0.000000,0.000000,0.000000,TRUE,-0.020676,-0.054413,0.000000,0.133759,0.206543,0.000000,0.001000,-0.039000,-0.120000,-41.510000,1.030000,3.220000,-42.222280,Hold,0.907471,0.000000,Hold,-242.000000,2.000000,LowGoal,1387.500000,-1454.545455,Speed,1387.500000,-1454.545455,Speed,Off,Off0.000000,0,,,,
03:18:43.032 PM 03/19/2016,Teleop Enabled,10,FALSE,0,NO ERROR,-0.000000,-7.501066,0.000000,7.732065,FALSE,FALSE,TRUE,FALSE,FALSE,FALSE,Disabled,0.000000,0.000000,0.000000,TRUE,-0.013458,-0.042114,0.000000,0.136398,0.302414,0.000000,0.103000,0.000000,-0.075000,-33.890000,1.010000,4.060000,-35.280712,Hold,0.907471,0.000000,Hold,-242.000000,2.000000,LowGoal,1387.500000,-1454.545455,Speed,1387.500000,-1454.545455,Speed,Off,Off0.000000,0,,,,
03:18:43.133 PM 03/19/2016,Teleop Enabled,10,FALSE,0,NO ERROR,-0.000000,-6.390985,0.000000,6.795234,FALSE,FALSE,TRUE,FALSE,FALSE,FALSE,Disabled,0.000000,0.000000,0.000000,TRUE,-0.005875,-0.033340,0.000000,0.141556,0.038757,0.000000,-0.038000,-0.460000,-0.132000,-27.250000,0.460000,3.040000,-28.175575,Hold,0.907471,0.000000,Hold,-242.000000,2.000000,LowGoal,1395.000000,-1454.545455,Speed,1387.500000,-1454.545455,Speed,Off,Off0.000000,0,,,,
03:18:43.233 PM 03/19/2016,Teleop Enabled,11,FALSE,0,NO ERROR,-0.000000,-6.281902,0.000000,6.820901,TRUE,FALSE,TRUE,FALSE,FALSE,FALSE,Disabled,0.000000,0.000000,0.000000,TRUE,-0.001663,-0.036530,0.000000,0.067322,-0.040390,0.000000,0.056000,0.002000,-0.019000,-27.440000,-0.170000,2.890000,-27.691531,Hold,0.907471,0.000000,Hold,-242.000000,2.000000,LowGoal,1402.500000,-1454.545455,Speed,1395.000000,-1454.545455,Speed,Off,Off0.000000,0,,,,
03:18:43.333 PM 03/19/2016,Teleop Enabled,10,FALSE,0,NO ERROR,-0.000000,-6.326819,0.000000,6.846567,TRUE,FALSE,TRUE,FALSE,FALSE,FALSE,Disabled,0.000000,0.000000,0.000000,TRUE,0.002808,-0.038376,0.000000,0.133774,-0.059875,0.000000,-0.094000,0.037000,0.047000,-27.890000,0.180000,2.760000,-28.234126,Hold,0.907471,0.000000,Hold,-242.000000,2.000000,LowGoal,1387.500000,-1454.545455,Speed,1395.000000,-1454.545455,Speed,Off,Off0.000000,0,,,,
03:18:43.433 PM 03/19/2016,Teleop Enabled,10,FALSE,0,NO ERROR,-0.000000,-6.326819,0.000000,6.846567,TRUE,FALSE,TRUE,FALSE,FALSE,FALSE,Disabled,0.000000,0.000000,0.000000,TRUE,0.011032,-0.042435,0.000000,0.137009,-0.085205,0.000000,0.098000,-0.154000,0.009000,-27.860000,0.030000,2.840000,-28.203112,Hold,0.907471,0.000000,Hold,-242.000000,2.000000,LowGoal,1380.000000,-1454.545455,Speed,1402.500000,-1454.545455,Speed,Off,Off0.000000,0,,,,
03:18:43.534 PM 03/19/2016,Teleop Enabled,10,FALSE,0,NO ERROR,-0.000000,-6.326819,0.000000,6.846567,TRUE,FALSE,TRUE,FALSE,FALSE,FALSE,Disabled,0.000000,0.000000,0.000000,TRUE,0.018707,-0.047668,0.000000,0.148285,-0.097885,0.000000,-0.043000,0.060000,0.009000,-27.830000,0.000000,2.870000,-28.166205,Hold,0.907471,0.000000,Hold,-242.000000,2.000000,LowGoal,1387.500000,-1454.545455,Speed,1395.000000,-1454.545455,Speed,Off,Off0.000000,0,,,,
03:18:43.635 PM 03/19/2016,Teleop Enabled,11,FALSE,0,NO ERROR,-0.000000,-6.326819,0.000000,6.846567,TRUE,FALSE,TRUE,FALSE,FALSE,FALSE,Disabled,0.000000,0.000000,0.000000,TRUE,0.026398,-0.052246,0.000000,0.157074,-0.094116,0.000000,-0.061000,0.005000,-0.016000,-27.850000,0.030000,2.880000,-28.190399,Hold,0.907471,0.000000,Hold,-242.000000,2.000000,LowGoal,1402.500000,-1454.545455,Speed,1395.000000,-1454.545455,Speed,Off,Off0.000000,0,,,,
03:18:43.736 PM 03/19/2016,Teleop Enabled,10,FALSE,0,NO ERROR,-0.000000,-6.326819,0.000000,6.846567,TRUE,FALSE,TRUE,FALSE,FALSE,FALSE,Disabled,0.000000,0.000000,0.000000,TRUE,0.032501,-0.056198,0.000000,0.150024,-0.100754,0.000000,0.027000,0.045000,0.077000,-27.860000,0.000000,2.840000,-28.197219,Hold,0.907471,0.000000,Hold,-242.000000,2.000000,LowGoal,1402.500000,-1454.545455,Speed,1395.000000,-1454.545455,Speed,Off,Off0.000000,0,,,,
03:18:43.837 PM 03/19/2016,Teleop Enabled,10,FALSE,0,NO ERROR,-0.000000,-6.326819,0.000000,6.846567,TRUE,FALSE,TRUE,FALSE,FALSE,FALSE,Disabled,0.000000,0.000000,0.000000,TRUE,0.032028,-0.061874,0.000000,-0.009048,-0.086853,0.000000,0.010000,-0.002000,0.033000,-27.860000,0.000000,2.860000,-28.199185,Hold,0.907471,0.000000,Hold,-242.000000,2.000000,LowGoal,1402.500000,-1454.545455,Speed,1395.000000,-1454.545455,Speed,Off,Off0.000000,0,,,,
03:18:43.938 PM 03/19/2016,Teleop Enabled,10,FALSE,0,NO ERROR,-0.000000,-6.326819,0.000000,6.846567,TRUE,FALSE,TRUE,FALSE,FALSE,FALSE,Disabled,0.000000,0.000000,0.000000,TRUE,0.032333,-0.062134,0.000000,-0.001968,0.000885,0.000000,0.109000,-0.009000,0.006000,-27.860000,-0.060000,2.950000,-28.224436,Hold,0.907471,0.000000,Hold,-242.000000,2.000000,LowGoal,1402.500000,-1454.545455,Speed,1402.500000,-1454.545455,Speed,Off,Off0.000000,0,,,,
03:18:44.038 PM 03/19/2016,Teleop Enabled,9,FALSE,0,NO ERROR,-0.000000,-6.326819,0.000000,6.846567,TRUE,FALSE,TRUE,FALSE,FALSE,FALSE,Disabled,0.000000,0.000000,0.000000,TRUE,0.033020,-0.062592,0.000000,0.026550,-0.024689,0.000000,-0.061000,0.052000,0.053000,-27.860000,-0.020000,2.860000,-28.223241,Hold,0.907471,0.000000,Hold,-242.000000,2.000000,LowGoal,1402.500000,-1454.545455,Speed,1395.000000,-1454.545455,Speed,Off,Off0.000000,0,,,,
03:18:44.140 PM 03/19/2016,Teleop Enabled,13,FALSE,0,NO ERROR,-0.000000,-6.326819,0.000000,6.846567,TRUE,FALSE,TRUE,FALSE,FALSE,FALSE,Disabled,0.000000,0.000000,0.000000,TRUE,0.033768,-0.063034,0.000000,0.014572,0.000000,0.000000,0.097000,-0.083000,-0.058000,-27.860000,0.000000,2.880000,-28.229689,Hold,0.907471,0.000000,Hold,-242.000000,2.000000,LowGoal,1402.500000,-1454.545455,Speed,1402.500000,-1454.545455,Speed,Off,Off0.000000,0,,,,
03:18:44.242 PM 03/19/2016,Teleop Enabled,9,FALSE,0,NO ERROR,-0.000000,-6.326819,0.000000,6.846567,TRUE,FALSE,TRUE,FALSE,FALSE,FALSE,Disabled,0.000000,0.000000,0.000000,TRUE,0.034805,-0.063217,0.000000,0.002640,0.009598,0.000000,-0.038000,0.003000,0.028000,-27.860000,-0.030000,2.940000,-28.235149,Hold,0.907471,0.000000,Hold,-242.000000,2.000000,LowGoal,1402.500000,-1454.545455,Speed,1395.000000,-1454.545455,Speed,Off,Off0.000000,0,,,,
03:18:44.344 PM 03/19/2016,Teleop Enabled,8,FALSE,0,NO ERROR,-0.000000,-6.326819,0.000000,6.846567,TRUE,FALSE,TRUE,FALSE,FALSE,FALSE,Disabled,0.000000,0.000000,0.000000,TRUE,0.035095,-0.063568,0.000000,0.008499,-0.009613,0.000000,-0.006000,-0.015000,0.038000,-27.860000,-0.070000,2.940000,-28.241435,Hold,0.907471,0.000000,Hold,-242.000000,2.000000,LowGoal,1395.000000,-1454.545455,Speed,1395.000000,-1454.545455,Speed,Off,Off0.000000,0,,,,
03:18:44.443 PM 03/19/2016,Teleop Enabled,10,FALSE,0,NO ERROR,-0.000000,-6.326819,0.000000,6.846567,TRUE,FALSE,TRUE,FALSE,FALSE,FALSE,Disabled,0.000000,0.000000,0.000000,TRUE,0.036148,-0.064194,0.000000,0.029938,-0.021362,0.000000,0.000000,0.018000,0.030000,-27.860000,-0.050000,2.850000,-28.244950,Hold,0.907471,0.000000,Hold,-242.000000,2.000000,LowGoal,1402.500000,-1454.545455,Speed,1395.000000,-1454.545455,Speed,Off,Off0.000000,0,,,,
03:18:44.547 PM 03/19/2016,Teleop Enabled,10,FALSE,0,NO ERROR,-0.000000,-6.326819,0.000000,6.846567,TRUE,FALSE,TRUE,FALSE,FALSE,FALSE,Disabled,0.000000,0.000000,0.000000,TRUE,0.037140,-0.064484,0.000000,0.032150,-0.008057,0.000000,0.060000,-0.064000,0.019000,-27.860000,-0.050000,2.940000,-28.244833,Hold,0.907471,0.000000,Hold,-242.000000,2.000000,LowGoal,1410.000000,-1454.545455,Speed,1402.500000,-1454.545455,Speed,Off,Off0.000000,0,,,,
03:18:44.646 PM 03/19/2016,Teleop Enabled,9,FALSE,0,NO ERROR,-0.000000,-6.326819,0.000000,6.846567,TRUE,FALSE,TRUE,FALSE,FALSE,FALSE,Disabled,0.000000,0.000000,0.000000,TRUE,0.039520,-0.065735,0.000000,0.037689,-0.019226,0.000000,0.047000,-0.027000,0.028000,-27.870000,-0.040000,2.920000,-28.253852,Hold,0.907471,0.000000,Hold,-242.000000,2.000000,LowGoal,1402.500000,-1454.545455,Speed,1395.000000,-1454.545455,Speed,Off,Off0.000000,0,,,,
03:18:44.748 PM 03/19/2016,Teleop Enabled,12,FALSE,0,NO ERROR,-0.000000,-6.326819,0.000000,6.846567,TRUE,FALSE,TRUE,FALSE,FALSE,FALSE,Disabled,0.000000,0.000000,0.000000,TRUE,0.042053,-0.067184,0.000000,0.044373,-0.036804,0.000000,-0.074000,0.051000,-0.001000,-27.870000,-0.050000,2.850000,-28.253842,Hold,0.907471,0.000000,Hold,-242.000000,2.000000,LowGoal,1395.000000,-1454.545455,Speed,1402.500000,-1454.545455,Speed,Off,Off0.000000,0,,,,
03:18:44.849 PM 03/19/2016,Teleop Enabled,10,FALSE,0,NO ERROR,-0.000000,-6.326819,0.000000,6.846567,TRUE,FALSE,TRUE,FALSE,FALSE,FALSE,Disabled,0.000000,0.000000,0.000000,TRUE,0.043640,-0.067703,0.000000,0.030853,-0.003571,0.000000,0.001000,0.003000,0.032000,-27.870000,-0.040000,2.830000,-28.258693,Hold,0.907471,0.000000,Hold,-242.000000,2.000000,LowGoal,1402.500000,-1454.545455,Speed,1395.000000,-1454.545455,Speed,Off,Off0.000000,0,,,,
03:18:44.949 PM 03/19/2016,Teleop Enabled,12,FALSE,0,NO ERROR,-0.000000,-6.326819,0.000000,6.846567,TRUE,FALSE,TRUE,FALSE,FALSE,FALSE,Disabled,0.000000,0.000000,0.000000,TRUE,0.044968,-0.067474,0.000000,0.025223,0.016190,0.000000,0.040000,-0.001000,0.010000,-27.870000,-0.050000,2.910000,-28.258662,Hold,0.907471,0.000000,Hold,-242.000000,2.000000,LowGoal,1402.500000,-1454.545455,Speed,1402.500000,-1454.545455,Speed,Off,Off0.000000,0,,,,
03:18:45.050 PM 03/19/2016,Teleop Enabled,10,FALSE,0,NO ERROR,-0.000000,-6.326819,0.000000,6.846567,TRUE,FALSE,TRUE,FALSE,FALSE,FALSE,Disabled,0.000000,0.000000,0.000000,TRUE,0.047440,-0.066864,0.000000,0.053955,0.010468,0.000000,0.067000,-0.006000,0.008000,-27.870000,-0.070000,2.880000,-28.263942,Hold,0.907471,0.000000,Hold,-242.000000,2.000000,LowGoal,1402.500000,-1454.545455,Speed,1395.000000,-1454.545455,Speed,Off,Off0.000000,0,,,,
03:18:45.150 PM 03/19/2016,Teleop Enabled,9,FALSE,0,NO ERROR,-0.000000,-6.326819,0.000000,6.846567,TRUE,FALSE,TRUE,FALSE,FALSE,FALSE,Disabled,0.000000,0.000000,0.000000,TRUE,0.050278,-0.067001,0.000000,0.074860,-0.006790,0.000000,-0.086000,-0.026000,0.055000,-27.870000,-0.050000,2.830000,-28.264593,Hold,0.907471,0.000000,Hold,-242.000000,2.000000,LowGoal,1410.000000,-1454.545455,Speed,1402.500000,-1454.545455,Speed,Off,Off0.000000,0,,,,
03:18:45.250 PM 03/19/2016,Teleop Enabled,10,FALSE,0,NO ERROR,-0.000000,-6.326819,0.000000,6.846567,TRUE,FALSE,TRUE,FALSE,FALSE,FALSE,Disabled,0.000000,0.000000,0.000000,TRUE,0.052109,-0.066986,0.000000,-0.001755,-0.004471,0.000000,0.016000,0.029000,0.008000,-27.870000,-0.070000,2.850000,-28.270390,Hold,0.907471,0.000000,Hold,-242.000000,2.000000,LowGoal,1402.500000,-1454.545455,Speed,1402.500000,-1454.545455,Speed,Off,Off0.000000,0,,,,
03:18:45.351 PM 03/19/2016,Teleop Enabled,11,FALSE,0,NO ERROR,-0.000000,-6.326819,0.000000,6.846567,TRUE,FALSE,TRUE,FALSE,FALSE,FALSE,Disabled,0.000000,0.000000,0.000000,TRUE,0.051727,-0.067169,0.000000,-0.019424,0.001572,0.000000,0.027000,0.003000,-0.021000,-27.880000,-0.070000,2.880000,-28.272576,Hold,0.907471,0.000000,Hold,-242.000000,2.000000,LowGoal,1402.500000,-1454.545455,Speed,1395.000000,-1454.545455,Speed,Off,Off0.000000,0,,,,
03:18:45.452 PM 03/19/2016,Teleop Enabled,11,FALSE,0,NO ERROR,-0.000000,-6.326819,0.000000,6.846567,TRUE,FALSE,TRUE,FALSE,FALSE,FALSE,Disabled,0.000000,0.000000,0.000000,TRUE,0.051163,-0.067078,0.000000,-0.009354,-0.004013,0.000000,-0.024000,0.030000,0.043000,-27.880000,-0.110000,2.910000,-28.274601,Hold,0.907471,0.000000,Hold,-242.000000,2.000000,LowGoal,1402.500000,-1454.545455,Speed,1402.500000,-1454.545455,Speed,Off,Off0.000000,0,,,,
03:18:45.552 PM 03/19/2016,Teleop Enabled,11,FALSE,0,NO ERROR,-0.000000,-6.326819,0.000000,6.846567,TRUE,FALSE,TRUE,FALSE,FALSE,FALSE,Disabled,0.000000,0.000000,0.000000,TRUE,0.050980,-0.067459,0.000000,0.009216,-0.016769,0.000000,0.051000,-0.035000,-0.034000,-27.880000,-0.110000,2.910000,-28.284935,Hold,0.907471,0.000000,Hold,-242.000000,2.000000,LowGoal,1402.500000,-1454.545455,Speed,1395.000000,-1454.545455,Speed,Off,Off0.000000,0,,,,
03:18:45.653 PM 03/19/2016,Teleop Enabled,10,FALSE,0,NO ERROR,-0.000000,-6.326819,0.000000,6.846567,TRUE,FALSE,TRUE,FALSE,FALSE,FALSE,Disabled,0.000000,0.000000,0.000000,TRUE,0.051285,-0.068115,0.000000,0.016785,-0.014908,0.000000,0.029000,0.037000,0.027000,-27.880000,-0.080000,2.900000,-28.287892,Hold,0.907471,0.000000,Hold,-242.000000,2.000000,LowGoal,1402.500000,-1454.545455,Speed,1402.500000,-1454.545455,Speed,Off,Off0.000000,0,,,,
03:18:45.753 PM 03/19/2016,Teleop Enabled,10,FALSE,0,NO ERROR,-0.000000,-6.326819,0.000000,6.846567,TRUE,FALSE,TRUE,FALSE,FALSE,FALSE,Disabled,0.000000,0.000000,0.000000,TRUE,0.052643,-0.069077,0.000000,0.021164,-0.021454,0.000000,0.012000,0.023000,-0.017000,-27.880000,-0.090000,2.850000,-28.286650,Hold,0.907471,0.000000,Hold,-242.000000,2.000000,LowGoal,1402.500000,-1454.545455,Speed,1395.000000,-1454.545455,Speed,Off,Off0.000000,0,,,,
03:18:45.855 PM 03/19/2016,Teleop Enabled,10,FALSE,0,NO ERROR,-0.000000,-6.326819,0.000000,6.846567,TRUE,FALSE,TRUE,FALSE,FALSE,FALSE,Disabled,0.000000,0.000000,0.000000,TRUE,0.053070,-0.070221,0.000000,0.001328,-0.019363,0.000000,-0.077000,0.020000,0.010000,-27.890000,-0.070000,2.850000,-28.293958,Hold,0.907471,0.000000,Hold,-242.000000,2.000000,LowGoal,1402.500000,-1454.545455,Speed,1402.500000,-1454.545455,Speed,Off,Off0.000000,0,,,,
