Time,Robot Mode,Loop Time,Error Status,Error Code,Error Source,Left Motor Output,Left Motor Encoder,Right Motor Output,Right Motor Encoder,Is Level,Is Stalled,Ball Detector Photoeye,Vision Enabled,Vision Teleop Control,Vision Auto Control,Vision Current State,Vision X Output,Vision NavX Error,Vision NavX Target,NavX Connection Status,NavX Displacement X,NavX Displacement Y,NavX Displacement Z,NavX Velocity X,NavX Velocity Y,NavX Velocity Z,NavX Acceleration X,NavX Acceleration Y,NavX Acceleration Z,NavX Pitch,NavX Yaw,NavX Roll,Gyro Angle,Roller Arm State,Roller Arm Actual,Roller Arm Desired,Shooter Arm State,Shooter Arm Actual,Shooter Arm Desired,Shooter State,Actual RPM Left,Desired RPM Left,Control Mode Left,Actual RPM Right,Desired RPM Right,Scaler Motor Output,Auto To Run,Auto Current File,Auto File Status,Auto Current Command,Auto Trimmed Command
09:20:04.613 AM 03/20/2016,Teleop Enabled,10,FALSE,0,NO ERROR,-0.000000,0.000000,0.000000,0.000000,TRUE,FALSE,TRUE,FALSE,FALSE,FALSE,Disabled,0.000000,0.000000,0.000000,TRUE,2.265991,-0.329819,0.000000,0.000000,0.000000,0.000000,-0.001000,0.000000,0.021000,0.000000,-0.280000,2.400000,0.019767,ResetBack,1.865234,-0.200000,ResetBack,-151373.000000,-0.300000,Empty,0.000000,0.000000,Speed,0.000000,0.000000,Speed,Off,Off0.000000,0,,,,
09:20:04.713 AM 03/20/2016,Teleop Enabled,10,FALSE,0,NO ERROR,-0.000000,-0.141166,0.000000,-0.077000,TRUE,FALSE,TRUE,FALSE,FALSE,FALSE,Disabled,0.000000,0.000000,0.000000,TRUE,2.265991,-0.329819,0.000000,0.000000,0.000000,0.000000,0.005000,-0.031000,0.069000,0.000000,-0.410000,2.420000,0.036591,ResetBack,0.203857,-0.200000,ResetBack,-151373.000000,-0.300000,Empty,0.000000,0.000000,Speed,0.000000,0.000000,Speed,Off,Off0.000000,0,,,,
09:20:04.813 AM 03/20/2016,Teleop Enabled,11,FALSE,0,NO ERROR,-0.000000,-0.141166,0.000000,-0.340083,TRUE,FALSE,TRUE,FALSE,FALSE,FALSE,Disabled,0.000000,0.000000,0.000000,TRUE,2.266602,-0.330399,0.000000,0.027008,-0.013702,0.000000,0.019000,0.007000,-0.010000,0.080000,-0.450000,2.410000,0.108413,ResetBack,-0.127930,-0.200000,ResetBack,-145359.000000,-0.300000,Empty,0.000000,0.000000,Speed,0.000000,0.000000,Speed,Off,Off0.000000,0,,,,
09:20:04.913 AM 03/20/2016,Teleop Enabled,10,FALSE,0,NO ERROR,-0.000000,-0.166833,0.000000,-0.340083,TRUE,FALSE,TRUE,FALSE,FALSE,FALSE,Disabled,0.000000,0.000000,0.000000,TRUE,2.267578,-0.330658,0.000000,0.005905,0.000000,0.000000,0.016000,-0.006000,0.004000,0.040000,-0.580000,2.410000,0.091699,ResetBack,-0.140869,-0.200000,ResetBack,-138857.000000,-0.300000,Empty,0.000000,0.000000,Speed,0.000000,0.000000,Speed,Off,Off0.000000,0,,,,
09:20:05.013 AM 03/20/2016,Teleop Enabled,10,FALSE,0,NO ERROR,-0.000000,-0.166833,0.000000,-0.340083,TRUE,FALSE,TRUE,FALSE,FALSE,FALSE,Disabled,0.000000,0.000000,0.000000,TRUE,2.268326,-0.330627,0.000000,0.005051,0.004150,0.000000,0.020000,0.017000,0.043000,0.070000,-0.570000,2.420000,0.100165,Reset,-0.163574,0.000000,ResetBack,-131753.000000,-0.300000,Empty,0.000000,0.000000,Speed,0.000000,0.000000,Speed,Off,Off0.000000,0,,,,
09:20:05.113 AM 03/20/2016,Teleop Enabled,10,FALSE,0,NO ERROR,-0.000000,-0.166833,0.000000,-0.340083,TRUE,FALSE,TRUE,FALSE,FALSE,FALSE,Disabled,0.000000,0.000000,0.000000,TRUE,2.268997,-0.330444,0.000000,0.000000,0.000000,0.000000,0.011000,-0.007000,0.013000,0.140000,-0.540000,2.420000,0.168926,Hold,1.111084,0.000000,ResetBack,-124470.000000,-0.300000,Suck,0.000000,2181.818182,Speed,0.000000,2181.818182,Speed,Off,Off0.000000,0,,,,
09:20:05.213 AM 03/20/2016,Teleop Enabled,11,FALSE,0,NO ERROR,-0.000000,-0.166833,0.000000,-0.340083,TRUE,FALSE,TRUE,FALSE,FALSE,FALSE,Disabled,0.000000,0.000000,0.000000,TRUE,2.269119,-0.330429,0.000000,0.010071,0.000961,0.000000,-0.011000,0.031000,0.004000,0.080000,-0.490000,2.420000,0.122844,Hold,1.117920,0.000000,ResetBack,-118134.000000,-0.300000,Hold,-52.500000,0.000000,Speed,-112.500000,0.000000,Speed,Off,Off0.000000,0,,,,
09:20:05.313 AM 03/20/2016,Teleop Enabled,9,FALSE,0,NO ERROR,-0.000000,-0.166833,0.000000,-0.340083,TRUE,FALSE,TRUE,FALSE,FALSE,FALSE,Disabled,0.000000,0.000000,0.000000,TRUE,2.269501,-0.329666,0.000000,0.008667,0.023148,0.000000,0.122000,-0.038000,0.086000,0.120000,-0.490000,2.390000,0.144808,Hold,0.957520,0.000000,ResetBack,-118134.000000,-0.300000,Hold,-765.000000,0.000000,Speed,-810.000000,0.000000,Speed,Off,Off0.000000,0,,,,
09:20:05.413 AM 03/20/2016,Teleop Enabled,10,FALSE,0,NO ERROR,-0.000000,-0.166833,0.000000,-0.340083,TRUE,FALSE,TRUE,FALSE,FALSE,FALSE,Disabled,0.000000,0.000000,0.000000,TRUE,2.269913,-0.329269,0.000000,-0.015198,0.000000,0.000000,0.065000,0.002000,0.097000,0.050000,-0.500000,2.350000,0.070886,Hold,0.932373,0.000000,ResetBack,-112440.000000,-0.300000,Hold,-907.500000,0.000000,Speed,-765.000000,0.000000,Speed,Off,Off0.000000,0,,,,
09:20:05.513 AM 03/20/2016,Teleop Enabled,9,FALSE,0,NO ERROR,-0.000000,-0.166833,0.000000,-0.340083,TRUE,FALSE,TRUE,FALSE,FALSE,FALSE,Disabled,0.000000,0.000000,0.000000,TRUE,2.270401,-0.329681,0.000000,0.017670,-0.020203,0.000000,0.005000,-0.029000,0.004000,0.110000,-0.520000,2.350000,0.131433,Hold,0.932373,0.000000,ResetBack,-104955.000000,-0.300000,Hold,-765.000000,0.000000,Speed,-570.000000,0.000000,Speed,Off,Off0.000000,0,,,,
09:20:05.613 AM 03/20/2016,Teleop Enabled,9,FALSE,0,NO ERROR,-0.000000,-0.166833,0.000000,-0.340083,TRUE,FALSE,TRUE,FALSE,FALSE,FALSE,Disabled,0.000000,0.000000,0.000000,TRUE,2.271362,-0.330566,0.000000,0.009888,-0.023529,0.000000,0.019000,-0.016000,0.047000,0.110000,-0.500000,2.350000,0.118810,Hold,0.932373,0.000000,ResetBack,-97156.000000,-0.300000,Hold,-615.000000,0.000000,Speed,-345.000000,0.000000,Speed,Off,Off0.000000,0,,,,
09:20:05.714 AM 03/20/2016,Teleop Enabled,10,FALSE,0,NO ERROR,-0.000000,-0.166833,0.000000,-0.340083,TRUE,FALSE,TRUE,FALSE,FALSE,FALSE,Disabled,0.000000,0.000000,0.000000,TRUE,2.272507,-0.331802,0.000000,0.027893,-0.024780,0.000000,-0.033000,0.043000,0.006000,0.090000,-0.490000,2.360000,0.104781,Hold,0.932373,0.000000,ResetBack,-88880.000000,-0.300000,Hold,-480.000000,0.000000,Speed,-135.000000,0.000000,Speed,Off,Off0.000000,0,,,,
09:20:05.818 AM 03/20/2016,Teleop Enabled,10,FALSE,0,NO ERROR,-0.000000,-0.166833,0.000000,-0.340083,TRUE,FALSE,TRUE,FALSE,FALSE,FALSE,Disabled,0.000000,0.000000,0.000000,TRUE,2.272934,-0.332245,0.000000,0.000000,-0.006668,0.000000,0.005000,-0.007000,0.018000,0.100000,-0.470000,2.380000,0.116207,Hold,0.932373,0.000000,ResetBack,-80339.000000,-0.300000,Hold,-390.000000,0.000000,Speed,0.000000,0.000000,Speed,Off,Off0.000000,0,,,,
09:20:05.919 AM 03/20/2016,Teleop Enabled,10,FALSE,0,NO ERROR,-0.000000,-0.166833,0.000000,-0.340083,TRUE,FALSE,TRUE,FALSE,FALSE,FALSE,Disabled,0.000000,0.000000,0.000000,TRUE,2.272934,-0.332443,0.000000,0.000000,0.000000,0.000000,-0.002000,0.003000,0.016000,0.090000,-0.470000,2.380000,0.099387,Hold,0.932373,0.000000,Reset,-71483.000000,2.000000,Hold,-285.000000,0.000000,Speed,0.000000,0.000000,Speed,Off,Off0.000000,0,,,,
09:20:06.018 AM 03/20/2016,Teleop Enabled,10,FALSE,0,NO ERROR,-0.000000,-0.166833,0.000000,-0.340083,TRUE,FALSE,TRUE,FALSE,FALSE,FALSE,Disabled,0.000000,0.000000,0.000000,TRUE,2.272781,-0.332443,0.000000,-0.011307,0.000000,0.000000,-0.026000,-0.031000,0.007000,0.090000,-0.450000,2.380000,0.090350,Hold,0.932373,0.000000,Hold,-71483.000000,2.000000,Hold,-172.500000,0.000000,Speed,0.000000,0.000000,Speed,Off,Off0.000000,0,,,,
09:20:06.119 AM 03/20/2016,Teleop Enabled,10,FALSE,0,NO ERROR,-0.000000,-0.141166,0.000000,-0.340083,TRUE,FALSE,TRUE,FALSE,FALSE,FALSE,Disabled,0.000000,0.000000,0.000000,TRUE,2.272324,-0.332596,0.000000,0.009338,0.001038,0.000000,0.094000,-0.008000,0.038000,0.270000,-0.370000,2.400000,0.246356,Hold,0.932373,0.000000,Hold,-246.000000,2.000000,Hold,-97.500000,0.000000,Speed,0.000000,0.000000,Speed,Off,Off0.000000,0,,,,
09:20:06.219 AM 03/20/2016,Teleop Enabled,11,FALSE,0,NO ERROR,-0.000000,-0.218166,0.000000,-0.340083,TRUE,FALSE,TRUE,FALSE,FALSE,FALSE,Disabled,0.000000,0.000000,0.000000,TRUE,2.273712,-0.333191,0.000000,0.027802,-0.022537,0.000000,-0.065000,0.054000,0.098000,0.000000,-0.390000,2.320000,0.073850,Hold,0.932373,0.000000,Hold,-253.000000,2.000000,Hold,-30.000000,0.000000,Speed,0.000000,0.000000,Speed,Off,Off0.000000,0,,,,
09:20:06.320 AM 03/20/2016,Teleop Enabled,10,FALSE,0,NO ERROR,-0.000000,-0.205333,0.000000,-0.340083,TRUE,FALSE,TRUE,FALSE,FALSE,FALSE,Disabled,0.000000,0.000000,0.000000,TRUE,2.273727,-0.333160,0.000000,-0.005157,0.012772,0.000000,0.020000,-0.028000,0.047000,0.140000,-0.500000,2.430000,0.102382,Hold,0.932373,0.000000,Hold,-53.000000,2.000000,Hold,0.000000,0.000000,Speed,0.000000,0.000000,Speed,Off,Off0.000000,0,,,,
09:20:06.421 AM 03/20/2016,Teleop Enabled,10,FALSE,0,NO ERROR,-0.000000,-0.186083,0.000000,-0.340083,TRUE,FALSE,TRUE,FALSE,FALSE,FALSE,Disabled,0.000000,0.000000,0.000000,TRUE,2.273758,-0.333008,0.000000,0.000000,0.000000,0.000000,0.027000,0.007000,0.043000,0.120000,-0.420000,2.380000,0.167694,Hold,0.932373,0.000000,Hold,-57.000000,2.000000,LowGoal,0.000000,-1454.545455,Speed,0.000000,-1454.545455,Speed,Off,Off0.000000,0,,,,
09:20:06.521 AM 03/20/2016,Teleop Enabled,10,FALSE,0,NO ERROR,-0.000000,-0.186083,0.000000,-0.340083,TRUE,FALSE,TRUE,FALSE,FALSE,FALSE,Disabled,0.000000,0.000000,0.000000,TRUE,2.274078,-0.332962,0.000000,0.010406,0.004272,0.000000,0.117000,0.040000,0.060000,0.130000,-0.450000,2.440000,0.160048,Hold,0.932373,0.000000,Hold,-57.000000,2.000000,LowGoal,112.500000,-1454.545455,Speed,90.000000,-1454.545455,Speed,Off,Off0.000000,0,,,,
09:20:06.621 AM 03/20/2016,Teleop Enabled,11,FALSE,0,NO ERROR,-0.000000,-0.186083,0.000000,-0.340083,TRUE,FALSE,TRUE,FALSE,FALSE,FALSE,Disabled,0.000000,0.000000,0.000000,TRUE,2.274506,-0.332779,0.000000,0.006348,0.000000,0.000000,0.059000,-0.040000,0.018000,0.100000,-0.450000,2.510000,0.129323,Hold,0.932373,0.000000,Hold,-57.000000,2.000000,LowGoal,967.500000,-1454.545455,Speed,907.500000,-1454.545455,Speed,Off,Off0.000000,0,,,,
09:20:06.721 AM 03/20/2016,Teleop Enabled,10,FALSE,0,NO ERROR,-0.000000,-0.186083,0.000000,-0.340083,TRUE,FALSE,TRUE,FALSE,FALSE,FALSE,Disabled,0.000000,0.000000,0.000000,TRUE,2.275497,-0.332809,0.000000,0.018021,0.006027,0.000000,-0.038000,0.058000,0.053000,0.130000,-0.450000,2.480000,0.167577,Hold,0.932373,0.000000,Hold,-57.000000,2.000000,LowGoal,1582.500000,-1454.545455,Speed,1605.000000,-1454.545455,Speed,Off,Off0.000000,0,,,,
09:20:06.821 AM 03/20/2016,Teleop Enabled,11,FALSE,0,NO ERROR,-0.000000,-0.186083,0.000000,-0.340083,TRUE,FALSE,TRUE,FALSE,FALSE,FALSE,Disabled,0.000000,0.000000,0.000000,TRUE,2.275650,-0.332581,0.000000,0.001007,0.002411,0.000000,0.019000,0.056000,0.048000,0.130000,-0.470000,2.550000,0.165680,Hold,0.932373,0.000000,Hold,-57.000000,2.000000,LowGoal,1567.500000,-1454.545455,Speed,1500.000000,-1454.545455,Speed,Off,Off0.000000,0,,,,
09:20:06.922 AM 03/20/2016,Teleop Enabled,10,FALSE,0,NO ERROR,-0.000000,-0.186083,0.000000,-0.340083,TRUE,FALSE,TRUE,FALSE,FALSE,FALSE,Disabled,0.000000,0.000000,0.000000,TRUE,2.274887,-0.331543,0.000000,-0.020630,0.016556,0.000000,0.035000,0.013000,-0.022000,0.130000,-0.470000,2.580000,0.157432,Hold,0.932373,0.000000,Hold,-57.000000,2.000000,LowGoal,1282.500000,-1454.545455,Speed,1275.000000,-1454.545455,Speed,Off,Off0.000000,0,,,,
09:20:07.021 AM 03/20/2016,Teleop Enabled,10,FALSE,0,NO ERROR,-0.000000,-0.186083,0.000000,-0.340083,TRUE,FALSE,TRUE,FALSE,FALSE,FALSE,Disabled,0.000000,0.000000,0.000000,TRUE,2.273865,-0.329544,0.000000,-0.026917,0.051529,0.000000,0.045000,-0.086000,-0.008000,0.130000,-0.490000,2.630000,0.178032,Hold,0.932373,0.000000,Hold,-57.000000,2.000000,LowGoal,1372.500000,-1454.545455,Speed,1335.000000,-1454.545455,Speed,Off,Off0.000000,0,,,,
09:20:07.121 AM 03/20/2016,Teleop Enabled,10,FALSE,0,NO ERROR,-0.000000,-0.186083,0.000000,-0.340083,TRUE,FALSE,TRUE,FALSE,FALSE,FALSE,Disabled,0.000000,0.000000,0.000000,TRUE,2.272705,-0.327713,0.000000,-0.016281,0.022797,0.000000,-0.024000,-0.009000,0.017000,0.130000,-0.460000,2.500000,0.177133,Hold,0.932373,0.000000,Hold,-57.000000,2.000000,LowGoal,1477.500000,-1454.545455,Speed,1462.500000,-1454.545455,Speed,Off,Off0.000000,0,,,,
09:20:07.221 AM 03/20/2016,Teleop Enabled,10,FALSE,0,NO ERROR,-0.000000,-0.186083,0.000000,-0.340083,TRUE,FALSE,TRUE,FALSE,FALSE,FALSE,Disabled,0.000000,0.000000,0.000000,TRUE,2.272324,-0.327011,0.000000,0.000870,0.012985,0.000000,0.031000,-0.044000,-0.052000,0.130000,-0.430000,2.480000,0.183495,Hold,0.932373,0.000000,Hold,-57.000000,2.000000,LowGoal,1395.000000,-1454.545455,Speed,1380.000000,-1454.545455,Speed,Off,Off0.000000,0,,,,
09:20:07.322 AM 03/20/2016,Teleop Enabled,10,FALSE,0,NO ERROR,-0.000000,-0.186083,0.000000,-0.340083,TRUE,FALSE,TRUE,FALSE,FALSE,FALSE,Disabled,0.000000,0.000000,0.000000,TRUE,2.272186,-0.326477,0.000000,-0.003510,0.000290,0.000000,-0.065000,0.073000,0.061000,0.120000,-0.410000,2.430000,0.172131,Hold,0.932373,0.000000,Hold,-57.000000,2.000000,LowGoal,1372.500000,-1454.545455,Speed,1350.000000,-1454.545455,Speed,Off,Off0.000000,0,,,,
09:20:07.422 AM 03/20/2016,Teleop Enabled,9,FALSE,0,NO ERROR,-0.000000,-0.186083,0.000000,-0.340083,TRUE,FALSE,TRUE,FALSE,FALSE,FALSE,Disabled,0.000000,0.000000,0.000000,TRUE,2.271912,-0.324921,0.000000,0.000000,0.047211,0.000000,0.043000,-0.141000,-0.097000,0.130000,-0.410000,2.520000,0.185905,Hold,0.932373,0.000000,Hold,-57.000000,2.000000,LowGoal,1417.500000,-1454.545455,Speed,1402.500000,-1454.545455,Speed,Off,Off0.000000,0,,,,
09:20:07.522 AM 03/20/2016,Teleop Enabled,10,FALSE,0,NO ERROR,-0.000000,-0.186083,0.000000,-0.340083,TRUE,FALSE,TRUE,FALSE,FALSE,FALSE,Disabled,0.000000,0.000000,0.000000,TRUE,2.272537,-0.324783,0.000000,0.012512,-0.003250,0.000000,0.013000,0.051000,0.066000,0.130000,-0.390000,2.390000,0.185079,Hold,0.932373,0.000000,Hold,-57.000000,2.000000,LowGoal,1425.000000,-1454.545455,Speed,1395.000000,-1454.545455,Speed,Off,Off0.000000,0,,,,
09:20:07.623 AM 03/20/2016,Teleop Enabled,10,FALSE,0,NO ERROR,-0.000000,-0.186083,0.000000,-0.340083,TRUE,FALSE,TRUE,FALSE,FALSE,FALSE,Disabled,0.000000,0.000000,0.000000,TRUE,2.273163,-0.324570,0.000000,0.013535,0.001862,0.000000,-0.049000,0.026000,0.059000,0.120000,-0.380000,2.380000,0.190291,Hold,0.932373,0.000000,Hold,-57.000000,2.000000,LowGoal,1395.000000,-1454.545455,Speed,1365.000000,-1454.545455,Speed,Off,Off0.000000,0,,,,
09:20:07.723 AM 03/20/2016,Teleop Enabled,10,FALSE,0,NO ERROR,-0.000000,-0.186083,0.000000,-0.340083,TRUE,FALSE,TRUE,FALSE,FALSE,FALSE,Disabled,0.000000,0.000000,0.000000,TRUE,2.273315,-0.324493,0.000000,-0.003647,0.016479,0.000000,-0.036000,0.016000,0.019000,0.120000,-0.400000,2.420000,0.192935,Hold,0.932373,0.000000,Hold,-57.000000,2.000000,LowGoal,1402.500000,-1454.545455,Speed,1380.000000,-1454.545455,Speed,Off,Off0.000000,0,,,,
09:20:07.824 AM 03/20/2016,Teleop Enabled,10,FALSE,0,NO ERROR,-0.000000,-0.186083,0.000000,-0.340083,TRUE,FALSE,TRUE,FALSE,FALSE,FALSE,Disabled,0.000000,0.000000,0.000000,TRUE,2.272766,-0.324402,0.000000,-0.010422,-0.016861,0.000000,0.002000,0.054000,0.101000,0.120000,-0.390000,2.320000,0.183795,Hold,0.932373,0.000000,Hold,-57.000000,2.000000,LowGoal,1417.500000,-1454.545455,Speed,1395.000000,-1454.545455,Speed,Off,Off0.000000,0,,,,
09:20:07.925 AM 03/20/2016,Teleop Disabled,10,FALSE,0,NO ERROR,-0.000000,-0.186083,0.000000,-0.340083,TRUE,FALSE,TRUE,FALSE,FALSE,FALSE,Disabled,0.000000,0.000000,0.000000,TRUE,2.272522,-0.324539,0.000000,-0.007172,0.010437,0.000000,-0.040000,-0.031000,-0.045000,0.120000,-0.400000,2.340000,0.184469,Hold,0.932373,0.000000,Hold,-62.000000,2.000000,LowGoal,1380.000000,-1454.545455,Speed,1327.500000,-1454.545455,Speed,Off,Off0.000000,0,,,,
09:20:08.025 AM 03/20/2016,Teleop Disabled,10,FALSE,0,NO ERROR,-0.000000,-0.186083,0.000000,-0.340083,TRUE,FALSE,TRUE,FALSE,FALSE,FALSE,Disabled,0.000000,0.000000,0.000000,TRUE,2.272324,-0.324463,0.000000,-0.005615,0.010849,0.000000,0.005000,0.078000,0.088000,0.120000,-0.410000,2.300000,0.193028,Hold,0.932373,0.000000,Hold,-62.000000,2.000000,LowGoal,1207.500000,-1454.545455,Speed,1080.000000,-1454.545455,Speed,Off,Off0.000000,0,,,,
09:20:08.125 AM 03/20/2016,Teleop Disabled,10,FALSE,0,NO ERROR,-0.000000,-0.186083,0.000000,-0.340083,TRUE,FALSE,TRUE,FALSE,FALSE,FALSE,Disabled,0.000000,0.000000,0.000000,TRUE,2.273056,-0.322632,0.000000,0.026001,0.042496,0.000000,-0.045000,0.039000,-0.011000,0.110000,-0.380000,2.300000,0.193647,Hold,0.932373,0.000000,Hold,-63.000000,2.000000,LowGoal,1012.500000,-1454.545455,Speed,802.500000,-1454.545455,Speed,Off,Off0.000000,0,,,,
09:20:08.225 AM 03/20/2016,Teleop Disabled,9,FALSE,0,NO ERROR,-0.000000,-0.186083,0.000000,-0.340083,TRUE,FALSE,TRUE,FALSE,FALSE,FALSE,Disabled,0.000000,0.000000,0.000000,TRUE,2.274094,-0.321548,0.000000,0.016403,0.009674,0.000000,-0.014000,-0.017000,0.048000,0.120000,-0.390000,2.290000,0.188917,Hold,0.932373,0.000000,Hold,-64.000000,2.000000,LowGoal,840.000000,-1454.545455,Speed,592.500000,-1454.545455,Speed,Off,Off0.000000,0,,,,
09:20:08.326 AM 03/20/2016,Teleop Disabled,10,FALSE,0,NO ERROR,-0.000000,-0.186083,0.000000,-0.340083,TRUE,FALSE,TRUE,FALSE,FALSE,FALSE,Disabled,0.000000,0.000000,0.000000,TRUE,2.274826,-0.321259,0.000000,0.012878,0.010635,0.000000,0.000000,-0.017000,0.018000,0.120000,-0.380000,2.270000,0.181199,Hold,0.932373,0.000000,Hold,-64.000000,2.000000,LowGoal,682.500000,-1454.545455,Speed,352.500000,-1454.545455,Speed,Off,Off0.000000,0,,,,
09:20:08.427 AM 03/20/2016,Teleop Disabled,10,FALSE,0,NO ERROR,-0.000000,-0.186083,0.000000,-0.115500,TRUE,FALSE,TRUE,FALSE,FALSE,FALSE,Disabled,0.000000,0.000000,0.000000,TRUE,2.274780,-0.321030,0.000000,-0.002869,-0.003372,0.000000,-0.120000,-0.022000,0.073000,0.120000,-0.400000,2.270000,0.198536,Hold,0.932373,0.000000,Hold,-64.000000,2.000000,LowGoal,525.000000,-1454.545455,Speed,135.000000,-1454.545455,Speed,Off,Off0.000000,0,,,,
09:20:08.528 AM 03/20/2016,Teleop Disabled,10,FALSE,0,NO ERROR,-0.000000,-0.186083,0.000000,-0.109083,TRUE,FALSE,TRUE,FALSE,FALSE,FALSE,Disabled,0.000000,0.000000,0.000000,TRUE,2.273499,-0.322067,0.000000,-0.021988,-0.022217,0.000000,0.002000,-0.006000,0.038000,0.100000,-0.390000,2.290000,0.192394,Hold,0.932373,0.000000,Hold,-64.000000,2.000000,LowGoal,420.000000,-1454.545455,Speed,0.000000,-1454.545455,Speed,Off,Off0.000000,0,,,,
09:20:08.628 AM 03/20/2016,Teleop Disabled,9,FALSE,0,NO ERROR,-0.000000,-0.186083,0.000000,-0.109083,TRUE,FALSE,TRUE,FALSE,FALSE,FALSE,Disabled,0.000000,0.000000,0.000000,TRUE,2.273041,-0.322067,0.000000,0.000000,0.000000,0.000000,-0.005000,-0.006000,0.013000,0.100000,-0.390000,2.290000,0.175512,Hold,0.932373,0.000000,Hold,-64.000000,2.000000,LowGoal,300.000000,-1454.545455,Speed,0.000000,-1454.545455,Speed,Off,Off0.000000,0,,,,
09:20:08.728 AM 03/20/2016,Teleop Disabled,11,FALSE,0,NO ERROR,-0.000000,-0.186083,0.000000,-0.109083,TRUE,FALSE,TRUE,FALSE,FALSE,FALSE,Disabled,0.000000,0.000000,0.000000,TRUE,2.273041,-0.322037,0.000000,0.000000,0.002960,0.000000,-0.006000,0.021000,0.006000,0.100000,-0.420000,2.310000,0.179120,Hold,0.932373,0.000000,Hold,-64.000000,2.000000,LowGoal,202.500000,-1454.545455,Speed,0.000000,-1454.545455,Speed,Off,Off0.000000,0,,,,
09:20:08.831 AM 03/20/2016,Teleop Disabled,10,FALSE,0,NO ERROR,-0.000000,-0.186083,0.000000,-0.109083,TRUE,FALSE,TRUE,FALSE,FALSE,FALSE,Disabled,0.000000,0.000000,0.000000,TRUE,2.273041,-0.321930,0.000000,0.000000,0.000000,0.000000,0.002000,0.004000,0.032000,0.110000,-0.400000,2.300000,0.197775,Hold,0.932373,0.000000,Hold,-64.000000,2.000000,LowGoal,90.000000,-1454.545455,Speed,0.000000,-1454.545455,Speed,Off,Off0.000000,0,,,,
09:20:08.931 AM 03/20/2016,Teleop Disabled,10,FALSE,0,NO ERROR,-0.000000,-0.186083,0.000000,-0.109083,TRUE,TRUE,TRUE,FALSE,FALSE,FALSE,Disabled,0.000000,0.000000,0.000000,TRUE,2.273041,-0.321930,0.000000,0.000000,0.000000,0.000000,-0.012000,0.005000,0.024000,0.100000,-0.410000,2.310000,0.202323,Hold,0.932373,0.000000,Hold,-64.000000,2.000000,LowGoal,30.000000,-1454.545455,Speed,0.000000,-1454.545455,Speed,Off,Off0.000000,0,,,,
09:20:09.031 AM 03/20/2016,Teleop Disabled,11,FALSE,0,NO ERROR,-0.000000,-0.186083,0.000000,-0.109083,TRUE,TRUE,TRUE,FALSE,FALSE,FALSE,Disabled,0.000000,0.000000,0.000000,TRUE,2.273041,-0.321930,0.000000,0.000000,0.000000,0.000000,0.000000,0.000000,0.019000,0.110000,-0.420000,2.320000,0.217935,Hold,0.932373,0.000000,Hold,-64.000000,2.000000,LowGoal,0.000000,-1454.545455,Speed,0.000000,-1454.545455,Speed,Off,Off0.000000,0,,,,
09:20:09.132 AM 03/20/2016,Teleop Disabled,11,FALSE,0,NO ERROR,-0.000000,-0.186083,0.000000,-0.109083,TRUE,TRUE,TRUE,FALSE,FALSE,FALSE,Disabled,0.000000,0.000000,0.000000,TRUE,2.273041,-0.321930,0.000000,0.000000,0.000000,0.000000,-0.007000,0.000000,0.021000,0.100000,-0.420000,2.320000,0.218599,Hold,0.932373,0.000000,Hold,-64.000000,2.000000,LowGoal,0.000000,0.000000,Speed,0.000000,0.000000,Speed,Off,Off0.000000,0,,,,
09:20:09.235 AM 03/20/2016,Teleop Disabled,10,FALSE,0,NO ERROR,-0.000000,-0.186083,0.000000,-0.109083,TRUE,FALSE,TRUE,FALSE,FALSE,FALSE,Disabled,0.000000,0.000000,0.000000,TRUE,2.273041,-0.321930,0.000000,0.000000,0.000000,0.000000,-0.004000,-0.006000,0.022000,0.100000,-0.430000,2.330000,0.230235,Hold,0.932373,0.000000,Hold,-64.000000,2.000000,LowGoal,0.000000,0.000000,Speed,0.000000,0.000000,Speed,Off,Off0.000000,0,,,,
09:20:09.335 AM 03/20/2016,Teleop Disabled,10,FALSE,0,NO ERROR,-0.000000,-0.186083,0.000000,-0.109083,TRUE,FALSE,TRUE,FALSE,FALSE,FALSE,Disabled,0.000000,0.000000,0.000000,TRUE,2.273041,-0.321930,0.000000,0.000000,0.000000,0.000000,0.000000,0.000000,0.020000,0.100000,-0.430000,2.340000,0.249696,Hold,0.932373,0.000000,Hold,-64.000000,2.000000,LowGoal,0.000000,-1454.545455,Speed,0.000000,-1454.545455,Speed,Off,Off0.000000,0,,,,
09:20:09.436 AM 03/20/2016,Teleop Disabled,10,FALSE,0,NO ERROR,-0.000000,-0.186083,0.000000,-0.109083,TRUE,FALSE,TRUE,FALSE,FALSE,FALSE,Disabled,0.000000,0.000000,0.000000,TRUE,2.273041,-0.321930,0.000000,0.000000,0.000000,0.000000,-0.001000,-0.002000,0.025000,0.100000,-0.430000,2.340000,0.246501,Hold,0.932373,0.000000,Hold,-64.000000,2.000000,LowGoal,0.000000,-1454.545455,Speed,0.000000,-1454.545455,Speed,Off,Off0.000000,0,,,,
09:20:09.535 AM 03/20/2016,Teleop Disabled,10,FALSE,0,NO ERROR,-0.000000,-0.186083,0.000000,-0.109083,TRUE,FALSE,TRUE,FALSE,FALSE,FALSE,Disabled,0.000000,0.000000,0.000000,TRUE,2.273041,-0.321930,0.000000,0.000000,0.000000,0.000000,0.000000,0.000000,0.017000,0.100000,-0.440000,2.350000,0.239557,Hold,0.932373,0.000000,Hold,-64.000000,2.000000,LowGoal,0.000000,-1454.545455,Speed,0.000000,-1454.545455,Speed,Off,Off0.000000,0,,,,
09:20:09.635 AM 03/20/2016,Teleop Disabled,9,FALSE,0,NO ERROR,-0.000000,-0.186083,0.000000,-0.109083,TRUE,FALSE,TRUE,FALSE,FALSE,FALSE,Disabled,0.000000,0.000000,0.000000,TRUE,2.273041,-0.321930,0.000000,0.000000,0.000000,0.000000,-0.001000,0.002000,0.021000,0.100000,-0.440000,2.350000,0.236070,Hold,0.932373,0.000000,Hold,-64.000000,2.000000,LowGoal,0.000000,-1454.545455,Speed,0.000000,-1454.545455,Speed,Off,Off0.000000,0,,,,
09:20:09.736 AM 03/20/2016,Teleop Disabled,10,FALSE,0,NO ERROR,-0.000000,-0.186083,0.000000,-0.109083,TRUE,FALSE,TRUE,FALSE,FALSE,FALSE,Disabled,0.000000,0.000000,0.000000,TRUE,2.273041,-0.321930,0.000000,0.000000,0.000000,0.000000,0.000000,-0.001000,0.019000,0.100000,-0.440000,2.350000,0.245757,Hold,0.932373,0.000000,Hold,-64.000000,2.000000,LowGoal,0.000000,-1454.545455,Speed,0.000000,-1454.545455,Speed,Off,Off0.000000,0,,,,
09:20:09.835 AM 03/20/2016,Teleop Disabled,9,FALSE,0,NO ERROR,-0.000000,-0.186083,0.000000,-0.109083,TRUE,TRUE,TRUE,FALSE,FALSE,FALSE,Disabled,0.000000,0.000000,0.000000,TRUE,2.273041,-0.321930,0.000000,0.000000,0.000000,0.000000,-0.001000,0.000000,0.020000,0.090000,-0.450000,2.360000,0.257486,Hold,0.932373,0.000000,Hold,-64.000000,2.000000,LowGoal,0.000000,-1454.545455,Speed,0.000000,-1454.545455,Speed,Off,Off0.000000,0,,,,
09:20:09.935 AM 03/20/2016,Teleop Disabled,9,FALSE,0,NO ERROR,-0.000000,-0.186083,0.000000,-0.109083,TRUE,TRUE,TRUE,FALSE,FALSE,FALSE,Disabled,0.000000,0.000000,0.000000,TRUE,2.273041,-0.321930,0.000000,0.000000,0.000000,0.000000,-0.002000,-0.002000,0.021000,0.090000,-0.450000,2.360000,0.248436,Hold,0.932373,0.000000,Hold,-64.000000,2.000000,LowGoal,0.000000,0.000000,Speed,0.000000,0.000000,Speed,Off,Off0.000000,0,,,,
09:20:10.035 AM 03/20/2016,Teleop Disabled,10,FALSE,0,NO ERROR,-0.000000,-0.186083,0.000000,-0.109083,TRUE,FALSE,TRUE,FALSE,FALSE,FALSE,Disabled,0.000000,0.000000,0.000000,TRUE,2.273041,-0.321930,0.000000,0.000000,0.000000,0.000000,-0.001000,-0.003000,0.024000,0.090000,-0.450000,2.370000,0.244718,Hold,0.932373,0.000000,Hold,-64.000000,2.000000,LowGoal,0.000000,0.000000,Speed,0.000000,0.000000,Speed,Off,Off0.000000,0,,,,
09:20:10.136 AM 03/20/2016,Teleop Disabled,10,FALSE,0,NO ERROR,-0.000000,-0.186083,0.000000,-0.109083,TRUE,FALSE,TRUE,FALSE,FALSE,FALSE,Disabled,0.000000,0.000000,0.000000,TRUE,2.273041,-0.321930,0.000000,0.000000,0.000000,0.000000,-0.001000,0.001000,0.017000,0.090000,-0.450000,2.370000,0.241323,Hold,0.932373,0.000000,Hold,-64.000000,2.000000,LowGoal,0.000000,-1454.545455,Speed,0.000000,-1454.545455,Speed,Off,Off0.000000,0,,,,
09:20:10.236 AM 03/20/2016,Teleop Disabled,9,FALSE,0,NO ERROR,-0.000000,-0.186083,0.000000,-0.109083,TRUE,FALSE,TRUE,FALSE,FALSE,FALSE,Disabled,0.000000,0.000000,0.000000,TRUE,2.273041,-0.321930,0.000000,0.000000,0.000000,0.000000,0.001000,0.001000,0.024000,0.090000,-0.450000,2.380000,0.257297,Hold,0.932373,0.000000,Hold,-64.000000,2.000000,LowGoal,0.000000,-1454.545455,Speed,0.000000,-1454.545455,Speed,Off,Off0.000000,0,,,,
09:20:10.336 AM 03/20/2016,Teleop Disabled,10,FALSE,0,NO ERROR,-0.000000,-0.186083,0.000000,-0.109083,TRUE,FALSE,TRUE,FALSE,FALSE,FALSE,Disabled,0.000000,0.000000,0.000000,TRUE,2.273041,-0.321930,0.000000,0.000000,0.000000,0.000000,0.000000,-0.001000,0.023000,0.090000,-0.450000,2.380000,0.255448,Hold,0.932373,0.000000,Hold,-64.000000,2.000000,LowGoal,0.000000,-1454.545455,Speed,0.000000,-1454.545455,Speed,Off,Off0.000000,0,,,,
09:20:10.436 AM 03/20/2016,Teleop Disabled,9,FALSE,0,NO ERROR,-0.000000,-0.186083,0.000000,-0.109083,TRUE,FALSE,TRUE,FALSE,FALSE,FALSE,Disabled,0.000000,0.000000,0.000000,TRUE,2.273041,-0.321930,0.000000,0.000000,0.000000,0.000000,0.002000,0.000000,0.019000,0.090000,-0.450000,2.380000,0.276799,Hold,0.932373,0.000000,Hold,-64.000000,2.000000,LowGoal,0.000000,-1454.545455,Speed,0.000000,-1454.545455,Speed,Off,Off0.000000,0,,,,
09:20:10.536 AM 03/20/2016,Teleop Disabled,10,FALSE,0,NO ERROR,-0.000000,-0.186083,0.000000,-0.109083,TRUE,FALSE,TRUE,FALSE,FALSE,FALSE,Disabled,0.000000,0.000000,0.000000,TRUE,2.273041,-0.321930,0.000000,0.000000,0.000000,0.000000,-0.001000,0.001000,0.021000,0.080000,-0.450000,2.380000,0.269869,Hold,0.932373,0.000000,Hold,-64.000000,2.000000,LowGoal,0.000000,-1454.545455,Speed,0.000000,-1454.545455,Speed,Off,Off0.000000,0,,,,
09:20:10.636 AM 03/20/2016,Teleop Disabled,10,FALSE,0,NO ERROR,-0.000000,-0.186083,0.000000,-0.109083,TRUE,TRUE,TRUE,FALSE,FALSE,FALSE,Disabled,0.000000,0.000000,0.000000,TRUE,2.273041,-0.321930,0.000000,0.000000,0.000000,0.000000,0.000000,-0.001000,0.022000,0.080000,-0.450000,2.380000,0.279364,Hold,0.932373,0.000000,Hold,-64.000000,2.000000,LowGoal,0.000000,-1454.545455,Speed,0.000000,-1454.545455,Speed,Off,Off0.000000,0,,,,
09:20:10.736 AM 03/20/2016,Teleop Disabled,9,FALSE,0,NO ERROR,-0.000000,-0.186083,0.000000,-0.109083,TRUE,TRUE,TRUE,FALSE,FALSE,FALSE,Disabled,0.000000,0.000000,0.000000,TRUE,2.273041,-0.321930,0.000000,0.000000,0.000000,0.000000,0.000000,-0.002000,0.021000,0.080000,-0.450000,2.380000,0.280262,Hold,0.932373,0.000000,Hold,-64.000000,2.000000,LowGoal,0.000000,0.000000,Speed,0.000000,0.000000,Speed,Off,Off0.000000,0,,,,
09:20:10.836 AM 03/20/2016,Teleop Disabled,10,FALSE,0,NO ERROR,-0.000000,-0.186083,0.000000,-0.109083,TRUE,FALSE,TRUE,FALSE,FALSE,FALSE,Disabled,0.000000,0.000000,0.000000,TRUE,2.273041,-0.321930,0.000000,0.000000,0.000000,0.000000,0.000000,0.001000,0.020000,0.080000,-0.450000,2.380000,0.281044,Hold,0.932373,0.000000,Hold,-64.000000,2.000000,LowGoal,0.000000,0.000000,Speed,0.000000,0.000000,Speed,Off,Off0.000000,0,,,,
09:20:10.936 AM 03/20/2016,Teleop Disabled,10,FALSE,0,NO ERROR,-0.000000,-0.186083,0.000000,-0.109083,TRUE,FALSE,TRUE,FALSE,FALSE,FALSE,Disabled,0.000000,0.000000,0.000000,TRUE,2.273041,-0.321930,0.000000,0.000000,0.000000,0.000000,0.001000,0.003000,0.020000,0.090000,-0.450000,2.380000,0.270189,Hold,0.932373,0.000000,Hold,-64.000000,2.000000,LowGoal,0.000000,-1454.545455,Speed,0.000000,-1454.545455,Speed,Off,Off0.000000,0,,,,
09:20:11.036 AM 03/20/2016,Teleop Disabled,10,FALSE,0,NO ERROR,-0.000000,-0.186083,0.000000,-0.109083,TRUE,FALSE,TRUE,FALSE,FALSE,FALSE,Disabled,0.000000,0.000000,0.000000,TRUE,2.273041,-0.321930,0.000000,0.000000,0.000000,0.000000,0.001000,0.003000,0.020000,0.090000,-0.450000,2.390000,0.279164,Hold,0.932373,0.000000,Hold,-64.000000,2.000000,LowGoal,0.000000,-1454.545455,Speed,0.000000,-1454.545455,Speed,Off,Off0.000000,0,,,,
09:20:11.136 AM 03/20/2016,Teleop Disabled,10,FALSE,0,NO ERROR,-0.000000,-0.186083,0.000000,-0.109083,TRUE,FALSE,TRUE,FALSE,FALSE,FALSE,Disabled,0.000000,0.000000,0.000000,TRUE,2.273041,-0.321930,0.000000,0.000000,0.000000,0.000000,0.000000,0.001000,0.022000,0.080000,-0.450000,2.380000,0.273356,Hold,0.932373,0.000000,Hold,-64.000000,2.000000,LowGoal,0.000000,-1454.545455,Speed,0.000000,-1454.545455,Speed,Off,Off0.000000,0,,,,
09:20:11.236 AM 03/20/2016,Teleop Disabled,9,FALSE,0,NO ERROR,-0.000000,-0.186083,0.000000,-0.109083,TRUE,FALSE,TRUE,FALSE,FALSE,FALSE,Disabled,0.000000,0.000000,0.000000,TRUE,2.273041,-0.321930,0.000000,0.000000,0.000000,0.000000,0.000000,0.001000,0.022000,0.080000,-0.450000,2.390000,0.282421,Hold,0.932373,0.000000,Hold,-64.000000,2.000000,LowGoal,0.000000,-1454.545455,Speed,0.000000,-1454.545455,Speed,Off,Off0.000000,0,,,,
09:20:11.337 AM 03/20/2016,Teleop Disabled,11,FALSE,0,NO ERROR,-0.000000,-0.186083,0.000000,-0.109083,TRUE,FALSE,TRUE,FALSE,FALSE,FALSE,Disabled,0.000000,0.000000,0.000000,TRUE,2.273041,-0.321930,0.000000,0.000000,0.000000,0.000000,0.000000,-0.001000,0.023000,0.080000,-0.450000,2.390000,0.272485,Hold,0.932373,0.000000,Hold,-64.000000,2.000000,LowGoal,0.000000,-1454.545455,Speed,0.000000,-1454.545455,Speed,Off,Off0.000000,0,,,,
09:20:11.438 AM 03/20/2016,Teleop Disabled,10,FALSE,0,NO ERROR,-0.000000,-0.186083,0.000000,-0.109083,TRUE,TRUE,TRUE,FALSE,FALSE,FALSE,Disabled,0.000000,0.000000,0.000000,TRUE,2.273041,-0.321930,0.000000,0.000000,0.000000,0.000000,-0.001000,-0.001000,0.021000,0.080000,-0.450000,2.390000,0.268647,Hold,0.932373,0.000000,Hold,-64.000000,2.000000,LowGoal,0.000000,-1454.545455,Speed,0.000000,-1454.545455,Speed,Off,Off0.000000,0,,,,
09:20:11.538 AM 03/20/2016,Teleop Disabled,10,FALSE,0,NO ERROR,-0.000000,-0.186083,0.000000,-0.109083,TRUE,TRUE,TRUE,FALSE,FALSE,FALSE,Disabled,0.000000,0.000000,0.000000,TRUE,2.273041,-0.321930,0.000000,0.000000,0.000000,0.000000,-0.001000,-0.001000,0.021000,0.080000,-0.460000,2.390000,0.274930,Hold,0.932373,0.000000,Hold,-64.000000,2.000000,LowGoal,0.000000,0.000000,Speed,0.000000,0.000000,Speed,Off,Off0.000000,0,,,,
09:20:11.638 AM 03/20/2016,Teleop Disabled,10,FALSE,0,NO ERROR,-0.000000,-0.186083,0.000000,-0.109083,TRUE,FALSE,TRUE,FALSE,FALSE,FALSE,Disabled,0.000000,0.000000,0.000000,TRUE,2.273041,-0.321930,0.000000,0.000000,0.000000,0.000000,0.000000,0.000000,0.018000,0.080000,-0.460000,2.390000,0.270437,Hold,0.932373,0.000000,Hold,-64.000000,2.000000,LowGoal,0.000000,0.000000,Speed,0.000000,0.000000,Speed,Off,Off0.000000,0,,,,
09:20:11.739 AM 03/20/2016,Teleop Disabled,10,FALSE,0,NO ERROR,-0.000000,-0.186083,0.000000,-0.109083,TRUE,FALSE,TRUE,FALSE,FALSE,FALSE,Disabled,0.000000,0.000000,0.000000,TRUE,2.273041,-0.321930,0.000000,0.000000,0.000000,0.000000,0.000000,0.000000,0.018000,0.080000,-0.460000,2.390000,0.276737,Hold,0.932373,0.000000,Hold,-64.000000,2.000000,LowGoal,0.000000,-1454.545455,Speed,0.000000,-1454.545455,Speed,Off,Off0.000000,0,,,,
09:20:11.839 AM 03/20/2016,Teleop Disabled,10,FALSE,0,NO ERROR,-0.000000,-0.186083,0.000000,-0.109083,TRUE,FALSE,TRUE,FALSE,FALSE,FALSE,Disabled,0.000000,0.000000,0.000000,TRUE,2.273041,-0.321930,0.000000,0.000000,0.000000,0.000000,0.002000,-0.001000,0.023000,0.080000,-0.460000,2.400000,0.278135,Hold,0.932373,0.000000,Hold,-64.000000,2.000000,LowGoal,0.000000,-1454.545455,Speed,0.000000,-1454.545455,Speed,Off,Off0.000000,0,,,,
09:20:11.940 AM 03/20/2016,Teleop Disabled,10,FALSE,0,NO ERROR,-0.000000,-0.186083,0.000000,-0.109083,TRUE,FALSE,TRUE,FALSE,FALSE,FALSE,Disabled,0.000000,0.000000,0.000000,TRUE,2.273041,-0.321930,0.000000,0.000000,0.000000,0.000000,0.004000,-0.001000,0.023000,0.080000,-0.460000,2.390000,0.287381,Hold,0.932373,0.000000,Hold,-64.000000,2.000000,LowGoal,0.000000,-1454.545455,Speed,0.000000,-1454.545455,Speed,Off,Off0.000000,0,,,,
09:20:12.040 AM 03/20/2016,Teleop Disabled,10,FALSE,0,NO ERROR,-0.000000,-0.186083,0.000000,-0.109083,TRUE,FALSE,TRUE,FALSE,FALSE,FALSE,Disabled,0.000000,0.000000,0.000000,TRUE,2.273041,-0.321930,0.000000,0.000000,0.000000,0.000000,-0.001000,0.000000,0.024000,0.080000,-0.460000,2.390000,0.294810,Hold,0.932373,0.000000,Hold,-64.000000,2.000000,LowGoal,0.000000,-1454.545455,Speed,0.000000,-1454.545455,Speed,Off,Off0.000000,0,,,,
09:20:12.141 AM 03/20/2016,Teleop Disabled,10,FALSE,0,NO ERROR,-0.000000,-0.186083,0.000000,-0.109083,TRUE,FALSE,TRUE,FALSE,FALSE,FALSE,Disabled,0.000000,0.000000,0.000000,TRUE,2.273041,-0.321930,0.000000,0.000000,0.000000,0.000000,0.000000,0.000000,0.018000,0.080000,-0.460000,2.390000,0.299630,Hold,0.932373,0.000000,Hold,-64.000000,2.000000,LowGoal,0.000000,-1454.545455,Speed,0.000000,-1454.545455,Speed,Off,Off0.000000,0,,,,
09:20:12.242 AM 03/20/2016,Teleop Disabled,10,FALSE,0,NO ERROR,-0.000000,-0.186083,0.000000,-0.109083,TRUE,TRUE,TRUE,FALSE,FALSE,FALSE,Disabled,0.000000,0.000000,0.000000,TRUE,2.273041,-0.321930,0.000000,0.000000,0.000000,0.000000,0.000000,-0.001000,0.018000,0.080000,-0.460000,2.400000,0.306308,Hold,0.932373,0.000000,Hold,-64.000000,2.000000,LowGoal,0.000000,-1454.545455,Speed,0.000000,-1454.545455,Speed,Off,Off0.000000,0,,,,
09:20:12.343 AM 03/20/2016,Teleop Disabled,10,FALSE,0,NO ERROR,-0.000000,-0.186083,0.000000,-0.109083,TRUE,TRUE,TRUE,FALSE,FALSE,FALSE,Disabled,0.000000,0.000000,0.000000,TRUE,2.273041,-0.321930,0.000000,0.000000,0.000000,0.000000,0.000000,0.000000,0.021000,0.080000,-0.450000,2.400000,0.294979,Hold,0.932373,0.000000,Hold,-64.000000,2.000000,LowGoal,0.000000,0.000000,Speed,0.000000,0.000000,Speed,Off,Off0.000000,0,,,,
09:20:12.444 AM 03/20/2016,Teleop Disabled,10,FALSE,0,NO ERROR,-0.000000,-0.186083,0.000000,-0.109083,TRUE,FALSE,TRUE,FALSE,FALSE,FALSE,Disabled,0.000000,0.000000,0.000000,TRUE,2.273041,-0.321930,0.000000,0.000000,0.000000,0.000000,0.000000,0.000000,0.023000,0.080000,-0.450000,2.410000,0.306725,Hold,0.932373,0.000000,Hold,-64.000000,2.000000,LowGoal,0.000000,0.000000,Speed,0.000000,0.000000,Speed,Off,Off0.000000,0,,,,
09:20:12.545 AM 03/20/2016,Teleop Disabled,10,FALSE,0,NO ERROR,-0.000000,-0.186083,0.000000,-0.109083,TRUE,FALSE,TRUE,FALSE,FALSE,FALSE,Disabled,0.000000,0.000000,0.000000,TRUE,2.273041,-0.321930,0.000000,0.000000,0.000000,0.000000,0.000000,0.000000,0.023000,0.080000,-0.450000,2.410000,0.301152,Hold,0.932373,0.000000,Hold,-64.000000,2.000000,LowGoal,0.000000,-1454.545455,Speed,0.000000,-1454.545455,Speed,Off,Off0.000000,0,,,,
09:20:12.645 AM 03/20/2016,Teleop Disabled,11,FALSE,0,NO ERROR,-0.000000,-0.186083,0.000000,-0.109083,TRUE,FALSE,TRUE,FALSE,FALSE,FALSE,Disabled,0.000000,0.000000,0.000000,TRUE,2.273041,-0.321930,0.000000,0.000000,0.000000,0.000000,0.000000,0.000000,0.019000,0.080000,-0.450000,2.400000,0.304866,Hold,0.932373,0.000000,Hold,-64.000000,2.000000,LowGoal,0.000000,-1454.545455,Speed,0.000000,-1454.545455,Speed,Off,Off0.000000,0,,,,
09:20:12.745 AM 03/20/2016,Teleop Disabled,10,FALSE,0,NO ERROR,-0.000000,-0.186083,0.000000,-0.109083,TRUE,FALSE,TRUE,FALSE,FALSE,FALSE,Disabled,0.000000,0.000000,0.000000,TRUE,2.273041,-0.321930,0.000000,0.000000,0.000000,0.000000,0.000000,0.000000,0.023000,0.080000,-0.450000,2.400000,0.312089,Hold,0.932373,0.000000,Hold,-64.000000,2.000000,LowGoal,0.000000,-1454.545455,Speed,0.000000,-1454.545455,Speed,Off,Off0.000000,0,,,,
09:20:12.845 AM 03/20/2016,Teleop Disabled,10,FALSE,0,NO ERROR,-0.000000,-0.186083,0.000000,-0.109083,TRUE,FALSE,TRUE,FALSE,FALSE,FALSE,Disabled,0.000000,0.000000,0.000000,TRUE,2.273041,-0.321930,0.000000,0.000000,0.000000,0.000000,0.002000,0.000000,0.018000,0.080000,-0.450000,2.400000,0.313600,Hold,0.932373,0.000000,Hold,-64.000000,2.000000,LowGoal,0.000000,-1454.545455,Speed,0.000000,-1454.545455,Speed,Off,Off0.000000,0,,,,
09:20:12.945 AM 03/20/2016,Teleop Disabled,10,FALSE,0,NO ERROR,-0.000000,-0.186083,0.000000,-0.109083,TRUE,FALSE,TRUE,FALSE,FALSE,FALSE,Disabled,0.000000,0.000000,0.000000,TRUE,2.273041,-0.321930,0.000000,0.000000,0.000000,0.000000,0.001000,0.000000,0.021000,0.080000,-0.450000,2.400000,0.311941,Hold,0.932373,0.000000,Hold,-64.000000,2.000000,LowGoal,0.000000,-1454.545455,Speed,0.000000,-1454.545455,Speed,Off,Off0.000000,0,,,,
09:20:13.046 AM 03/20/2016,Teleop Disabled,10,FALSE,0,NO ERROR,-0.000000,-0.186083,0.000000,-0.109083,TRUE,TRUE,TRUE,FALSE,FALSE,FALSE,Disabled,0.000000,0.000000,0.000000,TRUE,2.273041,-0.321930,0.000000,0.000000,0.000000,0.000000,0.001000,0.000000,0.019000,0.080000,-0.460000,2.400000,0.302260,Hold,0.932373,0.000000,Hold,-64.000000,2.000000,LowGoal,0.000000,-1454.545455,Speed,0.000000,-1454.545455,Speed,Off,Off0.000000,0,,,,
09:20:13.146 AM 03/20/2016,Teleop Disabled,10,FALSE,0,NO ERROR,-0.000000,-0.186083,0.000000,-0.109083,TRUE,TRUE,TRUE,FALSE,FALSE,FALSE,Disabled,0.000000,0.000000,0.000000,TRUE,2.273041,-0.321930,0.000000,0.000000,0.000000,0.000000,0.001000,0.000000,0.022000,0.080000,-0.450000,2.410000,0.315066,Hold,0.932373,0.000000,Hold,-64.000000,2.000000,LowGoal,0.000000,0.000000,Speed,0.000000,0.000000,Speed,Off,Off0.000000,0,,,,
09:20:13.247 AM 03/20/2016,Teleop Disabled,10,FALSE,0,NO ERROR,-0.000000,-0.186083,0.000000,-0.109083,TRUE,FALSE,TRUE,FALSE,FALSE,FALSE,Disabled,0.000000,0.000000,0.000000,TRUE,2.273041,-0.321930,0.000000,0.000000,0.000000,0.000000,0.000000,0.000000,0.023000,0.080000,-0.450000,2.410000,0.315066,Hold,0.932373,0.000000,Hold,-64.000000,2.000000,LowGoal,0.000000,0.000000,Speed,0.000000,0.000000,Speed,Off,Off0.000000,0,,,,
09:20:13.346 AM 03/20/2016,Teleop Disabled,11,FALSE,0,NO ERROR,-0.000000,-0.186083,0.000000,-0.109083,TRUE,FALSE,TRUE,FALSE,FALSE,FALSE,Disabled,0.000000,0.000000,0.000000,TRUE,2.273041,-0.321930,0.000000,0.000000,0.000000,0.000000,0.000000,0.000000,0.019000,0.080000,-0.450000,2.410000,0.314688,Hold,0.932373,0.000000,Hold,-64.000000,2.000000,LowGoal,0.000000,-1454.545455,Speed,0.000000,-1454.545455,Speed,Off,Off0.000000,0,,,,
09:20:13.446 AM 03/20/2016,Teleop Disabled,10,FALSE,0,NO ERROR,-0.000000,-0.186083,0.000000,-0.109083,TRUE,FALSE,TRUE,FALSE,FALSE,FALSE,Disabled,0.000000,0.000000,0.000000,TRUE,2.273041,-0.321930,0.000000,0.000000,0.000000,0.000000,-0.001000,0.001000,0.019000,0.080000,-0.450000,2.410000,0.310278,Hold,0.932373,0.000000,Hold,-64.000000,2.000000,LowGoal,0.000000,-1454.545455,Speed,0.000000,-1454.545455,Speed,Off,Off0.000000,0,,,,
09:20:13.546 AM 03/20/2016,Teleop Disabled,10,FALSE,0,NO ERROR,-0.000000,-0.186083,0.000000,-0.109083,TRUE,FALSE,TRUE,FALSE,FALSE,FALSE,Disabled,0.000000,0.000000,0.000000,TRUE,2.273041,-0.321930,0.000000,0.000000,0.000000,0.000000,0.000000,-0.001000,0.022000,0.080000,-0.450000,2.400000,0.323862,Hold,0.932373,0.000000,Hold,-64.000000,2.000000,LowGoal,0.000000,-1454.545455,Speed,0.000000,-1454.545455,Speed,Off,Off0.000000,0,,,,
09:20:13.646 AM 03/20/2016,Teleop Disabled,10,FALSE,0,NO ERROR,-0.000000,-0.186083,0.000000,-0.109083,TRUE,FALSE,TRUE,FALSE,FALSE,FALSE,Disabled,0.000000,0.000000,0.000000,TRUE,2.273041,-0.321930,0.000000,0.000000,0.000000,0.000000,0.001000,-0.001000,0.020000,0.080000,-0.450000,2.400000,0.324988,Hold,0.932373,0.000000,Hold,-64.000000,2.000000,LowGoal,0.000000,-1454.545455,Speed,0.000000,-1454.545455,Speed,Off,Off0.000000,0,,,,
09:20:13.746 AM 03/20/2016,Teleop Disabled,10,FALSE,0,NO ERROR,-0.000000,-0.186083,0.000000,-0.109083,TRUE,FALSE,TRUE,FALSE,FALSE,FALSE,Disabled,0.000000,0.000000,0.000000,TRUE,2.273041,-0.321930,0.000000,0.000000,0.000000,0.000000,-0.002000,0.000000,0.020000,0.080000,-0.440000,2.400000,0.349881,Hold,0.932373,0.000000,Hold,-64.000000,2.000000,LowGoal,0.000000,-1454.545455,Speed,0.000000,-1454.545455,Speed,Off,Off0.000000,0,,,,
09:20:13.846 AM 03/20/2016,Teleop Disabled,10,FALSE,0,NO ERROR,-0.000000,-0.186083,0.000000,-0.109083,TRUE,TRUE,TRUE,FALSE,FALSE,FALSE,Disabled,0.000000,0.000000,0.000000,TRUE,2.273041,-0.321930,0.000000,0.000000,0.000000,0.000000,0.000000,0.000000,0.018000,0.080000,-0.450000,2.400000,0.371896,Hold,0.932373,0.000000,Hold,-64.000000,2.000000,LowGoal,0.000000,-1454.545455,Speed,0.000000,-1454.545455,Speed,Off,Off0.000000,0,,,,
09:20:13.946 AM 03/20/2016,Teleop Disabled,9,FALSE,0,NO ERROR,-0.000000,-0.186083,0.000000,-0.109083,TRUE,TRUE,TRUE,FALSE,FALSE,FALSE,Disabled,0.000000,0.000000,0.000000,TRUE,2.273041,-0.321930,0.000000,0.000000,0.000000,0.000000,0.002000,0.003000,0.024000,0.080000,-0.450000,2.400000,0.375507,Hold,0.932373,0.000000,Hold,-64.000000,2.000000,LowGoal,0.000000,0.000000,Speed,0.000000,0.000000,Speed,Off,Off0.000000,0,,,,
09:20:14.046 AM 03/20/2016,Teleop Disabled,10,FALSE,0,NO ERROR,-0.000000,-0.186083,0.000000,-0.109083,TRUE,FALSE,TRUE,FALSE,FALSE,FALSE,Disabled,0.000000,0.000000,0.000000,TRUE,2.273041,-0.321930,0.000000,0.000000,0.000000,0.000000,-0.001000,0.001000,0.017000,0.080000,-0.440000,2.400000,0.392421,Hold,0.932373,0.000000,Hold,-64.000000,2.000000,LowGoal,0.000000,0.000000,Speed,0.000000,0.000000,Speed,Off,Off0.000000,0,,,,
09:20:14.146 AM 03/20/2016,Teleop Disabled,10,FALSE,0,NO ERROR,-0.000000,-0.186083,0.000000,-0.109083,TRUE,FALSE,TRUE,FALSE,FALSE,FALSE,Disabled,0.000000,0.000000,0.000000,TRUE,2.273041,-0.321930,0.000000,0.000000,0.000000,0.000000,-0.001000,0.001000,0.021000,0.080000,-0.450000,2.400000,0.382733,Hold,0.932373,0.000000,Hold,-64.000000,2.000000,LowGoal,0.000000,-1454.545455,Speed,0.000000,-1454.545455,Speed,Off,Off0.000000,0,,,,
09:20:14.246 AM 03/20/2016,Teleop Disabled,10,FALSE,0,NO ERROR,-0.000000,-0.186083,0.000000,-0.109083,TRUE,FALSE,TRUE,FALSE,FALSE,FALSE,Disabled,0.000000,0.000000,0.000000,TRUE,2.273041,-0.321930,0.000000,0.000000,0.000000,0.000000,0.000000,-0.003000,0.018000,0.080000,-0.450000,2.400000,0.371851,Hold,0.932373,0.000000,Hold,-64.000000,2.000000,LowGoal,0.000000,-1454.545455,Speed,0.000000,-1454.545455,Speed,Off,Off0.000000,0,,,,
09:20:14.347 AM 03/20/2016,Teleop Disabled,10,FALSE,0,NO ERROR,-0.000000,-0.186083,0.000000,-0.109083,TRUE,FALSE,TRUE,FALSE,FALSE,FALSE,Disabled,0.000000,0.000000,0.000000,TRUE,2.273041,-0.321930,0.000000,0.000000,0.000000,0.000000,0.001000,-0.002000,0.023000,0.080000,-0.450000,2.400000,0.383181,Hold,0.932373,0.000000,Hold,-64.000000,2.000000,LowGoal,0.000000,-1454.545455,Speed,0.000000,-1454.545455,Speed,Off,Off0.000000,0,,,,
09:20:14.448 AM 03/20/2016,Teleop Disabled,9,FALSE,0,NO ERROR,-0.000000,-0.186083,0.000000,-0.109083,TRUE,FALSE,TRUE,FALSE,FALSE,FALSE,Disabled,0.000000,0.000000,0.000000,TRUE,2.273041,-0.321930,0.000000,0.000000,0.000000,0.000000,0.001000,0.000000,0.027000,0.080000,-0.450000,2.400000,0.394968,Hold,0.932373,0.000000,Hold,-64.000000,2.000000,LowGoal,0.000000,-1454.545455,Speed,0.000000,-1454.545455,Speed,Off,Off0.000000,0,,,,
09:20:14.549 AM 03/20/2016,Teleop Disabled,10,FALSE,0,NO ERROR,-0.000000,-0.186083,0.000000,-0.109083,TRUE,FALSE,TRUE,FALSE,FALSE,FALSE,Disabled,0.000000,0.000000,0.000000,TRUE,2.273041,-0.321930,0.000000,0.000000,0.000000,0.000000,-0.004000,0.000000,0.023000,0.080000,-0.450000,2.390000,0.401258,Hold,0.932373,0.000000,Hold,-64.000000,2.000000,LowGoal,0.000000,-1454.545455,Speed,0.000000,-1454.545455,Speed,Off,Off0.000000,0,,,,
09:20:14.650 AM 03/20/2016,Teleop Disabled,10,FALSE,0,NO ERROR,-0.000000,-0.186083,0.000000,-0.109083,TRUE,TRUE,TRUE,FALSE,FALSE,FALSE,Disabled,0.000000,0.000000,0.000000,TRUE,2.273041,-0.321930,0.000000,0.000000,0.000000,0.000000,0.000000,0.001000,0.021000,0.080000,-0.450000,2.400000,0.410415,Hold,0.932373,0.000000,Hold,-64.000000,2.000000,LowGoal,0.000000,-1454.545455,Speed,0.000000,-1454.545455,Speed,Off,Off0.000000,0,,,,
09:20:14.750 AM 03/20/2016,Teleop Disabled,10,FALSE,0,NO ERROR,-0.000000,-0.186083,0.000000,-0.109083,TRUE,TRUE,TRUE,FALSE,FALSE,FALSE,Disabled,0.000000,0.000000,0.000000,TRUE,2.273041,-0.321930,0.000000,0.000000,0.000000,0.000000,0.000000,0.000000,0.021000,0.080000,-0.450000,2.400000,0.409017,Hold,0.932373,0.000000,Hold,-64.000000,2.000000,LowGoal,0.000000,0.000000,Speed,0.000000,0.000000,Speed,Off,Off0.000000,0,,,,
09:20:14.851 AM 03/20/2016,Teleop Disabled,10,FALSE,0,NO ERROR,-0.000000,-0.186083,0.000000,-0.109083,TRUE,FALSE,TRUE,FALSE,FALSE,FALSE,Disabled,0.000000,0.000000,0.000000,TRUE,2.273041,-0.321930,0.000000,0.000000,0.000000,0.000000,-0.002000,0.000000,0.020000,0.080000,-0.450000,2.400000,0.403268,Hold,0.932373,0.000000,Hold,-64.000000,2.000000,LowGoal,0.000000,0.000000,Speed,0.000000,0.000000,Speed,Off,Off0.000000,0,,,,
09:20:14.951 AM 03/20/2016,Teleop Disabled,10,FALSE,0,NO ERROR,-0.000000,-0.186083,0.000000,-0.109083,TRUE,FALSE,TRUE,FALSE,FALSE,FALSE,Disabled,0.000000,0.000000,0.000000,TRUE,2.273041,-0.321930,0.000000,0.000000,0.000000,0.000000,0.000000,-0.002000,0.023000,0.080000,-0.450000,2.400000,0.394662,Hold,0.932373,0.000000,Hold,-64.000000,2.000000,LowGoal,0.000000,0.000000,Speed,0.000000,0.000000,Speed,Off,Off0.000000,0,,,,
09:20:15.052 AM 03/20/2016,Teleop Disabled,10,FALSE,0,NO ERROR,-0.000000,-0.186083,0.000000,-0.109083,TRUE,FALSE,TRUE,FALSE,FALSE,FALSE,Disabled,0.000000,0.000000,0.000000,TRUE,2.273041,-0.321930,0.000000,0.000000,0.000000,0.000000,0.000000,-0.002000,0.021000,0.080000,-0.450000,2.400000,0.399254,Hold,0.932373,0.000000,Hold,-64.000000,2.000000,LowGoal,0.000000,-1454.545455,Speed,0.000000,-1454.545455,Speed,Off,Off0.000000,0,,,,
09:20:15.153 AM 03/20/2016,Teleop Disabled,10,FALSE,0,NO ERROR,-0.000000,-0.186083,0.000000,-0.109083,TRUE,FALSE,TRUE,FALSE,FALSE,FALSE,Disabled,0.000000,0.000000,0.000000,TRUE,2.273041,-0.321930,0.000000,0.000000,0.000000,0.000000,-0.001000,-0.001000,0.024000,0.080000,-0.460000,2.390000,0.396627,Hold,0.932373,0.000000,Hold,-64.000000,2.000000,LowGoal,0.000000,-1454.545455,Speed,0.000000,-1454.545455,Speed,Off,Off0.000000,0,,,,
09:20:15.254 AM 03/20/2016,Teleop Disabled,10,FALSE,0,NO ERROR,-0.000000,-0.186083,0.000000,-0.109083,TRUE,FALSE,TRUE,FALSE,FALSE,FALSE,Disabled,0.000000,0.000000,0.000000,TRUE,2.273041,-0.321930,0.000000,0.000000,0.000000,0.000000,-0.002000,0.000000,0.021000,0.080000,-0.460000,2.390000,0.392817,Hold,0.932373,0.000000,Hold,-64.000000,2.000000,LowGoal,0.000000,-1454.545455,Speed,0.000000,-1454.545455,Speed,Off,Off0.000000,0,,,,
09:20:15.355 AM 03/20/2016,Teleop Disabled,11,FALSE,0,NO ERROR,-0.000000,-0.186083,0.000000,-0.109083,TRUE,FALSE,TRUE,FALSE,FALSE,FALSE,Disabled,0.000000,0.000000,0.000000,TRUE,2.273041,-0.321930,0.000000,0.000000,0.000000,0.000000,0.000000,-0.002000,0.019000,0.080000,-0.460000,2.400000,0.399461,Hold,0.932373,0.000000,Hold,-64.000000,2.000000,LowGoal,0.000000,-1454.545455,Speed,0.000000,-1454.545455,Speed,Off,Off0.000000,0,,,,
09:20:15.456 AM 03/20/2016,Teleop Disabled,10,FALSE,0,NO ERROR,-0.000000,-0.186083,0.000000,-0.109083,TRUE,FALSE,TRUE,FALSE,FALSE,FALSE,Disabled,0.000000,0.000000,0.000000,TRUE,2.273041,-0.321930,0.000000,0.000000,0.000000,0.000000,0.002000,0.001000,0.021000,0.070000,-0.460000,2.390000,0.420491,Hold,0.932373,0.000000,Hold,-64.000000,2.000000,LowGoal,0.000000,-1454.545455,Speed,0.000000,-1454.545455,Speed,Off,Off0.000000,0,,,,
09:20:15.557 AM 03/20/2016,Teleop Disabled,9,FALSE,0,NO ERROR,-0.000000,-0.186083,0.000000,-0.109083,TRUE,TRUE,TRUE,FALSE,FALSE,FALSE,Disabled,0.000000,0.000000,0.000000,TRUE,2.273041,-0.321930,0.000000,0.000000,0.000000,0.000000,0.002000,0.000000,0.023000,0.070000,-0.460000,2.390000,0.422860,Hold,0.932373,0.000000,Hold,-64.000000,2.000000,LowGoal,0.000000,-1454.545455,Speed,0.000000,-1454.545455,Speed,Off,Off0.000000,0,,,,
09:20:15.657 AM 03/20/2016,Teleop Disabled,10,FALSE,0,NO ERROR,-0.000000,-0.186083,0.000000,-0.109083,TRUE,TRUE,TRUE,FALSE,FALSE,FALSE,Disabled,0.000000,0.000000,0.000000,TRUE,2.273041,-0.321930,0.000000,0.000000,0.000000,0.000000,0.000000,0.001000,0.020000,0.070000,-0.460000,2.390000,0.439460,Hold,0.932373,0.000000,Hold,-64.000000,2.000000,LowGoal,0.000000,0.000000,Speed,0.000000,0.000000,Speed,Off,Off0.000000,0,,,,
09:20:15.758 AM 03/20/2016,Teleop Disabled,9,FALSE,0,NO ERROR,-0.000000,-0.186083,0.000000,-0.109083,TRUE,FALSE,TRUE,FALSE,FALSE,FALSE,Disabled,0.000000,0.000000,0.000000,TRUE,2.273041,-0.321930,0.000000,0.000000,0.000000,0.000000,0.000000,0.000000,0.023000,0.070000,-0.460000,2.390000,0.421080,Hold,0.932373,0.000000,Hold,-64.000000,2.000000,LowGoal,0.000000,0.000000,Speed,0.000000,0.000000,Speed,Off,Off0.000000,0,,,,
09:20:15.858 AM 03/20/2016,Teleop Disabled,10,FALSE,0,NO ERROR,-0.000000,-0.186083,0.000000,-0.109083,TRUE,FALSE,TRUE,FALSE,FALSE,FALSE,Disabled,0.000000,0.000000,0.000000,TRUE,2.273041,-0.321930,0.000000,0.000000,0.000000,0.000000,-0.002000,0.000000,0.020000,0.070000,-0.460000,2.390000,0.412725,Hold,0.932373,0.000000,Hold,-64.000000,2.000000,LowGoal,0.000000,-1454.545455,Speed,0.000000,-1454.545455,Speed,Off,Off0.000000,0,,,,
09:20:15.958 AM 03/20/2016,Teleop Disabled,9,FALSE,0,NO ERROR,-0.000000,-0.186083,0.000000,-0.109083,TRUE,FALSE,TRUE,FALSE,FALSE,FALSE,Disabled,0.000000,0.000000,0.000000,TRUE,2.273041,-0.321930,0.000000,0.000000,0.000000,0.000000,0.001000,0.001000,0.022000,0.070000,-0.460000,2.390000,0.400604,Hold,0.932373,0.000000,Hold,-64.000000,2.000000,LowGoal,0.000000,-1454.545455,Speed,0.000000,-1454.545455,Speed,Off,Off0.000000,0,,,,
09:20:16.059 AM 03/20/2016,Teleop Disabled,10,FALSE,0,NO ERROR,-0.000000,-0.186083,0.000000,-0.109083,TRUE,FALSE,TRUE,FALSE,FALSE,FALSE,Disabled,0.000000,0.000000,0.000000,TRUE,2.273041,-0.321930,0.000000,0.000000,0.000000,0.000000,-0.001000,0.000000,0.020000,0.070000,-0.460000,2.390000,0.393739,Hold,0.932373,0.000000,Hold,-64.000000,2.000000,LowGoal,0.000000,-1454.545455,Speed,0.000000,-1454.545455,Speed,Off,Off0.000000,0,,,,
09:20:16.159 AM 03/20/2016,Teleop Disabled,9,FALSE,0,NO ERROR,-0.000000,-0.186083,0.000000,-0.109083,TRUE,FALSE,TRUE,FALSE,FALSE,FALSE,Disabled,0.000000,0.000000,0.000000,TRUE,2.273041,-0.321930,0.000000,0.000000,0.000000,0.000000,-0.002000,0.001000,0.018000,0.070000,-0.470000,2.400000,0.388988,Hold,0.932373,0.000000,Hold,-64.000000,2.000000,LowGoal,0.000000,-1454.545455,Speed,0.000000,-1454.545455,Speed,Off,Off0.000000,0,,,,
09:20:16.259 AM 03/20/2016,Teleop Disabled,10,FALSE,0,NO ERROR,-0.000000,-0.186083,0.000000,-0.109083,TRUE,FALSE,TRUE,FALSE,FALSE,FALSE,Disabled,0.000000,0.000000,0.000000,TRUE,2.273041,-0.321930,0.000000,0.000000,0.000000,0.000000,0.000000,0.001000,0.020000,0.070000,-0.470000,2.400000,0.382830,Hold,0.932373,0.000000,Hold,-64.000000,2.000000,LowGoal,0.000000,-1454.545455,Speed,0.000000,-1454.545455,Speed,Off,Off0.000000,0,,,,
09:20:16.359 AM 03/20/2016,Teleop Disabled,10,FALSE,0,NO ERROR,-0.000000,-0.186083,0.000000,-0.109083,TRUE,TRUE,TRUE,FALSE,FALSE,FALSE,Disabled,0.000000,0.000000,0.000000,TRUE,2.273041,-0.321930,0.000000,0.000000,0.000000,0.000000,0.000000,0.001000,0.023000,0.060000,-0.470000,2.400000,0.379893,Hold,0.932373,0.000000,Hold,-64.000000,2.000000,LowGoal,0.000000,-1454.545455,Speed,0.000000,-1454.545455,Speed,Off,Off0.000000,0,,,,
09:20:16.459 AM 03/20/2016,Teleop Disabled,10,FALSE,0,NO ERROR,-0.000000,-0.186083,0.000000,-0.109083,TRUE,TRUE,TRUE,FALSE,FALSE,FALSE,Disabled,0.000000,0.000000,0.000000,TRUE,2.273041,-0.321930,0.000000,0.000000,0.000000,0.000000,0.000000,0.000000,0.018000,0.060000,-0.470000,2.400000,0.386079,Hold,0.932373,0.000000,Hold,-64.000000,2.000000,LowGoal,0.000000,0.000000,Speed,0.000000,0.000000,Speed,Off,Off0.000000,0,,,,
09:20:16.559 AM 03/20/2016,Teleop Disabled,10,FALSE,0,NO ERROR,-0.000000,-0.186083,0.000000,-0.109083,TRUE,FALSE,TRUE,FALSE,FALSE,FALSE,Disabled,0.000000,0.000000,0.000000,TRUE,2.273041,-0.321930,0.000000,0.000000,0.000000,0.000000,0.000000,0.000000,0.019000,0.060000,-0.470000,2.400000,0.388847,Hold,0.932373,0.000000,Hold,-64.000000,2.000000,LowGoal,0.000000,0.000000,Speed,0.000000,0.000000,Speed,Off,Off0.000000,0,,,,
09:20:16.659 AM 03/20/2016,Teleop Disabled,10,FALSE,0,NO ERROR,-0.000000,-0.186083,0.000000,-0.109083,TRUE,FALSE,TRUE,FALSE,FALSE,FALSE,Disabled,0.000000,0.000000,0.000000,TRUE,2.273041,-0.321930,0.000000,0.000000,0.000000,0.000000,0.002000,0.000000,0.020000,0.060000,-0.480000,2.400000,0.389883,Hold,0.932373,0.000000,Hold,-64.000000,2.000000,LowGoal,0.000000,-1454.545455,Speed,0.000000,-1454.545455,Speed,Off,Off0.000000,0,,,,
09:20:16.759 AM 03/20/2016,Teleop Disabled,10,FALSE,0,NO ERROR,-0.000000,-0.186083,0.000000,-0.109083,TRUE,FALSE,TRUE,FALSE,FALSE,FALSE,Disabled,0.000000,0.000000,0.000000,TRUE,2.273041,-0.321930,0.000000,0.000000,0.000000,0.000000,0.000000,-0.001000,0.019000,0.060000,-0.470000,2.400000,0.386868,Hold,0.932373,0.000000,Hold,-64.000000,2.000000,LowGoal,0.000000,-1454.545455,Speed,0.000000,-1454.545455,Speed,Off,Off0.000000,0,,,,
09:20:16.861 AM 03/20/2016,Teleop Disabled,10,FALSE,0,NO ERROR,-0.000000,-0.186083,0.000000,-0.109083,TRUE,FALSE,TRUE,FALSE,FALSE,FALSE,Disabled,0.000000,0.000000,0.000000,TRUE,2.273041,-0.321930,0.000000,0.000000,0.000000,0.000000,0.001000,0.001000,0.019000,0.060000,-0.470000,2.390000,0.386314,Hold,0.932373,0.000000,Hold,-64.000000,2.000000,LowGoal,0.000000,-1454.545455,Speed,0.000000,-1454.545455,Speed,Off,Off0.000000,0,,,,
09:20:16.961 AM 03/20/2016,Teleop Disabled,10,FALSE,0,NO ERROR,-0.000000,-0.186083,0.000000,-0.109083,TRUE,FALSE,TRUE,FALSE,FALSE,FALSE,Disabled,0.000000,0.000000,0.000000,TRUE,2.273041,-0.321930,0.000000,0.000000,0.000000,0.000000,-0.002000,-0.002000,0.022000,0.060000,-0.470000,2.390000,0.389446,Hold,0.932373,0.000000,Hold,-64.000000,2.000000,LowGoal,0.000000,-1454.545455,Speed,0.000000,-1454.545455,Speed,Off,Off0.000000,0,,,,
09:20:17.062 AM 03/20/2016,Teleop Disabled,10,FALSE,0,NO ERROR,-0.000000,-0.186083,0.000000,-0.109083,TRUE,FALSE,TRUE,FALSE,FALSE,FALSE,Disabled,0.000000,0.000000,0.000000,TRUE,2.273041,-0.321930,0.000000,0.000000,0.000000,0.000000,-0.001000,0.003000,0.021000,0.060000,-0.470000,2.390000,0.390180,Hold,0.932373,0.000000,Hold,-64.000000,2.000000,LowGoal,0.000000,-1454.545455,Speed,0.000000,-1454.545455,Speed,Off,Off0.000000,0,,,,
09:20:17.162 AM 03/20/2016,Teleop Disabled,9,FALSE,0,NO ERROR,-0.000000,-0.186083,0.000000,-0.109083,TRUE,TRUE,TRUE,FALSE,FALSE,FALSE,Disabled,0.000000,0.000000,0.000000,TRUE,2.273041,-0.321930,0.000000,0.000000,0.000000,0.000000,0.000000,-0.001000,0.019000,0.060000,-0.470000,2.390000,0.397054,Hold,0.932373,0.000000,Hold,-64.000000,2.000000,LowGoal,0.000000,-1454.545455,Speed,0.000000,-1454.545455,Speed,Off,Off0.000000,0,,,,
09:20:17.263 AM 03/20/2016,Teleop Disabled,10,FALSE,0,NO ERROR,-0.000000,-0.186083,0.000000,-0.109083,TRUE,TRUE,TRUE,FALSE,FALSE,FALSE,Disabled,0.000000,0.000000,0.000000,TRUE,2.273041,-0.321930,0.000000,0.000000,0.000000,0.000000,0.000000,0.002000,0.021000,0.060000,-0.470000,2.390000,0.393657,Hold,0.932373,0.000000,Hold,-64.000000,2.000000,LowGoal,0.000000,0.000000,Speed,0.000000,0.000000,Speed,Off,Off0.000000,0,,,,
09:20:17.363 AM 03/20/2016,Teleop Disabled,9,FALSE,0,NO ERROR,-0.000000,-0.186083,0.000000,-0.109083,TRUE,FALSE,TRUE,FALSE,FALSE,FALSE,Disabled,0.000000,0.000000,0.000000,TRUE,2.273041,-0.321930,0.000000,0.000000,0.000000,0.000000,0.005000,-0.001000,0.023000,0.060000,-0.480000,2.400000,0.394892,Hold,0.932373,0.000000,Hold,-64.000000,2.000000,LowGoal,0.000000,0.000000,Speed,0.000000,0.000000,Speed,Off,Off0.000000,0,,,,
09:20:17.466 AM 03/20/2016,Teleop Disabled,10,FALSE,0,NO ERROR,-0.000000,-0.186083,0.000000,-0.109083,TRUE,FALSE,TRUE,FALSE,FALSE,FALSE,Disabled,0.000000,0.000000,0.000000,TRUE,2.273041,-0.322037,0.000000,0.000000,-0.007553,0.000000,0.008000,0.020000,-0.002000,0.050000,-0.470000,2.380000,0.376977,Hold,0.932373,0.000000,Hold,-64.000000,2.000000,LowGoal,0.000000,-1454.545455,Speed,0.000000,-1454.545455,Speed,Off,Off0.000000,0,,,,
09:20:17.566 AM 03/20/2016,Teleop Disabled,10,FALSE,0,NO ERROR,-0.000000,-0.186083,0.000000,-0.109083,TRUE,FALSE,TRUE,FALSE,FALSE,FALSE,Disabled,0.000000,0.000000,0.000000,TRUE,2.273041,-0.322189,0.000000,0.000000,0.000000,0.000000,0.000000,0.000000,0.022000,0.050000,-0.470000,2.380000,0.386696,Hold,0.932373,0.000000,Hold,-64.000000,2.000000,LowGoal,0.000000,-1454.545455,Speed,0.000000,-1454.545455,Speed,Off,Off0.000000,0,,,,
09:20:17.666 AM 03/20/2016,Teleop Disabled,10,FALSE,0,NO ERROR,-0.000000,-0.186083,0.000000,-0.109083,TRUE,FALSE,TRUE,FALSE,FALSE,FALSE,Disabled,0.000000,0.000000,0.000000,TRUE,2.273041,-0.322189,0.000000,0.000000,0.000000,0.000000,0.000000,-0.012000,0.015000,0.060000,-0.470000,2.390000,0.402628,Hold,0.932373,0.000000,Hold,-64.000000,2.000000,LowGoal,0.000000,-1454.545455,Speed,0.000000,-1454.545455,Speed,Off,Off0.000000,0,,,,
09:20:17.766 AM 03/20/2016,Teleop Disabled,11,FALSE,0,NO ERROR,-0.000000,-0.186083,0.000000,-0.109083,TRUE,FALSE,TRUE,FALSE,FALSE,FALSE,Disabled,0.000000,0.000000,0.000000,TRUE,2.273041,-0.322189,0.000000,0.000000,0.000000,0.000000,-0.003000,-0.006000,0.017000,0.060000,-0.460000,2.390000,0.396510,Hold,0.932373,0.000000,Hold,-64.000000,2.000000,LowGoal,0.000000,-1454.545455,Speed,0.000000,-1454.545455,Speed,Off,Off0.000000,0,,,,
09:20:17.866 AM 03/20/2016,Teleop Disabled,10,FALSE,0,NO ERROR,-0.000000,-0.186083,0.000000,-0.109083,TRUE,FALSE,TRUE,FALSE,FALSE,FALSE,Disabled,0.000000,0.000000,0.000000,TRUE,2.273041,-0.322189,0.000000,0.000000,0.000000,0.000000,-0.003000,0.002000,0.021000,0.070000,-0.440000,2.400000,0.413159,Hold,0.932373,0.000000,Hold,-64.000000,2.000000,LowGoal,0.000000,-1454.545455,Speed,0.000000,-1454.545455,Speed,Off,Off0.000000,0,,,,
09:20:17.966 AM 03/20/2016,Teleop Disabled,11,FALSE,0,NO ERROR,-0.000000,-0.173250,0.000000,-0.109083,TRUE,FALSE,TRUE,FALSE,FALSE,FALSE,Disabled,0.000000,0.000000,0.000000,TRUE,2.273041,-0.322189,0.000000,0.000000,0.000000,0.000000,-0.005000,0.000000,0.020000,0.080000,-0.390000,2.390000,0.432643,Hold,0.932373,0.000000,Hold,-64.000000,2.000000,LowGoal,0.000000,-1454.545455,Speed,0.000000,-1454.545455,Speed,Off,Off0.000000,0,,,,
09:20:18.066 AM 03/20/2016,Teleop Disabled,10,FALSE,0,NO ERROR,-0.000000,-0.160416,0.000000,-0.109083,TRUE,TRUE,TRUE,FALSE,FALSE,FALSE,Disabled,0.000000,0.000000,0.000000,TRUE,2.273041,-0.322189,0.000000,0.000000,0.000000,0.000000,0.003000,-0.001000,0.017000,0.120000,-0.340000,2.390000,0.476942,Hold,0.932373,0.000000,Hold,-64.000000,2.000000,LowGoal,0.000000,-1454.545455,Speed,0.000000,-1454.545455,Speed,Off,Off0.000000,0,,,,
09:20:18.168 AM 03/20/2016,Finish,11,TRUE,91,Variant To Data in WPI_GyroRefNum Registry Get.vi->Finish.vi->Robot Main.vi,-0.000000,-0.160416,0.000000,-0.109083,TRUE,TRUE,TRUE,FALSE,FALSE,FALSE,Disabled,0.000000,0.000000,0.000000,TRUE,2.273041,-0.322189,0.000000,0.000000,0.000000,0.000000,0.001000,-0.010000,0.007000,0.120000,-0.340000,2.400000,0.455636,Hold,0.932373,0.000000,Hold,-64.000000,2.000000,LowGoal,0.000000,0.000000,Speed,0.000000,0.000000,Speed,Off,Off0.000000,0,,,,
09:20:18.273 AM 03/20/2016,Finish,11,TRUE,-44007,<LOCATION>WPI_GyroRefNum Registry Get.vi<CALLSTACK>WPI_GyroRefNum Registry Get.vi< <Finish.vi< <Robot Main.vi,-0.000000,-0.160416,0.000000,-0.109083,TRUE,FALSE,TRUE,FALSE,FALSE,FALSE,Disabled,0.000000,0.000000,0.000000,TRUE,2.273041,-0.322189,0.000000,0.000000,0.000000,0.000000,0.001000,-0.010000,0.007000,0.120000,-0.340000,2.400000,0.462714,Hold,0.932373,0.000000,Hold,-64.000000,2.000000,LowGoal,0.000000,0.000000,Speed,0.000000,0.000000,Speed,Off,Off0.000000,0,,,,