Time,Robot Mode,Loop Time,Error Status,Error Code,Error Source,Left Motor Output,Left Motor Encoder,Right Motor Output,Right Motor Encoder,Is Level,Is Stalled,Ball Detector Photoeye,Vision Enabled,Vision Teleop Control,Vision Auto Control,Vision Current State,Vision X Output,Vision NavX Error,Vision NavX Target,NavX Connection Status,NavX Displacement X,NavX Displacement Y,NavX Displacement Z,NavX Velocity X,NavX Velocity Y,NavX Velocity Z,NavX Acceleration X,NavX Acceleration Y,NavX Acceleration Z,NavX Pitch,NavX Yaw,NavX Roll,Gyro Angle,Roller Arm State,Roller Arm Actual,Roller Arm Desired,Shooter Arm State,Shooter Arm Actual,Shooter Arm Desired,Shooter State,Actual RPM Left,Desired RPM Left,Control Mode Left,Actual RPM Right,Desired RPM Right,Scaler Motor Output,Auto To Run,Auto Current File,Auto File Status,Auto Current Command,Auto Trimmed Command
07:59:58.267 PM 03/17/2016,Teleop Enabled,9,FALSE,0,NO ERROR,-0.000000,0.000000,0.000000,0.000000,TRUE,TRUE,FALSE,FALSE,FALSE,FALSE,Disabled,0.000000,0.000000,0.000000,TRUE,1.184296,-0.193222,0.000000,0.009216,0.000000,0.000000,0.000000,0.002000,0.009000,-0.050000,-0.220000,1.240000,-0.227047,ResetBack,0.966309,-0.200000,ResetBack,-41873.000000,-0.300000,Suck,0.000000,0.000000,Speed,0.000000,0.000000,Speed,On,Off0.000000,0,,,,
07:59:58.368 PM 03/17/2016,Teleop Enabled,10,FALSE,0,NO ERROR,-0.000000,0.000000,0.000000,0.000000,TRUE,FALSE,FALSE,FALSE,FALSE,FALSE,Disabled,0.000000,0.000000,0.000000,TRUE,1.184845,-0.194061,0.000000,0.008301,-0.026459,0.000000,0.013000,0.004000,0.022000,-0.030000,-0.280000,1.260000,-0.230920,ResetBack,0.102539,-0.200000,ResetBack,-37921.000000,-0.300000,Suck,34.057617,0.000000,Speed,24.169922,0.000000,Speed,On,Off0.000000,0,,,,
07:59:58.468 PM 03/17/2016,Teleop Enabled,9,FALSE,0,NO ERROR,-0.000000,0.000000,0.000000,0.000000,TRUE,FALSE,FALSE,FALSE,FALSE,FALSE,Disabled,0.000000,0.000000,0.000000,TRUE,1.185516,-0.194092,0.000000,0.010422,0.004135,0.000000,0.013000,0.004000,0.022000,-0.030000,-0.280000,1.260000,-0.241767,ResetBack,0.046631,-0.200000,ResetBack,-27718.000000,-0.300000,Suck,46.142578,-2181.818182,Speed,20.874023,-2181.818182,Speed,On,Off0.000000,0,,,,
07:59:58.570 PM 03/17/2016,Teleop Enabled,10,FALSE,0,NO ERROR,-0.000000,0.000000,0.000000,0.000000,TRUE,FALSE,FALSE,FALSE,FALSE,FALSE,Disabled,0.000000,0.000000,0.000000,TRUE,1.185654,-0.193741,0.000000,0.002686,0.011185,0.000000,0.012000,0.008000,0.022000,-0.020000,-0.230000,1.200000,-0.250050,Reset,0.046631,0.000000,ResetBack,-16543.000000,-0.300000,Suck,36.254883,-2181.818182,Speed,29.663086,-2181.818182,Speed,On,Off0.000000,0,,,,
07:59:58.670 PM 03/17/2016,Teleop Enabled,9,FALSE,0,NO ERROR,-0.000000,0.000000,0.000000,0.000000,TRUE,FALSE,FALSE,FALSE,FALSE,FALSE,Disabled,0.000000,0.000000,0.000000,TRUE,1.186325,-0.192963,0.000000,0.024918,0.010223,0.000000,0.010000,0.031000,-0.034000,-0.040000,-0.200000,1.260000,-0.255393,Hold,1.164795,0.000000,ResetBack,-16543.000000,-0.300000,Suck,138.427734,-2181.818182,Speed,141.723633,-2181.818182,Speed,On,Off0.000000,0,,,,
07:59:58.770 PM 03/17/2016,Teleop Enabled,9,FALSE,0,NO ERROR,-0.000000,0.000000,0.000000,0.000000,TRUE,FALSE,FALSE,FALSE,FALSE,FALSE,Disabled,0.000000,0.000000,0.000000,TRUE,1.186325,-0.191513,0.000000,-0.016373,0.032562,0.000000,-0.136000,0.005000,-0.033000,-0.070000,-0.170000,1.230000,-0.306684,Hold,1.249756,0.000000,ResetBack,-7515.000000,-0.300000,Suck,231.811523,-2181.818182,Speed,234.008789,-2181.818182,Speed,On,Off0.000000,0,,,,
07:59:58.870 PM 03/17/2016,Teleop Enabled,10,FALSE,0,NO ERROR,-0.000000,0.000000,0.000000,0.000000,TRUE,FALSE,FALSE,FALSE,FALSE,FALSE,Disabled,0.000000,0.000000,0.000000,TRUE,1.186325,-0.191513,0.000000,-0.016373,0.032562,0.000000,-0.032000,-0.037000,0.052000,-0.070000,-0.170000,1.230000,-0.284693,Hold,1.248047,0.000000,ResetBack,-2898.000000,-0.300000,Suck,319.702148,-2181.818182,Speed,321.899414,-2181.818182,Speed,On,Off0.000000,0,,,,
07:59:58.970 PM 03/17/2016,Teleop Enabled,10,FALSE,0,NO ERROR,-0.000000,0.000000,0.000000,0.000000,TRUE,FALSE,FALSE,FALSE,FALSE,FALSE,Disabled,0.000000,0.000000,0.000000,TRUE,1.181076,-0.184814,0.000000,-0.045761,0.000000,0.000000,-0.023000,-0.011000,-0.106000,-0.060000,-0.150000,1.290000,-0.280906,Hold,1.242188,0.000000,ResetBack,-274.000000,-0.300000,Suck,335.083008,-2181.818182,Speed,336.181641,-2181.818182,Speed,On,Off0.000000,0,,,,
07:59:59.071 PM 03/17/2016,Teleop Enabled,10,FALSE,0,NO ERROR,-0.000000,0.000000,0.000000,0.000000,TRUE,FALSE,FALSE,FALSE,FALSE,FALSE,Disabled,0.000000,0.000000,0.000000,TRUE,1.178177,-0.185104,0.000000,-0.049667,0.005295,0.000000,-0.023000,-0.011000,-0.106000,-0.060000,-0.150000,1.290000,-0.293774,Hold,1.239990,0.000000,ResetBack,401.000000,-0.300000,Suck,309.814453,-2181.818182,Speed,309.814453,-2181.818182,Speed,On,Off0.000000,0,,,,
07:59:59.172 PM 03/17/2016,Teleop Enabled,9,FALSE,0,NO ERROR,-0.000000,0.000000,0.000000,0.000000,TRUE,FALSE,FALSE,FALSE,FALSE,FALSE,Disabled,0.000000,0.000000,0.000000,TRUE,1.175140,-0.185013,0.000000,-0.096329,0.003220,0.000000,0.081000,0.022000,-0.016000,-0.070000,-0.200000,1.260000,-0.299324,Hold,1.239746,0.000000,ResetBack,406.000000,-0.300000,Suck,304.321289,-2181.818182,Speed,305.419922,-2181.818182,Speed,On,Off0.000000,0,,,,
07:59:59.272 PM 03/17/2016,Teleop Enabled,11,FALSE,0,NO ERROR,-0.000000,0.000000,0.000000,0.000000,TRUE,FALSE,FALSE,FALSE,FALSE,FALSE,Disabled,0.000000,0.000000,0.000000,TRUE,1.168274,-0.184067,0.000000,-0.157501,0.000000,0.000000,-0.087000,0.033000,0.047000,-0.070000,-0.190000,1.230000,-0.308226,Hold,1.239258,0.000000,ResetBack,414.000000,-0.300000,Suck,315.307617,-2181.818182,Speed,316.406250,-2181.818182,Speed,On,Off0.000000,0,,,,
07:59:59.372 PM 03/17/2016,Teleop Enabled,9,FALSE,0,NO ERROR,-0.000000,0.000000,0.000000,0.000000,TRUE,FALSE,FALSE,FALSE,FALSE,FALSE,Disabled,0.000000,0.000000,0.000000,TRUE,1.168274,-0.184067,0.000000,-0.157501,0.000000,0.000000,-0.027000,0.016000,0.019000,-0.070000,-0.230000,1.220000,-0.317407,Hold,1.237793,0.000000,ResetBack,414.000000,-0.300000,Suck,315.307617,-2181.818182,Speed,315.307617,-2181.818182,Speed,On,Off0.000000,0,,,,
07:59:59.473 PM 03/17/2016,Teleop Enabled,10,FALSE,0,NO ERROR,-0.000000,0.000000,0.000000,0.000000,TRUE,FALSE,FALSE,FALSE,FALSE,FALSE,Disabled,0.000000,0.000000,0.000000,TRUE,1.159897,-0.183624,0.000000,-0.166412,0.020721,0.000000,0.102000,0.072000,0.114000,-0.070000,-0.180000,1.240000,-0.317851,Hold,1.237793,0.000000,Reset,419.000000,2.000000,Suck,312.011719,-2181.818182,Speed,312.011719,-2181.818182,Speed,On,Off0.000000,0,,,,
07:59:59.574 PM 03/17/2016,Teleop Enabled,10,FALSE,0,NO ERROR,-0.000000,0.000000,0.000000,0.000000,TRUE,FALSE,FALSE,FALSE,FALSE,FALSE,Disabled,0.000000,0.000000,0.000000,TRUE,1.153687,-0.182343,0.000000,-0.124985,0.013718,0.000000,-0.084000,-0.072000,0.032000,-0.070000,-0.170000,1.260000,-0.331050,Hold,1.236328,0.000000,Hold,-314.000000,2.000000,Suck,313.110352,-2181.818182,Speed,312.011719,-2181.818182,Speed,On,Off0.000000,0,,,,
07:59:59.674 PM 03/17/2016,Teleop Enabled,11,FALSE,0,NO ERROR,-0.000000,0.000000,0.000000,0.000000,TRUE,FALSE,FALSE,FALSE,FALSE,FALSE,Disabled,0.000000,0.000000,0.000000,TRUE,1.145248,-0.183350,0.000000,-0.192978,-0.031433,0.000000,-0.030000,-0.006000,0.029000,-0.070000,-0.200000,1.260000,-0.352270,Hold,1.235840,0.000000,Hold,-204.000000,2.000000,Suck,315.307617,-2181.818182,Speed,314.208984,-2181.818182,Speed,On,Off0.000000,0,,,,
07:59:59.775 PM 03/17/2016,Teleop Enabled,10,FALSE,0,NO ERROR,-0.000000,0.000000,0.000000,0.000000,TRUE,FALSE,FALSE,FALSE,FALSE,FALSE,Disabled,0.000000,0.000000,0.000000,TRUE,1.134827,-0.183823,0.000000,-0.206757,-0.009796,0.000000,0.089000,-0.045000,-0.025000,-0.070000,-0.160000,1.300000,-0.350325,Hold,1.232910,0.000000,Hold,-204.000000,2.000000,Suck,314.208984,-2181.818182,Speed,314.208984,-2181.818182,Speed,On,Off0.000000,0,,,,
07:59:59.876 PM 03/17/2016,Teleop Enabled,9,FALSE,0,NO ERROR,-0.000000,0.000000,0.000000,0.000000,TRUE,FALSE,FALSE,FALSE,FALSE,FALSE,Disabled,0.000000,0.000000,0.000000,TRUE,1.126495,-0.185226,0.000000,-0.146149,-0.043716,0.000000,0.079000,-0.049000,-0.037000,-0.070000,-0.180000,1.270000,-0.350325,Hold,1.210449,0.000000,Hold,-204.000000,2.000000,Suck,313.110352,-2181.818182,Speed,312.011719,-2181.818182,Speed,On,Off0.000000,0,,,,
07:59:59.977 PM 03/17/2016,Teleop Enabled,11,FALSE,0,NO ERROR,-0.000000,0.000000,0.000000,0.000000,TRUE,FALSE,FALSE,FALSE,FALSE,FALSE,Disabled,0.000000,0.000000,0.000000,TRUE,1.120682,-0.188156,0.000000,-0.106918,-0.062637,0.000000,0.038000,-0.011000,-0.050000,-0.070000,-0.200000,1.250000,-0.357282,Hold,1.210449,0.000000,Hold,-204.000000,2.000000,Suck,314.208984,-2181.818182,Speed,313.110352,-2181.818182,Speed,On,Off0.000000,0,,,,
08:00:00.077 PM 03/17/2016,Teleop Enabled,11,FALSE,0,NO ERROR,-0.000000,0.000000,0.000000,0.000000,TRUE,FALSE,FALSE,FALSE,FALSE,FALSE,Disabled,0.000000,0.000000,0.000000,TRUE,1.115799,-0.191269,0.000000,-0.090103,-0.056107,0.000000,0.010000,0.048000,0.001000,-0.070000,-0.220000,1.300000,-0.357100,Hold,1.210449,0.000000,Hold,-204.000000,2.000000,Suck,314.208984,-2181.818182,Speed,313.110352,-2181.818182,Speed,On,Off0.000000,0,,,,
08:00:00.177 PM 03/17/2016,Teleop Enabled,11,FALSE,0,NO ERROR,-0.000000,0.000000,0.000000,0.000000,TRUE,FALSE,FALSE,FALSE,FALSE,FALSE,Disabled,0.000000,0.000000,0.000000,TRUE,1.112930,-0.193268,0.000000,-0.025467,-0.028183,0.000000,0.077000,0.016000,-0.012000,-0.070000,-0.220000,1.220000,-0.372468,Hold,1.210449,0.000000,Hold,-204.000000,2.000000,Suck,314.208984,-2181.818182,Speed,313.110352,-2181.818182,Speed,On,Off0.000000,0,,,,
08:00:00.279 PM 03/17/2016,Teleop Enabled,11,FALSE,0,NO ERROR,-0.000000,0.000000,0.000000,0.000000,TRUE,FALSE,FALSE,FALSE,FALSE,FALSE,Disabled,0.000000,0.000000,0.000000,TRUE,1.113708,-0.193024,0.000000,0.020020,0.034851,0.000000,0.049000,0.066000,-0.018000,-0.070000,-0.180000,1.250000,-0.366195,Hold,1.210449,0.000000,Hold,-204.000000,2.000000,Suck,314.208984,-2181.818182,Speed,313.110352,-2181.818182,Speed,On,Off0.000000,0,,,,
08:00:00.379 PM 03/17/2016,Teleop Enabled,9,FALSE,0,NO ERROR,-0.000000,0.000000,0.000000,0.000000,TRUE,FALSE,FALSE,FALSE,FALSE,FALSE,Disabled,0.000000,0.000000,0.000000,TRUE,1.112213,-0.189606,0.000000,-0.079468,0.083954,0.000000,-0.160000,0.000000,0.041000,-0.070000,-0.220000,1.290000,-0.368846,Hold,1.210449,0.000000,Hold,-204.000000,2.000000,Suck,314.208984,-2181.818182,Speed,312.011719,-2181.818182,Speed,On,Off0.000000,0,,,,
08:00:00.480 PM 03/17/2016,Teleop Enabled,9,FALSE,0,NO ERROR,-0.000000,0.000000,0.000000,0.000000,TRUE,FALSE,FALSE,FALSE,FALSE,FALSE,Disabled,0.000000,0.000000,0.000000,TRUE,1.107437,-0.184937,0.000000,-0.090103,0.095184,0.000000,0.000000,0.038000,0.046000,-0.070000,-0.210000,1.250000,-0.386548,Hold,1.210449,0.000000,Hold,-204.000000,2.000000,Suck,314.208984,-2181.818182,Speed,313.110352,-2181.818182,Speed,On,Off0.000000,0,,,,
08:00:00.582 PM 03/17/2016,Teleop Enabled,9,FALSE,0,NO ERROR,-0.000000,0.000000,0.000000,0.000000,TRUE,FALSE,FALSE,FALSE,FALSE,FALSE,Disabled,0.000000,0.000000,0.000000,TRUE,1.103500,-0.180740,0.000000,-0.068832,0.075485,0.000000,0.002000,0.008000,0.022000,-0.070000,-0.190000,1.280000,-0.384041,Hold,1.210449,0.000000,Hold,-204.000000,2.000000,Suck,314.208984,-2181.818182,Speed,313.110352,-2181.818182,Speed,On,Off0.000000,0,,,,
08:00:00.684 PM 03/17/2016,Teleop Enabled,10,FALSE,0,NO ERROR,-0.000000,0.000000,0.000000,0.000000,TRUE,FALSE,FALSE,FALSE,FALSE,FALSE,Disabled,0.000000,0.000000,0.000000,TRUE,1.097672,-0.178253,0.000000,-0.160004,0.022614,0.000000,-0.120000,-0.080000,0.091000,-0.070000,-0.240000,1.270000,-0.395891,Hold,1.210449,0.000000,Hold,-204.000000,2.000000,Suck,314.208984,-2181.818182,Speed,313.110352,-2181.818182,Speed,On,Off0.000000,0,,,,
08:00:00.784 PM 03/17/2016,Teleop Enabled,8,FALSE,0,NO ERROR,-0.000000,0.000000,0.000000,0.000000,TRUE,FALSE,FALSE,FALSE,FALSE,FALSE,Disabled,0.000000,0.000000,0.000000,TRUE,1.088593,-0.178589,0.000000,-0.179199,-0.020462,0.000000,0.130000,-0.041000,0.060000,-0.070000,-0.230000,1.290000,-0.401416,Hold,1.210449,0.000000,Hold,-204.000000,2.000000,Suck,315.307617,-2181.818182,Speed,313.110352,-2181.818182,Speed,On,Off0.000000,0,,,,
08:00:00.885 PM 03/17/2016,Teleop Enabled,9,FALSE,0,NO ERROR,-0.000000,0.000000,0.000000,0.000000,TRUE,FALSE,FALSE,FALSE,FALSE,FALSE,Disabled,0.000000,0.000000,0.000000,TRUE,1.081497,-0.181290,0.000000,-0.116287,-0.079834,0.000000,0.106000,-0.068000,-0.010000,-0.070000,-0.250000,1.290000,-0.394521,Hold,1.210449,0.000000,Hold,-204.000000,2.000000,Suck,314.208984,-2181.818182,Speed,313.110352,-2181.818182,Speed,On,Off0.000000,0,,,,
08:00:00.986 PM 03/17/2016,Teleop Enabled,11,FALSE,0,NO ERROR,-0.000000,0.000000,0.000000,0.000000,TRUE,FALSE,FALSE,FALSE,FALSE,FALSE,Disabled,0.000000,0.000000,0.000000,TRUE,1.077728,-0.184311,0.000000,-0.067734,-0.003784,0.000000,-0.008000,0.023000,-0.109000,-0.070000,-0.220000,1.230000,-0.392992,Hold,1.210449,0.000000,Hold,-204.000000,2.000000,Suck,314.208984,-2181.818182,Speed,313.110352,-2181.818182,Speed,On,Off0.000000,0,,,,
08:00:01.087 PM 03/17/2016,Teleop Enabled,11,FALSE,0,NO ERROR,-0.000000,0.000000,0.000000,0.000000,TRUE,FALSE,FALSE,FALSE,FALSE,FALSE,Disabled,0.000000,0.000000,0.000000,TRUE,1.073837,-0.183807,0.000000,-0.090530,0.030151,0.000000,0.021000,0.040000,-0.039000,-0.070000,-0.210000,1.290000,-0.392011,Hold,1.210449,0.000000,Hold,-204.000000,2.000000,Suck,314.208984,-2181.818182,Speed,313.110352,-2181.818182,Speed,On,Off0.000000,0,,,,
08:00:01.187 PM 03/17/2016,Teleop Enabled,11,FALSE,0,NO ERROR,-0.000000,0.000000,0.000000,0.000000,TRUE,FALSE,FALSE,FALSE,FALSE,FALSE,Disabled,0.000000,0.000000,0.000000,TRUE,1.069733,-0.180908,0.000000,-0.064438,0.072647,0.000000,0.091000,0.022000,-0.029000,-0.070000,-0.270000,1.210000,-0.386654,Hold,1.210449,0.000000,Hold,-204.000000,2.000000,Suck,315.307617,-2181.818182,Speed,313.110352,-2181.818182,Speed,On,Off0.000000,0,,,,
08:00:01.289 PM 03/17/2016,Teleop Enabled,10,FALSE,0,NO ERROR,-0.000000,0.000000,0.000000,0.000000,TRUE,FALSE,FALSE,FALSE,FALSE,FALSE,Disabled,0.000000,0.000000,0.000000,TRUE,1.068512,-0.175949,0.000000,0.006256,0.119308,0.000000,-0.026000,0.051000,0.036000,-0.080000,-0.190000,1.250000,-0.392424,Hold,1.210449,0.000000,Hold,-204.000000,2.000000,Suck,315.307617,-2181.818182,Speed,313.110352,-2181.818182,Speed,On,Off0.000000,0,,,,
08:00:01.389 PM 03/17/2016,Teleop Enabled,10,FALSE,0,NO ERROR,-0.000000,0.000000,0.000000,0.000000,TRUE,FALSE,FALSE,FALSE,FALSE,FALSE,Disabled,0.000000,0.000000,0.000000,TRUE,1.068207,-0.168762,0.000000,-0.034378,0.156387,0.000000,-0.111000,-0.002000,-0.030000,-0.070000,-0.210000,1.270000,-0.398896,Hold,1.210449,0.000000,Hold,-204.000000,2.000000,Suck,314.208984,-2181.818182,Speed,313.110352,-2181.818182,Speed,On,Off0.000000,0,,,,
08:00:01.489 PM 03/17/2016,Teleop Enabled,11,FALSE,0,NO ERROR,-0.000000,0.000000,0.000000,0.000000,TRUE,FALSE,FALSE,FALSE,FALSE,FALSE,Disabled,0.000000,0.000000,0.000000,TRUE,1.062943,-0.167206,0.000000,-0.108459,-0.002106,0.000000,-0.013000,0.016000,0.025000,-0.070000,-0.260000,1.230000,-0.412687,Hold,1.210449,0.000000,Hold,-204.000000,2.000000,Suck,315.307617,-2181.818182,Speed,313.110352,-2181.818182,Speed,On,Off0.000000,0,,,,
08:00:01.590 PM 03/17/2016,Teleop Enabled,10,FALSE,0,NO ERROR,-0.000000,0.000000,0.000000,0.000000,TRUE,FALSE,FALSE,FALSE,FALSE,FALSE,Disabled,0.000000,0.000000,0.000000,TRUE,1.057617,-0.167206,0.000000,-0.098175,0.000000,0.000000,-0.014000,0.019000,0.104000,-0.080000,-0.190000,1.260000,-0.406335,Hold,1.210449,0.000000,Hold,-204.000000,2.000000,Suck,315.307617,-2181.818182,Speed,314.208984,-2181.818182,Speed,On,Off0.000000,0,,,,
08:00:01.690 PM 03/17/2016,Teleop Enabled,11,FALSE,0,NO ERROR,-0.000000,0.000000,0.000000,0.000000,TRUE,FALSE,FALSE,FALSE,FALSE,FALSE,Disabled,0.000000,0.000000,0.000000,TRUE,1.052811,-0.168060,0.000000,-0.113007,-0.035889,0.000000,-0.096000,-0.058000,0.025000,-0.070000,-0.200000,1.290000,-0.404607,Hold,1.210449,0.000000,Hold,-204.000000,2.000000,Suck,314.208984,-2181.818182,Speed,313.110352,-2181.818182,Speed,On,Off0.000000,0,,,,
08:00:01.791 PM 03/17/2016,Teleop Enabled,10,FALSE,0,NO ERROR,-0.000000,0.000000,0.000000,0.000000,TRUE,FALSE,FALSE,FALSE,FALSE,FALSE,Disabled,0.000000,0.000000,0.000000,TRUE,1.044678,-0.172058,0.000000,-0.182846,-0.107193,0.000000,-0.027000,-0.047000,0.085000,-0.070000,-0.220000,1.250000,-0.408907,Hold,1.210449,0.000000,Hold,-204.000000,2.000000,Suck,314.208984,-2181.818182,Speed,313.110352,-2181.818182,Speed,On,Off0.000000,0,,,,
08:00:01.892 PM 03/17/2016,Teleop Enabled,11,FALSE,0,NO ERROR,-0.000000,0.000000,0.000000,0.000000,TRUE,FALSE,FALSE,FALSE,FALSE,FALSE,Disabled,0.000000,0.000000,0.000000,TRUE,1.035721,-0.175797,0.000000,-0.166946,-0.004486,0.000000,-0.010000,-0.030000,0.013000,-0.080000,-0.200000,1.280000,-0.412807,Hold,1.210449,0.000000,Hold,-204.000000,2.000000,Suck,314.208984,-2181.818182,Speed,313.110352,-2181.818182,Speed,On,Off0.000000,0,,,,
08:00:01.993 PM 03/17/2016,Teleop Enabled,11,FALSE,0,NO ERROR,-0.000000,0.000000,0.000000,0.000000,TRUE,FALSE,FALSE,FALSE,FALSE,FALSE,Disabled,0.000000,0.000000,0.000000,TRUE,1.028076,-0.176895,0.000000,-0.140198,-0.024826,0.000000,0.050000,0.093000,-0.056000,-0.080000,-0.230000,1.250000,-0.412684,Hold,1.210449,0.000000,Hold,-204.000000,2.000000,Suck,315.307617,-2181.818182,Speed,313.110352,-2181.818182,Speed,On,Off0.000000,0,,,,
08:00:02.095 PM 03/17/2016,Teleop Enabled,10,FALSE,0,NO ERROR,-0.000000,0.000000,0.000000,0.000000,TRUE,FALSE,FALSE,FALSE,FALSE,FALSE,Disabled,0.000000,0.000000,0.000000,TRUE,1.020752,-0.177032,0.000000,-0.157379,0.012497,0.000000,-0.035000,0.081000,-0.087000,-0.080000,-0.220000,1.290000,-0.410105,Hold,1.210449,0.000000,Hold,-204.000000,2.000000,Suck,314.208984,-2181.818182,Speed,313.110352,-2181.818182,Speed,On,Off0.000000,0,,,,
08:00:02.197 PM 03/17/2016,Teleop Enabled,11,FALSE,0,NO ERROR,-0.000000,0.000000,0.000000,0.000000,TRUE,FALSE,FALSE,FALSE,FALSE,FALSE,Disabled,0.000000,0.000000,0.000000,TRUE,1.017578,-0.174240,0.000000,0.010544,0.081894,0.000000,0.035000,0.026000,-0.072000,-0.080000,-0.270000,1.270000,-0.412078,Hold,1.210449,0.000000,Hold,-204.000000,2.000000,Suck,314.208984,-2181.818182,Speed,314.208984,-2181.818182,Speed,On,Off0.000000,0,,,,
08:00:02.298 PM 03/17/2016,Teleop Enabled,10,FALSE,0,NO ERROR,-0.000000,0.000000,0.000000,0.000000,TRUE,FALSE,FALSE,FALSE,FALSE,FALSE,Disabled,0.000000,0.000000,0.000000,TRUE,1.021469,-0.168137,0.000000,0.108368,0.120667,0.000000,0.145000,0.093000,0.037000,-0.080000,-0.270000,1.230000,-0.408435,Hold,1.210449,0.000000,Hold,-204.000000,2.000000,Suck,314.208984,-2181.818182,Speed,314.208984,-2181.818182,Speed,On,Off0.000000,0,,,,
08:00:02.398 PM 03/17/2016,Teleop Enabled,10,FALSE,0,NO ERROR,-0.000000,0.000000,0.000000,0.000000,TRUE,FALSE,FALSE,FALSE,FALSE,FALSE,Disabled,0.000000,0.000000,0.000000,TRUE,1.026962,-0.161911,0.000000,0.141953,0.174835,0.000000,-0.019000,0.018000,-0.056000,-0.080000,-0.220000,1.270000,-0.432874,Hold,1.210449,0.000000,Hold,-204.000000,2.000000,Suck,315.307617,-2181.818182,Speed,312.011719,-2181.818182,Speed,On,Off0.000000,0,,,,
08:00:02.498 PM 03/17/2016,Teleop Enabled,11,FALSE,0,NO ERROR,-0.000000,0.000000,0.000000,0.000000,TRUE,FALSE,FALSE,FALSE,FALSE,FALSE,Disabled,0.000000,0.000000,0.000000,TRUE,1.032349,-0.151810,0.000000,0.076813,0.217102,0.000000,-0.093000,0.001000,-0.017000,-0.080000,-0.280000,1.250000,-0.445319,Hold,1.210449,0.000000,Hold,-204.000000,2.000000,Suck,314.208984,-2181.818182,Speed,313.110352,-2181.818182,Speed,On,Off0.000000,0,,,,
08:00:02.598 PM 03/17/2016,Teleop Enabled,10,FALSE,0,NO ERROR,-0.000000,0.000000,0.000000,0.000000,TRUE,FALSE,FALSE,FALSE,FALSE,FALSE,Disabled,0.000000,0.000000,0.000000,TRUE,1.035126,-0.149338,0.000000,0.049728,0.005844,0.000000,0.040000,0.000000,0.112000,-0.080000,-0.220000,1.190000,-0.447471,Hold,1.210449,0.000000,Hold,-204.000000,2.000000,Suck,314.208984,-2181.818182,Speed,314.208984,-2181.818182,Speed,On,Off0.000000,0,,,,
08:00:02.698 PM 03/17/2016,Teleop Enabled,10,FALSE,0,NO ERROR,-0.000000,0.000000,0.000000,0.000000,TRUE,FALSE,FALSE,FALSE,FALSE,FALSE,Disabled,0.000000,0.000000,0.000000,TRUE,1.038727,-0.149353,0.000000,0.087891,-0.015259,0.000000,-0.007000,-0.090000,0.067000,-0.090000,-0.220000,1.250000,-0.450848,Hold,1.210449,0.000000,Hold,-204.000000,2.000000,Suck,314.208984,-2181.818182,Speed,314.208984,-2181.818182,Speed,On,Off0.000000,0,,,,
08:00:02.799 PM 03/17/2016,Teleop Enabled,10,FALSE,0,NO ERROR,-0.000000,0.000000,0.000000,0.000000,TRUE,FALSE,FALSE,FALSE,FALSE,FALSE,Disabled,0.000000,0.000000,0.000000,TRUE,1.042175,-0.152405,0.000000,0.048233,-0.101654,0.000000,-0.035000,-0.104000,0.051000,-0.090000,-0.240000,1.270000,-0.431538,Hold,1.209961,0.000000,Hold,-204.000000,2.000000,Suck,315.307617,-2181.818182,Speed,313.110352,-2181.818182,Speed,On,Off0.000000,0,,,,
08:00:02.899 PM 03/17/2016,Teleop Enabled,11,FALSE,0,NO ERROR,-0.000000,0.000000,0.000000,0.000000,TRUE,FALSE,FALSE,FALSE,FALSE,FALSE,Disabled,0.000000,0.000000,0.000000,TRUE,1.042969,-0.160294,0.000000,0.018005,-0.184036,0.000000,0.008000,-0.030000,0.106000,-0.090000,-0.210000,1.240000,-0.419410,Hold,1.209961,0.000000,Hold,-204.000000,2.000000,Suck,315.307617,-2181.818182,Speed,313.110352,-2181.818182,Speed,On,Off0.000000,0,,,,
08:00:02.999 PM 03/17/2016,Teleop Enabled,11,FALSE,0,NO ERROR,-0.000000,0.000000,0.000000,0.000000,TRUE,FALSE,FALSE,FALSE,FALSE,FALSE,Disabled,0.000000,0.000000,0.000000,TRUE,1.043839,-0.170654,0.000000,0.037170,-0.220459,0.000000,0.074000,-0.013000,0.030000,-0.090000,-0.230000,1.280000,-0.419968,Hold,1.209717,0.000000,Hold,-204.000000,2.000000,Suck,314.208984,-2181.818182,Speed,313.110352,-2181.818182,Speed,On,Off0.000000,0,,,,
08:00:03.100 PM 03/17/2016,Teleop Enabled,10,FALSE,0,NO ERROR,-0.000000,0.000000,0.000000,0.000000,TRUE,FALSE,FALSE,FALSE,FALSE,FALSE,Disabled,0.000000,0.000000,0.000000,TRUE,1.047668,-0.182373,0.000000,0.096008,-0.238998,0.000000,0.126000,0.002000,0.013000,-0.090000,-0.280000,1.260000,-0.417548,Hold,1.209473,0.000000,Hold,-204.000000,2.000000,Suck,314.208984,-2181.818182,Speed,314.208984,-2181.818182,Speed,On,Off0.000000,0,,,,
08:00:03.199 PM 03/17/2016,Teleop Enabled,9,FALSE,0,NO ERROR,-0.000000,0.000000,0.000000,0.000000,TRUE,FALSE,FALSE,FALSE,FALSE,FALSE,Disabled,0.000000,0.000000,0.000000,TRUE,1.053833,-0.194107,0.000000,0.125656,-0.233917,0.000000,-0.011000,0.003000,-0.111000,-0.090000,-0.200000,1.250000,-0.409651,Hold,1.209473,0.000000,Hold,-204.000000,2.000000,Suck,315.307617,-2181.818182,Speed,313.110352,-2181.818182,Speed,On,Off0.000000,0,,,,
08:00:03.300 PM 03/17/2016,Teleop Enabled,10,FALSE,0,NO ERROR,-0.000000,0.000000,0.000000,0.000000,TRUE,FALSE,FALSE,FALSE,FALSE,FALSE,Disabled,0.000000,0.000000,0.000000,TRUE,1.059875,-0.204651,0.000000,0.127014,-0.190262,0.000000,-0.002000,0.055000,-0.040000,-0.090000,-0.240000,1.240000,-0.411840,Hold,1.209229,0.000000,Hold,-204.000000,2.000000,Suck,315.307617,-2181.818182,Speed,313.110352,-2181.818182,Speed,On,Off0.000000,0,,,,
08:00:03.401 PM 03/17/2016,Teleop Enabled,10,FALSE,0,NO ERROR,-0.000000,0.000000,0.000000,0.000000,TRUE,FALSE,FALSE,FALSE,FALSE,FALSE,Disabled,0.000000,0.000000,0.000000,TRUE,1.067001,-0.212692,0.000000,0.160294,-0.140228,0.000000,0.028000,0.090000,-0.022000,-0.090000,-0.230000,1.210000,-0.411320,Hold,1.208984,0.000000,Hold,-204.000000,2.000000,Suck,314.208984,-2181.818182,Speed,314.208984,-2181.818182,Speed,On,Off0.000000,0,,,,
08:00:03.504 PM 03/17/2016,Teleop Enabled,11,FALSE,0,NO ERROR,-0.000000,0.000000,0.000000,0.000000,TRUE,FALSE,FALSE,FALSE,FALSE,FALSE,Disabled,0.000000,0.000000,0.000000,TRUE,1.075684,-0.217377,0.000000,0.168594,-0.062286,0.000000,-0.075000,0.060000,-0.017000,-0.100000,-0.200000,1.260000,-0.421882,Hold,1.208984,0.000000,Hold,-204.000000,2.000000,Suck,315.307617,-2181.818182,Speed,313.110352,-2181.818182,Speed,On,Off0.000000,0,,,,
08:00:03.604 PM 03/17/2016,Teleop Enabled,9,FALSE,0,NO ERROR,-0.000000,0.000000,0.000000,0.000000,TRUE,FALSE,FALSE,FALSE,FALSE,FALSE,Disabled,0.000000,0.000000,0.000000,TRUE,1.081238,-0.218781,0.000000,0.072464,-0.005859,0.000000,-0.050000,-0.044000,0.003000,-0.090000,-0.240000,1.240000,-0.435618,Hold,1.208008,0.000000,Hold,-204.000000,2.000000,Suck,315.307617,-2181.818182,Speed,313.110352,-2181.818182,Speed,On,Off0.000000,0,,,,
08:00:03.705 PM 03/17/2016,Teleop Enabled,10,FALSE,0,NO ERROR,-0.000000,0.000000,0.000000,0.000000,TRUE,FALSE,FALSE,FALSE,FALSE,FALSE,Disabled,0.000000,0.000000,0.000000,TRUE,1.083633,-0.219559,0.000000,0.029236,-0.020584,0.000000,0.043000,0.039000,0.033000,-0.090000,-0.230000,1.190000,-0.434196,Hold,1.206787,0.000000,Hold,-204.000000,2.000000,Suck,314.208984,-2181.818182,Speed,314.208984,-2181.818182,Speed,On,Off0.000000,0,,,,
08:00:03.805 PM 03/17/2016,Teleop Enabled,10,FALSE,0,NO ERROR,-0.000000,0.000000,0.000000,0.000000,TRUE,FALSE,FALSE,FALSE,FALSE,FALSE,Disabled,0.000000,0.000000,0.000000,TRUE,1.086792,-0.219849,0.000000,0.080261,-0.002182,0.000000,0.055000,-0.023000,0.121000,-0.100000,-0.210000,1.260000,-0.433008,Hold,1.206299,0.000000,Hold,-204.000000,2.000000,Suck,314.208984,-2181.818182,Speed,313.110352,-2181.818182,Speed,On,Off0.000000,0,,,,
08:00:03.906 PM 03/17/2016,Teleop Enabled,10,FALSE,0,NO ERROR,-0.000000,0.000000,0.000000,0.000000,TRUE,FALSE,FALSE,FALSE,FALSE,FALSE,Disabled,0.000000,0.000000,0.000000,TRUE,1.090393,-0.220840,0.000000,0.056091,-0.039948,0.000000,-0.036000,-0.054000,-0.031000,-0.100000,-0.230000,1.220000,-0.436358,Hold,1.206055,0.000000,Hold,-204.000000,2.000000,Suck,315.307617,-2181.818182,Speed,314.208984,-2181.818182,Speed,On,Off0.000000,0,,,,
08:00:04.007 PM 03/17/2016,Teleop Enabled,10,FALSE,0,NO ERROR,-0.000000,0.000000,0.000000,0.000000,TRUE,FALSE,FALSE,FALSE,FALSE,FALSE,Disabled,0.000000,0.000000,0.000000,TRUE,1.090561,-0.224716,0.000000,-0.019485,-0.094849,0.000000,-0.031000,-0.036000,0.034000,-0.100000,-0.230000,1.190000,-0.440947,Hold,1.201904,0.000000,Hold,-204.000000,2.000000,Suck,315.307617,-2181.818182,Speed,314.208984,-2181.818182,Speed,On,Off0.000000,0,,,,
08:00:04.108 PM 03/17/2016,Teleop Enabled,10,FALSE,0,NO ERROR,-0.000000,0.000000,0.000000,0.000000,TRUE,FALSE,FALSE,FALSE,FALSE,FALSE,Disabled,0.000000,0.000000,0.000000,TRUE,1.089951,-0.230392,0.000000,0.006027,-0.127533,0.000000,0.075000,-0.071000,-0.001000,-0.100000,-0.250000,1.250000,-0.439054,Hold,1.195312,0.000000,Hold,-204.000000,2.000000,Suck,314.208984,-2181.818182,Speed,313.110352,-2181.818182,Speed,On,Off0.000000,0,,,,
08:00:04.208 PM 03/17/2016,Teleop Enabled,10,FALSE,0,NO ERROR,-0.000000,0.000000,0.000000,0.000000,TRUE,FALSE,FALSE,FALSE,FALSE,FALSE,Disabled,0.000000,0.000000,0.000000,TRUE,1.092850,-0.238739,0.000000,0.083008,-0.196533,0.000000,0.053000,0.018000,-0.063000,-0.090000,-0.240000,1.260000,-0.444410,Hold,1.195068,0.000000,Hold,-204.000000,2.000000,Suck,314.208984,-2181.818182,Speed,314.208984,-2181.818182,Speed,On,Off0.000000,0,,,,
08:00:04.308 PM 03/17/2016,Teleop Enabled,9,FALSE,0,NO ERROR,-0.000000,0.000000,0.000000,0.000000,TRUE,FALSE,FALSE,FALSE,FALSE,FALSE,Disabled,0.000000,0.000000,0.000000,TRUE,1.095703,-0.249084,0.000000,-0.005478,-0.217392,0.000000,-0.058000,-0.035000,-0.087000,-0.090000,-0.180000,1.220000,-0.446531,Hold,1.194824,0.000000,Hold,-204.000000,2.000000,Suck,315.307617,-2181.818182,Speed,314.208984,-2181.818182,Speed,On,Off0.000000,0,,,,
08:00:04.409 PM 03/17/2016,Teleop Enabled,10,FALSE,0,NO ERROR,-0.000000,0.000000,0.000000,0.000000,TRUE,FALSE,FALSE,FALSE,FALSE,FALSE,Disabled,0.000000,0.000000,0.000000,TRUE,1.094269,-0.259018,0.000000,-0.053223,-0.176758,0.000000,0.053000,0.080000,0.053000,-0.100000,-0.150000,1.260000,-0.445804,Hold,1.194580,0.000000,Hold,-204.000000,2.000000,Suck,315.307617,-2181.818182,Speed,313.110352,-2181.818182,Speed,On,Off0.000000,0,,,,
08:00:04.509 PM 03/17/2016,Teleop Enabled,9,FALSE,0,NO ERROR,-0.000000,0.000000,0.000000,0.000000,TRUE,FALSE,FALSE,FALSE,FALSE,FALSE,Disabled,0.000000,0.000000,0.000000,TRUE,1.091858,-0.265823,0.000000,-0.042068,-0.110001,0.000000,0.081000,0.017000,-0.048000,-0.100000,-0.220000,1.250000,-0.444799,Hold,1.194092,0.000000,Hold,-204.000000,2.000000,Suck,315.307617,-2181.818182,Speed,314.208984,-2181.818182,Speed,On,Off0.000000,0,,,,
08:00:04.609 PM 03/17/2016,Teleop Enabled,9,FALSE,0,NO ERROR,-0.000000,0.000000,0.000000,0.000000,TRUE,FALSE,FALSE,FALSE,FALSE,FALSE,Disabled,0.000000,0.000000,0.000000,TRUE,1.091705,-0.270294,0.000000,0.027390,-0.075394,0.000000,0.023000,0.024000,0.015000,-0.100000,-0.170000,1.240000,-0.436916,Hold,1.193359,0.000000,Hold,-204.000000,2.000000,Suck,315.307617,-2181.818182,Speed,313.110352,-2181.818182,Speed,On,Off0.000000,0,,,,
08:00:04.710 PM 03/17/2016,Teleop Enabled,11,FALSE,0,NO ERROR,-0.000000,0.000000,0.000000,0.000000,TRUE,FALSE,FALSE,FALSE,FALSE,FALSE,Disabled,0.000000,0.000000,0.000000,TRUE,1.093109,-0.272919,0.000000,0.011627,-0.039810,0.000000,-0.101000,0.044000,0.006000,-0.100000,-0.120000,1.250000,-0.450263,Hold,1.192383,0.000000,Hold,-204.000000,2.000000,Suck,315.307617,-2181.818182,Speed,314.208984,-2181.818182,Speed,On,Off0.000000,0,,,,
08:00:04.810 PM 03/17/2016,Teleop Enabled,9,FALSE,0,NO ERROR,-0.000000,0.000000,0.000000,0.000000,TRUE,FALSE,FALSE,FALSE,FALSE,FALSE,Disabled,0.000000,0.000000,0.000000,TRUE,1.090408,-0.273834,0.000000,-0.081421,-0.001556,0.000000,-0.012000,0.034000,0.032000,-0.100000,-0.190000,1.240000,-0.447598,Hold,1.192139,0.000000,Hold,-204.000000,2.000000,Suck,315.307617,-2181.818182,Speed,313.110352,-2181.818182,Speed,On,Off0.000000,0,,,,
08:00:04.911 PM 03/17/2016,Teleop Enabled,10,FALSE,0,NO ERROR,-0.000000,0.000000,0.000000,0.000000,TRUE,FALSE,FALSE,FALSE,FALSE,FALSE,Disabled,0.000000,0.000000,0.000000,TRUE,1.086426,-0.272400,0.000000,-0.074722,0.042969,0.000000,0.050000,0.062000,0.115000,-0.100000,-0.140000,1.290000,-0.459971,Hold,1.192139,0.000000,Hold,-204.000000,2.000000,Suck,314.208984,-2181.818182,Speed,314.208984,-2181.818182,Speed,On,Off0.000000,0,,,,
08:00:05.012 PM 03/17/2016,Teleop Enabled,9,FALSE,0,NO ERROR,-0.000000,0.000000,0.000000,0.000000,TRUE,FALSE,FALSE,FALSE,FALSE,FALSE,Disabled,0.000000,0.000000,0.000000,TRUE,1.084259,-0.271423,0.000000,-0.038818,0.000000,0.000000,-0.044000,-0.026000,0.004000,-0.100000,-0.140000,1.290000,-0.463792,Hold,1.191895,0.000000,Hold,-204.000000,2.000000,Suck,315.307617,-2181.818182,Speed,314.208984,-2181.818182,Speed,On,Off0.000000,0,,,,
08:00:05.113 PM 03/17/2016,Teleop Enabled,10,FALSE,0,NO ERROR,-0.000000,0.000000,0.000000,0.000000,TRUE,FALSE,FALSE,FALSE,FALSE,FALSE,Disabled,0.000000,0.000000,0.000000,TRUE,1.081268,-0.273315,0.000000,-0.083923,-0.075134,0.000000,-0.036000,-0.048000,0.046000,-0.110000,-0.190000,1.230000,-0.470825,Hold,1.190918,0.000000,Hold,-204.000000,2.000000,Suck,315.307617,-2181.818182,Speed,313.110352,-2181.818182,Speed,On,Off0.000000,0,,,,
08:00:05.214 PM 03/17/2016,Teleop Enabled,11,FALSE,0,NO ERROR,-0.000000,0.000000,0.000000,0.000000,TRUE,FALSE,FALSE,FALSE,FALSE,FALSE,Disabled,0.000000,0.000000,0.000000,TRUE,1.077896,-0.279480,0.000000,0.000000,-0.148636,0.000000,-0.012000,-0.069000,0.152000,-0.110000,-0.140000,1.280000,-0.466308,Hold,1.159668,0.000000,Hold,-204.000000,2.000000,Suck,315.307617,-2181.818182,Speed,314.208984,-2181.818182,Speed,On,Off0.000000,0,,,,
08:00:05.315 PM 03/17/2016,Teleop Enabled,9,FALSE,0,NO ERROR,-0.000000,0.000000,0.000000,0.000000,TRUE,FALSE,FALSE,FALSE,FALSE,FALSE,Disabled,0.000000,0.000000,0.000000,TRUE,1.078308,-0.290070,0.000000,0.020477,-0.197189,0.000000,0.006000,-0.035000,-0.010000,-0.110000,-0.150000,1.330000,-0.480560,Hold,0.991211,0.000000,Hold,-204.000000,2.000000,Suck,314.208984,-2181.818182,Speed,314.208984,-2181.818182,Speed,On,Off0.000000,0,,,,
08:00:05.416 PM 03/17/2016,Teleop Enabled,9,FALSE,0,NO ERROR,-0.000000,0.000000,0.000000,0.000000,TRUE,FALSE,FALSE,FALSE,FALSE,FALSE,Disabled,0.000000,0.000000,0.000000,TRUE,1.080200,-0.301224,0.000000,0.045898,-0.238724,0.000000,-0.010000,-0.020000,-0.023000,-0.110000,-0.200000,1.240000,-0.487211,Hold,0.942871,0.000000,Hold,-204.000000,2.000000,Suck,315.307617,-2181.818182,Speed,314.208984,-2181.818182,Speed,On,Off0.000000,0,,,,
08:00:05.516 PM 03/17/2016,Teleop Enabled,11,FALSE,0,NO ERROR,-0.000000,0.000000,0.000000,0.000000,TRUE,FALSE,FALSE,FALSE,FALSE,FALSE,Disabled,0.000000,0.000000,0.000000,TRUE,1.081604,-0.313202,0.000000,0.000000,-0.228561,0.000000,0.041000,0.015000,-0.066000,-0.110000,-0.160000,1.250000,-0.484650,Hold,0.942871,0.000000,Hold,-204.000000,2.000000,Suck,315.307617,-2181.818182,Speed,313.110352,-2181.818182,Speed,On,Off0.000000,0,,,,
08:00:05.616 PM 03/17/2016,Teleop Enabled,10,FALSE,0,NO ERROR,-0.000000,0.000000,0.000000,0.000000,TRUE,FALSE,FALSE,FALSE,FALSE,FALSE,Disabled,0.000000,0.000000,0.000000,TRUE,1.081696,-0.323685,0.000000,0.013214,-0.195435,0.000000,0.076000,-0.039000,-0.128000,-0.110000,-0.170000,1.310000,-0.476925,Hold,0.942871,0.000000,Hold,-204.000000,2.000000,Suck,315.307617,-2181.818182,Speed,314.208984,-2181.818182,Speed,On,Off0.000000,0,,,,
08:00:05.716 PM 03/17/2016,Teleop Enabled,9,FALSE,0,NO ERROR,-0.000000,0.000000,0.000000,0.000000,TRUE,FALSE,FALSE,FALSE,FALSE,FALSE,Disabled,0.000000,0.000000,0.000000,TRUE,1.084091,-0.333725,0.000000,0.074356,-0.207077,0.000000,0.040000,0.001000,0.075000,-0.110000,-0.220000,1.250000,-0.498465,Hold,0.942871,0.000000,Hold,-204.000000,2.000000,Suck,314.208984,-2181.818182,Speed,314.208984,-2181.818182,Speed,On,Off0.000000,0,,,,
08:00:05.816 PM 03/17/2016,Teleop Enabled,10,FALSE,0,NO ERROR,-0.000000,0.000000,0.000000,0.000000,TRUE,FALSE,FALSE,FALSE,FALSE,FALSE,Disabled,0.000000,0.000000,0.000000,TRUE,1.089462,-0.343628,0.000000,0.112946,-0.180664,0.000000,0.024000,0.069000,0.037000,-0.120000,-0.140000,1.250000,-0.523561,Hold,0.942871,0.000000,Hold,-204.000000,2.000000,Suck,315.307617,-2181.818182,Speed,313.110352,-2181.818182,Speed,On,Off0.000000,0,,,,
08:00:05.916 PM 03/17/2016,Teleop Enabled,11,FALSE,0,NO ERROR,-0.000000,0.000000,0.000000,0.000000,TRUE,FALSE,FALSE,FALSE,FALSE,FALSE,Disabled,0.000000,0.000000,0.000000,TRUE,1.093323,-0.350830,0.000000,0.037552,-0.122116,0.000000,-0.082000,0.051000,0.124000,-0.120000,-0.180000,1.260000,-0.546699,Hold,0.942871,0.000000,Hold,-204.000000,2.000000,Suck,315.307617,-2181.818182,Speed,313.110352,-2181.818182,Speed,On,Off0.000000,0,,,,
08:00:06.016 PM 03/17/2016,Teleop Enabled,11,FALSE,0,NO ERROR,-0.000000,0.000000,0.000000,0.000000,TRUE,FALSE,FALSE,FALSE,FALSE,FALSE,Disabled,0.000000,0.000000,0.000000,TRUE,1.092773,-0.356293,0.000000,0.000000,-0.077911,0.000000,-0.010000,0.028000,0.037000,-0.120000,-0.220000,1.250000,-0.558142,Hold,0.942871,0.000000,Hold,-204.000000,2.000000,Suck,314.208984,-2181.818182,Speed,314.208984,-2181.818182,Speed,On,Off0.000000,0,,,,
08:00:06.116 PM 03/17/2016,Teleop Enabled,11,FALSE,0,NO ERROR,-0.000000,0.000000,0.000000,0.000000,TRUE,FALSE,FALSE,FALSE,FALSE,FALSE,Disabled,0.000000,0.000000,0.000000,TRUE,1.093307,-0.357773,0.000000,0.030396,0.000000,0.000000,0.074000,0.018000,0.088000,-0.120000,-0.180000,1.210000,-0.557749,Hold,0.942871,0.000000,Hold,-204.000000,2.000000,Suck,314.208984,-2181.818182,Speed,315.307617,-2181.818182,Speed,On,Off0.000000,0,,,,
08:00:06.216 PM 03/17/2016,Teleop Enabled,11,FALSE,0,NO ERROR,-0.000000,0.000000,0.000000,0.000000,TRUE,FALSE,FALSE,FALSE,FALSE,FALSE,Disabled,0.000000,0.000000,0.000000,TRUE,1.096710,-0.358047,0.000000,0.073868,-0.013458,0.000000,-0.074000,-0.037000,0.009000,-0.130000,-0.120000,1.270000,-0.525482,Hold,0.942871,0.000000,Hold,-204.000000,2.000000,Suck,315.307617,-2181.818182,Speed,314.208984,-2181.818182,Speed,On,Off0.000000,0,,,,
08:00:06.317 PM 03/17/2016,Teleop Enabled,11,FALSE,0,NO ERROR,-0.000000,0.000000,0.000000,0.000000,TRUE,FALSE,FALSE,FALSE,FALSE,FALSE,Disabled,0.000000,0.000000,0.000000,TRUE,1.097961,-0.359772,0.000000,-0.012604,-0.051132,0.000000,-0.116000,0.002000,0.060000,-0.130000,-0.150000,1.250000,-0.516642,Hold,0.942871,0.000000,Hold,-204.000000,2.000000,Suck,314.208984,-2181.818182,Speed,313.110352,-2181.818182,Speed,On,Off0.000000,0,,,,
08:00:06.418 PM 03/17/2016,Teleop Enabled,11,FALSE,0,NO ERROR,-0.000000,0.000000,0.000000,0.000000,TRUE,FALSE,FALSE,FALSE,FALSE,FALSE,Disabled,0.000000,0.000000,0.000000,TRUE,1.094879,-0.360214,0.000000,-0.037262,-0.016220,0.000000,0.073000,-0.043000,0.022000,-0.120000,-0.130000,1.270000,-0.508910,Hold,0.942871,0.000000,Hold,-204.000000,2.000000,Suck,314.208984,-2181.818182,Speed,313.110352,-2181.818182,Speed,On,Off0.000000,0,,,,
08:00:06.518 PM 03/17/2016,Teleop Enabled,9,FALSE,0,NO ERROR,-0.000000,0.000000,0.000000,0.000000,TRUE,FALSE,FALSE,FALSE,FALSE,FALSE,Disabled,0.000000,0.000000,0.000000,TRUE,1.094559,-0.363007,0.000000,0.016937,-0.092285,0.000000,0.073000,-0.043000,0.022000,-0.120000,-0.130000,1.270000,-0.510129,Hold,0.942871,0.000000,Hold,-204.000000,2.000000,Suck,315.307617,-2181.818182,Speed,314.208984,-2181.818182,Speed,On,Off0.000000,0,,,,
08:00:06.619 PM 03/17/2016,Teleop Enabled,10,FALSE,0,NO ERROR,-0.000000,0.000000,0.000000,0.000000,TRUE,FALSE,FALSE,FALSE,FALSE,FALSE,Disabled,0.000000,0.000000,0.000000,TRUE,1.097488,-0.369385,0.000000,0.077911,-0.138992,0.000000,0.050000,-0.069000,-0.035000,-0.120000,-0.150000,1.280000,-0.516607,Hold,0.942871,0.000000,Hold,-204.000000,2.000000,Suck,314.208984,-2181.818182,Speed,314.208984,-2181.818182,Speed,On,Off0.000000,0,,,,
08:00:06.719 PM 03/17/2016,Teleop Enabled,11,FALSE,0,NO ERROR,-0.000000,0.000000,0.000000,0.000000,TRUE,FALSE,FALSE,FALSE,FALSE,FALSE,Disabled,0.000000,0.000000,0.000000,TRUE,1.100449,-0.374588,0.000000,0.054962,-0.124161,0.000000,-0.075000,0.054000,-0.051000,-0.110000,-0.090000,1.260000,-0.518497,Hold,0.942871,0.000000,Hold,-204.000000,2.000000,Suck,314.208984,-2181.818182,Speed,314.208984,-2181.818182,Speed,On,Off0.000000,0,,,,
08:00:06.819 PM 03/17/2016,Teleop Enabled,8,FALSE,0,NO ERROR,-0.000000,0.000000,0.000000,0.000000,TRUE,FALSE,FALSE,FALSE,FALSE,FALSE,Disabled,0.000000,0.000000,0.000000,TRUE,1.101868,-0.380203,0.000000,0.014084,-0.068283,0.000000,-0.075000,0.054000,-0.051000,-0.110000,-0.160000,1.270000,-0.539865,Hold,0.942871,0.000000,Hold,-204.000000,2.000000,Suck,315.307617,-2181.818182,Speed,314.208984,-2181.818182,Speed,On,Off0.000000,0,,,,
08:00:06.919 PM 03/17/2016,Teleop Enabled,10,FALSE,0,NO ERROR,-0.000000,0.000000,0.000000,0.000000,TRUE,FALSE,FALSE,FALSE,FALSE,FALSE,Disabled,0.000000,0.000000,0.000000,TRUE,1.103287,-0.382675,0.000000,0.062790,-0.040344,0.000000,0.119000,0.039000,-0.041000,-0.110000,-0.190000,1.190000,-0.533614,Hold,0.942871,0.000000,Hold,-204.000000,2.000000,Suck,314.208984,-2181.818182,Speed,314.208984,-2181.818182,Speed,On,Off0.000000,0,,,,
08:00:07.020 PM 03/17/2016,Teleop Enabled,9,FALSE,0,NO ERROR,-0.000000,0.000000,0.000000,0.000000,TRUE,FALSE,FALSE,FALSE,FALSE,FALSE,Disabled,0.000000,0.000000,0.000000,TRUE,1.108994,-0.383820,0.000000,0.138092,-0.010727,0.000000,0.119000,0.039000,-0.041000,-0.110000,-0.090000,1.230000,-0.547177,Hold,0.942871,0.000000,Hold,-204.000000,2.000000,Suck,314.208984,-2181.818182,Speed,313.110352,-2181.818182,Speed,On,Off0.000000,0,,,,
08:00:07.121 PM 03/17/2016,Teleop Enabled,11,FALSE,0,NO ERROR,-0.000000,0.000000,0.000000,0.000000,TRUE,FALSE,FALSE,FALSE,FALSE,FALSE,Disabled,0.000000,0.000000,0.000000,TRUE,1.109390,-0.383759,0.000000,-0.052460,0.003922,0.000000,-0.006000,-0.013000,0.015000,-0.100000,-0.160000,1.200000,-0.539772,Hold,0.942871,0.000000,Hold,-204.000000,2.000000,Suck,314.208984,-2181.818182,Speed,314.208984,-2181.818182,Speed,On,Off0.000000,0,,,,
08:00:07.222 PM 03/17/2016,Teleop Enabled,11,FALSE,0,NO ERROR,-0.000000,0.000000,0.000000,0.000000,TRUE,FALSE,FALSE,FALSE,FALSE,FALSE,Disabled,0.000000,0.000000,0.000000,TRUE,1.103790,-0.383438,0.000000,-0.131561,0.014282,0.000000,-0.163000,-0.008000,0.051000,-0.100000,-0.160000,1.200000,-0.541325,Hold,0.942871,0.000000,Hold,-204.000000,2.000000,Suck,315.307617,-2181.818182,Speed,314.208984,-2181.818182,Speed,On,Off0.000000,0,,,,
08:00:07.322 PM 03/17/2016,Teleop Enabled,9,FALSE,0,NO ERROR,-0.000000,0.000000,0.000000,0.000000,TRUE,FALSE,FALSE,FALSE,FALSE,FALSE,Disabled,0.000000,0.000000,0.000000,TRUE,1.097519,-0.381317,0.000000,-0.108109,0.058655,0.000000,-0.043000,0.081000,0.111000,-0.100000,-0.160000,1.210000,-0.533073,Hold,0.942871,0.000000,Hold,-204.000000,2.000000,Suck,314.208984,-2181.818182,Speed,314.208984,-2181.818182,Speed,On,Off0.000000,0,,,,
08:00:07.424 PM 03/17/2016,Teleop Enabled,11,FALSE,0,NO ERROR,-0.000000,0.000000,0.000000,0.000000,TRUE,FALSE,FALSE,FALSE,FALSE,FALSE,Disabled,0.000000,0.000000,0.000000,TRUE,1.095123,-0.378204,0.000000,0.007553,0.054901,0.000000,0.073000,-0.022000,0.163000,-0.100000,-0.150000,1.290000,-0.544606,Hold,0.942871,0.000000,Hold,-204.000000,2.000000,Suck,314.208984,-2181.818182,Speed,315.307617,-2181.818182,Speed,On,Off0.000000,0,,,,
08:00:07.523 PM 03/17/2016,Teleop Enabled,10,FALSE,0,NO ERROR,-0.000000,0.000000,0.000000,0.000000,TRUE,FALSE,FALSE,FALSE,FALSE,FALSE,Disabled,0.000000,0.000000,0.000000,TRUE,1.095123,-0.378204,0.000000,0.007553,0.054901,0.000000,0.073000,-0.022000,0.163000,-0.100000,-0.220000,1.230000,-0.548437,Hold,0.942871,0.000000,Hold,-204.000000,2.000000,Suck,315.307617,-2181.818182,Speed,314.208984,-2181.818182,Speed,On,Off0.000000,0,,,,
08:00:07.624 PM 03/17/2016,Teleop Enabled,10,FALSE,0,NO ERROR,-0.000000,0.000000,0.000000,0.000000,TRUE,FALSE,FALSE,FALSE,FALSE,FALSE,Disabled,0.000000,0.000000,0.000000,TRUE,1.094086,-0.378036,0.000000,-0.059921,-0.041473,0.000000,-0.101000,-0.075000,-0.001000,-0.100000,-0.170000,1.220000,-0.546950,Hold,0.942871,0.000000,Hold,-204.000000,2.000000,Suck,314.208984,-2181.818182,Speed,313.110352,-2181.818182,Speed,On,Off0.000000,0,,,,
08:00:07.725 PM 03/17/2016,Teleop Enabled,9,FALSE,0,NO ERROR,-0.000000,0.000000,0.000000,0.000000,TRUE,FALSE,FALSE,FALSE,FALSE,FALSE,Disabled,0.000000,0.000000,0.000000,TRUE,1.086868,-0.385300,0.000000,0.000000,-0.085068,0.000000,0.009000,-0.028000,0.002000,-0.100000,-0.170000,1.220000,-0.551405,Hold,0.942871,0.000000,Hold,-204.000000,2.000000,Suck,314.208984,-2181.818182,Speed,314.208984,-2181.818182,Speed,On,Off0.000000,0,,,,
08:00:07.825 PM 03/17/2016,Teleop Enabled,9,FALSE,0,NO ERROR,-0.000000,0.000000,0.000000,0.000000,TRUE,FALSE,FALSE,FALSE,FALSE,FALSE,Disabled,0.000000,0.000000,0.000000,TRUE,1.087524,-0.385391,0.000000,0.026459,-0.006165,0.000000,0.005000,0.007000,-0.064000,-0.100000,-0.210000,1.240000,-0.569523,Hold,0.942871,0.000000,Hold,-204.000000,2.000000,Suck,314.208984,-2181.818182,Speed,313.110352,-2181.818182,Speed,On,Off0.000000,0,,,,
08:00:07.926 PM 03/17/2016,Teleop Enabled,9,FALSE,0,NO ERROR,-0.000000,0.000000,0.000000,0.000000,TRUE,FALSE,FALSE,FALSE,FALSE,FALSE,Disabled,0.000000,0.000000,0.000000,TRUE,1.087524,-0.385391,0.000000,0.026459,-0.006165,0.000000,0.032000,0.023000,-0.057000,-0.100000,-0.210000,1.240000,-0.580002,Hold,0.942871,0.000000,Hold,-204.000000,2.000000,Suck,315.307617,-2181.818182,Speed,314.208984,-2181.818182,Speed,On,Off0.000000,0,,,,
08:00:08.026 PM 03/17/2016,Teleop Enabled,10,FALSE,0,NO ERROR,-0.000000,0.000000,0.000000,0.000000,TRUE,FALSE,FALSE,FALSE,FALSE,FALSE,Disabled,0.000000,0.000000,0.000000,TRUE,1.092239,-0.384018,0.000000,0.066971,0.049774,0.000000,0.065000,0.041000,-0.097000,-0.100000,-0.170000,1.230000,-0.571437,Hold,0.942871,0.000000,Hold,-204.000000,2.000000,Suck,315.307617,-2181.818182,Speed,314.208984,-2181.818182,Speed,On,Off0.000000,0,,,,
08:00:08.127 PM 03/17/2016,Teleop Enabled,10,FALSE,0,NO ERROR,-0.000000,0.000000,0.000000,0.000000,TRUE,FALSE,FALSE,FALSE,FALSE,FALSE,Disabled,0.000000,0.000000,0.000000,TRUE,1.097092,-0.379684,0.000000,0.122040,0.109299,0.000000,-0.001000,0.102000,-0.054000,-0.100000,-0.180000,1.230000,-0.559574,Hold,0.942871,0.000000,Hold,-204.000000,2.000000,Suck,315.307617,-2181.818182,Speed,313.110352,-2181.818182,Speed,On,Off0.000000,0,,,,
08:00:08.228 PM 03/17/2016,Teleop Enabled,10,FALSE,0,NO ERROR,-0.000000,0.000000,0.000000,0.000000,TRUE,FALSE,FALSE,FALSE,FALSE,FALSE,Disabled,0.000000,0.000000,0.000000,TRUE,1.107483,-0.370071,0.000000,0.183578,0.192261,0.000000,0.107000,0.090000,0.015000,-0.100000,-0.140000,1.230000,-0.567258,Hold,0.942871,0.000000,Hold,-204.000000,2.000000,Suck,315.307617,-2181.818182,Speed,314.208984,-2181.818182,Speed,On,Off0.000000,0,,,,
08:00:08.328 PM 03/17/2016,Teleop Enabled,10,FALSE,0,NO ERROR,-0.000000,0.000000,0.000000,0.000000,TRUE,FALSE,FALSE,FALSE,FALSE,FALSE,Disabled,0.000000,0.000000,0.000000,TRUE,1.113586,-0.361450,0.000000,0.132904,0.228470,0.000000,-0.045000,0.011000,0.016000,-0.100000,-0.140000,1.230000,-0.585211,Hold,0.942871,0.000000,Hold,-204.000000,2.000000,Suck,314.208984,-2181.818182,Speed,314.208984,-2181.818182,Speed,On,Off0.000000,0,,,,
08:00:08.428 PM 03/17/2016,Teleop Enabled,10,FALSE,0,NO ERROR,-0.000000,0.000000,0.000000,0.000000,TRUE,FALSE,FALSE,FALSE,FALSE,FALSE,Disabled,0.000000,0.000000,0.000000,TRUE,1.118652,-0.348831,0.000000,0.081589,0.259247,0.000000,-0.063000,0.022000,0.101000,-0.100000,-0.200000,1.250000,-0.597559,Hold,0.942871,0.000000,Hold,-204.000000,2.000000,Suck,314.208984,-2181.818182,Speed,314.208984,-2181.818182,Speed,On,Off0.000000,0,,,,
08:00:08.532 PM 03/17/2016,Teleop Enabled,11,FALSE,0,NO ERROR,-0.000000,0.000000,0.000000,0.000000,TRUE,FALSE,FALSE,FALSE,FALSE,FALSE,Disabled,0.000000,0.000000,0.000000,TRUE,1.123215,-0.336075,0.000000,0.104462,0.245377,0.000000,0.027000,0.017000,0.121000,-0.100000,-0.160000,1.250000,-0.598864,Hold,0.942871,0.000000,Hold,-204.000000,2.000000,Suck,315.307617,-2181.818182,Speed,313.110352,-2181.818182,Speed,On,Off0.000000,0,,,,
08:00:08.633 PM 03/17/2016,Teleop Enabled,11,FALSE,0,NO ERROR,-0.000000,0.000000,0.000000,0.000000,TRUE,FALSE,FALSE,FALSE,FALSE,FALSE,Disabled,0.000000,0.000000,0.000000,TRUE,1.129715,-0.325241,0.000000,0.140717,0.189682,0.000000,-0.011000,-0.065000,0.050000,-0.100000,-0.170000,1.260000,-0.608169,Hold,0.942871,0.000000,Hold,-204.000000,2.000000,Suck,315.307617,-2181.818182,Speed,314.208984,-2181.818182,Speed,On,Off0.000000,0,,,,
08:00:08.734 PM 03/17/2016,Teleop Enabled,12,FALSE,0,NO ERROR,-0.000000,0.000000,0.000000,0.000000,TRUE,FALSE,FALSE,FALSE,FALSE,FALSE,Disabled,0.000000,0.000000,0.000000,TRUE,1.136429,-0.316559,0.000000,0.074112,0.105972,0.000000,-0.011000,-0.065000,0.050000,-0.100000,-0.170000,1.260000,-0.613818,Hold,0.942871,0.000000,Hold,-204.000000,2.000000,Suck,314.208984,-2181.818182,Speed,314.208984,-2181.818182,Speed,On,Off0.000000,0,,,,
08:00:08.834 PM 03/17/2016,Teleop Enabled,8,FALSE,0,NO ERROR,-0.000000,0.000000,0.000000,0.000000,TRUE,FALSE,FALSE,FALSE,FALSE,FALSE,Disabled,0.000000,0.000000,0.000000,TRUE,1.138657,-0.312759,0.000000,0.030731,0.057800,0.000000,-0.034000,-0.021000,0.064000,-0.100000,-0.200000,1.240000,-0.607033,Hold,0.942871,0.000000,Hold,-204.000000,2.000000,Suck,315.307617,-2181.818182,Speed,314.208984,-2181.818182,Speed,On,Off0.000000,0,,,,
08:00:08.934 PM 03/17/2016,Teleop Enabled,11,FALSE,0,NO ERROR,-0.000000,0.000000,0.000000,0.000000,TRUE,FALSE,FALSE,FALSE,FALSE,FALSE,Disabled,0.000000,0.000000,0.000000,TRUE,1.140076,-0.311508,0.000000,0.011688,0.002106,0.000000,0.052000,-0.056000,0.031000,-0.100000,-0.210000,1.290000,-0.592419,Hold,0.942871,0.000000,Hold,-204.000000,2.000000,Suck,315.307617,-2181.818182,Speed,314.208984,-2181.818182,Speed,On,Off0.000000,0,,,,
08:00:09.035 PM 03/17/2016,Teleop Enabled,10,FALSE,0,NO ERROR,-0.000000,0.000000,0.000000,0.000000,TRUE,FALSE,FALSE,FALSE,FALSE,FALSE,Disabled,0.000000,0.000000,0.000000,TRUE,1.140076,-0.311508,0.000000,0.011688,0.002106,0.000000,0.112000,-0.037000,0.029000,-0.100000,-0.250000,1.230000,-0.596929,Hold,0.942871,0.000000,Hold,-204.000000,2.000000,Suck,314.208984,-2181.818182,Speed,314.208984,-2181.818182,Speed,On,Off0.000000,0,,,,
08:00:09.135 PM 03/17/2016,Teleop Enabled,11,FALSE,0,NO ERROR,-0.000000,0.000000,0.000000,0.000000,TRUE,FALSE,FALSE,FALSE,FALSE,FALSE,Disabled,0.000000,0.000000,0.000000,TRUE,1.147507,-0.314285,0.000000,0.084167,-0.013672,0.000000,0.058000,0.060000,-0.093000,-0.100000,-0.250000,1.230000,-0.599694,Hold,0.942871,0.000000,Hold,-204.000000,2.000000,Suck,314.208984,-2181.818182,Speed,315.307617,-2181.818182,Speed,On,Off0.000000,0,,,,
08:00:09.235 PM 03/17/2016,Teleop Enabled,11,FALSE,0,NO ERROR,-0.000000,0.000000,0.000000,0.000000,TRUE,FALSE,FALSE,FALSE,FALSE,FALSE,Disabled,0.000000,0.000000,0.000000,TRUE,1.150391,-0.313766,0.000000,0.034943,0.034760,0.000000,-0.026000,-0.004000,-0.176000,-0.100000,-0.190000,1.250000,-0.612376,Hold,0.942871,0.000000,Hold,-204.000000,2.000000,Suck,315.307617,-2181.818182,Speed,315.307617,-2181.818182,Speed,On,Off0.000000,0,,,,
08:00:09.335 PM 03/17/2016,Teleop Enabled,10,FALSE,0,NO ERROR,-0.000000,0.000000,0.000000,0.000000,TRUE,FALSE,FALSE,FALSE,FALSE,FALSE,Disabled,0.000000,0.000000,0.000000,TRUE,1.150467,-0.309875,0.000000,-0.002625,0.102997,0.000000,-0.018000,0.115000,-0.041000,-0.100000,-0.190000,1.250000,-0.603054,Hold,0.942871,0.000000,Hold,-204.000000,2.000000,Suck,315.307617,-2181.818182,Speed,313.110352,-2181.818182,Speed,On,Off0.000000,0,,,,
08:00:09.436 PM 03/17/2016,Teleop Enabled,10,FALSE,0,NO ERROR,-0.000000,0.000000,0.000000,0.000000,TRUE,FALSE,FALSE,FALSE,FALSE,FALSE,Disabled,0.000000,0.000000,0.000000,TRUE,1.152298,-0.303268,0.000000,0.062973,0.151657,0.000000,0.088000,0.013000,-0.053000,-0.100000,-0.240000,1.180000,-0.607009,Hold,0.942871,0.000000,Hold,-204.000000,2.000000,Suck,315.307617,-2181.818182,Speed,314.208984,-2181.818182,Speed,On,Off0.000000,0,,,,
08:00:09.536 PM 03/17/2016,Teleop Enabled,12,FALSE,0,NO ERROR,-0.000000,0.000000,0.000000,0.000000,TRUE,FALSE,FALSE,FALSE,FALSE,FALSE,Disabled,0.000000,0.000000,0.000000,TRUE,1.152298,-0.303268,0.000000,0.062973,0.151657,0.000000,0.077000,0.067000,0.034000,-0.100000,-0.240000,1.180000,-0.595896,Hold,0.942871,0.000000,Hold,-204.000000,2.000000,Suck,315.307617,-2181.818182,Speed,314.208984,-2181.818182,Speed,On,Off0.000000,0,,,,
08:00:09.636 PM 03/17/2016,Teleop Enabled,10,FALSE,0,NO ERROR,-0.000000,0.000000,0.000000,0.000000,TRUE,FALSE,FALSE,FALSE,FALSE,FALSE,Disabled,0.000000,0.000000,0.000000,TRUE,1.158463,-0.291840,0.000000,0.099991,0.215973,0.000000,-0.082000,0.057000,0.063000,-0.100000,-0.180000,1.190000,-0.575912,Hold,0.942871,0.000000,Hold,-204.000000,2.000000,Suck,315.307617,-2181.818182,Speed,314.208984,-2181.818182,Speed,On,Off0.000000,0,,,,
08:00:09.737 PM 03/17/2016,Teleop Enabled,11,FALSE,0,NO ERROR,-0.000000,0.000000,0.000000,0.000000,TRUE,FALSE,FALSE,FALSE,FALSE,FALSE,Disabled,0.000000,0.000000,0.000000,TRUE,1.161530,-0.281982,0.000000,0.063553,0.260330,0.000000,-0.039000,0.066000,0.068000,-0.100000,-0.250000,1.230000,-0.603305,Hold,0.942871,0.000000,Hold,-204.000000,2.000000,Suck,315.307617,-2181.818182,Speed,314.208984,-2181.818182,Speed,On,Off0.000000,0,,,,
08:00:09.837 PM 03/17/2016,Teleop Enabled,9,FALSE,0,NO ERROR,-0.000000,0.000000,0.000000,0.000000,TRUE,FALSE,FALSE,FALSE,FALSE,FALSE,Disabled,0.000000,0.000000,0.000000,TRUE,1.163666,-0.264877,0.000000,0.030365,0.300156,0.000000,0.068000,-0.011000,0.014000,-0.100000,-0.250000,1.230000,-0.603305,Hold,0.942871,0.000000,Hold,-204.000000,2.000000,Suck,316.406250,-2181.818182,Speed,314.208984,-2181.818182,Speed,On,Off0.000000,0,,,,
08:00:09.938 PM 03/17/2016,Teleop Enabled,10,FALSE,0,NO ERROR,-0.000000,0.000000,0.000000,0.000000,TRUE,FALSE,FALSE,FALSE,FALSE,FALSE,Disabled,0.000000,0.000000,0.000000,TRUE,1.166260,-0.262344,0.000000,0.064590,-0.020615,0.000000,0.002000,-0.045000,0.102000,-0.100000,-0.210000,1.260000,-0.609746,Hold,0.942871,0.000000,Hold,-204.000000,2.000000,Suck,315.307617,-2181.818182,Speed,314.208984,-2181.818182,Speed,On,Off0.000000,0,,,,
08:00:10.039 PM 03/17/2016,Teleop Enabled,11,FALSE,0,NO ERROR,-0.000000,0.000000,0.000000,0.000000,TRUE,FALSE,FALSE,FALSE,FALSE,FALSE,Disabled,0.000000,0.000000,0.000000,TRUE,1.165436,-0.264938,0.000000,-0.036118,-0.077286,0.000000,-0.100000,-0.048000,0.071000,-0.100000,-0.230000,1.250000,-0.615874,Hold,0.942871,0.000000,Hold,-204.000000,2.000000,Suck,315.307617,-2181.818182,Speed,313.110352,-2181.818182,Speed,On,Off0.000000,0,,,,
08:00:10.141 PM 03/17/2016,Teleop Enabled,9,FALSE,0,NO ERROR,-0.000000,0.000000,0.000000,0.000000,TRUE,FALSE,FALSE,FALSE,FALSE,FALSE,Disabled,0.000000,0.000000,0.000000,TRUE,1.162384,-0.270676,0.000000,-0.071884,-0.137543,0.000000,0.012000,-0.066000,0.010000,-0.100000,-0.230000,1.260000,-0.623392,Hold,0.942871,0.000000,Hold,-204.000000,2.000000,Suck,315.307617,-2181.818182,Speed,314.208984,-2181.818182,Speed,On,Off0.000000,0,,,,
08:00:10.242 PM 03/17/2016,Teleop Enabled,10,FALSE,0,NO ERROR,-0.000000,0.000000,0.000000,0.000000,TRUE,FALSE,FALSE,FALSE,FALSE,FALSE,Disabled,0.000000,0.000000,0.000000,TRUE,1.162506,-0.279099,0.000000,0.014374,-0.195007,0.000000,0.037000,-0.090000,0.104000,-0.100000,-0.210000,1.320000,-0.613567,Hold,0.942871,0.000000,Hold,-204.000000,2.000000,Suck,316.406250,-2181.818182,Speed,314.208984,-2181.818182,Speed,On,Off0.000000,0,,,,
08:00:10.344 PM 03/17/2016,Teleop Enabled,11,FALSE,0,NO ERROR,-0.000000,0.000000,0.000000,0.000000,TRUE,FALSE,FALSE,FALSE,FALSE,FALSE,Disabled,0.000000,0.000000,0.000000,TRUE,1.164703,-0.291168,0.000000,0.065659,-0.268677,0.000000,0.049000,-0.049000,0.056000,-0.100000,-0.240000,1.310000,-0.607264,Hold,0.942871,0.000000,Hold,-204.000000,2.000000,Suck,315.307617,-2181.818182,Speed,314.208984,-2181.818182,Speed,On,Off0.000000,0,,,,
08:00:10.445 PM 03/17/2016,Teleop Enabled,9,FALSE,0,NO ERROR,-0.000000,0.000000,0.000000,0.000000,TRUE,FALSE,FALSE,FALSE,FALSE,FALSE,Disabled,0.000000,0.000000,0.000000,TRUE,1.168671,-0.296997,0.000000,0.086990,-0.004623,0.000000,-0.010000,0.028000,-0.082000,-0.100000,-0.230000,1.270000,-0.623719,Hold,0.942871,0.000000,Hold,-204.000000,2.000000,Suck,315.307617,-2181.818182,Speed,314.208984,-2181.818182,Speed,On,Off0.000000,0,,,,
08:00:10.545 PM 03/17/2016,Teleop Enabled,9,FALSE,0,NO ERROR,-0.000000,0.000000,0.000000,0.000000,TRUE,FALSE,FALSE,FALSE,FALSE,FALSE,Disabled,0.000000,0.000000,0.000000,TRUE,1.171875,-0.296478,0.000000,0.037582,0.022751,0.000000,0.014000,0.087000,-0.043000,-0.100000,-0.180000,1.300000,-0.643665,Hold,0.942871,0.000000,Hold,-204.000000,2.000000,Suck,315.307617,-2181.818182,Speed,314.208984,-2181.818182,Speed,On,Off0.000000,0,,,,
08:00:10.645 PM 03/17/2016,Teleop Enabled,10,FALSE,0,NO ERROR,-0.000000,0.000000,0.000000,0.000000,TRUE,FALSE,FALSE,FALSE,FALSE,FALSE,Disabled,0.000000,0.000000,0.000000,TRUE,1.172195,-0.293442,0.000000,0.000763,0.083282,0.000000,-0.017000,0.085000,0.017000,-0.100000,-0.190000,1.340000,-0.641287,Hold,0.942871,0.000000,Hold,-204.000000,2.000000,Suck,315.307617,-2181.818182,Speed,314.208984,-2181.818182,Speed,On,Off0.000000,0,,,,
08:00:10.746 PM 03/17/2016,Teleop Enabled,10,FALSE,0,NO ERROR,-0.000000,0.000000,0.000000,0.000000,TRUE,FALSE,FALSE,FALSE,FALSE,FALSE,Disabled,0.000000,0.000000,0.000000,TRUE,1.173325,-0.287704,0.000000,0.046402,0.133072,0.000000,0.033000,0.029000,0.001000,-0.100000,-0.210000,1.290000,-0.629183,Hold,0.942871,0.000000,Hold,-204.000000,2.000000,Suck,315.307617,-2181.818182,Speed,314.208984,-2181.818182,Speed,On,Off0.000000,0,,,,
08:00:10.846 PM 03/17/2016,Teleop Enabled,9,FALSE,0,NO ERROR,-0.000000,0.000000,0.000000,0.000000,TRUE,FALSE,FALSE,FALSE,FALSE,FALSE,Disabled,0.000000,0.000000,0.000000,TRUE,1.177216,-0.279373,0.000000,0.096039,0.192337,0.000000,-0.003000,0.050000,0.057000,-0.100000,-0.180000,1.260000,-0.636973,Hold,0.942871,0.000000,Hold,-204.000000,2.000000,Suck,314.208984,-2181.818182,Speed,314.208984,-2181.818182,Speed,On,Off0.000000,0,,,,
08:00:10.946 PM 03/17/2016,Teleop Enabled,9,FALSE,0,NO ERROR,-0.000000,0.000000,0.000000,0.000000,TRUE,FALSE,FALSE,FALSE,FALSE,FALSE,Disabled,0.000000,0.000000,0.000000,TRUE,1.176346,-0.268036,0.000000,-0.044525,0.253738,0.000000,-0.115000,0.024000,0.030000,-0.100000,-0.180000,1.280000,-0.646492,Hold,0.942871,0.000000,Hold,-204.000000,2.000000,Suck,314.208984,-2181.818182,Speed,314.208984,-2181.818182,Speed,On,Off0.000000,0,,,,
08:00:11.046 PM 03/17/2016,Teleop Enabled,11,FALSE,0,NO ERROR,-0.000000,0.000000,0.000000,0.000000,TRUE,FALSE,FALSE,FALSE,FALSE,FALSE,Disabled,0.000000,0.000000,0.000000,TRUE,1.170105,-0.250732,0.000000,-0.131882,0.307129,0.000000,-0.047000,0.059000,0.054000,-0.100000,-0.240000,1.280000,-0.633548,Hold,0.942871,0.000000,Hold,-204.000000,2.000000,Suck,316.406250,-2181.818182,Speed,314.208984,-2181.818182,Speed,On,Off0.000000,0,,,,
08:00:11.147 PM 03/17/2016,Teleop Enabled,10,FALSE,0,NO ERROR,-0.000000,0.000000,0.000000,0.000000,TRUE,FALSE,FALSE,FALSE,FALSE,FALSE,Disabled,0.000000,0.000000,0.000000,TRUE,1.162994,-0.234589,0.000000,-0.139938,0.331467,0.000000,-0.043000,-0.014000,0.092000,-0.100000,-0.240000,1.290000,-0.645886,Hold,0.942871,0.000000,Hold,-204.000000,2.000000,Suck,316.406250,-2181.818182,Speed,315.307617,-2181.818182,Speed,On,Off0.000000,0,,,,
08:00:11.248 PM 03/17/2016,Teleop Enabled,11,FALSE,0,NO ERROR,-0.000000,0.000000,0.000000,0.000000,TRUE,FALSE,FALSE,FALSE,FALSE,FALSE,Disabled,0.000000,0.000000,0.000000,TRUE,1.157288,-0.218872,0.000000,-0.097931,0.293137,0.000000,0.009000,-0.068000,0.030000,-0.100000,-0.190000,1.300000,-0.652275,Hold,0.942871,0.000000,Hold,-204.000000,2.000000,Suck,315.307617,-2181.818182,Speed,315.307617,-2181.818182,Speed,On,Off0.000000,0,,,,
08:00:11.348 PM 03/17/2016,Teleop Enabled,9,FALSE,0,NO ERROR,-0.000000,0.000000,0.000000,0.000000,TRUE,FALSE,FALSE,FALSE,FALSE,FALSE,Disabled,0.000000,0.000000,0.000000,TRUE,1.153305,-0.206406,0.000000,-0.090530,0.219284,0.000000,-0.069000,-0.103000,-0.004000,-0.100000,-0.220000,1.290000,-0.633909,Hold,0.942871,0.000000,Hold,-204.000000,2.000000,Suck,316.406250,-2181.818182,Speed,314.208984,-2181.818182,Speed,On,Off0.000000,0,,,,
08:00:11.448 PM 03/17/2016,Teleop Enabled,10,FALSE,0,NO ERROR,-0.000000,0.000000,0.000000,0.000000,TRUE,FALSE,FALSE,FALSE,FALSE,FALSE,Disabled,0.000000,0.000000,0.000000,TRUE,1.146530,-0.197968,0.000000,-0.168396,0.140671,0.000000,0.007000,-0.068000,0.041000,-0.100000,-0.240000,1.260000,-0.619750,Hold,0.942871,0.000000,Hold,-204.000000,2.000000,Suck,316.406250,-2181.818182,Speed,314.208984,-2181.818182,Speed,On,Off0.000000,0,,,,
08:00:11.548 PM 03/17/2016,Teleop Enabled,11,FALSE,0,NO ERROR,-0.000000,0.000000,0.000000,0.000000,TRUE,FALSE,FALSE,FALSE,FALSE,FALSE,Disabled,0.000000,0.000000,0.000000,TRUE,1.137985,-0.191986,0.000000,-0.169617,0.117493,0.000000,0.035000,-0.016000,-0.006000,-0.100000,-0.160000,1.320000,-0.624243,Hold,0.942871,0.000000,Hold,-204.000000,2.000000,Suck,315.307617,-2181.818182,Speed,314.208984,-2181.818182,Speed,On,Off0.000000,0,,,,
08:00:11.649 PM 03/17/2016,Teleop Enabled,10,FALSE,0,NO ERROR,-0.000000,0.000000,0.000000,0.000000,TRUE,FALSE,FALSE,FALSE,FALSE,FALSE,Disabled,0.000000,0.000000,0.000000,TRUE,1.130188,-0.186890,0.000000,-0.127518,0.084274,0.000000,0.036000,-0.032000,-0.066000,-0.100000,-0.210000,1.320000,-0.638292,Hold,0.942871,0.000000,Hold,-204.000000,2.000000,Suck,315.307617,-2181.818182,Speed,314.208984,-2181.818182,Speed,On,Off0.000000,0,,,,
08:00:11.750 PM 03/17/2016,Teleop Enabled,10,FALSE,0,NO ERROR,-0.000000,0.000000,0.000000,0.000000,TRUE,FALSE,FALSE,FALSE,FALSE,FALSE,Disabled,0.000000,0.000000,0.000000,TRUE,1.125824,-0.183365,0.000000,-0.063766,0.063599,0.000000,0.011000,-0.008000,-0.080000,-0.100000,-0.200000,1.260000,-0.645487,Hold,0.942871,0.000000,Hold,-204.000000,2.000000,Suck,315.307617,-2181.818182,Speed,314.208984,-2181.818182,Speed,On,Off0.000000,0,,,,
08:00:11.850 PM 03/17/2016,Teleop Enabled,9,FALSE,0,NO ERROR,-0.000000,0.000000,0.000000,0.000000,TRUE,FALSE,FALSE,FALSE,FALSE,FALSE,Disabled,0.000000,0.000000,0.000000,TRUE,1.125732,-0.182678,0.000000,-0.003815,0.005173,0.000000,-0.040000,0.064000,-0.018000,-0.100000,-0.140000,1.260000,-0.658665,Hold,0.942871,0.000000,Hold,-204.000000,2.000000,Suck,315.307617,-2181.818182,Speed,315.307617,-2181.818182,Speed,On,Off0.000000,0,,,,
