Time,Robot Mode,Loop Time,Error Status,Error Code,Error Source,Left Motor Output,Left Motor Encoder,Right Motor Output,Right Motor Encoder,Is Level,Is Stalled,Ball Detector Photoeye,Vision Enabled,Vision Teleop Control,Vision Auto Control,Vision Current State,Vision X Output,Vision NavX Error,Vision NavX Target,NavX Connection Status,NavX Displacement X,NavX Displacement Y,NavX Displacement Z,NavX Velocity X,NavX Velocity Y,NavX Velocity Z,NavX Acceleration X,NavX Acceleration Y,NavX Acceleration Z,NavX Pitch,NavX Yaw,NavX Roll,Gyro Angle,Roller Arm State,Roller Arm Actual,Roller Arm Desired,Shooter Arm State,Shooter Arm Actual,Shooter Arm Desired,Shooter State,Actual RPM Left,Desired RPM Left,Control Mode Left,Actual RPM Right,Desired RPM Right,Scaler Motor Output,Auto To Run,Auto Current File,Auto File Status,Auto Current Command,Auto Trimmed Command
08:28:29.275 PM 03/17/2016,Teleop Enabled,11,FALSE,0,NO ERROR,-0.000000,0.000000,0.000000,0.000000,TRUE,FALSE,FALSE,FALSE,FALSE,FALSE,Disabled,0.000000,0.000000,0.000000,TRUE,-1.473419,-5.797195,0.000000,0.000000,0.000000,0.000000,0.002000,0.000000,0.012000,-0.080000,-0.410000,1.090000,0.802825,ResetBack,0.939941,-0.200000,ResetBack,-26180.000000,-0.300000,Suck,0.000000,2181.818182,Speed,-1.098633,2181.818182,Speed,On,Off0.000000,0,,,,
08:28:29.378 PM 03/17/2016,Teleop Enabled,10,FALSE,0,NO ERROR,-0.000000,0.000000,0.000000,-0.282333,TRUE,FALSE,FALSE,FALSE,FALSE,FALSE,Disabled,0.000000,0.000000,0.000000,TRUE,-1.473892,-5.797195,0.000000,-0.021805,0.000000,0.000000,-0.023000,0.010000,-0.051000,-0.070000,-0.390000,1.070000,0.780548,ResetBack,0.812988,-0.200000,ResetBack,-19478.000000,-0.300000,Suck,-46.142578,2181.818182,Speed,-72.509766,2181.818182,Speed,On,Off0.000000,0,,,,
08:28:29.481 PM 03/17/2016,Teleop Enabled,9,FALSE,0,NO ERROR,-0.000000,0.000000,0.000000,-0.417082,TRUE,FALSE,FALSE,FALSE,FALSE,FALSE,Disabled,0.000000,0.000000,0.000000,TRUE,-1.475021,-5.796982,0.000000,-0.023895,0.002045,0.000000,0.010000,-0.001000,0.003000,-0.070000,-0.410000,1.110000,0.787210,ResetBack,0.260742,-0.200000,ResetBack,-11234.000000,-0.300000,Suck,-157.104492,2181.818182,Speed,-184.570312,2181.818182,Speed,On,Off0.000000,0,,,,
08:28:29.581 PM 03/17/2016,Teleop Enabled,10,FALSE,0,NO ERROR,-0.000000,0.000000,0.000000,-0.410666,TRUE,FALSE,FALSE,FALSE,FALSE,FALSE,Disabled,0.000000,0.000000,0.000000,TRUE,-1.475021,-5.796738,0.000000,0.003784,0.000000,0.000000,0.040000,-0.029000,0.253000,-0.080000,-0.360000,1.120000,0.798508,Reset,0.260254,-0.200000,ResetBack,-11234.000000,-0.300000,Suck,-234.008789,2181.818182,Speed,-275.756836,2181.818182,Speed,On,Off0.000000,0,,,,
08:28:29.680 PM 03/17/2016,Teleop Enabled,9,FALSE,0,NO ERROR,-0.000000,0.000000,0.000000,-0.410666,TRUE,FALSE,FALSE,FALSE,FALSE,FALSE,Disabled,0.000000,0.000000,0.000000,TRUE,-1.473846,-5.797562,0.000000,0.035828,-0.026794,0.000000,0.044000,-0.005000,-0.025000,-0.080000,-0.400000,1.100000,0.799272,Hold,0.260254,0.000000,ResetBack,-11234.000000,-0.300000,Suck,-312.011719,2181.818182,Speed,-331.787109,2181.818182,Speed,On,Off0.000000,0,,,,
08:28:29.784 PM 03/17/2016,Teleop Enabled,13,FALSE,0,NO ERROR,-0.000000,0.000000,0.000000,-0.410666,TRUE,FALSE,FALSE,FALSE,FALSE,FALSE,Disabled,0.000000,0.000000,0.000000,TRUE,-1.471832,-5.802994,0.000000,0.047318,-0.138321,0.000000,0.044000,-0.002000,-0.001000,-0.090000,-0.380000,1.090000,0.796897,Hold,0.886719,0.000000,ResetBack,-1498.000000,-0.300000,Suck,-331.787109,2181.818182,Speed,-327.392578,2181.818182,Speed,On,Off0.000000,0,,,,
08:28:29.884 PM 03/17/2016,Teleop Enabled,10,FALSE,0,NO ERROR,-0.000000,0.000000,0.000000,-0.410666,TRUE,FALSE,FALSE,FALSE,FALSE,FALSE,Disabled,0.000000,0.000000,0.000000,TRUE,-1.468018,-5.803574,0.000000,0.094604,-0.021927,0.000000,0.115000,0.038000,0.137000,-0.080000,-0.370000,1.120000,0.802385,Hold,0.930176,0.000000,ResetBack,-1498.000000,-0.300000,Suck,-313.110352,2181.818182,Speed,-309.814453,2181.818182,Speed,On,Off0.000000,0,,,,
08:28:29.984 PM 03/17/2016,Teleop Enabled,11,FALSE,0,NO ERROR,-0.000000,0.000000,0.000000,-0.410666,TRUE,FALSE,FALSE,FALSE,FALSE,FALSE,Disabled,0.000000,0.000000,0.000000,TRUE,-1.461487,-5.804733,0.000000,0.144318,-0.042007,0.000000,-0.002000,-0.106000,-0.034000,-0.080000,-0.350000,1.120000,0.810030,Hold,0.930176,0.000000,ResetBack,-356.000000,-0.300000,Suck,-304.321289,2181.818182,Speed,-308.715820,2181.818182,Speed,On,Off0.000000,0,,,,
08:28:30.085 PM 03/17/2016,Teleop Enabled,10,FALSE,0,NO ERROR,-0.000000,0.000000,0.000000,-0.404249,TRUE,FALSE,FALSE,FALSE,FALSE,FALSE,Disabled,0.000000,0.000000,0.000000,TRUE,-1.453125,-5.808228,0.000000,0.198257,-0.066422,0.000000,0.080000,-0.012000,-0.105000,-0.090000,-0.360000,1.090000,0.828737,Hold,0.930176,0.000000,ResetBack,-354.000000,-0.300000,Suck,-313.110352,2181.818182,Speed,-314.208984,2181.818182,Speed,On,Off0.000000,0,,,,
08:28:30.186 PM 03/17/2016,Teleop Enabled,9,FALSE,0,NO ERROR,-0.000000,0.000000,0.000000,-0.404249,TRUE,FALSE,FALSE,FALSE,FALSE,FALSE,Disabled,0.000000,0.000000,0.000000,TRUE,-1.442230,-5.811066,0.000000,0.207489,-0.046341,0.000000,-0.063000,0.031000,-0.050000,-0.090000,-0.390000,1.120000,0.831922,Hold,0.930176,0.000000,ResetBack,-354.000000,-0.300000,Suck,-315.307617,2181.818182,Speed,-313.110352,2181.818182,Speed,On,Off0.000000,0,,,,
08:28:30.287 PM 03/17/2016,Teleop Enabled,11,FALSE,0,NO ERROR,-0.000000,0.000000,0.000000,-0.404249,TRUE,FALSE,FALSE,FALSE,FALSE,FALSE,Disabled,0.000000,0.000000,0.000000,TRUE,-1.434143,-5.812485,0.000000,0.124786,0.000000,0.000000,-0.084000,-0.019000,-0.049000,-0.090000,-0.350000,1.110000,0.815749,Hold,0.930176,0.000000,ResetBack,-353.000000,-0.300000,Suck,-312.011719,2181.818182,Speed,-313.110352,2181.818182,Speed,On,Off0.000000,0,,,,
08:28:30.388 PM 03/17/2016,Teleop Enabled,10,FALSE,0,NO ERROR,-0.000000,0.000000,0.000000,-0.404249,TRUE,FALSE,FALSE,FALSE,FALSE,FALSE,Disabled,0.000000,0.000000,0.000000,TRUE,-1.429688,-5.812378,0.000000,0.082397,0.004547,0.000000,0.034000,0.059000,-0.049000,-0.090000,-0.400000,1.100000,0.810234,Hold,0.930176,0.000000,ResetBack,-352.000000,-0.300000,Suck,-310.913086,2181.818182,Speed,-312.011719,2181.818182,Speed,On,Off0.000000,0,,,,
08:28:30.490 PM 03/17/2016,Teleop Enabled,11,FALSE,0,NO ERROR,-0.000000,0.000000,0.000000,-0.404249,TRUE,FALSE,FALSE,FALSE,FALSE,FALSE,Disabled,0.000000,0.000000,0.000000,TRUE,-1.424103,-5.810135,0.000000,0.119370,0.080841,0.000000,-0.069000,0.059000,0.023000,-0.090000,-0.370000,1.100000,0.812227,Hold,0.930176,0.000000,Reset,-352.000000,2.000000,Suck,-312.011719,2181.818182,Speed,-312.011719,2181.818182,Speed,On,Off0.000000,0,,,,
08:28:30.591 PM 03/17/2016,Teleop Enabled,10,FALSE,0,NO ERROR,-0.000000,0.000000,0.000000,-0.404249,TRUE,FALSE,FALSE,FALSE,FALSE,FALSE,Disabled,0.000000,0.000000,0.000000,TRUE,-1.420853,-5.805756,0.000000,0.017990,0.000000,0.000000,-0.114000,0.026000,0.101000,-0.090000,-0.390000,1.090000,0.832290,Hold,0.930176,0.000000,Hold,-351.000000,2.000000,Suck,-312.011719,2181.818182,Speed,-312.011719,2181.818182,Speed,On,Off0.000000,0,,,,
08:28:30.691 PM 03/17/2016,Teleop Enabled,9,FALSE,0,NO ERROR,-0.000000,0.000000,0.000000,-0.404249,TRUE,FALSE,FALSE,FALSE,FALSE,FALSE,Disabled,0.000000,0.000000,0.000000,TRUE,-1.421875,-5.805679,0.000000,-0.013458,-0.001373,0.000000,0.114000,0.003000,0.089000,-0.090000,-0.440000,1.110000,0.847978,Hold,0.930176,0.000000,Hold,-178.000000,2.000000,Suck,-312.011719,2181.818182,Speed,-314.208984,2181.818182,Speed,On,Off0.000000,0,,,,
08:28:30.793 PM 03/17/2016,Teleop Enabled,9,FALSE,0,NO ERROR,-0.000000,0.000000,0.000000,-0.404249,TRUE,FALSE,FALSE,FALSE,FALSE,FALSE,Disabled,0.000000,0.000000,0.000000,TRUE,-1.418808,-5.806061,0.000000,0.112030,-0.014847,0.000000,0.120000,-0.008000,-0.011000,-0.090000,-0.410000,1.100000,0.859545,Hold,0.930176,0.000000,Hold,-188.000000,2.000000,Suck,-312.011719,2181.818182,Speed,-313.110352,2181.818182,Speed,On,Off0.000000,0,,,,
08:28:30.893 PM 03/17/2016,Teleop Enabled,9,FALSE,0,NO ERROR,-0.000000,0.000000,0.000000,-0.404249,TRUE,FALSE,FALSE,FALSE,FALSE,FALSE,Disabled,0.000000,0.000000,0.000000,TRUE,-1.411850,-5.806549,0.000000,0.121017,-0.006470,0.000000,-0.106000,-0.054000,-0.126000,-0.090000,-0.430000,1.110000,0.861628,Hold,0.930176,0.000000,Hold,-188.000000,2.000000,Suck,-313.110352,2181.818182,Speed,-313.110352,2181.818182,Speed,On,Off0.000000,0,,,,
08:28:30.993 PM 03/17/2016,Teleop Enabled,7,FALSE,0,NO ERROR,-0.000000,0.000000,0.000000,-0.404249,TRUE,FALSE,FALSE,FALSE,FALSE,FALSE,Disabled,0.000000,0.000000,0.000000,TRUE,-1.406479,-5.810425,0.000000,0.104248,-0.108200,0.000000,0.069000,-0.063000,-0.090000,-0.090000,-0.430000,1.120000,0.873047,Hold,0.930176,0.000000,Hold,-188.000000,2.000000,Suck,-312.011719,2181.818182,Speed,-313.110352,2181.818182,Speed,On,Off0.000000,0,,,,
08:28:31.093 PM 03/17/2016,Teleop Enabled,11,FALSE,0,NO ERROR,-0.000000,0.000000,0.000000,-0.404249,TRUE,FALSE,FALSE,FALSE,FALSE,FALSE,Disabled,0.000000,0.000000,0.000000,TRUE,-1.399170,-5.818405,0.000000,0.173233,-0.185913,0.000000,0.026000,0.024000,-0.116000,-0.090000,-0.410000,1.100000,0.875801,Hold,0.930176,0.000000,Hold,-188.000000,2.000000,Suck,-312.011719,2181.818182,Speed,-313.110352,2181.818182,Speed,On,Off0.000000,0,,,,
08:28:31.194 PM 03/17/2016,Teleop Enabled,11,FALSE,0,NO ERROR,-0.000000,0.000000,0.000000,-0.404249,TRUE,FALSE,FALSE,FALSE,FALSE,FALSE,Disabled,0.000000,0.000000,0.000000,TRUE,-1.390640,-5.823959,0.000000,0.148666,0.000000,0.000000,-0.121000,-0.007000,-0.015000,-0.090000,-0.410000,1.110000,0.893657,Hold,0.930176,0.000000,Hold,-188.000000,2.000000,Suck,-312.011719,2181.818182,Speed,-313.110352,2181.818182,Speed,On,Off0.000000,0,,,,
08:28:31.294 PM 03/17/2016,Teleop Enabled,11,FALSE,0,NO ERROR,-0.000000,0.000000,0.000000,-0.404249,TRUE,FALSE,FALSE,FALSE,FALSE,FALSE,Disabled,0.000000,0.000000,0.000000,TRUE,-1.385849,-5.824066,0.000000,0.065384,-0.005310,0.000000,-0.056000,-0.011000,-0.084000,-0.080000,-0.380000,1.100000,0.900253,Hold,0.930176,0.000000,Hold,-188.000000,2.000000,Suck,-313.110352,2181.818182,Speed,-313.110352,2181.818182,Speed,On,Off0.000000,0,,,,
08:28:31.394 PM 03/17/2016,Teleop Enabled,10,FALSE,0,NO ERROR,-0.000000,0.000000,0.000000,-0.404249,TRUE,FALSE,FALSE,FALSE,FALSE,FALSE,Disabled,0.000000,0.000000,0.000000,TRUE,-1.382492,-5.824188,0.000000,0.064713,0.002151,0.000000,-0.044000,0.053000,-0.029000,-0.090000,-0.370000,1.090000,0.901489,Hold,0.930176,0.000000,Hold,-188.000000,2.000000,Suck,-312.011719,2181.818182,Speed,-314.208984,2181.818182,Speed,On,Off0.000000,0,,,,
08:28:31.494 PM 03/17/2016,Teleop Enabled,10,FALSE,0,NO ERROR,-0.000000,0.000000,0.000000,-0.404249,TRUE,FALSE,FALSE,FALSE,FALSE,FALSE,Disabled,0.000000,0.000000,0.000000,TRUE,-1.380234,-5.823288,0.000000,0.045685,0.033524,0.000000,-0.072000,0.043000,0.016000,-0.080000,-0.330000,1.130000,0.910457,Hold,0.930176,0.000000,Hold,-188.000000,2.000000,Suck,-313.110352,2181.818182,Speed,-313.110352,2181.818182,Speed,On,Off0.000000,0,,,,
08:28:31.594 PM 03/17/2016,Teleop Enabled,10,FALSE,0,NO ERROR,-0.000000,0.000000,0.000000,-0.404249,TRUE,FALSE,FALSE,FALSE,FALSE,FALSE,Disabled,0.000000,0.000000,0.000000,TRUE,-1.381180,-5.818436,0.000000,-0.066528,0.089142,0.000000,-0.075000,0.049000,0.093000,-0.080000,-0.320000,1.130000,0.901551,Hold,0.930176,0.000000,Hold,-188.000000,2.000000,Suck,-313.110352,2181.818182,Speed,-313.110352,2181.818182,Speed,On,Off0.000000,0,,,,
08:28:31.694 PM 03/17/2016,Teleop Enabled,10,FALSE,0,NO ERROR,-0.000000,0.000000,0.000000,-0.404249,TRUE,FALSE,FALSE,FALSE,FALSE,FALSE,Disabled,0.000000,0.000000,0.000000,TRUE,-1.383499,-5.815506,0.000000,-0.079971,0.101868,0.000000,0.055000,0.038000,0.007000,-0.070000,-0.330000,1.180000,0.923642,Hold,0.930176,0.000000,Hold,-188.000000,2.000000,Suck,-313.110352,2181.818182,Speed,-313.110352,2181.818182,Speed,On,Off0.000000,0,,,,
08:28:31.795 PM 03/17/2016,Teleop Enabled,9,FALSE,0,NO ERROR,-0.000000,0.000000,0.000000,-0.404249,TRUE,FALSE,FALSE,FALSE,FALSE,FALSE,Disabled,0.000000,0.000000,0.000000,TRUE,-1.386963,-5.811218,0.000000,-0.062576,0.000000,0.000000,-0.004000,0.018000,-0.064000,-0.070000,-0.330000,1.250000,0.928410,Hold,0.930176,0.000000,Hold,-188.000000,2.000000,Suck,-313.110352,2181.818182,Speed,-313.110352,2181.818182,Speed,On,Off0.000000,0,,,,
08:28:31.895 PM 03/17/2016,Teleop Enabled,9,FALSE,0,NO ERROR,-0.000000,0.000000,0.000000,-0.404249,TRUE,FALSE,FALSE,FALSE,FALSE,FALSE,Disabled,0.000000,0.000000,0.000000,TRUE,-1.389801,-5.811310,0.000000,-0.042084,-0.001846,0.000000,0.125000,0.000000,-0.086000,-0.070000,-0.350000,1.130000,0.924031,Hold,0.930176,0.000000,Hold,-188.000000,2.000000,Suck,-313.110352,2181.818182,Speed,-314.208984,2181.818182,Speed,On,Off0.000000,0,,,,
08:28:31.995 PM 03/17/2016,Teleop Enabled,10,FALSE,0,NO ERROR,-0.000000,0.000000,0.000000,-0.404249,TRUE,FALSE,FALSE,FALSE,FALSE,FALSE,Disabled,0.000000,0.000000,0.000000,TRUE,-1.390839,-5.812943,0.000000,-0.011932,-0.048492,0.000000,0.034000,-0.034000,-0.088000,-0.060000,-0.360000,1.150000,0.947716,Hold,0.930176,0.000000,Hold,-188.000000,2.000000,Suck,-312.011719,2181.818182,Speed,-314.208984,2181.818182,Speed,On,Off0.000000,0,,,,
08:28:32.097 PM 03/17/2016,Teleop Enabled,9,FALSE,0,NO ERROR,-0.000000,0.000000,0.000000,-0.404249,TRUE,FALSE,FALSE,FALSE,FALSE,FALSE,Disabled,0.000000,0.000000,0.000000,TRUE,-1.391464,-5.815826,0.000000,-0.026001,-0.091812,0.000000,-0.048000,-0.090000,-0.020000,-0.060000,-0.360000,1.220000,0.961355,Hold,0.930176,0.000000,Hold,-188.000000,2.000000,Suck,-313.110352,2181.818182,Speed,-313.110352,2181.818182,Speed,On,Off0.000000,0,,,,
08:28:32.197 PM 03/17/2016,Teleop Enabled,10,FALSE,0,NO ERROR,-0.000000,0.000000,0.000000,-0.404249,TRUE,FALSE,FALSE,FALSE,FALSE,FALSE,Disabled,0.000000,0.000000,0.000000,TRUE,-1.393982,-5.822021,0.000000,-0.055664,-0.147751,0.000000,0.057000,-0.041000,-0.026000,-0.050000,-0.310000,1.200000,0.974285,Hold,0.930176,0.000000,Hold,-188.000000,2.000000,Suck,-313.110352,2181.818182,Speed,-313.110352,2181.818182,Speed,On,Off0.000000,0,,,,
08:28:32.299 PM 03/17/2016,Teleop Enabled,9,FALSE,0,NO ERROR,-0.000000,0.000000,0.000000,-0.404249,TRUE,FALSE,FALSE,FALSE,FALSE,FALSE,Disabled,0.000000,0.000000,0.000000,TRUE,-1.395157,-5.832199,0.000000,0.016174,-0.166443,0.000000,0.034000,0.021000,0.005000,-0.060000,-0.370000,1.240000,0.977270,Hold,0.930176,0.000000,Hold,-188.000000,2.000000,Suck,-312.011719,2181.818182,Speed,-313.110352,2181.818182,Speed,On,Off0.000000,0,,,,
08:28:32.400 PM 03/17/2016,Teleop Enabled,9,FALSE,0,NO ERROR,-0.000000,0.000000,0.000000,-0.404249,TRUE,FALSE,FALSE,FALSE,FALSE,FALSE,Disabled,0.000000,0.000000,0.000000,TRUE,-1.392944,-5.839554,0.000000,0.043594,-0.135666,0.000000,-0.024000,0.021000,0.069000,-0.060000,-0.370000,1.150000,0.985494,Hold,0.930176,0.000000,Hold,-188.000000,2.000000,Suck,-312.011719,2181.818182,Speed,-313.110352,2181.818182,Speed,On,Off0.000000,0,,,,
08:28:32.500 PM 03/17/2016,Teleop Enabled,9,FALSE,0,NO ERROR,-0.000000,0.000000,0.000000,-0.404249,TRUE,FALSE,FALSE,FALSE,FALSE,FALSE,Disabled,0.000000,0.000000,0.000000,TRUE,-1.392853,-5.840363,0.000000,-0.029022,0.015884,0.000000,-0.024000,0.021000,0.069000,-0.060000,-0.370000,1.150000,0.975621,Hold,0.930176,0.000000,Hold,-188.000000,2.000000,Suck,-313.110352,2181.818182,Speed,-313.110352,2181.818182,Speed,On,Off0.000000,0,,,,
08:28:32.602 PM 03/17/2016,Teleop Enabled,11,FALSE,0,NO ERROR,-0.000000,0.000000,0.000000,-0.404249,TRUE,FALSE,FALSE,FALSE,FALSE,FALSE,Disabled,0.000000,0.000000,0.000000,TRUE,-1.394485,-5.839417,0.000000,-0.035873,0.027481,0.000000,0.106000,0.050000,0.061000,-0.060000,-0.400000,1.150000,0.974065,Hold,0.930176,0.000000,Hold,-188.000000,2.000000,Suck,-313.110352,2181.818182,Speed,-314.208984,2181.818182,Speed,On,Off0.000000,0,,,,
08:28:32.703 PM 03/17/2016,Teleop Enabled,10,FALSE,0,NO ERROR,-0.000000,0.000000,0.000000,-0.404249,TRUE,FALSE,FALSE,FALSE,FALSE,FALSE,Disabled,0.000000,0.000000,0.000000,TRUE,-1.394043,-5.837158,0.000000,0.033218,0.060577,0.000000,0.056000,0.049000,0.049000,-0.060000,-0.370000,1.120000,0.982792,Hold,0.930176,0.000000,Hold,-188.000000,2.000000,Suck,-312.011719,2181.818182,Speed,-314.208984,2181.818182,Speed,On,Off0.000000,0,,,,
08:28:32.804 PM 03/17/2016,Teleop Enabled,8,FALSE,0,NO ERROR,-0.000000,0.000000,0.000000,-0.404249,TRUE,FALSE,FALSE,FALSE,FALSE,FALSE,Disabled,0.000000,0.000000,0.000000,TRUE,-1.393127,-5.832535,0.000000,-0.016449,0.112427,0.000000,-0.121000,0.060000,-0.041000,-0.060000,-0.340000,1.100000,1.001736,Hold,0.930176,0.000000,Hold,-188.000000,2.000000,Suck,-313.110352,2181.818182,Speed,-314.208984,2181.818182,Speed,On,Off0.000000,0,,,,
08:28:32.904 PM 03/17/2016,Teleop Enabled,9,FALSE,0,NO ERROR,-0.000000,0.000000,0.000000,-0.404249,TRUE,FALSE,FALSE,FALSE,FALSE,FALSE,Disabled,0.000000,0.000000,0.000000,TRUE,-1.396530,-5.827042,0.000000,-0.089783,0.107635,0.000000,0.062000,-0.022000,-0.019000,-0.050000,-0.370000,1.090000,1.022843,Hold,0.930176,0.000000,Hold,-188.000000,2.000000,Suck,-313.110352,2181.818182,Speed,-313.110352,2181.818182,Speed,On,Off0.000000,0,,,,
08:28:33.005 PM 03/17/2016,Teleop Enabled,10,FALSE,0,NO ERROR,-0.000000,0.000000,0.000000,-0.404249,TRUE,FALSE,FALSE,FALSE,FALSE,FALSE,Disabled,0.000000,0.000000,0.000000,TRUE,-1.399170,-5.822144,0.000000,-0.017014,0.090195,0.000000,0.114000,0.030000,0.004000,-0.060000,-0.340000,1.050000,1.025889,Hold,0.930176,0.000000,Hold,-188.000000,2.000000,Suck,-312.011719,2181.818182,Speed,-313.110352,2181.818182,Speed,On,Off0.000000,0,,,,
08:28:33.106 PM 03/17/2016,Teleop Enabled,10,FALSE,0,NO ERROR,-0.000000,0.000000,0.000000,-0.404249,TRUE,FALSE,FALSE,FALSE,FALSE,FALSE,Disabled,0.000000,0.000000,0.000000,TRUE,-1.398224,-5.816162,0.000000,0.004745,0.108322,0.000000,-0.120000,-0.034000,-0.070000,-0.050000,-0.280000,1.090000,1.043281,Hold,0.930176,0.000000,Hold,-188.000000,2.000000,Suck,-313.110352,2181.818182,Speed,-313.110352,2181.818182,Speed,On,Off0.000000,0,,,,
08:28:33.207 PM 03/17/2016,Teleop Enabled,10,FALSE,0,NO ERROR,-0.000000,0.000000,0.000000,-0.404249,TRUE,FALSE,FALSE,FALSE,FALSE,FALSE,Disabled,0.000000,0.000000,0.000000,TRUE,-1.400070,-5.815369,0.000000,-0.050766,-0.012604,0.000000,0.039000,-0.041000,0.024000,-0.060000,-0.340000,1.070000,1.052910,Hold,0.930176,0.000000,Hold,-188.000000,2.000000,Suck,-312.011719,2181.818182,Speed,-313.110352,2181.818182,Speed,On,Off0.000000,0,,,,
08:28:33.307 PM 03/17/2016,Teleop Enabled,10,FALSE,0,NO ERROR,-0.000000,0.000000,0.000000,-0.404249,TRUE,FALSE,FALSE,FALSE,FALSE,FALSE,Disabled,0.000000,0.000000,0.000000,TRUE,-1.401855,-5.816788,0.000000,0.001907,-0.029510,0.000000,0.128000,-0.003000,0.015000,-0.060000,-0.360000,1.040000,1.059440,Hold,0.930176,0.000000,Hold,-188.000000,2.000000,Suck,-312.011719,2181.818182,Speed,-313.110352,2181.818182,Speed,On,Off0.000000,0,,,,
08:28:33.408 PM 03/17/2016,Teleop Enabled,9,FALSE,0,NO ERROR,-0.000000,0.000000,0.000000,-0.404249,TRUE,FALSE,FALSE,FALSE,FALSE,FALSE,Disabled,0.000000,0.000000,0.000000,TRUE,-1.398743,-5.817032,0.000000,0.086960,0.010986,0.000000,-0.004000,0.059000,0.003000,-0.060000,-0.280000,1.150000,1.084471,Hold,0.930176,0.000000,Hold,-188.000000,2.000000,Suck,-312.011719,2181.818182,Speed,-313.110352,2181.818182,Speed,On,Off0.000000,0,,,,
08:28:33.509 PM 03/17/2016,Teleop Enabled,11,FALSE,0,NO ERROR,-0.000000,0.000000,0.000000,-0.404249,TRUE,FALSE,FALSE,FALSE,FALSE,FALSE,Disabled,0.000000,0.000000,0.000000,TRUE,-1.396088,-5.815781,0.000000,0.043289,0.038193,0.000000,-0.074000,-0.036000,0.105000,-0.060000,-0.310000,1.150000,1.073242,Hold,0.930176,0.000000,Hold,-188.000000,2.000000,Suck,-313.110352,2181.818182,Speed,-314.208984,2181.818182,Speed,On,Off0.000000,0,,,,
08:28:33.610 PM 03/17/2016,Teleop Enabled,9,FALSE,0,NO ERROR,-0.000000,0.000000,0.000000,-0.404249,TRUE,FALSE,FALSE,FALSE,FALSE,FALSE,Disabled,0.000000,0.000000,0.000000,TRUE,-1.395401,-5.815002,0.000000,0.026627,-0.007141,0.000000,0.086000,0.040000,0.080000,-0.060000,-0.270000,1.140000,1.091742,Hold,0.930176,0.000000,Hold,-188.000000,2.000000,Suck,-313.110352,2181.818182,Speed,-314.208984,2181.818182,Speed,On,Off0.000000,0,,,,
08:28:33.711 PM 03/17/2016,Teleop Enabled,9,FALSE,0,NO ERROR,-0.000000,0.000000,0.000000,-0.404249,TRUE,FALSE,FALSE,FALSE,FALSE,FALSE,Disabled,0.000000,0.000000,0.000000,TRUE,-1.392227,-5.814499,0.000000,0.085373,0.023239,0.000000,0.038000,-0.017000,0.012000,-0.060000,-0.300000,1.130000,1.114053,Hold,0.930176,0.000000,Hold,-188.000000,2.000000,Suck,-313.110352,2181.818182,Speed,-313.110352,2181.818182,Speed,On,Off0.000000,0,,,,
08:28:33.811 PM 03/17/2016,Teleop Enabled,11,FALSE,0,NO ERROR,-0.000000,0.000000,0.000000,-0.404249,TRUE,FALSE,FALSE,FALSE,FALSE,FALSE,Disabled,0.000000,0.000000,0.000000,TRUE,-1.388840,-5.814301,0.000000,0.078766,0.008667,0.000000,-0.007000,0.006000,-0.022000,-0.060000,-0.300000,1.130000,1.121923,Hold,0.930176,0.000000,Hold,-188.000000,2.000000,Suck,-312.011719,2181.818182,Speed,-313.110352,2181.818182,Speed,On,Off0.000000,0,,,,
08:28:33.911 PM 03/17/2016,Teleop Enabled,11,FALSE,0,NO ERROR,-0.000000,0.000000,0.000000,-0.404249,TRUE,FALSE,FALSE,FALSE,FALSE,FALSE,Disabled,0.000000,0.000000,0.000000,TRUE,-1.386185,-5.814926,0.000000,0.009598,-0.025269,0.000000,-0.007000,0.006000,-0.022000,-0.060000,-0.350000,1.020000,1.132998,Hold,0.930176,0.000000,Hold,-188.000000,2.000000,Suck,-313.110352,2181.818182,Speed,-314.208984,2181.818182,Speed,On,Off0.000000,0,,,,
08:28:34.012 PM 03/17/2016,Teleop Enabled,9,FALSE,0,NO ERROR,-0.000000,0.000000,0.000000,-0.404249,TRUE,FALSE,FALSE,FALSE,FALSE,FALSE,Disabled,0.000000,0.000000,0.000000,TRUE,-1.386414,-5.817032,0.000000,-0.003876,-0.055923,0.000000,-0.034000,-0.035000,0.018000,-0.060000,-0.380000,1.010000,1.146647,Hold,0.930176,0.000000,Hold,-188.000000,2.000000,Suck,-313.110352,2181.818182,Speed,-313.110352,2181.818182,Speed,On,Off0.000000,0,,,,
08:28:34.112 PM 03/17/2016,Teleop Enabled,9,FALSE,0,NO ERROR,-0.000000,0.000000,0.000000,-0.404249,TRUE,FALSE,FALSE,FALSE,FALSE,FALSE,Disabled,0.000000,0.000000,0.000000,TRUE,-1.386337,-5.818314,0.000000,0.000000,0.000000,0.000000,-0.029000,-0.022000,0.012000,-0.060000,-0.380000,1.010000,1.143635,Hold,0.930176,0.000000,Hold,-188.000000,2.000000,Suck,-313.110352,2181.818182,Speed,-313.110352,2181.818182,Speed,On,Off0.000000,0,,,,
08:28:34.213 PM 03/17/2016,Teleop Enabled,9,FALSE,0,NO ERROR,-0.000000,0.000000,0.000000,-0.404249,TRUE,FALSE,FALSE,FALSE,FALSE,FALSE,Disabled,0.000000,0.000000,0.000000,TRUE,-1.387360,-5.818268,0.000000,-0.039963,-0.004883,0.000000,-0.007000,-0.004000,-0.040000,-0.060000,-0.340000,0.990000,1.135937,Hold,0.930176,0.000000,Hold,-188.000000,2.000000,Suck,-312.011719,2181.818182,Speed,-314.208984,2181.818182,Speed,On,Off0.000000,0,,,,
08:28:34.313 PM 03/17/2016,Teleop Enabled,10,FALSE,0,NO ERROR,-0.000000,0.000000,0.000000,-0.404249,TRUE,FALSE,FALSE,FALSE,FALSE,FALSE,Disabled,0.000000,0.000000,0.000000,TRUE,-1.389267,-5.818542,0.000000,-0.038742,0.000000,0.000000,-0.058000,-0.058000,-0.041000,-0.060000,-0.380000,1.000000,1.162679,Hold,0.930176,286720.000000,Hold,-188.000000,126976.000000,Suck,-313.110352,2181.818182,Speed,-313.110352,2181.818182,Speed,On,Off0.000000,0,,,,
08:28:34.414 PM 03/17/2016,Teleop Enabled,10,FALSE,0,NO ERROR,-0.000000,0.000000,0.000000,-0.404249,TRUE,FALSE,FALSE,FALSE,FALSE,FALSE,Disabled,0.000000,0.000000,0.000000,TRUE,-1.389267,-5.818542,0.000000,-0.038742,0.000000,0.000000,-0.010000,-0.009000,-0.028000,-0.060000,-0.390000,1.000000,1.179716,Hold,4.092529,286720.000000,Hold,-188.000000,126976.000000,Suck,-313.110352,2181.818182,Speed,-313.110352,2181.818182,Speed,On,Off0.000000,0,,,,
08:28:34.514 PM 03/17/2016,Teleop Enabled,9,FALSE,0,NO ERROR,-0.000000,0.000000,0.000000,-0.404249,TRUE,FALSE,FALSE,FALSE,FALSE,FALSE,Disabled,0.000000,0.000000,0.000000,TRUE,-1.389160,-5.818130,0.000000,0.000000,0.020950,0.000000,-0.023000,-0.015000,0.005000,-0.050000,-0.340000,0.980000,1.183483,Hold,8.161865,286720.000000,Hold,-11747.000000,126976.000000,Suck,-313.110352,2181.818182,Speed,-313.110352,2181.818182,Speed,On,Off0.000000,0,,,,
08:28:34.614 PM 03/17/2016,Teleop Enabled,11,FALSE,0,NO ERROR,-0.000000,0.000000,0.000000,-0.404249,TRUE,FALSE,FALSE,FALSE,FALSE,FALSE,Disabled,0.000000,0.000000,0.000000,TRUE,-1.389160,-5.818130,0.000000,0.000000,0.020950,0.000000,-0.071000,0.037000,0.027000,-0.050000,-0.380000,0.920000,1.173482,Hold,12.478027,286720.000000,Hold,-25238.000000,126976.000000,Suck,-314.208984,2181.818182,Speed,-314.208984,2181.818182,Speed,On,Off0.000000,0,,,,
08:28:34.715 PM 03/17/2016,Teleop Enabled,7,FALSE,0,NO ERROR,-0.000000,0.000000,0.000000,-0.404249,TRUE,FALSE,FALSE,FALSE,FALSE,FALSE,Disabled,0.000000,0.000000,0.000000,TRUE,-1.389236,-5.816483,0.000000,0.045120,0.002258,0.000000,0.076000,0.000000,0.016000,-0.050000,-0.350000,0.970000,1.179183,Hold,18.637207,286720.000000,Hold,-37004.000000,126976.000000,Suck,-314.208984,2181.818182,Speed,-313.110352,2181.818182,Speed,On,Off0.000000,0,,,,
08:28:34.815 PM 03/17/2016,Teleop Enabled,8,FALSE,0,NO ERROR,-0.000000,0.000000,0.000000,-0.404249,TRUE,FALSE,FALSE,FALSE,FALSE,FALSE,Disabled,0.000000,0.000000,0.000000,TRUE,-1.387512,-5.815399,0.000000,0.034256,0.033005,0.000000,-0.023000,0.041000,-0.053000,-0.060000,-0.370000,0.910000,1.179813,Hold,25.830566,286720.000000,Hold,-50375.000000,126976.000000,Suck,-314.208984,2181.818182,Speed,-314.208984,2181.818182,Speed,On,Off0.000000,0,,,,
08:28:34.915 PM 03/17/2016,Teleop Enabled,10,FALSE,0,NO ERROR,-0.000000,0.000000,0.000000,-0.404249,TRUE,FALSE,FALSE,FALSE,FALSE,FALSE,Disabled,0.000000,0.000000,0.000000,TRUE,-1.387512,-5.815399,0.000000,0.034256,0.033005,0.000000,0.071000,0.013000,-0.018000,-0.060000,-0.420000,0.910000,1.179813,Hold,33.944336,286720.000000,Hold,-64268.000000,126976.000000,Suck,-314.208984,2181.818182,Speed,-316.406250,2181.818182,Speed,On,Off0.000000,0,,,,
08:28:35.017 PM 03/17/2016,Teleop Enabled,9,FALSE,0,NO ERROR,-0.000000,0.000000,0.000000,-0.404249,TRUE,FALSE,FALSE,FALSE,FALSE,FALSE,Disabled,0.000000,0.000000,0.000000,TRUE,-1.384460,-5.813004,0.000000,0.068588,0.065842,0.000000,0.009000,0.104000,-0.024000,-0.060000,-0.420000,0.930000,1.176140,Hold,44.657227,286720.000000,Hold,-81554.000000,126976.000000,Suck,-314.208984,2181.818182,Speed,-315.307617,2181.818182,Speed,On,Off0.000000,0,,,,
08:28:35.118 PM 03/17/2016,Teleop Enabled,7,FALSE,0,NO ERROR,-0.000000,0.000000,0.000000,-0.404249,TRUE,FALSE,FALSE,FALSE,FALSE,FALSE,Disabled,0.000000,0.000000,0.000000,TRUE,-1.381317,-5.809464,0.000000,0.077728,0.089874,0.000000,-0.069000,-0.050000,-0.026000,-0.090000,-0.400000,0.940000,1.142244,Hold,54.115723,286720.000000,Hold,-81554.000000,126976.000000,Suck,-314.208984,2181.818182,Speed,-314.208984,2181.818182,Speed,On,Off0.000000,0,,,,
08:28:35.218 PM 03/17/2016,Teleop Enabled,10,FALSE,0,NO ERROR,-0.000000,0.000000,0.000000,-0.404249,TRUE,FALSE,FALSE,FALSE,FALSE,FALSE,Disabled,0.000000,0.000000,0.000000,TRUE,-1.376663,-5.806366,0.000000,0.086868,0.000000,0.000000,-0.041000,-0.002000,-0.063000,-0.080000,-0.430000,0.900000,1.177283,Hold,65.932129,286720.000000,Hold,-97259.000000,126976.000000,Suck,-315.307617,2181.818182,Speed,-314.208984,2181.818182,Speed,On,Off0.000000,0,,,,
08:28:35.319 PM 03/17/2016,Teleop Enabled,8,FALSE,0,NO ERROR,-0.000000,0.000000,0.000000,-0.404249,TRUE,FALSE,FALSE,FALSE,FALSE,FALSE,Disabled,0.000000,0.000000,0.000000,TRUE,-1.373657,-5.806030,0.000000,0.071808,0.015854,0.000000,0.004000,-0.028000,-0.053000,-0.090000,-0.490000,0.920000,1.185724,Hold,73.286133,286720.000000,Hold,-114089.000000,126976.000000,Suck,-314.208984,2181.818182,Speed,-315.307617,2181.818182,Speed,On,Off0.000000,0,,,,
08:28:35.420 PM 03/17/2016,Teleop Enabled,10,FALSE,0,NO ERROR,-0.000000,0.000000,0.000000,-0.404249,TRUE,FALSE,FALSE,FALSE,FALSE,FALSE,Disabled,0.000000,0.000000,0.000000,TRUE,-1.371719,-5.805511,0.000000,0.037659,0.014297,0.000000,-0.009000,-0.039000,-0.013000,-0.050000,-0.480000,1.000000,1.236040,Hold,72.129883,286720.000000,Hold,-128665.000000,126976.000000,Suck,-314.208984,2181.818182,Speed,-314.208984,2181.818182,Speed,On,Off0.000000,0,,,,
08:28:35.520 PM 03/17/2016,Teleop Enabled,10,FALSE,0,NO ERROR,-0.000000,0.000000,0.000000,-0.404249,TRUE,FALSE,FALSE,FALSE,FALSE,FALSE,Disabled,0.000000,0.000000,0.000000,TRUE,-1.370682,-5.808289,0.000000,0.006500,-0.082138,0.000000,-0.165000,-0.140000,0.673000,-0.090000,-0.390000,1.030000,1.233148,Hold,72.080322,286720.000000,Hold,-127050.000000,126976.000000,Suck,-313.110352,2181.818182,Speed,-314.208984,2181.818182,Speed,On,Off0.000000,0,,,,
08:28:35.620 PM 03/17/2016,Teleop Enabled,11,FALSE,0,NO ERROR,-0.000000,0.000000,0.000000,-0.404249,TRUE,FALSE,FALSE,FALSE,FALSE,FALSE,Disabled,0.000000,0.000000,0.000000,TRUE,-1.372330,-5.814346,0.000000,-0.043060,-0.137177,0.000000,-0.030000,-0.088000,0.175000,-0.080000,-0.410000,0.930000,1.204437,Hold,72.080322,286720.000000,Hold,-127087.000000,126976.000000,Suck,-313.110352,2181.818182,Speed,-315.307617,2181.818182,Speed,On,Off0.000000,0,,,,
08:28:35.721 PM 03/17/2016,Teleop Enabled,9,FALSE,0,NO ERROR,-0.000000,0.000000,0.000000,-0.404249,TRUE,FALSE,FALSE,FALSE,FALSE,FALSE,Disabled,0.000000,0.000000,0.000000,TRUE,-1.377655,-5.826691,0.000000,-0.093613,-0.202240,0.000000,0.015000,-0.072000,0.109000,-0.090000,-0.370000,0.970000,1.204217,Hold,72.082764,286720.000000,Hold,-127051.000000,126976.000000,Suck,-314.208984,2181.818182,Speed,-315.307617,2181.818182,Speed,On,Off0.000000,0,,,,
08:28:35.822 PM 03/17/2016,Teleop Enabled,10,FALSE,0,NO ERROR,-0.000000,0.000000,0.000000,-0.404249,TRUE,FALSE,FALSE,FALSE,FALSE,FALSE,Disabled,0.000000,0.000000,0.000000,TRUE,-1.381454,-5.836014,0.000000,-0.088303,-0.247498,0.000000,0.081000,-0.044000,0.034000,-0.090000,-0.340000,0.940000,1.202751,Hold,72.082764,286720.000000,Hold,-127051.000000,126976.000000,Suck,-315.307617,2181.818182,Speed,-315.307617,2181.818182,Speed,On,Off0.000000,0,,,,
08:28:35.924 PM 03/17/2016,Teleop Enabled,11,FALSE,0,NO ERROR,-0.000000,0.000000,0.000000,-0.404249,TRUE,FALSE,FALSE,FALSE,FALSE,FALSE,Disabled,0.000000,0.000000,0.000000,TRUE,-1.384476,-5.849289,0.000000,-0.045807,-0.268814,0.000000,0.056000,-0.041000,0.050000,-0.090000,-0.370000,0.940000,1.197955,Hold,72.082764,286720.000000,Hold,-127051.000000,126976.000000,Suck,-315.307617,2181.818182,Speed,-315.307617,2181.818182,Speed,On,Off0.000000,0,,,,
08:28:36.025 PM 03/17/2016,Teleop Disabled,11,FALSE,0,NO ERROR,-0.000000,0.000000,0.000000,-0.404249,TRUE,FALSE,FALSE,FALSE,FALSE,FALSE,Disabled,0.000000,0.000000,0.000000,TRUE,-1.385223,-5.857376,0.000000,0.003937,0.013763,0.000000,0.018000,0.068000,-0.008000,-0.090000,-0.400000,0.980000,1.210070,Hold,72.185547,286720.000000,Hold,-127051.000000,126976.000000,Suck,-315.307617,2181.818182,Speed,-314.208984,2181.818182,Speed,On,Off0.000000,0,,,,
08:28:36.126 PM 03/17/2016,Teleop Disabled,11,FALSE,0,NO ERROR,-0.000000,0.000000,0.000000,-0.404249,TRUE,FALSE,FALSE,FALSE,FALSE,FALSE,Disabled,0.000000,0.000000,0.000000,TRUE,-1.385574,-5.855911,0.000000,-0.019058,0.041245,0.000000,-0.039000,-0.038000,0.019000,-0.090000,-0.350000,1.000000,1.210328,Hold,72.927246,286720.000000,Hold,-127892.000000,126976.000000,Suck,-303.222656,2181.818182,Speed,-303.222656,2181.818182,Speed,On,Off0.000000,0,,,,
08:28:36.229 PM 03/17/2016,Teleop Disabled,17,FALSE,0,NO ERROR,-0.000000,0.000000,0.000000,-0.404249,TRUE,FALSE,FALSE,FALSE,FALSE,FALSE,Disabled,0.000000,0.000000,0.000000,TRUE,-1.386047,-5.853851,0.000000,0.014542,0.054611,0.000000,-0.006000,-0.007000,-0.051000,-0.090000,-0.320000,0.990000,1.214775,Hold,72.927246,286720.000000,Hold,-130172.000000,126976.000000,Suck,-277.954102,2181.818182,Speed,-279.052734,2181.818182,Speed,On,Off0.000000,0,,,,
08:28:36.329 PM 03/17/2016,Teleop Disabled,11,FALSE,0,NO ERROR,-0.000000,0.000000,0.000000,-0.404249,TRUE,FALSE,FALSE,FALSE,FALSE,FALSE,Disabled,0.000000,0.000000,0.000000,TRUE,-1.384476,-5.853195,0.000000,0.036545,0.000870,0.000000,-0.021000,-0.058000,-0.008000,-0.090000,-0.280000,0.990000,1.206272,Hold,72.927490,286720.000000,Hold,-133395.000000,126976.000000,Suck,-252.685547,2181.818182,Speed,-253.784180,2181.818182,Speed,On,Off0.000000,0,,,,
08:28:36.430 PM 03/17/2016,Teleop Disabled,10,FALSE,0,NO ERROR,-0.000000,0.000000,0.000000,-0.404249,TRUE,FALSE,FALSE,FALSE,FALSE,FALSE,Disabled,0.000000,0.000000,0.000000,TRUE,-1.382126,-5.853271,0.000000,0.050980,0.000000,0.000000,-0.053000,-0.012000,-0.026000,-0.090000,-0.280000,0.990000,1.215426,Hold,72.927979,286720.000000,Hold,-133395.000000,126976.000000,Suck,-252.685547,2181.818182,Speed,-230.712891,2181.818182,Speed,On,Off0.000000,0,,,,
08:28:36.530 PM 03/17/2016,Teleop Disabled,10,FALSE,0,NO ERROR,-0.000000,0.000000,0.000000,-0.404249,TRUE,FALSE,FALSE,FALSE,FALSE,FALSE,Disabled,0.000000,0.000000,0.000000,TRUE,-1.380920,-5.852783,0.000000,0.009476,0.016052,0.000000,-0.030000,-0.035000,-0.015000,-0.090000,-0.280000,0.970000,1.199139,Hold,72.927979,286720.000000,Hold,-134714.000000,126976.000000,Suck,-204.345703,2181.818182,Speed,-207.641602,2181.818182,Speed,On,Off0.000000,0,,,,
08:28:36.630 PM 03/17/2016,Teleop Disabled,10,FALSE,0,NO ERROR,-0.000000,-0.006417,0.000000,-0.109083,TRUE,FALSE,FALSE,FALSE,FALSE,FALSE,Disabled,0.000000,0.000000,0.000000,TRUE,-1.380569,-5.852905,0.000000,0.000000,-0.007919,0.000000,0.074000,0.012000,0.027000,-0.090000,-0.280000,0.960000,1.214256,Hold,72.927979,286720.000000,Hold,-134714.000000,126976.000000,Suck,-179.077148,2181.818182,Speed,-182.373047,2181.818182,Speed,On,Off0.000000,0,,,,
08:28:36.730 PM 03/17/2016,Teleop Disabled,11,FALSE,0,NO ERROR,-0.000000,-0.006417,0.000000,0.044917,TRUE,FALSE,FALSE,FALSE,FALSE,FALSE,Disabled,0.000000,0.000000,0.000000,TRUE,-1.379288,-5.853043,0.000000,0.031387,-0.007233,0.000000,-0.072000,0.000000,0.001000,-0.090000,-0.260000,0.970000,1.220356,Hold,72.928223,286720.000000,Hold,-134714.000000,126976.000000,Suck,-161.499023,2181.818182,Speed,-182.373047,2181.818182,Speed,On,Off0.000000,0,,,,
08:28:36.830 PM 03/17/2016,Teleop Disabled,10,FALSE,0,NO ERROR,-0.000000,-0.006417,0.000000,0.006417,TRUE,FALSE,FALSE,FALSE,FALSE,FALSE,Disabled,0.000000,0.000000,0.000000,TRUE,-1.377594,-5.853546,0.000000,0.054108,-0.009750,0.000000,0.032000,-0.011000,0.062000,-0.090000,-0.280000,0.970000,1.233117,Hold,72.928223,286720.000000,Hold,-134714.000000,126976.000000,Suck,-161.499023,2181.818182,Speed,-159.301758,2181.818182,Speed,On,Off0.000000,0,,,,
08:28:36.930 PM 03/17/2016,Teleop Disabled,10,FALSE,0,NO ERROR,-0.000000,-0.006417,0.000000,0.006417,TRUE,FALSE,FALSE,FALSE,FALSE,FALSE,Disabled,0.000000,0.000000,0.000000,TRUE,-1.374054,-5.853546,0.000000,0.075912,0.000000,0.000000,-0.051000,-0.001000,-0.005000,-0.090000,-0.280000,0.980000,1.238464,Hold,72.928223,286720.000000,Hold,-134714.000000,126976.000000,Suck,-138.427734,2181.818182,Speed,-140.625000,2181.818182,Speed,On,Off0.000000,0,,,,
08:28:37.032 PM 03/17/2016,Teleop Disabled,10,FALSE,0,NO ERROR,-0.000000,-0.006417,0.000000,0.006417,TRUE,FALSE,FALSE,FALSE,FALSE,FALSE,Disabled,0.000000,0.000000,0.000000,TRUE,-1.372330,-5.853668,0.000000,0.000000,-0.004501,0.000000,-0.051000,-0.012000,-0.001000,-0.090000,-0.300000,0.970000,1.231758,Hold,72.928223,286720.000000,Hold,-134714.000000,126976.000000,Suck,-115.356445,2181.818182,Speed,-118.652344,2181.818182,Speed,On,Off0.000000,0,,,,
08:28:37.132 PM 03/17/2016,Teleop Disabled,10,FALSE,0,NO ERROR,-0.000000,-0.006417,0.000000,0.006417,TRUE,FALSE,FALSE,FALSE,FALSE,FALSE,Disabled,0.000000,0.000000,0.000000,TRUE,-1.373398,-5.853470,0.000000,-0.037109,0.009216,0.000000,-0.043000,-0.003000,0.019000,-0.090000,-0.300000,0.970000,1.214727,Hold,72.928223,286720.000000,Hold,-134714.000000,126976.000000,Suck,-94.482422,2181.818182,Speed,-97.778320,2181.818182,Speed,On,Off0.000000,0,,,,
08:28:37.232 PM 03/17/2016,Teleop Disabled,11,FALSE,0,NO ERROR,-0.000000,-0.006417,0.000000,0.006417,TRUE,FALSE,FALSE,FALSE,FALSE,FALSE,Disabled,0.000000,0.000000,0.000000,TRUE,-1.376907,-5.853470,0.000000,-0.068283,0.000000,0.000000,-0.029000,0.000000,-0.026000,-0.090000,-0.300000,0.970000,1.203770,Hold,72.928223,286720.000000,Hold,-134714.000000,126976.000000,Suck,-73.608398,2181.818182,Speed,-79.101562,2181.818182,Speed,On,Off0.000000,0,,,,
08:28:37.332 PM 03/17/2016,Teleop Disabled,11,FALSE,0,NO ERROR,-0.000000,-0.006417,0.000000,0.006417,TRUE,FALSE,FALSE,FALSE,FALSE,FALSE,Disabled,0.000000,0.000000,0.000000,TRUE,-1.379730,-5.853470,0.000000,-0.069962,0.000000,0.000000,-0.018000,-0.009000,0.021000,-0.090000,-0.290000,0.980000,1.214782,Hold,72.928223,286720.000000,Hold,-134714.000000,126976.000000,Suck,-54.931641,2181.818182,Speed,-57.128906,2181.818182,Speed,On,Off0.000000,0,,,,
08:28:37.432 PM 03/17/2016,Teleop Disabled,10,FALSE,0,NO ERROR,-0.000000,-0.006417,0.000000,0.006417,TRUE,FALSE,FALSE,FALSE,FALSE,FALSE,Disabled,0.000000,0.000000,0.000000,TRUE,-1.380463,-5.853500,0.000000,0.000000,0.000671,0.000000,0.011000,0.011000,0.001000,-0.090000,-0.310000,0.960000,1.222494,Hold,72.928223,286720.000000,Hold,-134714.000000,126976.000000,Suck,-36.254883,2181.818182,Speed,-40.649414,2181.818182,Speed,On,Off0.000000,0,,,,
08:28:37.532 PM 03/17/2016,Teleop Disabled,11,FALSE,0,NO ERROR,-0.000000,-0.006417,0.000000,0.006417,TRUE,FALSE,FALSE,FALSE,FALSE,FALSE,Disabled,0.000000,0.000000,0.000000,TRUE,-1.380463,-5.853500,0.000000,0.000000,0.000000,0.000000,-0.004000,-0.004000,0.021000,-0.090000,-0.300000,0.970000,1.225568,Hold,72.928223,286720.000000,Hold,-134714.000000,126976.000000,Suck,-16.479492,2181.818182,Speed,-21.972656,2181.818182,Speed,On,Off0.000000,0,,,,
08:28:37.632 PM 03/17/2016,Teleop Disabled,10,FALSE,0,NO ERROR,-0.000000,-0.006417,0.000000,0.006417,TRUE,FALSE,FALSE,FALSE,FALSE,FALSE,Disabled,0.000000,0.000000,0.000000,TRUE,-1.380463,-5.853500,0.000000,0.000000,0.000000,0.000000,0.000000,0.003000,0.019000,-0.090000,-0.310000,0.970000,1.219540,Hold,72.928223,286720.000000,Hold,-134714.000000,126976.000000,Suck,0.000000,2181.818182,Speed,-8.789062,2181.818182,Speed,On,Off0.000000,0,,,,
08:28:37.732 PM 03/17/2016,Teleop Disabled,11,FALSE,0,NO ERROR,-0.000000,-0.006417,0.000000,0.006417,TRUE,FALSE,FALSE,FALSE,FALSE,FALSE,Disabled,0.000000,0.000000,0.000000,TRUE,-1.380463,-5.853500,0.000000,0.000000,0.000000,0.000000,0.002000,0.001000,0.013000,-0.090000,-0.310000,0.960000,1.222766,Hold,72.928223,286720.000000,Hold,-134714.000000,126976.000000,Suck,0.000000,2181.818182,Speed,0.000000,2181.818182,Speed,On,Off0.000000,0,,,,
08:28:37.833 PM 03/17/2016,Teleop Disabled,12,FALSE,0,NO ERROR,-0.000000,-0.006417,0.000000,0.006417,TRUE,TRUE,FALSE,FALSE,FALSE,FALSE,Disabled,0.000000,0.000000,0.000000,TRUE,-1.380463,-5.853500,0.000000,0.000000,0.000000,0.000000,0.005000,0.000000,0.009000,-0.090000,-0.310000,0.970000,1.223530,Hold,72.928223,286720.000000,Hold,-134714.000000,126976.000000,Suck,0.000000,2181.818182,Speed,0.000000,2181.818182,Speed,On,Off0.000000,0,,,,
08:28:37.935 PM 03/17/2016,Teleop Disabled,10,FALSE,0,NO ERROR,-0.000000,-0.006417,0.000000,0.006417,TRUE,TRUE,FALSE,FALSE,FALSE,FALSE,Disabled,0.000000,0.000000,0.000000,TRUE,-1.380463,-5.853500,0.000000,0.000000,0.000000,0.000000,0.001000,-0.001000,0.010000,-0.090000,-0.310000,0.960000,1.214121,Hold,72.928223,286720.000000,Hold,-134714.000000,126976.000000,Suck,0.000000,0.000000,Speed,0.000000,0.000000,Speed,On,Off0.000000,0,,,,
08:28:38.035 PM 03/17/2016,Teleop Disabled,11,FALSE,0,NO ERROR,-0.000000,-0.006417,0.000000,0.006417,TRUE,FALSE,FALSE,FALSE,FALSE,FALSE,Disabled,0.000000,0.000000,0.000000,TRUE,-1.380463,-5.853500,0.000000,0.000000,0.000000,0.000000,0.001000,-0.003000,0.008000,-0.100000,-0.310000,0.960000,1.209154,Hold,72.928223,286720.000000,Hold,-134714.000000,126976.000000,Suck,0.000000,0.000000,Speed,0.000000,0.000000,Speed,On,Off0.000000,0,,,,
08:28:38.135 PM 03/17/2016,Teleop Disabled,10,FALSE,0,NO ERROR,-0.000000,-0.006417,0.000000,0.006417,TRUE,FALSE,FALSE,FALSE,FALSE,FALSE,Disabled,0.000000,0.000000,0.000000,TRUE,-1.380463,-5.853500,0.000000,0.000000,0.000000,0.000000,0.000000,-0.006000,0.022000,-0.090000,-0.320000,0.960000,1.221396,Hold,72.928223,286720.000000,Hold,-134714.000000,126976.000000,Suck,0.000000,2181.818182,Speed,0.000000,2181.818182,Speed,On,Off0.000000,0,,,,
08:28:38.236 PM 03/17/2016,Teleop Disabled,11,FALSE,0,NO ERROR,-0.000000,-0.006417,0.000000,0.006417,TRUE,FALSE,FALSE,FALSE,FALSE,FALSE,Disabled,0.000000,0.000000,0.000000,TRUE,-1.380463,-5.853500,0.000000,0.000000,0.000000,0.000000,-0.002000,0.002000,0.008000,-0.090000,-0.310000,0.980000,1.226115,Hold,72.928223,286720.000000,Hold,-134714.000000,126976.000000,Suck,0.000000,2181.818182,Speed,0.000000,2181.818182,Speed,On,Off0.000000,0,,,,
08:28:38.336 PM 03/17/2016,Teleop Disabled,11,FALSE,0,NO ERROR,-0.000000,-0.006417,0.000000,0.006417,TRUE,FALSE,FALSE,FALSE,FALSE,FALSE,Disabled,0.000000,0.000000,0.000000,TRUE,-1.380463,-5.853500,0.000000,0.000000,0.000000,0.000000,0.000000,-0.001000,0.008000,-0.090000,-0.310000,0.970000,1.221895,Hold,72.928223,286720.000000,Hold,-134714.000000,126976.000000,Suck,0.000000,2181.818182,Speed,0.000000,2181.818182,Speed,On,Off0.000000,0,,,,
08:28:38.436 PM 03/17/2016,Teleop Disabled,11,FALSE,0,NO ERROR,-0.000000,-0.006417,0.000000,0.006417,TRUE,FALSE,FALSE,FALSE,FALSE,FALSE,Disabled,0.000000,0.000000,0.000000,TRUE,-1.380463,-5.853500,0.000000,0.000000,0.000000,0.000000,0.002000,0.000000,0.012000,-0.090000,-0.310000,0.970000,1.203646,Hold,72.928223,286720.000000,Hold,-134714.000000,126976.000000,Suck,0.000000,2181.818182,Speed,0.000000,2181.818182,Speed,On,Off0.000000,0,,,,
08:28:38.536 PM 03/17/2016,Teleop Disabled,11,FALSE,0,NO ERROR,-0.000000,-0.006417,0.000000,0.006417,TRUE,FALSE,FALSE,FALSE,FALSE,FALSE,Disabled,0.000000,0.000000,0.000000,TRUE,-1.380463,-5.853500,0.000000,0.000000,0.000000,0.000000,-0.001000,-0.002000,0.004000,-0.100000,-0.320000,0.960000,1.202231,Hold,72.928223,286720.000000,Hold,-134714.000000,126976.000000,Suck,0.000000,2181.818182,Speed,0.000000,2181.818182,Speed,On,Off0.000000,0,,,,
08:28:38.636 PM 03/17/2016,Teleop Disabled,9,FALSE,0,NO ERROR,-0.000000,-0.006417,0.000000,0.006417,TRUE,TRUE,FALSE,FALSE,FALSE,FALSE,Disabled,0.000000,0.000000,0.000000,TRUE,-1.380463,-5.853500,0.000000,0.000000,0.000000,0.000000,-0.002000,0.002000,0.008000,-0.090000,-0.320000,0.960000,1.208056,Hold,72.928223,286720.000000,Hold,-134714.000000,126976.000000,Suck,0.000000,2181.818182,Speed,0.000000,2181.818182,Speed,On,Off0.000000,0,,,,
08:28:38.737 PM 03/17/2016,Teleop Disabled,9,FALSE,0,NO ERROR,-0.000000,-0.006417,0.000000,0.006417,TRUE,TRUE,FALSE,FALSE,FALSE,FALSE,Disabled,0.000000,0.000000,0.000000,TRUE,-1.380463,-5.853500,0.000000,0.000000,0.000000,0.000000,0.002000,0.000000,0.006000,-0.090000,-0.320000,0.970000,1.220463,Hold,72.928223,286720.000000,Hold,-134714.000000,126976.000000,Suck,0.000000,0.000000,Speed,0.000000,0.000000,Speed,On,Off0.000000,0,,,,
08:28:38.837 PM 03/17/2016,Teleop Disabled,10,FALSE,0,NO ERROR,-0.000000,-0.006417,0.000000,0.006417,TRUE,FALSE,FALSE,FALSE,FALSE,FALSE,Disabled,0.000000,0.000000,0.000000,TRUE,-1.380463,-5.853500,0.000000,0.000000,0.000000,0.000000,0.001000,0.001000,0.012000,-0.090000,-0.320000,0.970000,1.213392,Hold,72.928223,286720.000000,Hold,-134714.000000,126976.000000,Suck,0.000000,0.000000,Speed,0.000000,0.000000,Speed,On,Off0.000000,0,,,,
08:28:38.938 PM 03/17/2016,Teleop Disabled,9,FALSE,0,NO ERROR,-0.000000,-0.006417,0.000000,0.006417,TRUE,FALSE,FALSE,FALSE,FALSE,FALSE,Disabled,0.000000,0.000000,0.000000,TRUE,-1.380463,-5.853500,0.000000,0.000000,0.000000,0.000000,0.000000,0.000000,0.014000,-0.090000,-0.320000,0.970000,1.207880,Hold,72.928223,286720.000000,Hold,-134714.000000,126976.000000,Suck,0.000000,2181.818182,Speed,0.000000,2181.818182,Speed,On,Off0.000000,0,,,,
08:28:39.038 PM 03/17/2016,Teleop Disabled,9,FALSE,0,NO ERROR,-0.000000,-0.006417,0.000000,0.006417,TRUE,FALSE,FALSE,FALSE,FALSE,FALSE,Disabled,0.000000,0.000000,0.000000,TRUE,-1.380463,-5.853500,0.000000,0.000000,0.000000,0.000000,0.000000,0.000000,0.012000,-0.090000,-0.320000,0.970000,1.204420,Hold,72.928223,286720.000000,Hold,-134714.000000,126976.000000,Suck,0.000000,2181.818182,Speed,0.000000,2181.818182,Speed,On,Off0.000000,0,,,,
08:28:39.138 PM 03/17/2016,Teleop Disabled,11,FALSE,0,NO ERROR,-0.000000,-0.006417,0.000000,0.006417,TRUE,FALSE,FALSE,FALSE,FALSE,FALSE,Disabled,0.000000,0.000000,0.000000,TRUE,-1.380463,-5.853500,0.000000,0.000000,0.000000,0.000000,0.004000,0.000000,0.011000,-0.090000,-0.320000,0.970000,1.186622,Hold,72.928223,286720.000000,Hold,-134714.000000,126976.000000,Suck,0.000000,2181.818182,Speed,0.000000,2181.818182,Speed,On,Off0.000000,0,,,,
08:28:39.238 PM 03/17/2016,Teleop Disabled,8,FALSE,0,NO ERROR,-0.000000,-0.006417,0.000000,0.006417,TRUE,FALSE,FALSE,FALSE,FALSE,FALSE,Disabled,0.000000,0.000000,0.000000,TRUE,-1.380463,-5.853500,0.000000,0.000000,0.000000,0.000000,0.003000,0.000000,0.013000,-0.090000,-0.330000,0.970000,1.189851,Hold,72.928223,286720.000000,Hold,-134714.000000,126976.000000,Suck,0.000000,2181.818182,Speed,0.000000,2181.818182,Speed,On,Off0.000000,0,,,,
08:28:39.339 PM 03/17/2016,Teleop Disabled,10,FALSE,0,NO ERROR,-0.000000,-0.006417,0.000000,0.006417,TRUE,FALSE,FALSE,FALSE,FALSE,FALSE,Disabled,0.000000,0.000000,0.000000,TRUE,-1.380463,-5.853500,0.000000,0.000000,0.000000,0.000000,0.000000,0.000000,0.008000,-0.090000,-0.330000,0.960000,1.201084,Hold,72.928223,286720.000000,Hold,-134714.000000,126976.000000,Suck,0.000000,2181.818182,Speed,0.000000,2181.818182,Speed,On,Off0.000000,0,,,,
08:28:39.440 PM 03/17/2016,Teleop Disabled,9,FALSE,0,NO ERROR,-0.000000,-0.006417,0.000000,0.006417,TRUE,TRUE,FALSE,FALSE,FALSE,FALSE,Disabled,0.000000,0.000000,0.000000,TRUE,-1.380463,-5.853500,0.000000,0.000000,0.000000,0.000000,0.001000,0.000000,0.010000,-0.090000,-0.330000,0.960000,1.186784,Hold,72.928223,286720.000000,Hold,-134714.000000,126976.000000,Suck,0.000000,2181.818182,Speed,0.000000,2181.818182,Speed,On,Off0.000000,0,,,,
08:28:39.540 PM 03/17/2016,Teleop Disabled,10,FALSE,0,NO ERROR,-0.000000,-0.006417,0.000000,0.006417,TRUE,TRUE,FALSE,FALSE,FALSE,FALSE,Disabled,0.000000,0.000000,0.000000,TRUE,-1.380463,-5.853500,0.000000,0.000000,0.000000,0.000000,0.002000,-0.001000,0.013000,-0.090000,-0.330000,0.960000,1.190960,Hold,72.928223,286720.000000,Hold,-134714.000000,126976.000000,Suck,0.000000,0.000000,Speed,0.000000,0.000000,Speed,On,Off0.000000,0,,,,
08:28:39.640 PM 03/17/2016,Teleop Disabled,10,FALSE,0,NO ERROR,-0.000000,-0.006417,0.000000,0.006417,TRUE,FALSE,FALSE,FALSE,FALSE,FALSE,Disabled,0.000000,0.000000,0.000000,TRUE,-1.380463,-5.853500,0.000000,0.000000,0.000000,0.000000,0.002000,-0.001000,0.013000,-0.090000,-0.330000,0.960000,1.200947,Hold,72.928223,286720.000000,Hold,-134714.000000,126976.000000,Suck,0.000000,0.000000,Speed,0.000000,0.000000,Speed,On,Off0.000000,0,,,,
08:28:39.742 PM 03/17/2016,Teleop Disabled,11,FALSE,0,NO ERROR,-0.000000,-0.006417,0.000000,0.006417,TRUE,FALSE,FALSE,FALSE,FALSE,FALSE,Disabled,0.000000,0.000000,0.000000,TRUE,-1.380463,-5.853500,0.000000,0.000000,0.000000,0.000000,0.001000,0.000000,0.009000,-0.090000,-0.330000,0.960000,1.191277,Hold,72.928223,286720.000000,Hold,-134714.000000,126976.000000,Suck,0.000000,2181.818182,Speed,0.000000,2181.818182,Speed,On,Off0.000000,0,,,,
08:28:39.842 PM 03/17/2016,Teleop Disabled,10,FALSE,0,NO ERROR,-0.000000,-0.006417,0.000000,0.006417,TRUE,FALSE,FALSE,FALSE,FALSE,FALSE,Disabled,0.000000,0.000000,0.000000,TRUE,-1.380463,-5.853500,0.000000,0.000000,0.000000,0.000000,0.002000,0.000000,0.004000,-0.090000,-0.330000,0.960000,1.187256,Hold,72.928223,286720.000000,Hold,-134714.000000,126976.000000,Suck,0.000000,2181.818182,Speed,0.000000,2181.818182,Speed,On,Off0.000000,0,,,,
08:28:39.942 PM 03/17/2016,Teleop Disabled,10,FALSE,0,NO ERROR,-0.000000,-0.006417,0.000000,0.006417,TRUE,FALSE,FALSE,FALSE,FALSE,FALSE,Disabled,0.000000,0.000000,0.000000,TRUE,-1.380463,-5.853500,0.000000,0.000000,0.000000,0.000000,0.000000,0.001000,0.007000,-0.090000,-0.330000,0.960000,1.195191,Hold,72.928223,286720.000000,Hold,-134714.000000,126976.000000,Suck,0.000000,2181.818182,Speed,0.000000,2181.818182,Speed,On,Off0.000000,0,,,,
08:28:40.043 PM 03/17/2016,Teleop Disabled,10,FALSE,0,NO ERROR,-0.000000,-0.006417,0.000000,0.006417,TRUE,FALSE,FALSE,FALSE,FALSE,FALSE,Disabled,0.000000,0.000000,0.000000,TRUE,-1.380463,-5.853500,0.000000,0.000000,0.000000,0.000000,-0.001000,0.000000,0.010000,-0.090000,-0.330000,0.960000,1.195879,Hold,72.928223,286720.000000,Hold,-134714.000000,126976.000000,Suck,0.000000,2181.818182,Speed,0.000000,2181.818182,Speed,On,Off0.000000,0,,,,
08:28:40.143 PM 03/17/2016,Teleop Disabled,10,FALSE,0,NO ERROR,-0.000000,-0.006417,0.000000,0.006417,TRUE,FALSE,FALSE,FALSE,FALSE,FALSE,Disabled,0.000000,0.000000,0.000000,TRUE,-1.380463,-5.853500,0.000000,0.000000,0.000000,0.000000,0.000000,0.000000,0.011000,-0.090000,-0.330000,0.970000,1.196461,Hold,72.928223,286720.000000,Hold,-134714.000000,126976.000000,Suck,0.000000,2181.818182,Speed,0.000000,2181.818182,Speed,On,Off0.000000,0,,,,
08:28:40.244 PM 03/17/2016,Teleop Disabled,10,FALSE,0,NO ERROR,-0.000000,-0.006417,0.000000,0.006417,TRUE,TRUE,FALSE,FALSE,FALSE,FALSE,Disabled,0.000000,0.000000,0.000000,TRUE,-1.380463,-5.853500,0.000000,0.000000,0.000000,0.000000,0.000000,0.000000,0.011000,-0.090000,-0.330000,0.970000,1.207384,Hold,72.928223,286720.000000,Hold,-134714.000000,126976.000000,Suck,0.000000,2181.818182,Speed,0.000000,2181.818182,Speed,On,Off0.000000,0,,,,
08:28:40.345 PM 03/17/2016,Teleop Disabled,10,FALSE,0,NO ERROR,-0.000000,-0.006417,0.000000,0.006417,TRUE,TRUE,FALSE,FALSE,FALSE,FALSE,Disabled,0.000000,0.000000,0.000000,TRUE,-1.380463,-5.853500,0.000000,0.000000,0.000000,0.000000,0.000000,-0.002000,0.009000,-0.090000,-0.330000,0.970000,1.207825,Hold,72.928223,286720.000000,Hold,-134714.000000,126976.000000,Suck,0.000000,0.000000,Speed,0.000000,0.000000,Speed,On,Off0.000000,0,,,,
08:28:40.446 PM 03/17/2016,Teleop Disabled,11,FALSE,0,NO ERROR,-0.000000,-0.006417,0.000000,0.006417,TRUE,FALSE,FALSE,FALSE,FALSE,FALSE,Disabled,0.000000,0.000000,0.000000,TRUE,-1.380463,-5.853500,0.000000,0.000000,0.000000,0.000000,0.000000,-0.002000,0.009000,-0.090000,-0.330000,0.970000,1.219585,Hold,72.928223,286720.000000,Hold,-134714.000000,126976.000000,Suck,0.000000,0.000000,Speed,0.000000,0.000000,Speed,On,Off0.000000,0,,,,
08:28:40.547 PM 03/17/2016,Teleop Disabled,11,FALSE,0,NO ERROR,-0.000000,-0.006417,0.000000,0.006417,TRUE,FALSE,FALSE,FALSE,FALSE,FALSE,Disabled,0.000000,0.000000,0.000000,TRUE,-1.380463,-5.853500,0.000000,0.000000,0.000000,0.000000,0.001000,0.000000,0.006000,-0.090000,-0.330000,0.980000,1.236990,Hold,72.928223,286720.000000,Hold,-134714.000000,126976.000000,Suck,0.000000,2181.818182,Speed,0.000000,2181.818182,Speed,On,Off0.000000,0,,,,
08:28:40.648 PM 03/17/2016,Teleop Disabled,11,FALSE,0,NO ERROR,-0.000000,-0.006417,0.000000,0.006417,TRUE,FALSE,FALSE,FALSE,FALSE,FALSE,Disabled,0.000000,0.000000,0.000000,TRUE,-1.380463,-5.853500,0.000000,0.000000,0.000000,0.000000,-0.003000,0.000000,0.012000,-0.090000,-0.330000,0.980000,1.233176,Hold,72.928223,286720.000000,Hold,-134714.000000,126976.000000,Suck,0.000000,2181.818182,Speed,0.000000,2181.818182,Speed,On,Off0.000000,0,,,,
08:28:40.748 PM 03/17/2016,Teleop Disabled,10,FALSE,0,NO ERROR,-0.000000,-0.006417,0.000000,0.006417,TRUE,FALSE,FALSE,FALSE,FALSE,FALSE,Disabled,0.000000,0.000000,0.000000,TRUE,-1.380463,-5.853500,0.000000,0.000000,0.000000,0.000000,0.000000,0.000000,0.012000,-0.090000,-0.330000,0.980000,1.229121,Hold,72.928223,286720.000000,Hold,-134714.000000,126976.000000,Suck,0.000000,2181.818182,Speed,0.000000,2181.818182,Speed,On,Off0.000000,0,,,,
08:28:40.849 PM 03/17/2016,Teleop Disabled,11,FALSE,0,NO ERROR,-0.000000,-0.006417,0.000000,0.006417,TRUE,FALSE,FALSE,FALSE,FALSE,FALSE,Disabled,0.000000,0.000000,0.000000,TRUE,-1.380463,-5.853500,0.000000,0.000000,0.000000,0.000000,0.000000,0.000000,0.006000,-0.100000,-0.330000,0.980000,1.227275,Hold,72.928223,286720.000000,Hold,-134714.000000,126976.000000,Suck,0.000000,2181.818182,Speed,0.000000,2181.818182,Speed,On,Off0.000000,0,,,,
08:28:40.949 PM 03/17/2016,Teleop Disabled,11,FALSE,0,NO ERROR,-0.000000,-0.006417,0.000000,0.006417,TRUE,FALSE,FALSE,FALSE,FALSE,FALSE,Disabled,0.000000,0.000000,0.000000,TRUE,-1.380463,-5.853500,0.000000,0.000000,0.000000,0.000000,-0.001000,0.000000,0.008000,-0.090000,-0.330000,0.980000,1.226577,Hold,72.928223,286720.000000,Hold,-134714.000000,126976.000000,Suck,0.000000,2181.818182,Speed,0.000000,2181.818182,Speed,On,Off0.000000,0,,,,
08:28:41.049 PM 03/17/2016,Teleop Disabled,10,FALSE,0,NO ERROR,-0.000000,-0.006417,0.000000,0.006417,TRUE,TRUE,FALSE,FALSE,FALSE,FALSE,Disabled,0.000000,0.000000,0.000000,TRUE,-1.380463,-5.853500,0.000000,0.000000,0.000000,0.000000,0.000000,-0.001000,0.009000,-0.090000,-0.330000,0.980000,1.235992,Hold,72.928223,286720.000000,Hold,-134714.000000,126976.000000,Suck,0.000000,2181.818182,Speed,0.000000,2181.818182,Speed,On,Off0.000000,0,,,,
08:28:41.150 PM 03/17/2016,Teleop Disabled,10,FALSE,0,NO ERROR,-0.000000,-0.006417,0.000000,0.006417,TRUE,TRUE,FALSE,FALSE,FALSE,FALSE,Disabled,0.000000,0.000000,0.000000,TRUE,-1.380463,-5.853500,0.000000,0.000000,0.000000,0.000000,0.000000,0.001000,0.010000,-0.090000,-0.330000,0.980000,1.233751,Hold,72.928223,286720.000000,Hold,-134714.000000,126976.000000,Suck,0.000000,0.000000,Speed,0.000000,0.000000,Speed,On,Off0.000000,0,,,,
08:28:41.250 PM 03/17/2016,Teleop Disabled,10,FALSE,0,NO ERROR,-0.000000,-0.006417,0.000000,0.006417,TRUE,FALSE,FALSE,FALSE,FALSE,FALSE,Disabled,0.000000,0.000000,0.000000,TRUE,-1.380463,-5.853500,0.000000,0.000000,0.000000,0.000000,0.000000,-0.001000,0.012000,-0.090000,-0.330000,0.980000,1.240305,Hold,72.928223,286720.000000,Hold,-134714.000000,126976.000000,Suck,0.000000,0.000000,Speed,0.000000,0.000000,Speed,On,Off0.000000,0,,,,
08:28:41.351 PM 03/17/2016,Teleop Disabled,10,FALSE,0,NO ERROR,-0.000000,-0.006417,0.000000,0.006417,TRUE,FALSE,FALSE,FALSE,FALSE,FALSE,Disabled,0.000000,0.000000,0.000000,TRUE,-1.380463,-5.853500,0.000000,0.000000,0.000000,0.000000,0.002000,0.002000,0.009000,-0.090000,-0.330000,0.980000,1.240305,Hold,72.928223,286720.000000,Hold,-134714.000000,126976.000000,Suck,0.000000,2181.818182,Speed,0.000000,2181.818182,Speed,On,Off0.000000,0,,,,
08:28:41.451 PM 03/17/2016,Teleop Disabled,13,FALSE,0,NO ERROR,-0.000000,-0.006417,0.000000,0.006417,TRUE,FALSE,FALSE,FALSE,FALSE,FALSE,Disabled,0.000000,0.000000,0.000000,TRUE,-1.380463,-5.853500,0.000000,0.000000,0.000000,0.000000,0.002000,0.004000,0.011000,-0.090000,-0.330000,0.980000,1.237135,Hold,72.928223,286720.000000,Hold,-134714.000000,126976.000000,Suck,0.000000,2181.818182,Speed,0.000000,2181.818182,Speed,On,Off0.000000,0,,,,
08:28:41.553 PM 03/17/2016,Teleop Disabled,7,FALSE,0,NO ERROR,-0.000000,-0.006417,0.000000,0.006417,TRUE,FALSE,FALSE,FALSE,FALSE,FALSE,Disabled,0.000000,0.000000,0.000000,TRUE,-1.380463,-5.853500,0.000000,0.000000,0.000000,0.000000,0.000000,0.000000,0.007000,-0.090000,-0.330000,0.980000,1.250637,Hold,72.928223,286720.000000,Hold,-134714.000000,126976.000000,Suck,0.000000,2181.818182,Speed,0.000000,2181.818182,Speed,On,Off0.000000,0,,,,
08:28:41.651 PM 03/17/2016,Teleop Disabled,9,FALSE,0,NO ERROR,-0.000000,-0.006417,0.000000,0.006417,TRUE,FALSE,FALSE,FALSE,FALSE,FALSE,Disabled,0.000000,0.000000,0.000000,TRUE,-1.380463,-5.853500,0.000000,0.000000,0.000000,0.000000,-0.001000,0.000000,0.012000,-0.090000,-0.330000,0.970000,1.244932,Hold,72.928223,286720.000000,Hold,-134714.000000,126976.000000,Suck,0.000000,2181.818182,Speed,0.000000,2181.818182,Speed,On,Off0.000000,0,,,,
08:28:41.753 PM 03/17/2016,Teleop Disabled,10,TRUE,91,Variant To Data in WPI_MotorControlRefNum Registry Get.vi->Finish.vi->Robot Main.vi,-0.000000,-0.006417,0.000000,0.006417,TRUE,FALSE,FALSE,FALSE,FALSE,FALSE,Disabled,0.000000,0.000000,0.000000,TRUE,-1.380463,-5.853500,0.000000,0.000000,0.000000,0.000000,0.001000,0.000000,0.012000,-0.090000,-0.330000,0.970000,1.256782,Hold,72.928223,286720.000000,Hold,-134714.000000,126976.000000,Suck,0.000000,2181.818182,Speed,0.000000,2181.818182,Speed,On,Off0.000000,0,,,,
08:28:41.853 PM 03/17/2016,Finish,12,TRUE,91,Variant To Data in WPI_GyroRefNum Registry Get.vi->Finish.vi->Robot Main.vi,-0.000000,-0.006417,0.000000,0.006417,TRUE,TRUE,FALSE,FALSE,FALSE,FALSE,Disabled,0.000000,0.000000,0.000000,TRUE,-1.380463,-5.853500,0.000000,0.000000,0.000000,0.000000,-0.001000,0.000000,0.011000,-0.090000,-0.330000,0.960000,1.269929,Hold,72.928223,286720.000000,Hold,-134714.000000,126976.000000,Suck,0.000000,2181.818182,Speed,0.000000,2181.818182,Speed,On,Off0.000000,0,,,,
08:28:41.954 PM 03/17/2016,Finish,12,TRUE,-44007,<LOCATION>WPI_MotorControlRefNum Registry Get.vi<CALLSTACK>WPI_MotorControlRefNum Registry Get.vi< <Finish.vi< <Robot Main.vi,-0.000000,-0.006417,0.000000,0.006417,TRUE,TRUE,FALSE,FALSE,FALSE,FALSE,Disabled,0.000000,0.000000,0.000000,TRUE,-1.380463,-5.853500,0.000000,0.000000,0.000000,0.000000,-0.001000,0.000000,0.011000,-0.090000,-0.330000,0.960000,1.271760,Hold,72.928223,286720.000000,Hold,-134714.000000,126976.000000,Suck,0.000000,0.000000,Speed,0.000000,0.000000,Speed,On,Off0.000000,0,,,,