Time,Robot Mode,Loop Time,Error Status,Error Code,Error Source,Left Motor Output,Left Motor Encoder,Right Motor Output,Right Motor Encoder,Is Level,Is Stalled,Ball Detector Photoeye,Vision Enabled,Vision Teleop Control,Vision Auto Control,Vision Current State,Vision X Output,Vision NavX Error,Vision NavX Target,NavX Connection Status,NavX Displacement X,NavX Displacement Y,NavX Displacement Z,NavX Velocity X,NavX Velocity Y,NavX Velocity Z,NavX Acceleration X,NavX Acceleration Y,NavX Acceleration Z,NavX Pitch,NavX Yaw,NavX Roll,Gyro Angle,Roller Arm State,Roller Arm Actual,Roller Arm Desired,Shooter Arm State,Shooter Arm Actual,Shooter Arm Desired,Shooter State,Actual RPM Left,Desired RPM Left,Control Mode Left,Actual RPM Right,Desired RPM Right,Control Mode Right,Ball Shooter Cylinder,Ball Halo Cylinder,Scaler Motor Output,Scaler Solenoid Fire,Auto To Run,Auto Current File,Auto File Status,Auto Current Command,Auto Trimmed Command,Shooter Amps Left,Shooter Amps Right
02:16:04.675 PM 04/02/2016,Autonomous Disabled,8,TRUE,-44087,NetComm_CAN_Receive.vi:5470001<APPEND>  <b>Complete call chain:</b>      NetComm_CAN_Receive.vi:5470001      WPI_CAN_PDPReceive.vi      WPI_Power Get PDP Currents.vi      Periodic Tasks.vi      Robot Main.vi,-0.000000,0.000000,-0.000000,0.000000,TRUE,FALSE,TRUE,FALSE,FALSE,FALSE,Disabled,0.000000,0.000000,0.000000,TRUE,1.124802,0.095520,0.000000,0.122131,-0.316589,0.000000,0.057000,-0.018000,0.096000,0.290000,-0.100000,-0.590000,-0.107742,Hold,51.543701,47.000000,Hold,-143406.000000,143360.000000,LowGoal,2152.500000,-2181.818182,Speed,2130.000000,-2181.818182,Speed,Off,Off,0.000000,FALSE,0,,,,,0.000000,0.000000
02:16:04.779 PM 04/02/2016,Teleop Disabled,9,TRUE,-44087,NetComm_CAN_Receive.vi:5470001<APPEND>  <b>Complete call chain:</b>      NetComm_CAN_Receive.vi:5470001      WPI_CAN_PDPReceive.vi      WPI_Power Get PDP Currents.vi      Periodic Tasks.vi      Robot Main.vi,-0.000000,0.000000,-0.000000,0.000000,TRUE,FALSE,TRUE,TRUE,FALSE,FALSE,Disabled,0.000000,0.000000,0.000000,TRUE,1.177826,-0.009644,0.000000,0.000000,0.000000,0.000000,0.057000,-0.018000,0.096000,0.000000,-0.270000,-0.650000,-0.002630,ResetBack,1.261719,-0.000049,ResetBack,-143410.000000,-0.250000,Empty,0.000000,0.000000,Speed,0.000000,0.000000,Speed,Off,On,0.000000,FALSE,0,,,,,0.000000,0.000000
02:16:04.879 PM 04/02/2016,Teleop Disabled,10,TRUE,-44087,NetComm_CAN_Receive.vi:5470001<APPEND>  <b>Complete call chain:</b>      NetComm_CAN_Receive.vi:5470001      WPI_CAN_PDPReceive.vi      WPI_Power Get PDP Currents.vi      Periodic Tasks.vi      Robot Main.vi,-0.000000,0.000000,-0.000000,0.000000,TRUE,FALSE,TRUE,TRUE,FALSE,FALSE,Disabled,0.000000,0.000000,0.000000,TRUE,1.177826,-0.009644,0.000000,0.000000,0.000000,0.000000,-0.002000,0.001000,0.012000,0.000000,-0.270000,-0.650000,-0.000885,ResetBack,1.261719,-0.000049,ResetBack,-143410.000000,-0.250000,Empty,0.000000,0.000000,Speed,0.000000,0.000000,Speed,Off,On,0.000000,FALSE,0,,,,,0.000000,0.000000
02:16:04.982 PM 04/02/2016,Teleop Disabled,11,TRUE,-44087,NetComm_CAN_Receive.vi:5470001<APPEND>  <b>Complete call chain:</b>      NetComm_CAN_Receive.vi:5470001      WPI_CAN_PDPReceive.vi      WPI_Power Get PDP Currents.vi      Periodic Tasks.vi      Robot Main.vi,-0.000000,0.000000,-0.000000,0.000000,TRUE,FALSE,TRUE,TRUE,FALSE,FALSE,Disabled,0.000000,0.000000,0.000000,TRUE,1.177826,-0.009644,0.000000,0.000000,0.000000,0.000000,0.001000,0.001000,0.014000,0.000000,-0.270000,-0.660000,0.017505,ResetBack,1.261719,-0.000049,ResetBack,-143410.000000,-0.250000,Empty,0.000000,0.000000,Speed,0.000000,0.000000,Speed,Off,On,0.000000,FALSE,0,,,,,0.000000,0.000000
02:16:05.082 PM 04/02/2016,Teleop Disabled,9,TRUE,-44087,NetComm_CAN_Receive.vi:5470001<APPEND>  <b>Complete call chain:</b>      NetComm_CAN_Receive.vi:5470001      WPI_CAN_PDPReceive.vi      WPI_Power Get PDP Currents.vi      Periodic Tasks.vi      Robot Main.vi,-0.000000,0.000000,-0.000000,0.000000,TRUE,FALSE,TRUE,TRUE,FALSE,FALSE,Disabled,0.000000,0.000000,0.000000,TRUE,1.177826,-0.009644,0.000000,0.000000,0.000000,0.000000,0.000000,-0.002000,0.013000,0.000000,-0.270000,-0.640000,0.024638,ResetBack,1.261719,-0.000049,ResetBack,-143410.000000,-0.250000,Empty,0.000000,0.000000,Speed,0.000000,0.000000,Speed,Off,On,0.000000,FALSE,0,,,,,0.000000,0.000000
02:16:05.182 PM 04/02/2016,Teleop Disabled,9,TRUE,-44087,NetComm_CAN_Receive.vi:5470001<APPEND>  <b>Complete call chain:</b>      NetComm_CAN_Receive.vi:5470001      WPI_CAN_PDPReceive.vi      WPI_Power Get PDP Currents.vi      Periodic Tasks.vi      Robot Main.vi,-0.000000,0.000000,-0.000000,0.000000,TRUE,FALSE,TRUE,TRUE,FALSE,FALSE,Disabled,0.000000,0.000000,0.000000,TRUE,1.177826,-0.009644,0.000000,0.000000,0.000000,0.000000,0.001000,0.000000,0.015000,0.000000,-0.270000,-0.640000,0.020514,ResetBack,1.261719,-0.000049,ResetBack,-143410.000000,-0.250000,Empty,0.000000,0.000000,Speed,0.000000,0.000000,Speed,On,On,0.000000,FALSE,0,,,,,0.000000,0.000000
02:16:05.284 PM 04/02/2016,Teleop Disabled,9,TRUE,-44087,NetComm_CAN_Receive.vi:5470001<APPEND>  <b>Complete call chain:</b>      NetComm_CAN_Receive.vi:5470001      WPI_CAN_PDPReceive.vi      WPI_Power Get PDP Currents.vi      Periodic Tasks.vi      Robot Main.vi,-0.000000,0.000000,-0.000000,0.000000,TRUE,FALSE,TRUE,TRUE,FALSE,FALSE,Disabled,0.000000,0.000000,0.000000,TRUE,1.177826,-0.009644,0.000000,0.000000,0.000000,0.000000,0.003000,-0.002000,0.018000,0.000000,-0.260000,-0.640000,0.012066,ResetBack,1.261719,-0.000049,ResetBack,-143410.000000,-0.250000,Empty,0.000000,0.000000,Speed,0.000000,0.000000,Speed,On,On,0.000000,FALSE,0,,,,,0.000000,0.000000
02:16:05.385 PM 04/02/2016,Teleop Disabled,10,TRUE,-44087,NetComm_CAN_Receive.vi:5470001<APPEND>  <b>Complete call chain:</b>      NetComm_CAN_Receive.vi:5470001      WPI_CAN_PDPReceive.vi      WPI_Power Get PDP Currents.vi      Periodic Tasks.vi      Robot Main.vi,-0.000000,0.000000,-0.000000,0.000000,TRUE,FALSE,TRUE,TRUE,FALSE,FALSE,Disabled,0.000000,0.000000,0.000000,TRUE,1.177826,-0.009644,0.000000,0.000000,0.000000,0.000000,0.000000,0.000000,0.015000,0.000000,-0.260000,-0.640000,0.003480,ResetBack,1.261719,-0.000049,ResetBack,-143410.000000,-0.250000,Empty,0.000000,0.000000,Speed,0.000000,0.000000,Speed,On,On,0.000000,FALSE,0,,,,,0.000000,0.000000
02:16:05.485 PM 04/02/2016,Teleop Disabled,9,TRUE,-44087,NetComm_CAN_Receive.vi:5470001<APPEND>  <b>Complete call chain:</b>      NetComm_CAN_Receive.vi:5470001      WPI_CAN_PDPReceive.vi      WPI_Power Get PDP Currents.vi      Periodic Tasks.vi      Robot Main.vi,-0.000000,0.000000,-0.000000,0.000000,TRUE,FALSE,TRUE,TRUE,FALSE,FALSE,Disabled,0.000000,0.000000,0.000000,TRUE,1.177826,-0.009644,0.000000,0.000000,0.000000,0.000000,0.000000,-0.003000,0.013000,0.000000,-0.260000,-0.650000,-0.002523,ResetBack,1.261719,-0.000049,ResetBack,-143410.000000,-0.250000,Empty,0.000000,0.000000,Speed,0.000000,0.000000,Speed,On,On,0.000000,FALSE,0,,,,,0.000000,0.000000
02:16:05.586 PM 04/02/2016,Teleop Disabled,11,TRUE,-44087,NetComm_CAN_Receive.vi:5470001<APPEND>  <b>Complete call chain:</b>      NetComm_CAN_Receive.vi:5470001      WPI_CAN_PDPReceive.vi      WPI_Power Get PDP Currents.vi      Periodic Tasks.vi      Robot Main.vi,-0.000000,0.000000,-0.000000,0.000000,TRUE,FALSE,TRUE,TRUE,FALSE,FALSE,Disabled,0.000000,0.000000,0.000000,TRUE,1.177826,-0.009644,0.000000,0.000000,0.000000,0.000000,-0.001000,0.000000,0.014000,0.000000,-0.260000,-0.640000,-0.002382,ResetBack,1.261719,-0.000049,ResetBack,-143410.000000,-0.250000,Empty,0.000000,0.000000,Speed,0.000000,0.000000,Speed,On,On,0.000000,FALSE,0,,,,,0.000000,0.000000
02:16:05.686 PM 04/02/2016,Teleop Disabled,10,TRUE,-44087,NetComm_CAN_Receive.vi:5470001<APPEND>  <b>Complete call chain:</b>      NetComm_CAN_Receive.vi:5470001      WPI_CAN_PDPReceive.vi      WPI_Power Get PDP Currents.vi      Periodic Tasks.vi      Robot Main.vi,-0.000000,0.000000,-0.000000,0.000000,TRUE,FALSE,TRUE,TRUE,FALSE,FALSE,Disabled,0.000000,0.000000,0.000000,TRUE,1.177826,-0.009644,0.000000,0.000000,0.000000,0.000000,0.000000,0.000000,0.016000,-0.010000,-0.260000,-0.650000,-0.006727,ResetBack,1.261719,-0.000049,ResetBack,-143410.000000,-0.250000,Empty,0.000000,0.000000,Speed,0.000000,0.000000,Speed,On,On,0.000000,FALSE,0,,,,,0.000000,0.000000
02:16:05.788 PM 04/02/2016,Teleop Disabled,11,TRUE,-44087,NetComm_CAN_Receive.vi:5470001<APPEND>  <b>Complete call chain:</b>      NetComm_CAN_Receive.vi:5470001      WPI_CAN_PDPReceive.vi      WPI_Power Get PDP Currents.vi      Periodic Tasks.vi      Robot Main.vi,-0.000000,0.000000,-0.000000,0.000000,TRUE,FALSE,TRUE,TRUE,FALSE,FALSE,Disabled,0.000000,0.000000,0.000000,TRUE,1.177826,-0.009644,0.000000,0.000000,0.000000,0.000000,0.001000,0.000000,0.013000,0.000000,-0.260000,-0.650000,-0.006410,ResetBack,1.261719,-0.000049,ResetBack,-143410.000000,-0.250000,Empty,0.000000,0.000000,Speed,0.000000,0.000000,Speed,On,On,0.000000,FALSE,0,,,,,0.000000,0.000000
02:16:05.888 PM 04/02/2016,Teleop Disabled,11,TRUE,-44087,NetComm_CAN_Receive.vi:5470001<APPEND>  <b>Complete call chain:</b>      NetComm_CAN_Receive.vi:5470001      WPI_CAN_PDPReceive.vi      WPI_Power Get PDP Currents.vi      Periodic Tasks.vi      Robot Main.vi,-0.000000,0.000000,-0.000000,0.000000,TRUE,FALSE,TRUE,TRUE,FALSE,FALSE,Disabled,0.000000,0.000000,0.000000,TRUE,1.177826,-0.009644,0.000000,0.000000,0.000000,0.000000,0.001000,-0.002000,0.014000,0.000000,-0.260000,-0.650000,-0.020222,ResetBack,1.261719,-0.000049,ResetBack,-143410.000000,-0.250000,Empty,0.000000,0.000000,Speed,0.000000,0.000000,Speed,On,On,0.000000,FALSE,0,,,,,0.000000,0.000000
02:16:05.990 PM 04/02/2016,Teleop Disabled,11,TRUE,-44087,NetComm_CAN_Receive.vi:5470001<APPEND>  <b>Complete call chain:</b>      NetComm_CAN_Receive.vi:5470001      WPI_CAN_PDPReceive.vi      WPI_Power Get PDP Currents.vi      Periodic Tasks.vi      Robot Main.vi,-0.000000,0.000000,-0.000000,0.000000,TRUE,FALSE,TRUE,TRUE,FALSE,FALSE,Disabled,0.000000,0.000000,0.000000,TRUE,1.177826,-0.009644,0.000000,0.000000,0.000000,0.000000,0.000000,-0.001000,0.013000,-0.010000,-0.260000,-0.650000,-0.019065,ResetBack,1.261719,-0.000049,ResetBack,-143410.000000,-0.250000,Suck,0.000000,1818.181818,Speed,0.000000,1818.181818,Speed,On,Off,0.000000,FALSE,0,,,,,0.000000,0.000000
02:16:06.091 PM 04/02/2016,Teleop Disabled,9,TRUE,-44087,NetComm_CAN_Receive.vi:5470001<APPEND>  <b>Complete call chain:</b>      NetComm_CAN_Receive.vi:5470001      WPI_CAN_PDPReceive.vi      WPI_Power Get PDP Currents.vi      Periodic Tasks.vi      Robot Main.vi,-0.000000,0.000000,-0.000000,0.000000,TRUE,FALSE,TRUE,TRUE,FALSE,FALSE,Disabled,0.000000,0.000000,0.000000,TRUE,1.177826,-0.009644,0.000000,0.000000,0.000000,0.000000,-0.001000,0.002000,0.015000,-0.010000,-0.260000,-0.640000,-0.024755,ResetBack,1.261719,-0.000049,ResetBack,-143410.000000,-0.250000,Hold,0.000000,0.000000,Speed,0.000000,0.000000,Speed,Off,Off,0.000000,FALSE,0,,,,,0.000000,0.000000
02:16:06.191 PM 04/02/2016,Teleop Disabled,10,TRUE,-44005,<LOCATION>WPI_CameraWait for Raw Image String.vi:6640001<CALLSTACK>WPI_CameraWait for Raw Image String.vi:6640001< <WPI_CameraGet Image.vi< <Vision Processing.vi< <Robot Main.vi,-0.000000,0.000000,-0.000000,0.000000,TRUE,FALSE,TRUE,TRUE,FALSE,FALSE,Disabled,0.000000,0.000000,0.000000,TRUE,1.177826,-0.009644,0.000000,0.000000,0.000000,0.000000,0.001000,0.002000,0.014000,0.000000,-0.260000,-0.650000,-0.031386,ResetBack,1.261719,-0.000049,ResetBack,-143410.000000,-0.250000,Hold,0.000000,0.000000,Speed,0.000000,0.000000,Speed,Off,Off,0.000000,FALSE,0,,,,,0.000000,0.000000
02:16:06.292 PM 04/02/2016,Teleop Disabled,10,TRUE,-44005,<LOCATION>WPI_CameraWait for Raw Image String.vi:6640001<CALLSTACK>WPI_CameraWait for Raw Image String.vi:6640001< <WPI_CameraGet Image.vi< <Vision Processing.vi< <Robot Main.vi,-0.000000,0.000000,-0.000000,0.000000,TRUE,FALSE,TRUE,TRUE,FALSE,FALSE,Disabled,0.000000,0.000000,0.000000,TRUE,1.177826,-0.009644,0.000000,0.000000,0.000000,0.000000,0.000000,-0.002000,0.013000,0.000000,-0.260000,-0.640000,-0.013230,ResetBack,1.261719,-0.000049,ResetBack,-143410.000000,-0.250000,Hold,0.000000,0.000000,Speed,0.000000,0.000000,Speed,Off,Off,0.000000,FALSE,0,,,,,0.000000,0.000000
02:16:06.392 PM 04/02/2016,Teleop Disabled,10,TRUE,-44087,NetComm_CAN_Receive.vi:5470001<APPEND>  <b>Complete call chain:</b>      NetComm_CAN_Receive.vi:5470001      WPI_CAN_PDPReceive.vi      WPI_Power Get PDP Currents.vi      Periodic Tasks.vi      Robot Main.vi,-0.000000,0.000000,-0.000000,0.000000,TRUE,FALSE,TRUE,TRUE,FALSE,FALSE,Disabled,0.000000,0.000000,0.000000,TRUE,1.177826,-0.009644,0.000000,0.000000,0.000000,0.000000,-0.002000,-0.003000,0.016000,0.000000,-0.260000,-0.640000,-0.019805,ResetBack,1.261719,-0.000049,ResetBack,-143410.000000,-0.250000,Hold,0.000000,0.000000,Speed,0.000000,0.000000,Speed,Off,Off,0.000000,FALSE,0,,,,,0.000000,0.000000
02:16:06.493 PM 04/02/2016,Teleop Disabled,10,TRUE,-44087,NetComm_CAN_Receive.vi:5470001<APPEND>  <b>Complete call chain:</b>      NetComm_CAN_Receive.vi:5470001      WPI_CAN_PDPReceive.vi      WPI_Power Get PDP Currents.vi      Periodic Tasks.vi      Robot Main.vi,-0.000000,0.000000,-0.000000,0.000000,TRUE,FALSE,TRUE,TRUE,FALSE,FALSE,Disabled,0.000000,0.000000,0.000000,TRUE,1.177826,-0.009644,0.000000,0.000000,0.000000,0.000000,0.000000,0.000000,0.012000,0.000000,-0.260000,-0.640000,-0.030198,ResetBack,1.261719,-0.000049,ResetBack,-143410.000000,-0.250000,Hold,0.000000,0.000000,Speed,0.000000,0.000000,Speed,Off,Off,0.000000,FALSE,0,,,,,0.000000,0.000000
02:16:06.593 PM 04/02/2016,Teleop Disabled,9,TRUE,-44087,NetComm_CAN_Receive.vi:5470001<APPEND>  <b>Complete call chain:</b>      NetComm_CAN_Receive.vi:5470001      WPI_CAN_PDPReceive.vi      WPI_Power Get PDP Currents.vi      Periodic Tasks.vi      Robot Main.vi,-0.000000,0.000000,-0.000000,0.000000,TRUE,FALSE,TRUE,TRUE,FALSE,FALSE,Disabled,0.000000,0.000000,0.000000,TRUE,1.177826,-0.009644,0.000000,0.000000,0.000000,0.000000,0.000000,0.000000,0.014000,0.000000,-0.260000,-0.640000,-0.003938,ResetBack,1.261719,-0.000049,ResetBack,-143410.000000,-0.250000,Hold,0.000000,0.000000,Speed,0.000000,0.000000,Speed,Off,Off,0.000000,FALSE,0,,,,,0.000000,0.000000
02:16:06.693 PM 04/02/2016,Teleop Disabled,10,TRUE,-44087,NetComm_CAN_Receive.vi:5470001<APPEND>  <b>Complete call chain:</b>      NetComm_CAN_Receive.vi:5470001      WPI_CAN_PDPReceive.vi      WPI_Power Get PDP Currents.vi      Periodic Tasks.vi      Robot Main.vi,-0.000000,0.000000,-0.000000,0.000000,TRUE,FALSE,TRUE,TRUE,FALSE,FALSE,Disabled,0.000000,0.000000,0.000000,TRUE,1.177826,-0.009644,0.000000,0.000000,0.000000,0.000000,0.002000,0.000000,0.014000,0.000000,-0.260000,-0.640000,0.004654,ResetBack,1.261719,-0.000049,ResetBack,-143410.000000,-0.250000,Hold,0.000000,0.000000,Speed,0.000000,0.000000,Speed,Off,Off,0.000000,FALSE,0,,,,,0.000000,0.000000
02:16:06.801 PM 04/02/2016,Teleop Disabled,10,TRUE,-44087,NetComm_CAN_Receive.vi:5470001<APPEND>  <b>Complete call chain:</b>      NetComm_CAN_Receive.vi:5470001      WPI_CAN_PDPReceive.vi      WPI_Power Get PDP Currents.vi      Periodic Tasks.vi      Robot Main.vi,-0.000000,0.000000,-0.000000,0.000000,TRUE,FALSE,TRUE,TRUE,FALSE,FALSE,Disabled,0.000000,0.000000,0.000000,TRUE,1.177826,-0.009644,0.000000,0.000000,0.000000,0.000000,-0.003000,0.001000,0.015000,0.000000,-0.260000,-0.640000,0.022339,ResetBack,1.261719,-0.000049,ResetBack,-143410.000000,-0.250000,Hold,0.000000,0.000000,Speed,0.000000,0.000000,Speed,Off,Off,0.000000,FALSE,0,,,,,0.000000,0.000000
02:16:06.900 PM 04/02/2016,Teleop Disabled,10,TRUE,-44087,NetComm_CAN_Receive.vi:5470001<APPEND>  <b>Complete call chain:</b>      NetComm_CAN_Receive.vi:5470001      WPI_CAN_PDPReceive.vi      WPI_Power Get PDP Currents.vi      Periodic Tasks.vi      Robot Main.vi,-0.000000,0.000000,-0.000000,0.000000,TRUE,FALSE,TRUE,TRUE,FALSE,FALSE,Disabled,0.000000,0.000000,0.000000,TRUE,1.177826,-0.009644,0.000000,0.000000,0.000000,0.000000,0.000000,-0.008000,0.021000,0.000000,-0.260000,-0.640000,0.011956,ResetBack,1.261719,-0.000049,ResetBack,-143410.000000,-0.250000,Hold,0.000000,0.000000,Speed,0.000000,0.000000,Speed,Off,Off,0.000000,FALSE,0,,,,,0.000000,0.000000
02:16:07.001 PM 04/02/2016,Teleop Disabled,10,TRUE,-44087,NetComm_CAN_Receive.vi:5470001<APPEND>  <b>Complete call chain:</b>      NetComm_CAN_Receive.vi:5470001      WPI_CAN_PDPReceive.vi      WPI_Power Get PDP Currents.vi      Periodic Tasks.vi      Robot Main.vi,-0.000000,0.000000,-0.000000,0.000000,TRUE,FALSE,TRUE,TRUE,FALSE,FALSE,Disabled,0.000000,0.000000,0.000000,TRUE,1.177826,-0.009644,0.000000,0.000000,0.000000,0.000000,0.000000,-0.004000,0.017000,-0.010000,-0.260000,-0.650000,0.007935,ResetBack,1.261719,-0.000049,ResetBack,-143410.000000,-0.250000,Hold,0.000000,0.000000,Speed,0.000000,0.000000,Speed,Off,Off,0.000000,FALSE,0,,,,,0.000000,0.000000
02:16:07.104 PM 04/02/2016,Teleop Disabled,12,TRUE,-44087,NetComm_CAN_Receive.vi:5470001<APPEND>  <b>Complete call chain:</b>      NetComm_CAN_Receive.vi:5470001      WPI_CAN_PDPReceive.vi      WPI_Power Get PDP Currents.vi      Periodic Tasks.vi      Robot Main.vi,-0.000000,0.000000,-0.000000,0.000000,TRUE,FALSE,TRUE,TRUE,FALSE,FALSE,Disabled,0.000000,0.000000,0.000000,TRUE,1.177826,-0.009644,0.000000,0.000000,0.000000,0.000000,-0.005000,0.001000,0.012000,-0.010000,-0.260000,-0.640000,-0.002861,ResetBack,1.261719,-0.000049,ResetBack,-143410.000000,-0.250000,Hold,0.000000,0.000000,Speed,0.000000,0.000000,Speed,Off,Off,0.000000,FALSE,0,,,,,0.000000,0.000000
02:16:07.203 PM 04/02/2016,Teleop Disabled,11,TRUE,-44087,NetComm_CAN_Receive.vi:5470001<APPEND>  <b>Complete call chain:</b>      NetComm_CAN_Receive.vi:5470001      WPI_CAN_PDPReceive.vi      WPI_Power Get PDP Currents.vi      Periodic Tasks.vi      Robot Main.vi,-0.000000,0.000000,-0.000000,0.000000,TRUE,FALSE,TRUE,TRUE,FALSE,FALSE,Disabled,0.000000,0.000000,0.000000,TRUE,1.177826,-0.009644,0.000000,0.000000,0.000000,0.000000,-0.006000,-0.004000,0.018000,-0.010000,-0.250000,-0.640000,0.000689,ResetBack,1.261719,-0.000049,ResetBack,-143410.000000,-0.250000,Hold,0.000000,0.000000,Speed,0.000000,0.000000,Speed,Off,Off,0.000000,FALSE,0,,,,,0.000000,0.000000
02:16:07.303 PM 04/02/2016,Teleop Disabled,9,TRUE,-44087,NetComm_CAN_Receive.vi:5470001<APPEND>  <b>Complete call chain:</b>      NetComm_CAN_Receive.vi:5470001      WPI_CAN_PDPReceive.vi      WPI_Power Get PDP Currents.vi      Periodic Tasks.vi      Robot Main.vi,-0.000000,0.000000,-0.000000,0.000000,TRUE,FALSE,TRUE,TRUE,FALSE,FALSE,Disabled,0.000000,0.000000,0.000000,TRUE,1.177826,-0.009644,0.000000,0.000000,0.000000,0.000000,-0.001000,-0.001000,0.013000,-0.010000,-0.260000,-0.660000,-0.000565,ResetBack,1.261719,-0.000049,ResetBack,-143410.000000,-0.250000,LowGoal,0.000000,-2181.818182,Speed,0.000000,-2181.818182,Speed,Off,Off,0.000000,FALSE,0,,,,,0.000000,0.000000
02:16:07.404 PM 04/02/2016,Teleop Disabled,9,TRUE,-44087,NetComm_CAN_Receive.vi:5470001<APPEND>  <b>Complete call chain:</b>      NetComm_CAN_Receive.vi:5470001      WPI_CAN_PDPReceive.vi      WPI_Power Get PDP Currents.vi      Periodic Tasks.vi      Robot Main.vi,-0.000000,0.000000,-0.000000,0.000000,TRUE,FALSE,TRUE,TRUE,FALSE,FALSE,Disabled,0.000000,0.000000,0.000000,TRUE,1.177826,-0.009644,0.000000,0.000000,0.000000,0.000000,0.008000,0.000000,0.016000,-0.010000,-0.240000,-0.680000,-0.010665,ResetBack,1.261719,-0.000049,ResetBack,-143410.000000,-0.250000,LowGoal,0.000000,-2181.818182,Speed,0.000000,-2181.818182,Speed,Off,Off,0.000000,FALSE,0,,,,,0.000000,0.000000
02:16:07.509 PM 04/02/2016,Teleop Disabled,9,TRUE,-44087,NetComm_CAN_Receive.vi:5470001<APPEND>  <b>Complete call chain:</b>      NetComm_CAN_Receive.vi:5470001      WPI_CAN_PDPReceive.vi      WPI_Power Get PDP Currents.vi      Periodic Tasks.vi      Robot Main.vi,-0.000000,0.000000,-0.000000,0.000000,TRUE,FALSE,TRUE,TRUE,FALSE,FALSE,Disabled,0.000000,0.000000,0.000000,TRUE,1.177826,-0.009644,0.000000,0.000000,0.000000,0.000000,-0.001000,0.000000,0.011000,-0.020000,-0.210000,-0.700000,-0.014658,ResetBack,1.261719,-0.000049,ResetBack,-143410.000000,-0.250000,LowGoal,0.000000,-2181.818182,Speed,0.000000,-2181.818182,Speed,Off,Off,0.000000,FALSE,0,,,,,0.000000,0.000000
02:16:07.609 PM 04/02/2016,Teleop Disabled,10,TRUE,-44087,NetComm_CAN_Receive.vi:5470001<APPEND>  <b>Complete call chain:</b>      NetComm_CAN_Receive.vi:5470001      WPI_CAN_PDPReceive.vi      WPI_Power Get PDP Currents.vi      Periodic Tasks.vi      Robot Main.vi,-0.000000,0.000000,-0.000000,0.000000,TRUE,FALSE,TRUE,TRUE,FALSE,FALSE,Disabled,0.000000,0.000000,0.000000,TRUE,1.177826,-0.009644,0.000000,0.000000,0.000000,0.000000,0.000000,0.000000,0.014000,-0.020000,-0.210000,-0.730000,-0.033568,ResetBack,1.261719,-0.000049,ResetBack,-143410.000000,-0.250000,LowGoal,0.000000,-2181.818182,Speed,0.000000,-2181.818182,Speed,Off,Off,0.000000,FALSE,0,,,,,0.000000,0.000000
02:16:07.710 PM 04/02/2016,Teleop Disabled,10,TRUE,-44087,NetComm_CAN_Receive.vi:5470001<APPEND>  <b>Complete call chain:</b>      NetComm_CAN_Receive.vi:5470001      WPI_CAN_PDPReceive.vi      WPI_Power Get PDP Currents.vi      Periodic Tasks.vi      Robot Main.vi,-0.000000,0.000000,-0.000000,0.000000,TRUE,FALSE,TRUE,TRUE,FALSE,FALSE,Disabled,0.000000,0.000000,0.000000,TRUE,1.177826,-0.009644,0.000000,0.000000,0.000000,0.000000,0.001000,0.000000,0.011000,-0.020000,-0.210000,-0.730000,-0.036667,ResetBack,1.261719,-0.000049,ResetBack,-143410.000000,-0.250000,LowGoal,0.000000,-2181.818182,Speed,0.000000,-2181.818182,Speed,Off,Off,0.000000,FALSE,0,,,,,0.000000,0.000000
02:16:07.811 PM 04/02/2016,Teleop Disabled,11,TRUE,-44087,NetComm_CAN_Receive.vi:5470001<APPEND>  <b>Complete call chain:</b>      NetComm_CAN_Receive.vi:5470001      WPI_CAN_PDPReceive.vi      WPI_Power Get PDP Currents.vi      Periodic Tasks.vi      Robot Main.vi,-0.000000,0.000000,-0.000000,0.000000,TRUE,TRUE,TRUE,TRUE,FALSE,FALSE,Disabled,0.000000,0.000000,0.000000,TRUE,1.177826,-0.009644,0.000000,0.000000,0.000000,0.000000,0.004000,-0.005000,0.017000,-0.020000,-0.140000,-0.820000,-0.042381,ResetBack,1.261719,-0.000049,ResetBack,-143410.000000,-0.250000,LowGoal,0.000000,-2181.818182,Speed,0.000000,-2181.818182,Speed,Off,Off,0.000000,FALSE,0,,,,,0.000000,0.000000
02:16:07.912 PM 04/02/2016,Teleop Disabled,10,TRUE,-44087,NetComm_CAN_Receive.vi:5470001<APPEND>  <b>Complete call chain:</b>      NetComm_CAN_Receive.vi:5470001      WPI_CAN_PDPReceive.vi      WPI_Power Get PDP Currents.vi      Periodic Tasks.vi      Robot Main.vi,-0.000000,0.000000,-0.000000,0.000000,TRUE,TRUE,TRUE,TRUE,FALSE,FALSE,Disabled,0.000000,0.000000,0.000000,TRUE,1.177826,-0.009644,0.000000,0.000000,0.000000,0.000000,-0.005000,0.002000,0.013000,-0.020000,-0.160000,-0.850000,-0.028143,ResetBack,1.261719,-0.000049,ResetBack,-143410.000000,-0.250000,LowGoal,0.000000,0.000000,Speed,0.000000,0.000000,Speed,Off,Off,0.000000,FALSE,0,,,,,0.000000,0.000000
02:16:08.016 PM 04/02/2016,Teleop Disabled,10,TRUE,-44087,NetComm_CAN_Receive.vi:5470001<APPEND>  <b>Complete call chain:</b>      NetComm_CAN_Receive.vi:5470001      WPI_CAN_PDPReceive.vi      WPI_Power Get PDP Currents.vi      Periodic Tasks.vi      Robot Main.vi,-0.000000,0.000000,-0.000000,0.000000,TRUE,FALSE,TRUE,TRUE,FALSE,FALSE,Disabled,0.000000,0.000000,0.000000,TRUE,1.177826,-0.009644,0.000000,0.000000,0.000000,0.000000,0.000000,0.004000,0.016000,-0.020000,-0.080000,-0.850000,-0.038491,ResetBack,1.261719,-0.000049,ResetBack,-143382.000000,-0.250000,LowGoal,0.000000,0.000000,Speed,0.000000,0.000000,Speed,Off,Off,0.000000,FALSE,0,,,,,0.000000,0.000000
02:16:08.117 PM 04/02/2016,Teleop Disabled,10,TRUE,-44087,NetComm_CAN_Receive.vi:5470001<APPEND>  <b>Complete call chain:</b>      NetComm_CAN_Receive.vi:5470001      WPI_CAN_PDPReceive.vi      WPI_Power Get PDP Currents.vi      Periodic Tasks.vi      Robot Main.vi,-0.000000,0.000000,-0.000000,0.000000,TRUE,FALSE,TRUE,TRUE,FALSE,FALSE,Disabled,0.000000,0.000000,0.000000,TRUE,1.177719,-0.009567,0.000000,-0.006699,0.005676,0.000000,0.009000,0.024000,0.036000,-0.020000,-0.110000,-0.880000,-0.030284,ResetBack,1.261719,-0.000049,ResetBack,-142142.000000,-0.250000,LowGoal,0.000000,-2181.818182,Speed,0.000000,-2181.818182,Speed,Off,Off,0.000000,FALSE,0,,,,,0.000000,0.000000
02:16:08.218 PM 04/02/2016,Teleop Disabled,10,TRUE,-44087,NetComm_CAN_Receive.vi:5470001<APPEND>  <b>Complete call chain:</b>      NetComm_CAN_Receive.vi:5470001      WPI_CAN_PDPReceive.vi      WPI_Power Get PDP Currents.vi      Periodic Tasks.vi      Robot Main.vi,-0.000000,0.000000,-0.000000,0.000000,TRUE,FALSE,TRUE,TRUE,FALSE,FALSE,Disabled,0.000000,0.000000,0.000000,TRUE,1.177689,-0.009476,0.000000,0.000000,0.000000,0.000000,0.001000,0.000000,0.024000,-0.030000,-0.040000,-0.880000,-0.026993,ResetBack,1.261719,-0.000049,ResetBack,-138461.000000,-0.250000,LowGoal,0.000000,-2181.818182,Speed,0.000000,-2181.818182,Speed,Off,Off,0.000000,FALSE,0,,,,,0.000000,0.000000
02:16:08.318 PM 04/02/2016,Teleop Disabled,10,TRUE,-44087,NetComm_CAN_Receive.vi:5470001<APPEND>  <b>Complete call chain:</b>      NetComm_CAN_Receive.vi:5470001      WPI_CAN_PDPReceive.vi      WPI_Power Get PDP Currents.vi      Periodic Tasks.vi      Robot Main.vi,-0.000000,0.000000,-0.000000,0.000000,TRUE,FALSE,TRUE,TRUE,FALSE,FALSE,Disabled,0.000000,0.000000,0.000000,TRUE,1.177689,-0.009476,0.000000,0.000000,0.000000,0.000000,-0.012000,0.006000,0.020000,-0.040000,-0.080000,-0.890000,-0.036378,ResetBack,1.261719,-0.000049,ResetBack,-132582.000000,-0.250000,LowGoal,0.000000,-2181.818182,Speed,0.000000,-2181.818182,Speed,Off,Off,0.000000,FALSE,0,,,,,0.000000,0.000000
02:16:08.418 PM 04/02/2016,Teleop Disabled,10,TRUE,-44087,NetComm_CAN_Receive.vi:5470001<APPEND>  <b>Complete call chain:</b>      NetComm_CAN_Receive.vi:5470001      WPI_CAN_PDPReceive.vi      WPI_Power Get PDP Currents.vi      Periodic Tasks.vi      Robot Main.vi,-0.000000,0.000000,-0.000000,0.000000,TRUE,FALSE,TRUE,TRUE,FALSE,FALSE,Disabled,0.000000,0.000000,0.000000,TRUE,1.177689,-0.009476,0.000000,0.000000,0.000000,0.000000,0.012000,0.000000,0.006000,-0.030000,-0.060000,-0.900000,-0.040040,ResetBack,1.261719,-0.000049,ResetBack,-132582.000000,-0.250000,LowGoal,0.000000,-2181.818182,Speed,0.000000,-2181.818182,Speed,Off,Off,0.000000,FALSE,0,,,,,0.000000,0.000000
02:16:08.518 PM 04/02/2016,Teleop Disabled,9,TRUE,-44087,NetComm_CAN_Receive.vi:5470001<APPEND>  <b>Complete call chain:</b>      NetComm_CAN_Receive.vi:5470001      WPI_CAN_PDPReceive.vi      WPI_Power Get PDP Currents.vi      Periodic Tasks.vi      Robot Main.vi,-0.000000,0.000000,-0.000000,0.000000,TRUE,FALSE,TRUE,TRUE,FALSE,FALSE,Disabled,0.000000,0.000000,0.000000,TRUE,1.177689,-0.009476,0.000000,0.000000,0.000000,0.000000,0.000000,0.001000,0.017000,-0.030000,-0.090000,-0.900000,-0.043707,ResetBack,1.261719,-0.000049,ResetBack,-132582.000000,-0.250000,LowGoal,0.000000,-2181.818182,Speed,0.000000,-2181.818182,Speed,Off,Off,0.000000,FALSE,0,,,,,0.000000,0.000000
02:16:08.618 PM 04/02/2016,Teleop Disabled,11,TRUE,-44087,NetComm_CAN_Receive.vi:5470001<APPEND>  <b>Complete call chain:</b>      NetComm_CAN_Receive.vi:5470001      WPI_CAN_PDPReceive.vi      WPI_Power Get PDP Currents.vi      Periodic Tasks.vi      Robot Main.vi,-0.000000,0.000000,-0.000000,0.000000,TRUE,FALSE,TRUE,TRUE,FALSE,FALSE,Disabled,0.000000,0.000000,0.000000,TRUE,1.177689,-0.009476,0.000000,0.000000,0.000000,0.000000,-0.003000,0.003000,0.009000,-0.030000,-0.090000,-0.910000,-0.036543,ResetBack,1.261719,-0.000049,ResetBack,-125030.000000,-0.250000,LowGoal,0.000000,-2181.818182,Speed,0.000000,-2181.818182,Speed,Off,Off,0.000000,FALSE,0,,,,,0.000000,0.000000
02:16:08.719 PM 04/02/2016,Teleop Disabled,10,TRUE,-44087,NetComm_CAN_Receive.vi:5470001<APPEND>  <b>Complete call chain:</b>      NetComm_CAN_Receive.vi:5470001      WPI_CAN_PDPReceive.vi      WPI_Power Get PDP Currents.vi      Periodic Tasks.vi      Robot Main.vi,-0.000000,0.000000,-0.000000,0.000000,TRUE,TRUE,TRUE,TRUE,FALSE,FALSE,Disabled,0.000000,0.000000,0.000000,TRUE,1.177689,-0.009476,0.000000,0.000000,0.000000,0.000000,-0.003000,0.003000,0.009000,-0.030000,-0.090000,-0.910000,-0.030980,ResetBack,1.261719,-0.000049,ResetBack,-117225.000000,-0.250000,LowGoal,0.000000,-2181.818182,Speed,0.000000,-2181.818182,Speed,Off,Off,0.000000,FALSE,0,,,,,0.000000,0.000000
02:16:08.819 PM 04/02/2016,Teleop Disabled,11,TRUE,-44087,NetComm_CAN_Receive.vi:5470001<APPEND>  <b>Complete call chain:</b>      NetComm_CAN_Receive.vi:5470001      WPI_CAN_PDPReceive.vi      WPI_Power Get PDP Currents.vi      Periodic Tasks.vi      Robot Main.vi,-0.000000,0.000000,-0.000000,0.000000,TRUE,TRUE,TRUE,TRUE,FALSE,FALSE,Disabled,0.000000,0.000000,0.000000,TRUE,1.177689,-0.009476,0.000000,0.000000,0.000000,0.000000,-0.004000,0.000000,0.011000,-0.040000,-0.090000,-0.910000,-0.031362,ResetBack,1.261719,-0.000049,ResetBack,-109987.000000,-0.250000,LowGoal,0.000000,0.000000,Speed,0.000000,0.000000,Speed,Off,Off,0.000000,FALSE,0,,,,,0.000000,0.000000
02:16:08.920 PM 04/02/2016,Teleop Disabled,10,TRUE,-44087,NetComm_CAN_Receive.vi:5470001<APPEND>  <b>Complete call chain:</b>      NetComm_CAN_Receive.vi:5470001      WPI_CAN_PDPReceive.vi      WPI_Power Get PDP Currents.vi      Periodic Tasks.vi      Robot Main.vi,-0.000000,0.000000,-0.000000,0.000000,TRUE,FALSE,TRUE,TRUE,FALSE,FALSE,Disabled,0.000000,0.000000,0.000000,TRUE,1.177689,-0.009476,0.000000,0.000000,0.000000,0.000000,-0.004000,0.002000,0.013000,-0.050000,-0.080000,-0.930000,-0.026239,ResetBack,1.261719,-0.000049,ResetBack,-103098.000000,-0.250000,LowGoal,0.000000,0.000000,Speed,0.000000,0.000000,Speed,Off,Off,0.000000,FALSE,0,,,,,0.000000,0.000000
02:16:09.020 PM 04/02/2016,Teleop Disabled,9,TRUE,-44087,NetComm_CAN_Receive.vi:5470001<APPEND>  <b>Complete call chain:</b>      NetComm_CAN_Receive.vi:5470001      WPI_CAN_PDPReceive.vi      WPI_Power Get PDP Currents.vi      Periodic Tasks.vi      Robot Main.vi,-0.000000,0.000000,-0.000000,0.000000,TRUE,FALSE,TRUE,TRUE,FALSE,FALSE,Disabled,0.000000,0.000000,0.000000,TRUE,1.177689,-0.009476,0.000000,0.000000,0.000000,0.000000,-0.003000,0.000000,0.023000,-0.060000,-0.100000,-0.950000,-0.032907,ResetBack,1.261719,-0.000049,ResetBack,-95754.000000,-0.250000,LowGoal,0.000000,-2181.818182,Speed,0.000000,-2181.818182,Speed,Off,Off,0.000000,FALSE,0,,,,,0.000000,0.000000
02:16:09.121 PM 04/02/2016,Teleop Disabled,9,TRUE,-44087,NetComm_CAN_Receive.vi:5470001<APPEND>  <b>Complete call chain:</b>      NetComm_CAN_Receive.vi:5470001      WPI_CAN_PDPReceive.vi      WPI_Power Get PDP Currents.vi      Periodic Tasks.vi      Robot Main.vi,-0.000000,0.000000,-0.000000,0.000000,TRUE,FALSE,TRUE,TRUE,FALSE,FALSE,Disabled,0.000000,0.000000,0.000000,TRUE,1.177689,-0.009476,0.000000,0.000000,0.000000,0.000000,0.015000,0.009000,0.009000,-0.060000,-0.080000,-0.950000,-0.044953,ResetBack,1.261719,-0.000049,ResetBack,-89701.000000,-0.250000,LowGoal,0.000000,-2181.818182,Speed,0.000000,-2181.818182,Speed,Off,Off,0.000000,FALSE,0,,,,,0.000000,0.000000
02:16:09.220 PM 04/02/2016,Teleop Disabled,11,TRUE,-44087,NetComm_CAN_Receive.vi:5470001<APPEND>  <b>Complete call chain:</b>      NetComm_CAN_Receive.vi:5470001      WPI_CAN_PDPReceive.vi      WPI_Power Get PDP Currents.vi      Periodic Tasks.vi      Robot Main.vi,-0.000000,0.000000,-0.000000,0.000000,TRUE,FALSE,TRUE,TRUE,FALSE,FALSE,Disabled,0.000000,0.000000,0.000000,TRUE,1.177689,-0.009476,0.000000,0.000000,0.000000,0.000000,0.000000,-0.002000,0.027000,-0.060000,-0.100000,-0.950000,-0.038546,ResetBack,1.261719,-0.000049,ResetBack,-89701.000000,-0.250000,LowGoal,0.000000,-2181.818182,Speed,0.000000,-2181.818182,Speed,Off,Off,0.000000,FALSE,0,,,,,0.000000,0.000000
02:16:09.320 PM 04/02/2016,Teleop Disabled,10,TRUE,-44087,NetComm_CAN_Receive.vi:5470001<APPEND>  <b>Complete call chain:</b>      NetComm_CAN_Receive.vi:5470001      WPI_CAN_PDPReceive.vi      WPI_Power Get PDP Currents.vi      Periodic Tasks.vi      Robot Main.vi,-0.000000,0.000000,-0.000000,0.000000,TRUE,FALSE,TRUE,TRUE,FALSE,FALSE,Disabled,0.000000,0.000000,0.000000,TRUE,1.177689,-0.009476,0.000000,0.000000,0.000000,0.000000,0.000000,-0.010000,0.009000,-0.060000,-0.090000,-0.980000,-0.040130,ResetBack,1.261719,-0.000049,ResetBack,-85112.000000,-0.250000,LowGoal,0.000000,-2181.818182,Speed,0.000000,-2181.818182,Speed,Off,Off,0.000000,FALSE,0,,,,,0.000000,0.000000
02:16:09.422 PM 04/02/2016,Teleop Disabled,9,TRUE,-44087,NetComm_CAN_Receive.vi:5470001<APPEND>  <b>Complete call chain:</b>      NetComm_CAN_Receive.vi:5470001      WPI_CAN_PDPReceive.vi      WPI_Power Get PDP Currents.vi      Periodic Tasks.vi      Robot Main.vi,-0.000000,0.000000,-0.000000,0.000000,TRUE,FALSE,TRUE,TRUE,FALSE,FALSE,Disabled,0.000000,0.000000,0.000000,TRUE,1.177521,-0.009476,0.000000,-0.006760,0.000000,0.000000,0.010000,-0.002000,0.045000,-0.070000,-0.080000,-1.020000,-0.057012,ResetBack,1.261719,-0.000049,ResetBack,-82409.000000,-0.250000,LowGoal,0.000000,-2181.818182,Speed,0.000000,-2181.818182,Speed,Off,Off,0.000000,FALSE,0,,,,,0.000000,0.000000
02:16:09.522 PM 04/02/2016,Teleop Disabled,9,TRUE,-44087,NetComm_CAN_Receive.vi:5470001<APPEND>  <b>Complete call chain:</b>      NetComm_CAN_Receive.vi:5470001      WPI_CAN_PDPReceive.vi      WPI_Power Get PDP Currents.vi      Periodic Tasks.vi      Robot Main.vi,-0.000000,0.000000,-0.000000,0.000000,TRUE,TRUE,TRUE,TRUE,FALSE,FALSE,Disabled,0.000000,0.000000,0.000000,TRUE,1.177521,-0.009476,0.000000,0.000000,0.000000,0.000000,0.000000,-0.002000,0.013000,-0.070000,-0.060000,-1.000000,-0.057856,ResetBack,1.261719,-0.000049,ResetBack,-80325.000000,-0.250000,LowGoal,0.000000,-2181.818182,Speed,0.000000,-2181.818182,Speed,Off,Off,0.000000,FALSE,0,,,,,0.000000,0.000000
02:16:09.623 PM 04/02/2016,Teleop Disabled,11,TRUE,-44087,NetComm_CAN_Receive.vi:5470001<APPEND>  <b>Complete call chain:</b>      NetComm_CAN_Receive.vi:5470001      WPI_CAN_PDPReceive.vi      WPI_Power Get PDP Currents.vi      Periodic Tasks.vi      Robot Main.vi,-0.000000,0.000000,-0.000000,0.000000,TRUE,TRUE,TRUE,TRUE,FALSE,FALSE,Disabled,0.000000,0.000000,0.000000,TRUE,1.177521,-0.009476,0.000000,0.000000,0.000000,0.000000,-0.022000,-0.017000,0.007000,-0.070000,-0.060000,-1.040000,-0.072376,ResetBack,1.261719,-0.000049,ResetBack,-76145.000000,-0.250000,LowGoal,0.000000,0.000000,Speed,0.000000,0.000000,Speed,Off,Off,0.000000,FALSE,0,,,,,0.000000,0.000000
02:16:09.724 PM 04/02/2016,Teleop Disabled,10,TRUE,-44087,NetComm_CAN_Receive.vi:5470001<APPEND>  <b>Complete call chain:</b>      NetComm_CAN_Receive.vi:5470001      WPI_CAN_PDPReceive.vi      WPI_Power Get PDP Currents.vi      Periodic Tasks.vi      Robot Main.vi,-0.000000,0.000000,-0.000000,0.000000,TRUE,FALSE,TRUE,TRUE,FALSE,FALSE,Disabled,0.000000,0.000000,0.000000,TRUE,1.177475,-0.009476,0.000000,0.003830,0.000000,0.000000,0.003000,-0.011000,0.033000,-0.080000,-0.050000,-1.040000,-0.065856,ResetBack,1.261719,-0.000049,ResetBack,-70009.000000,-0.250000,LowGoal,0.000000,0.000000,Speed,0.000000,0.000000,Speed,Off,Off,0.000000,FALSE,0,,,,,0.000000,0.000000
02:16:09.825 PM 04/02/2016,Teleop Disabled,10,TRUE,-44087,NetComm_CAN_Receive.vi:5470001<APPEND>  <b>Complete call chain:</b>      NetComm_CAN_Receive.vi:5470001      WPI_CAN_PDPReceive.vi      WPI_Power Get PDP Currents.vi      Periodic Tasks.vi      Robot Main.vi,-0.000000,0.000000,-0.000000,0.000000,TRUE,FALSE,TRUE,TRUE,FALSE,FALSE,Disabled,0.000000,0.000000,0.000000,TRUE,1.177475,-0.009476,0.000000,0.000000,0.000000,0.000000,-0.009000,-0.005000,0.019000,-0.090000,-0.080000,-1.070000,-0.073633,ResetBack,1.261719,-0.000049,ResetBack,-61967.000000,-0.250000,LowGoal,0.000000,-2181.818182,Speed,0.000000,-2181.818182,Speed,Off,Off,0.000000,FALSE,0,,,,,0.000000,0.000000
02:16:09.926 PM 04/02/2016,Teleop Disabled,10,TRUE,-44087,NetComm_CAN_Receive.vi:5470001<APPEND>  <b>Complete call chain:</b>      NetComm_CAN_Receive.vi:5470001      WPI_CAN_PDPReceive.vi      WPI_Power Get PDP Currents.vi      Periodic Tasks.vi      Robot Main.vi,-0.000000,0.000000,-0.000000,0.000000,TRUE,FALSE,TRUE,TRUE,FALSE,FALSE,Disabled,0.000000,0.000000,0.000000,TRUE,1.177475,-0.009476,0.000000,0.000000,0.000000,0.000000,0.000000,-0.002000,-0.002000,-0.080000,-0.060000,-1.070000,-0.072796,ResetBack,1.261719,-0.000049,ResetBack,-53906.000000,-0.250000,LowGoal,0.000000,-2181.818182,Speed,0.000000,-2181.818182,Speed,Off,Off,0.000000,FALSE,0,,,,,0.000000,0.000000
02:16:10.026 PM 04/02/2016,Teleop Disabled,10,TRUE,-44087,NetComm_CAN_Receive.vi:5470001<APPEND>  <b>Complete call chain:</b>      NetComm_CAN_Receive.vi:5470001      WPI_CAN_PDPReceive.vi      WPI_Power Get PDP Currents.vi      Periodic Tasks.vi      Robot Main.vi,-0.000000,0.000000,-0.000000,0.000000,TRUE,FALSE,TRUE,TRUE,FALSE,FALSE,Disabled,0.000000,0.000000,0.000000,TRUE,1.177475,-0.009476,0.000000,0.000000,0.000000,0.000000,-0.001000,-0.013000,0.019000,-0.090000,-0.080000,-1.090000,-0.096495,ResetBack,1.261719,-0.000049,ResetBack,-53906.000000,-0.250000,LowGoal,0.000000,-2181.818182,Speed,0.000000,-2181.818182,Speed,Off,Off,0.000000,FALSE,0,,,,,0.000000,0.000000
02:16:10.129 PM 04/02/2016,Teleop Disabled,11,TRUE,-44087,NetComm_CAN_Receive.vi:5470001<APPEND>  <b>Complete call chain:</b>      NetComm_CAN_Receive.vi:5470001      WPI_CAN_PDPReceive.vi      WPI_Power Get PDP Currents.vi      Periodic Tasks.vi      Robot Main.vi,-0.000000,0.000000,-0.000000,0.000000,TRUE,FALSE,TRUE,TRUE,FALSE,FALSE,Disabled,0.000000,0.000000,0.000000,TRUE,1.177475,-0.009476,0.000000,0.000000,0.000000,0.000000,-0.005000,0.002000,0.023000,-0.090000,-0.070000,-1.080000,-0.104668,ResetBack,1.261719,-0.000049,ResetBack,-45763.000000,-0.250000,LowGoal,0.000000,-2181.818182,Speed,0.000000,-2181.818182,Speed,Off,Off,0.000000,FALSE,0,,,,,0.000000,0.000000
02:16:10.230 PM 04/02/2016,Teleop Disabled,10,TRUE,-44087,NetComm_CAN_Receive.vi:5470001<APPEND>  <b>Complete call chain:</b>      NetComm_CAN_Receive.vi:5470001      WPI_CAN_PDPReceive.vi      WPI_Power Get PDP Currents.vi      Periodic Tasks.vi      Robot Main.vi,-0.000000,0.000000,-0.000000,0.000000,TRUE,FALSE,TRUE,TRUE,FALSE,FALSE,Disabled,0.000000,0.000000,0.000000,TRUE,1.177475,-0.009476,0.000000,0.000000,0.000000,0.000000,-0.005000,0.006000,0.014000,-0.090000,-0.100000,-1.080000,-0.117804,ResetBack,1.261719,-0.000049,ResetBack,-39043.000000,-0.250000,LowGoal,0.000000,-2181.818182,Speed,0.000000,-2181.818182,Speed,Off,Off,0.000000,FALSE,0,,,,,0.000000,0.000000
02:16:10.331 PM 04/02/2016,Teleop Disabled,9,TRUE,-44087,NetComm_CAN_Receive.vi:5470001<APPEND>  <b>Complete call chain:</b>      NetComm_CAN_Receive.vi:5470001      WPI_CAN_PDPReceive.vi      WPI_Power Get PDP Currents.vi      Periodic Tasks.vi      Robot Main.vi,-0.000000,0.000000,-0.000000,0.000000,TRUE,TRUE,TRUE,TRUE,FALSE,FALSE,Disabled,0.000000,0.000000,0.000000,TRUE,1.177475,-0.009476,0.000000,0.000000,0.000000,0.000000,0.000000,0.001000,0.010000,-0.090000,-0.080000,-1.070000,-0.132098,ResetBack,1.261719,-0.000049,ResetBack,-33693.000000,-0.250000,LowGoal,0.000000,-2181.818182,Speed,0.000000,-2181.818182,Speed,Off,Off,0.000000,FALSE,0,,,,,0.000000,0.000000
02:16:10.432 PM 04/02/2016,Teleop Disabled,11,TRUE,-44087,NetComm_CAN_Receive.vi:5470001<APPEND>  <b>Complete call chain:</b>      NetComm_CAN_Receive.vi:5470001      WPI_CAN_PDPReceive.vi      WPI_Power Get PDP Currents.vi      Periodic Tasks.vi      Robot Main.vi,-0.000000,0.000000,-0.000000,0.000000,TRUE,TRUE,TRUE,TRUE,FALSE,FALSE,Disabled,0.000000,0.000000,0.000000,TRUE,1.177475,-0.009476,0.000000,0.000000,0.000000,0.000000,0.005000,-0.002000,0.011000,-0.100000,-0.050000,-1.100000,-0.157173,ResetBack,1.261719,-0.000049,ResetBack,-29077.000000,-0.250000,LowGoal,0.000000,0.000000,Speed,0.000000,0.000000,Speed,Off,Off,0.000000,FALSE,0,,,,,0.000000,0.000000
02:16:10.533 PM 04/02/2016,Teleop Disabled,10,TRUE,-44087,NetComm_CAN_Receive.vi:5470001<APPEND>  <b>Complete call chain:</b>      NetComm_CAN_Receive.vi:5470001      WPI_CAN_PDPReceive.vi      WPI_Power Get PDP Currents.vi      Periodic Tasks.vi      Robot Main.vi,-0.000000,0.000000,-0.000000,0.000000,TRUE,FALSE,TRUE,TRUE,FALSE,FALSE,Disabled,0.000000,0.000000,0.000000,TRUE,1.177475,-0.009476,0.000000,0.000000,0.000000,0.000000,-0.003000,0.001000,0.011000,-0.100000,-0.060000,-1.090000,-0.152564,ResetBack,1.261719,-0.000049,ResetBack,-27572.000000,-0.250000,LowGoal,0.000000,0.000000,Speed,0.000000,0.000000,Speed,Off,Off,0.000000,FALSE,0,,,,,0.000000,0.000000
02:16:10.633 PM 04/02/2016,Teleop Disabled,10,TRUE,-44087,NetComm_CAN_Receive.vi:5470001<APPEND>  <b>Complete call chain:</b>      NetComm_CAN_Receive.vi:5470001      WPI_CAN_PDPReceive.vi      WPI_Power Get PDP Currents.vi      Periodic Tasks.vi      Robot Main.vi,-0.000000,0.000000,-0.000000,0.000000,TRUE,FALSE,TRUE,TRUE,FALSE,FALSE,Disabled,0.000000,0.000000,0.000000,TRUE,1.177475,-0.009476,0.000000,0.000000,0.000000,0.000000,0.000000,0.002000,0.013000,-0.100000,-0.090000,-1.070000,-0.144550,ResetBack,1.261719,-0.000049,ResetBack,-27572.000000,-0.250000,LowGoal,0.000000,-2181.818182,Speed,0.000000,-2181.818182,Speed,Off,Off,0.000000,FALSE,0,,,,,0.000000,0.000000
02:16:10.734 PM 04/02/2016,Teleop Disabled,12,TRUE,-44087,NetComm_CAN_Receive.vi:5470001<APPEND>  <b>Complete call chain:</b>      NetComm_CAN_Receive.vi:5470001      WPI_CAN_PDPReceive.vi      WPI_Power Get PDP Currents.vi      Periodic Tasks.vi      Robot Main.vi,-0.000000,0.000000,-0.000000,0.000000,TRUE,FALSE,TRUE,TRUE,FALSE,FALSE,Disabled,0.000000,0.000000,0.000000,TRUE,1.177475,-0.009476,0.000000,0.000000,0.000000,0.000000,0.000000,0.000000,0.011000,-0.100000,-0.100000,-1.050000,-0.145414,ResetBack,1.261719,-0.000049,ResetBack,-27572.000000,-0.250000,LowGoal,0.000000,-2181.818182,Speed,0.000000,-2181.818182,Speed,Off,Off,0.000000,FALSE,0,,,,,0.000000,0.000000
02:16:10.834 PM 04/02/2016,Teleop Disabled,10,TRUE,-44087,NetComm_CAN_Receive.vi:5470001<APPEND>  <b>Complete call chain:</b>      NetComm_CAN_Receive.vi:5470001      WPI_CAN_PDPReceive.vi      WPI_Power Get PDP Currents.vi      Periodic Tasks.vi      Robot Main.vi,-0.000000,0.000000,-0.000000,0.000000,TRUE,FALSE,TRUE,TRUE,FALSE,FALSE,Disabled,0.000000,0.000000,0.000000,TRUE,1.177475,-0.009476,0.000000,0.000000,0.000000,0.000000,-0.001000,0.002000,0.010000,-0.100000,-0.140000,-1.000000,-0.152509,ResetBack,1.261719,-0.000049,ResetBack,-27571.000000,-0.250000,LowGoal,0.000000,-2181.818182,Speed,0.000000,-2181.818182,Speed,Off,Off,0.000000,FALSE,0,,,,,0.000000,0.000000
02:16:10.935 PM 04/02/2016,Teleop Disabled,10,TRUE,-44087,NetComm_CAN_Receive.vi:5470001<APPEND>  <b>Complete call chain:</b>      NetComm_CAN_Receive.vi:5470001      WPI_CAN_PDPReceive.vi      WPI_Power Get PDP Currents.vi      Periodic Tasks.vi      Robot Main.vi,-0.000000,0.000000,-0.000000,0.000000,TRUE,FALSE,TRUE,TRUE,FALSE,FALSE,Disabled,0.000000,0.000000,0.000000,TRUE,1.177475,-0.009476,0.000000,0.000000,0.000000,0.000000,0.000000,0.002000,0.010000,-0.110000,-0.150000,-1.000000,-0.153270,ResetBack,1.261719,-0.000049,ResetBack,-27571.000000,-0.250000,LowGoal,0.000000,-2181.818182,Speed,0.000000,-2181.818182,Speed,Off,Off,0.000000,FALSE,0,,,,,0.000000,0.000000
02:16:11.037 PM 04/02/2016,Teleop Disabled,10,TRUE,-44087,NetComm_CAN_Receive.vi:5470001<APPEND>  <b>Complete call chain:</b>      NetComm_CAN_Receive.vi:5470001      WPI_CAN_PDPReceive.vi      WPI_Power Get PDP Currents.vi      Periodic Tasks.vi      Robot Main.vi,-0.000000,0.000000,-0.000000,0.000000,TRUE,FALSE,TRUE,TRUE,FALSE,FALSE,Disabled,0.000000,0.000000,0.000000,TRUE,1.177475,-0.009476,0.000000,0.000000,0.000000,0.000000,0.000000,0.002000,0.010000,-0.110000,-0.150000,-1.000000,-0.157700,ResetBack,1.261719,-0.000049,ResetBack,-27571.000000,-0.250000,LowGoal,0.000000,-2181.818182,Speed,0.000000,-2181.818182,Speed,Off,Off,0.000000,FALSE,0,,,,,0.000000,0.000000
02:16:11.137 PM 04/02/2016,Teleop Disabled,10,TRUE,-44087,NetComm_CAN_Receive.vi:5470001<APPEND>  <b>Complete call chain:</b>      NetComm_CAN_Receive.vi:5470001      WPI_CAN_PDPReceive.vi      WPI_Power Get PDP Currents.vi      Periodic Tasks.vi      Robot Main.vi,-0.000000,0.000000,-0.000000,0.000000,TRUE,TRUE,TRUE,TRUE,FALSE,FALSE,Disabled,0.000000,0.000000,0.000000,TRUE,1.177475,-0.009476,0.000000,0.000000,0.000000,0.000000,0.000000,0.001000,0.015000,-0.110000,-0.170000,-0.960000,-0.168420,ResetBack,1.261719,-0.000049,ResetBack,-27571.000000,-0.250000,LowGoal,0.000000,-2181.818182,Speed,0.000000,-2181.818182,Speed,Off,Off,0.000000,FALSE,0,,,,,0.000000,0.000000
02:16:11.238 PM 04/02/2016,Teleop Disabled,9,TRUE,-44087,NetComm_CAN_Receive.vi:5470001<APPEND>  <b>Complete call chain:</b>      NetComm_CAN_Receive.vi:5470001      WPI_CAN_PDPReceive.vi      WPI_Power Get PDP Currents.vi      Periodic Tasks.vi      Robot Main.vi,-0.000000,0.000000,-0.000000,0.000000,TRUE,TRUE,TRUE,TRUE,FALSE,FALSE,Disabled,0.000000,0.000000,0.000000,TRUE,1.177475,-0.009476,0.000000,0.000000,0.000000,0.000000,-0.002000,0.000000,0.014000,-0.110000,-0.180000,-0.950000,-0.194453,ResetBack,1.261719,-0.000049,ResetBack,-27571.000000,-0.250000,LowGoal,0.000000,0.000000,Speed,0.000000,0.000000,Speed,Off,Off,0.000000,FALSE,0,,,,,0.000000,0.000000
02:16:11.339 PM 04/02/2016,Teleop Disabled,10,TRUE,-44087,NetComm_CAN_Receive.vi:5470001<APPEND>  <b>Complete call chain:</b>      NetComm_CAN_Receive.vi:5470001      WPI_CAN_PDPReceive.vi      WPI_Power Get PDP Currents.vi      Periodic Tasks.vi      Robot Main.vi,-0.000000,0.000000,-0.000000,0.000000,TRUE,FALSE,TRUE,TRUE,FALSE,FALSE,Disabled,0.000000,0.000000,0.000000,TRUE,1.177475,-0.009476,0.000000,0.000000,0.000000,0.000000,0.002000,0.001000,0.012000,-0.110000,-0.190000,-0.910000,-0.215349,ResetBack,1.261719,-0.000049,ResetBack,-27571.000000,-0.250000,LowGoal,0.000000,0.000000,Speed,0.000000,0.000000,Speed,Off,Off,0.000000,FALSE,0,,,,,0.000000,0.000000
02:16:11.440 PM 04/02/2016,Teleop Disabled,9,TRUE,-44087,NetComm_CAN_Receive.vi:5470001<APPEND>  <b>Complete call chain:</b>      NetComm_CAN_Receive.vi:5470001      WPI_CAN_PDPReceive.vi      WPI_Power Get PDP Currents.vi      Periodic Tasks.vi      Robot Main.vi,-0.000000,0.000000,-0.000000,0.000000,TRUE,FALSE,TRUE,TRUE,FALSE,FALSE,Disabled,0.000000,0.000000,0.000000,TRUE,1.177475,-0.009476,0.000000,0.000000,0.000000,0.000000,-0.004000,-0.002000,0.015000,-0.110000,-0.190000,-0.920000,-0.229832,ResetBack,1.261719,-0.000049,ResetBack,-27571.000000,-0.250000,LowGoal,0.000000,-2181.818182,Speed,0.000000,-2181.818182,Speed,Off,Off,0.000000,FALSE,0,,,,,0.000000,0.000000
02:16:11.540 PM 04/02/2016,Teleop Disabled,10,TRUE,-44087,NetComm_CAN_Receive.vi:5470001<APPEND>  <b>Complete call chain:</b>      NetComm_CAN_Receive.vi:5470001      WPI_CAN_PDPReceive.vi      WPI_Power Get PDP Currents.vi      Periodic Tasks.vi      Robot Main.vi,-0.000000,0.000000,-0.000000,0.000000,TRUE,FALSE,TRUE,TRUE,FALSE,FALSE,Disabled,0.000000,0.000000,0.000000,TRUE,1.177475,-0.009476,0.000000,0.000000,0.000000,0.000000,-0.002000,0.000000,0.011000,-0.120000,-0.190000,-0.900000,-0.241967,ResetBack,1.261719,-0.000049,ResetBack,-27571.000000,-0.250000,LowGoal,0.000000,-2181.818182,Speed,0.000000,-2181.818182,Speed,Off,Off,0.000000,FALSE,0,,,,,0.000000,0.000000
02:16:11.645 PM 04/02/2016,Teleop Disabled,13,TRUE,-44087,NetComm_CAN_Receive.vi:5470001<APPEND>  <b>Complete call chain:</b>      NetComm_CAN_Receive.vi:5470001      WPI_CAN_PDPReceive.vi      WPI_Power Get PDP Currents.vi      Periodic Tasks.vi      Robot Main.vi,-0.000000,0.000000,-0.000000,0.000000,TRUE,FALSE,TRUE,TRUE,FALSE,FALSE,Disabled,0.000000,0.000000,0.000000,TRUE,1.177475,-0.009476,0.000000,0.000000,0.000000,0.000000,-0.002000,0.002000,0.011000,-0.120000,-0.200000,-0.890000,-0.242501,ResetBack,1.261719,-0.000049,ResetBack,-27571.000000,-0.250000,LowGoal,0.000000,-2181.818182,Speed,0.000000,-2181.818182,Speed,Off,Off,0.000000,FALSE,0,,,,,0.000000,0.000000
02:16:11.745 PM 04/02/2016,Teleop Disabled,12,TRUE,-44087,NetComm_CAN_Receive.vi:5470001<APPEND>  <b>Complete call chain:</b>      NetComm_CAN_Receive.vi:5470001      WPI_CAN_PDPReceive.vi      WPI_Power Get PDP Currents.vi      Periodic Tasks.vi      Robot Main.vi,-0.000000,0.000000,-0.000000,0.000000,TRUE,FALSE,TRUE,TRUE,FALSE,FALSE,Disabled,0.000000,0.000000,0.000000,TRUE,1.177475,-0.009476,0.000000,0.000000,0.000000,0.000000,0.000000,0.001000,0.017000,-0.120000,-0.180000,-0.900000,-0.255176,ResetBack,1.261719,-0.000049,ResetBack,-27571.000000,-0.250000,LowGoal,0.000000,-2181.818182,Speed,0.000000,-2181.818182,Speed,Off,Off,0.000000,FALSE,0,,,,,0.000000,0.000000
02:16:11.846 PM 04/02/2016,Teleop Disabled,10,TRUE,-44087,NetComm_CAN_Receive.vi:5470001<APPEND>  <b>Complete call chain:</b>      NetComm_CAN_Receive.vi:5470001      WPI_CAN_PDPReceive.vi      WPI_Power Get PDP Currents.vi      Periodic Tasks.vi      Robot Main.vi,-0.000000,0.000000,-0.000000,0.000000,TRUE,FALSE,TRUE,TRUE,FALSE,FALSE,Disabled,0.000000,0.000000,0.000000,TRUE,1.177475,-0.009476,0.000000,0.000000,0.000000,0.000000,-0.001000,-0.002000,0.012000,-0.120000,-0.190000,-0.900000,-0.255176,ResetBack,1.261719,-0.000049,ResetBack,-27571.000000,-0.250000,LowGoal,0.000000,-2181.818182,Speed,0.000000,-2181.818182,Speed,Off,Off,0.000000,FALSE,0,,,,,0.000000,0.000000
02:16:11.946 PM 04/02/2016,Teleop Disabled,10,TRUE,-44087,NetComm_CAN_Receive.vi:5470001<APPEND>  <b>Complete call chain:</b>      NetComm_CAN_Receive.vi:5470001      WPI_CAN_PDPReceive.vi      WPI_Power Get PDP Currents.vi      Periodic Tasks.vi      Robot Main.vi,-0.000000,0.000000,-0.000000,0.000000,TRUE,FALSE,TRUE,TRUE,FALSE,FALSE,Disabled,0.000000,0.000000,0.000000,TRUE,1.177475,-0.009476,0.000000,0.000000,0.000000,0.000000,0.003000,0.002000,0.015000,-0.130000,-0.190000,-0.890000,-0.262443,ResetBack,1.261719,-0.000049,ResetBack,-27571.000000,-0.250000,LowGoal,0.000000,-2181.818182,Speed,0.000000,-2181.818182,Speed,Off,Off,0.000000,FALSE,0,,,,,0.000000,0.000000
02:16:12.046 PM 04/02/2016,Teleop Disabled,11,TRUE,-44087,NetComm_CAN_Receive.vi:5470001<APPEND>  <b>Complete call chain:</b>      NetComm_CAN_Receive.vi:5470001      WPI_CAN_PDPReceive.vi      WPI_Power Get PDP Currents.vi      Periodic Tasks.vi      Robot Main.vi,-0.000000,0.000000,-0.000000,0.000000,TRUE,TRUE,TRUE,TRUE,FALSE,FALSE,Disabled,0.000000,0.000000,0.000000,TRUE,1.177475,-0.009476,0.000000,0.000000,0.000000,0.000000,-0.001000,-0.001000,0.019000,-0.130000,-0.190000,-0.900000,-0.263369,ResetBack,1.261719,-0.000049,ResetBack,-27571.000000,-0.250000,LowGoal,0.000000,-2181.818182,Speed,0.000000,-2181.818182,Speed,Off,Off,0.000000,FALSE,0,,,,,0.000000,0.000000
02:16:12.146 PM 04/02/2016,Teleop Disabled,9,TRUE,-44087,NetComm_CAN_Receive.vi:5470001<APPEND>  <b>Complete call chain:</b>      NetComm_CAN_Receive.vi:5470001      WPI_CAN_PDPReceive.vi      WPI_Power Get PDP Currents.vi      Periodic Tasks.vi      Robot Main.vi,-0.000000,0.000000,-0.000000,0.000000,TRUE,TRUE,TRUE,TRUE,FALSE,FALSE,Disabled,0.000000,0.000000,0.000000,TRUE,1.177475,-0.009476,0.000000,0.000000,0.000000,0.000000,0.000000,0.000000,0.018000,-0.130000,-0.200000,-0.890000,-0.267401,ResetBack,1.261719,-0.000049,ResetBack,-27571.000000,-0.250000,LowGoal,0.000000,-2181.818182,Speed,0.000000,-2181.818182,Speed,Off,Off,0.000000,FALSE,0,,,,,0.000000,0.000000
02:16:12.246 PM 04/02/2016,Teleop Disabled,9,TRUE,-44087,NetComm_CAN_Receive.vi:5470001<APPEND>  <b>Complete call chain:</b>      NetComm_CAN_Receive.vi:5470001      WPI_CAN_PDPReceive.vi      WPI_Power Get PDP Currents.vi      Periodic Tasks.vi      Robot Main.vi,-0.000000,0.000000,-0.000000,0.000000,TRUE,TRUE,TRUE,TRUE,FALSE,FALSE,Disabled,0.000000,0.000000,0.000000,TRUE,1.177475,-0.009476,0.000000,0.000000,0.000000,0.000000,0.001000,0.001000,0.015000,-0.130000,-0.200000,-0.890000,-0.287612,ResetBack,1.261719,-0.000049,ResetBack,-27571.000000,-0.250000,LowGoal,0.000000,0.000000,Speed,0.000000,0.000000,Speed,Off,Off,0.000000,FALSE,0,,,,,0.000000,0.000000
02:16:12.347 PM 04/02/2016,Teleop Disabled,11,TRUE,-44087,NetComm_CAN_Receive.vi:5470001<APPEND>  <b>Complete call chain:</b>      NetComm_CAN_Receive.vi:5470001      WPI_CAN_PDPReceive.vi      WPI_Power Get PDP Currents.vi      Periodic Tasks.vi      Robot Main.vi,-0.000000,0.000000,-0.000000,0.000000,TRUE,FALSE,TRUE,TRUE,FALSE,FALSE,Disabled,0.000000,0.000000,0.000000,TRUE,1.177475,-0.009476,0.000000,0.000000,0.000000,0.000000,0.000000,-0.002000,0.013000,-0.130000,-0.190000,-0.900000,-0.302962,ResetBack,1.261719,-0.000049,ResetBack,-27571.000000,-0.250000,LowGoal,0.000000,0.000000,Speed,0.000000,0.000000,Speed,Off,Off,0.000000,FALSE,0,,,,,0.000000,0.000000
02:16:12.449 PM 04/02/2016,Teleop Disabled,11,TRUE,-44087,NetComm_CAN_Receive.vi:5470001<APPEND>  <b>Complete call chain:</b>      NetComm_CAN_Receive.vi:5470001      WPI_CAN_PDPReceive.vi      WPI_Power Get PDP Currents.vi      Periodic Tasks.vi      Robot Main.vi,-0.000000,0.000000,-0.000000,0.000000,TRUE,FALSE,TRUE,TRUE,FALSE,FALSE,Disabled,0.000000,0.000000,0.000000,TRUE,1.177475,-0.009476,0.000000,0.000000,0.000000,0.000000,-0.001000,0.000000,0.012000,-0.130000,-0.190000,-0.900000,-0.309827,ResetBack,1.261719,-0.000049,ResetBack,-27571.000000,-0.250000,LowGoal,0.000000,-2181.818182,Speed,0.000000,-2181.818182,Speed,Off,Off,0.000000,FALSE,0,,,,,0.000000,0.000000
02:16:12.549 PM 04/02/2016,Teleop Disabled,11,TRUE,-44087,NetComm_CAN_Receive.vi:5470001<APPEND>  <b>Complete call chain:</b>      NetComm_CAN_Receive.vi:5470001      WPI_CAN_PDPReceive.vi      WPI_Power Get PDP Currents.vi      Periodic Tasks.vi      Robot Main.vi,-0.000000,0.000000,-0.000000,0.000000,TRUE,FALSE,TRUE,TRUE,FALSE,FALSE,Disabled,0.000000,0.000000,0.000000,TRUE,1.177475,-0.009476,0.000000,0.000000,0.000000,0.000000,0.000000,0.000000,0.012000,-0.130000,-0.180000,-0.910000,-0.307455,ResetBack,1.261719,-0.000049,ResetBack,-27571.000000,-0.250000,LowGoal,0.000000,-2181.818182,Speed,0.000000,-2181.818182,Speed,Off,Off,0.000000,FALSE,0,,,,,0.000000,0.000000
02:16:12.651 PM 04/02/2016,Teleop Disabled,11,TRUE,-44087,NetComm_CAN_Receive.vi:5470001<APPEND>  <b>Complete call chain:</b>      NetComm_CAN_Receive.vi:5470001      WPI_CAN_PDPReceive.vi      WPI_Power Get PDP Currents.vi      Periodic Tasks.vi      Robot Main.vi,-0.000000,0.000000,-0.000000,0.000000,TRUE,FALSE,TRUE,TRUE,FALSE,FALSE,Disabled,0.000000,0.000000,0.000000,TRUE,1.177475,-0.009476,0.000000,0.000000,0.000000,0.000000,0.000000,0.003000,0.017000,-0.130000,-0.190000,-0.900000,-0.320041,ResetBack,1.261719,-0.000049,ResetBack,-27571.000000,-0.250000,LowGoal,0.000000,-2181.818182,Speed,0.000000,-2181.818182,Speed,Off,Off,0.000000,FALSE,0,,,,,0.000000,0.000000
02:16:12.751 PM 04/02/2016,Teleop Disabled,11,TRUE,-44087,NetComm_CAN_Receive.vi:5470001<APPEND>  <b>Complete call chain:</b>      NetComm_CAN_Receive.vi:5470001      WPI_CAN_PDPReceive.vi      WPI_Power Get PDP Currents.vi      Periodic Tasks.vi      Robot Main.vi,-0.000000,0.000000,-0.000000,0.000000,TRUE,FALSE,TRUE,TRUE,FALSE,FALSE,Disabled,0.000000,0.000000,0.000000,TRUE,1.177475,-0.009476,0.000000,0.000000,0.000000,0.000000,-0.001000,-0.001000,0.012000,-0.130000,-0.180000,-0.900000,-0.323755,ResetBack,1.261719,-0.000049,ResetBack,-27571.000000,-0.250000,LowGoal,0.000000,-2181.818182,Speed,0.000000,-2181.818182,Speed,Off,Off,0.000000,FALSE,0,,,,,0.000000,0.000000
02:16:12.852 PM 04/02/2016,Teleop Disabled,10,TRUE,-44087,NetComm_CAN_Receive.vi:5470001<APPEND>  <b>Complete call chain:</b>      NetComm_CAN_Receive.vi:5470001      WPI_CAN_PDPReceive.vi      WPI_Power Get PDP Currents.vi      Periodic Tasks.vi      Robot Main.vi,-0.000000,0.000000,-0.000000,0.000000,TRUE,FALSE,TRUE,TRUE,FALSE,FALSE,Disabled,0.000000,0.000000,0.000000,TRUE,1.177475,-0.009476,0.000000,0.000000,0.000000,0.000000,0.000000,0.000000,0.018000,-0.130000,-0.190000,-0.900000,-0.330813,ResetBack,1.261719,-0.000049,ResetBack,-27571.000000,-0.250000,LowGoal,0.000000,-2181.818182,Speed,0.000000,-2181.818182,Speed,Off,Off,0.000000,FALSE,0,,,,,0.000000,0.000000
02:16:12.955 PM 04/02/2016,Teleop Disabled,10,TRUE,-44087,NetComm_CAN_Receive.vi:5470001<APPEND>  <b>Complete call chain:</b>      NetComm_CAN_Receive.vi:5470001      WPI_CAN_PDPReceive.vi      WPI_Power Get PDP Currents.vi      Periodic Tasks.vi      Robot Main.vi,-0.000000,0.000000,-0.000000,0.000000,TRUE,TRUE,TRUE,TRUE,FALSE,FALSE,Disabled,0.000000,0.000000,0.000000,TRUE,1.177475,-0.009476,0.000000,0.000000,0.000000,0.000000,-0.002000,0.000000,0.011000,-0.130000,-0.180000,-0.900000,-0.338524,ResetBack,1.261719,-0.000049,ResetBack,-27571.000000,-0.250000,LowGoal,0.000000,-2181.818182,Speed,0.000000,-2181.818182,Speed,Off,Off,0.000000,FALSE,0,,,,,0.000000,0.000000
02:16:13.056 PM 04/02/2016,Teleop Disabled,9,TRUE,-44087,NetComm_CAN_Receive.vi:5470001<APPEND>  <b>Complete call chain:</b>      NetComm_CAN_Receive.vi:5470001      WPI_CAN_PDPReceive.vi      WPI_Power Get PDP Currents.vi      Periodic Tasks.vi      Robot Main.vi,-0.000000,0.000000,-0.000000,0.000000,TRUE,TRUE,TRUE,TRUE,FALSE,FALSE,Disabled,0.000000,0.000000,0.000000,TRUE,1.177475,-0.009476,0.000000,0.000000,0.000000,0.000000,0.000000,0.002000,0.016000,-0.130000,-0.180000,-0.890000,-0.351389,ResetBack,1.261719,-0.000049,ResetBack,-27571.000000,-0.250000,LowGoal,0.000000,0.000000,Speed,0.000000,0.000000,Speed,Off,Off,0.000000,FALSE,0,,,,,0.000000,0.000000
02:16:13.156 PM 04/02/2016,Teleop Disabled,10,TRUE,-44087,NetComm_CAN_Receive.vi:5470001<APPEND>  <b>Complete call chain:</b>      NetComm_CAN_Receive.vi:5470001      WPI_CAN_PDPReceive.vi      WPI_Power Get PDP Currents.vi      Periodic Tasks.vi      Robot Main.vi,-0.000000,0.000000,-0.000000,0.000000,TRUE,FALSE,TRUE,TRUE,FALSE,FALSE,Disabled,0.000000,0.000000,0.000000,TRUE,1.177475,-0.009476,0.000000,0.000000,0.000000,0.000000,0.000000,0.003000,0.021000,-0.130000,-0.180000,-0.890000,-0.362515,ResetBack,1.261719,-0.000049,ResetBack,-27571.000000,-0.250000,LowGoal,0.000000,0.000000,Speed,0.000000,0.000000,Speed,Off,Off,0.000000,FALSE,0,,,,,0.000000,0.000000
02:16:13.257 PM 04/02/2016,Teleop Disabled,10,TRUE,-44087,NetComm_CAN_Receive.vi:5470001<APPEND>  <b>Complete call chain:</b>      NetComm_CAN_Receive.vi:5470001      WPI_CAN_PDPReceive.vi      WPI_Power Get PDP Currents.vi      Periodic Tasks.vi      Robot Main.vi,-0.000000,0.000000,-0.000000,0.000000,TRUE,FALSE,TRUE,TRUE,FALSE,FALSE,Disabled,0.000000,0.000000,0.000000,TRUE,1.177475,-0.009476,0.000000,0.000000,0.000000,0.000000,0.000000,-0.002000,0.010000,-0.130000,-0.180000,-0.890000,-0.375834,ResetBack,1.261719,-0.000049,ResetBack,-27571.000000,-0.250000,LowGoal,0.000000,-2181.818182,Speed,0.000000,-2181.818182,Speed,Off,Off,0.000000,FALSE,0,,,,,0.000000,0.000000
02:16:13.357 PM 04/02/2016,Teleop Disabled,11,TRUE,-44087,NetComm_CAN_Receive.vi:5470001<APPEND>  <b>Complete call chain:</b>      NetComm_CAN_Receive.vi:5470001      WPI_CAN_PDPReceive.vi      WPI_Power Get PDP Currents.vi      Periodic Tasks.vi      Robot Main.vi,-0.000000,0.000000,-0.000000,0.000000,TRUE,FALSE,TRUE,TRUE,FALSE,FALSE,Disabled,0.000000,0.000000,0.000000,TRUE,1.177475,-0.009476,0.000000,0.000000,0.000000,0.000000,0.000000,0.000000,0.011000,-0.130000,-0.180000,-0.890000,-0.398256,ResetBack,1.261719,-0.000049,ResetBack,-27571.000000,-0.250000,LowGoal,0.000000,-2181.818182,Speed,0.000000,-2181.818182,Speed,Off,Off,0.000000,FALSE,0,,,,,0.000000,0.000000
02:16:13.457 PM 04/02/2016,Teleop Disabled,10,TRUE,-44087,NetComm_CAN_Receive.vi:5470001<APPEND>  <b>Complete call chain:</b>      NetComm_CAN_Receive.vi:5470001      WPI_CAN_PDPReceive.vi      WPI_Power Get PDP Currents.vi      Periodic Tasks.vi      Robot Main.vi,-0.000000,0.000000,-0.000000,0.000000,TRUE,FALSE,TRUE,TRUE,FALSE,FALSE,Disabled,0.000000,0.000000,0.000000,TRUE,1.177475,-0.009476,0.000000,0.000000,0.000000,0.000000,0.002000,0.000000,0.016000,-0.130000,-0.180000,-0.890000,-0.402029,ResetBack,1.261719,-0.000049,ResetBack,-27571.000000,-0.250000,LowGoal,0.000000,-2181.818182,Speed,0.000000,-2181.818182,Speed,Off,Off,0.000000,FALSE,0,,,,,0.000000,0.000000
