Time,Robot Mode,Loop Time,Error Status,Error Code,Error Source,Left Motor Output,Left Motor Encoder,Right Motor Output,Right Motor Encoder,Is Level,Is Stalled,Ball Detector Photoeye,Vision Enabled,Vision Teleop Control,Vision Auto Control,Vision Current State,Vision X Output,Vision NavX Error,Vision NavX Target,NavX Connection Status,NavX Displacement X,NavX Displacement Y,NavX Displacement Z,NavX Velocity X,NavX Velocity Y,NavX Velocity Z,NavX Acceleration X,NavX Acceleration Y,NavX Acceleration Z,NavX Pitch,NavX Yaw,NavX Roll,Gyro Angle,Roller Arm State,Roller Arm Actual,Roller Arm Desired,Shooter Arm State,Shooter Arm Actual,Shooter Arm Desired,Shooter State,Actual RPM Left,Desired RPM Left,Control Mode Left,Actual RPM Right,Desired RPM Right,Control Mode Right,Ball Shooter Cylinder,Ball Halo Cylinder,Scaler Motor Output,Scaler Solenoid Fire,Auto To Run,Auto Current File,Auto File Status,Auto Current Command,Auto Trimmed Command,Shooter Amps Left,Shooter Amps Right
08:14:49.452 PM 03/31/2016,Teleop Enabled,13,TRUE,-44003,<LOCATION>WPI_CameraIssue HTTP Request with Authentication.vi<CALLSTACK>WPI_CameraIssue HTTP Request with Authentication.vi< <WPI_CameraIssue Get.vi< <WPI_CameraSet Image Appearance Property.vi< <WPI_CameraSet Image Size.vi< <Vision Processing.vi< <Robot Main.vi,-0.000000,-0.006417,-0.000000,0.000000,TRUE,FALSE,FALSE,TRUE,FALSE,FALSE,Disabled,0.000000,0.000000,0.000000,TRUE,0.000000,0.000000,0.000000,0.000000,0.000000,0.000000,-0.074000,-0.021000,-0.264000,0.000000,0.000000,0.000000,-0.000954,ResetBack,0.889160,-0.000049,ResetBack,-12917.000000,-0.250000,Empty,0.000000,0.000000,Speed,0.000000,0.000000,Speed,Off,On,0.000000,FALSE,0,,,,,0.000000,0.000000
08:14:49.553 PM 03/31/2016,Teleop Enabled,10,TRUE,-44087,NetComm_CAN_Receive.vi:5470027<APPEND>  <b>Complete call chain:</b>      NetComm_CAN_Receive.vi:5470027      WPI_CAN_PDPReceive.vi      WPI_Power Get PDP Currents.vi      Periodic Tasks.vi      Robot Main.vi,-0.000000,-0.006417,-0.000000,0.000000,TRUE,FALSE,FALSE,TRUE,FALSE,FALSE,Disabled,0.000000,0.000000,0.000000,TRUE,-4.754639,-5.830658,0.000000,-0.004364,-0.012268,0.000000,-0.057000,-0.069000,-0.142000,0.000000,-0.390000,2.610000,-0.002396,ResetBack,0.034668,-0.000049,ResetBack,-12917.000000,-0.250000,Suck,0.000000,1818.181818,Speed,0.000000,1818.181818,Speed,On,On,0.000000,FALSE,0,,,,,0.000000,0.000000
08:14:49.654 PM 03/31/2016,Teleop Enabled,10,TRUE,-44087,NetComm_CAN_Receive.vi:5470027<APPEND>  <b>Complete call chain:</b>      NetComm_CAN_Receive.vi:5470027      WPI_CAN_PDPReceive.vi      WPI_Power Get PDP Currents.vi      Periodic Tasks.vi      Robot Main.vi,-0.000000,-0.006417,-0.000000,0.000000,TRUE,FALSE,FALSE,TRUE,FALSE,FALSE,Disabled,0.000000,0.000000,0.000000,TRUE,-4.754837,-5.831940,0.000000,0.001373,-0.041702,0.000000,0.029000,-0.029000,0.059000,0.000000,-0.460000,2.610000,-0.000282,ResetBack,-0.066895,-0.000049,ResetBack,-6295.000000,-0.250000,Suck,-22.500000,1818.181818,Speed,-30.000000,1818.181818,Speed,Off,On,0.000000,FALSE,0,,,,,0.000000,0.000000
08:14:49.755 PM 03/31/2016,Teleop Enabled,9,TRUE,-44087,NetComm_CAN_Receive.vi:5470027<APPEND>  <b>Complete call chain:</b>      NetComm_CAN_Receive.vi:5470027      WPI_CAN_PDPReceive.vi      WPI_Power Get PDP Currents.vi      Periodic Tasks.vi      Robot Main.vi,-0.000000,-0.006417,-0.000000,-0.012833,TRUE,FALSE,FALSE,TRUE,FALSE,FALSE,Disabled,0.000000,0.000000,0.000000,TRUE,-4.755966,-5.834122,0.000000,-0.033432,0.004745,0.000000,0.029000,-0.029000,0.059000,0.000000,-0.460000,2.580000,0.001078,Reset,-0.066895,-0.000049,ResetBack,-5167.000000,-0.250000,Suck,-435.000000,1818.181818,Speed,-487.500000,1818.181818,Speed,Off,On,0.000000,FALSE,0,,,,,0.000000,0.000000
08:14:49.856 PM 03/31/2016,Teleop Enabled,11,TRUE,-44087,NetComm_CAN_Receive.vi:5470027<APPEND>  <b>Complete call chain:</b>      NetComm_CAN_Receive.vi:5470027      WPI_CAN_PDPReceive.vi      WPI_Power Get PDP Currents.vi      Periodic Tasks.vi      Robot Main.vi,-0.000000,-0.006417,-0.000000,-0.012833,TRUE,FALSE,FALSE,TRUE,FALSE,FALSE,Disabled,0.000000,0.000000,0.000000,TRUE,-4.757278,-5.833221,0.000000,-0.031708,0.034561,0.000000,0.053000,0.073000,0.110000,0.010000,-0.460000,2.570000,-0.007305,Hold,0.827393,0.000000,ResetBack,-4557.000000,-0.250000,Suck,-937.500000,1818.181818,Speed,-1012.500000,1818.181818,Speed,Off,On,0.000000,FALSE,0,,,,,0.000000,0.000000
08:14:49.961 PM 03/31/2016,Teleop Enabled,10,TRUE,-44087,NetComm_CAN_Receive.vi:5470027<APPEND>  <b>Complete call chain:</b>      NetComm_CAN_Receive.vi:5470027      WPI_CAN_PDPReceive.vi      WPI_Power Get PDP Currents.vi      Periodic Tasks.vi      Robot Main.vi,-0.000000,0.000000,-0.000000,-0.012833,TRUE,FALSE,FALSE,TRUE,FALSE,FALSE,Disabled,0.000000,0.000000,0.000000,TRUE,-4.757278,-5.833221,0.000000,-0.031708,0.034561,0.000000,-0.027000,-0.027000,0.012000,0.010000,-0.460000,2.570000,0.005976,Hold,0.916748,0.000000,ResetBack,-4544.000000,-0.250000,Suck,-1357.500000,1818.181818,Speed,-1470.000000,1818.181818,Speed,Off,On,0.000000,FALSE,0,,,,,0.000000,0.000000
08:14:50.068 PM 03/31/2016,Teleop Enabled,10,TRUE,-44087,NetComm_CAN_Receive.vi:5470027<APPEND>  <b>Complete call chain:</b>      NetComm_CAN_Receive.vi:5470027      WPI_CAN_PDPReceive.vi      WPI_Power Get PDP Currents.vi      Periodic Tasks.vi      Robot Main.vi,-0.000000,0.000000,-0.000000,-0.012833,TRUE,FALSE,FALSE,TRUE,FALSE,FALSE,Disabled,0.000000,0.000000,0.000000,TRUE,-4.762589,-5.828613,0.000000,-0.062607,0.039215,0.000000,0.083000,-0.061000,0.068000,0.000000,-0.530000,2.600000,0.017223,Hold,0.916748,0.000000,ResetBack,-3641.000000,-0.250000,Suck,-1695.000000,1818.181818,Speed,-1785.000000,1818.181818,Speed,Off,On,0.000000,FALSE,0,,,,,0.000000,0.000000
08:14:50.168 PM 03/31/2016,Teleop Enabled,3,TRUE,-44087,NetComm_CAN_Receive.vi:5470027<APPEND>  <b>Complete call chain:</b>      NetComm_CAN_Receive.vi:5470027      WPI_CAN_PDPReceive.vi      WPI_Power Get PDP Currents.vi      Periodic Tasks.vi      Robot Main.vi,-0.000000,0.006417,-0.000000,-0.012833,TRUE,FALSE,FALSE,TRUE,FALSE,FALSE,Disabled,0.000000,0.000000,0.000000,TRUE,-4.766327,-5.827850,0.000000,-0.036713,-0.008286,0.000000,-0.020000,-0.005000,-0.064000,0.000000,-0.540000,2.610000,0.025895,Hold,0.901123,0.000000,ResetBack,-2803.000000,-0.250000,Suck,-1822.500000,1818.181818,Speed,-1785.000000,1818.181818,Speed,Off,On,0.000000,FALSE,0,,,,,0.000000,0.000000
08:14:50.270 PM 03/31/2016,Teleop Enabled,3,TRUE,-44087,NetComm_CAN_Receive.vi:5470027<APPEND>  <b>Complete call chain:</b>      NetComm_CAN_Receive.vi:5470027      WPI_CAN_PDPReceive.vi      WPI_Power Get PDP Currents.vi      Periodic Tasks.vi      Robot Main.vi,-0.000000,0.006417,-0.000000,-0.012833,TRUE,FALSE,FALSE,TRUE,FALSE,FALSE,Disabled,0.000000,0.000000,0.000000,TRUE,-4.768448,-5.828369,0.000000,-0.063507,0.000000,0.000000,-0.066000,-0.004000,-0.093000,0.000000,-0.550000,2.540000,0.010823,Hold,0.901123,0.000000,ResetBack,-2803.000000,-0.250000,Suck,-1800.000000,1818.181818,Speed,-1755.000000,1818.181818,Speed,Off,On,0.000000,FALSE,0,,,,,0.000000,0.000000
08:14:50.371 PM 03/31/2016,Teleop Enabled,8,TRUE,-44087,NetComm_CAN_Receive.vi:5470027<APPEND>  <b>Complete call chain:</b>      NetComm_CAN_Receive.vi:5470027      WPI_CAN_PDPReceive.vi      WPI_Power Get PDP Currents.vi      Periodic Tasks.vi      Robot Main.vi,-0.000000,0.006417,-0.000000,-0.012833,TRUE,FALSE,FALSE,TRUE,FALSE,FALSE,Disabled,0.000000,0.000000,0.000000,TRUE,-4.772293,-5.827744,0.000000,-0.066040,0.019730,0.000000,-0.082000,-0.040000,-0.083000,0.010000,-0.600000,2.530000,-0.002458,Hold,0.901123,0.000000,ResetBack,-2277.000000,-0.250000,Suck,-1762.500000,1818.181818,Speed,-1725.000000,1818.181818,Speed,Off,On,0.000000,FALSE,0,,,,,0.000000,0.000000
08:14:50.473 PM 03/31/2016,Teleop Enabled,17,TRUE,-44087,NetComm_CAN_Receive.vi:5470027<APPEND>  <b>Complete call chain:</b>      NetComm_CAN_Receive.vi:5470027      WPI_CAN_PDPReceive.vi      WPI_Power Get PDP Currents.vi      Periodic Tasks.vi      Robot Main.vi,-0.000000,0.012833,-0.000000,-0.012833,TRUE,FALSE,FALSE,TRUE,FALSE,FALSE,Disabled,0.000000,0.000000,0.000000,TRUE,-4.772293,-5.827744,0.000000,-0.066040,0.019730,0.000000,-0.082000,-0.040000,-0.083000,0.010000,-0.600000,2.530000,0.011140,Hold,0.901123,0.000000,ResetBack,-1996.000000,-0.250000,Suck,-1747.500000,1818.181818,Speed,-1717.500000,1818.181818,Speed,Off,On,0.000000,FALSE,0,,,,,0.000000,0.000000
08:14:50.575 PM 03/31/2016,Teleop Enabled,14,TRUE,-44087,NetComm_CAN_Receive.vi:5470027<APPEND>  <b>Complete call chain:</b>      NetComm_CAN_Receive.vi:5470027      WPI_CAN_PDPReceive.vi      WPI_Power Get PDP Currents.vi      Periodic Tasks.vi      Robot Main.vi,-0.000000,0.012833,-0.000000,-0.012833,TRUE,FALSE,FALSE,TRUE,FALSE,FALSE,Disabled,0.000000,0.000000,0.000000,TRUE,-4.780197,-5.825668,0.000000,-0.076401,0.016678,0.000000,-0.169000,0.112000,-0.040000,0.010000,-0.590000,2.580000,0.015364,Hold,0.901123,0.000000,ResetBack,-1989.000000,-0.250000,Suck,-1747.500000,1818.181818,Speed,-1740.000000,1818.181818,Speed,Off,On,0.000000,FALSE,0,,,,,0.000000,0.000000
08:14:50.674 PM 03/31/2016,Teleop Enabled,12,TRUE,-44087,NetComm_CAN_Receive.vi:5470027<APPEND>  <b>Complete call chain:</b>      NetComm_CAN_Receive.vi:5470027      WPI_CAN_PDPReceive.vi      WPI_Power Get PDP Currents.vi      Periodic Tasks.vi      Robot Main.vi,-0.000000,0.019250,-0.000000,-0.012833,TRUE,FALSE,FALSE,TRUE,FALSE,FALSE,Disabled,0.000000,0.000000,0.000000,TRUE,-4.780197,-5.825668,0.000000,-0.076401,0.016678,0.000000,-0.009000,0.008000,0.046000,0.010000,-0.570000,2.560000,0.001728,Hold,0.901123,0.000000,Reset,-1799.000000,2.000000,Suck,-1747.500000,1818.181818,Speed,-1762.500000,1818.181818,Speed,Off,On,0.000000,FALSE,0,,,,,0.000000,0.000000
08:14:50.776 PM 03/31/2016,Teleop Enabled,10,TRUE,-44087,NetComm_CAN_Receive.vi:5470027<APPEND>  <b>Complete call chain:</b>      NetComm_CAN_Receive.vi:5470027      WPI_CAN_PDPReceive.vi      WPI_Power Get PDP Currents.vi      Periodic Tasks.vi      Robot Main.vi,-0.000000,0.019250,-0.000000,-0.012833,TRUE,FALSE,FALSE,TRUE,FALSE,FALSE,Disabled,0.000000,0.000000,0.000000,TRUE,-4.786407,-5.824478,0.000000,-0.103897,0.009933,0.000000,0.015000,0.032000,0.062000,0.000000,-0.430000,2.530000,-0.008114,Hold,0.901123,0.000000,Hold,-156.000000,2.000000,Suck,-1755.000000,1818.181818,Speed,-1755.000000,1818.181818,Speed,Off,On,0.000000,FALSE,0,,,,,0.000000,0.000000
08:14:50.877 PM 03/31/2016,Teleop Enabled,10,TRUE,-44087,NetComm_CAN_Receive.vi:5470027<APPEND>  <b>Complete call chain:</b>      NetComm_CAN_Receive.vi:5470027      WPI_CAN_PDPReceive.vi      WPI_Power Get PDP Currents.vi      Periodic Tasks.vi      Robot Main.vi,-0.000000,0.019250,-0.000000,-0.012833,TRUE,FALSE,FALSE,TRUE,FALSE,FALSE,Disabled,0.000000,0.000000,0.000000,TRUE,-4.791107,-5.824921,0.000000,-0.071274,-0.022034,0.000000,0.110000,-0.004000,-0.003000,0.000000,-0.350000,2.500000,-0.002682,Hold,0.901123,0.000000,Hold,-156.000000,2.000000,Suck,-1747.500000,1818.181818,Speed,-1740.000000,1818.181818,Speed,Off,On,0.000000,FALSE,0,,,,,0.000000,0.000000
08:14:50.981 PM 03/31/2016,Teleop Enabled,9,TRUE,-44087,NetComm_CAN_Receive.vi:5470027<APPEND>  <b>Complete call chain:</b>      NetComm_CAN_Receive.vi:5470027      WPI_CAN_PDPReceive.vi      WPI_Power Get PDP Currents.vi      Periodic Tasks.vi      Robot Main.vi,-0.000000,0.019250,-0.000000,-0.012833,TRUE,FALSE,FALSE,TRUE,FALSE,FALSE,Disabled,0.000000,0.000000,0.000000,TRUE,-4.794006,-5.824982,0.000000,-0.073486,-0.005524,0.000000,-0.138000,0.055000,-0.039000,0.000000,-0.230000,2.510000,-0.002162,Hold,0.901123,0.000000,Hold,-156.000000,2.000000,Suck,-1755.000000,1818.181818,Speed,-1725.000000,1818.181818,Speed,Off,On,0.000000,FALSE,0,,,,,0.000000,0.000000
08:14:51.086 PM 03/31/2016,Teleop Enabled,9,TRUE,-44087,NetComm_CAN_Receive.vi:5470027<APPEND>  <b>Complete call chain:</b>      NetComm_CAN_Receive.vi:5470027      WPI_CAN_PDPReceive.vi      WPI_Power Get PDP Currents.vi      Periodic Tasks.vi      Robot Main.vi,-0.000000,0.019250,-0.000000,-0.012833,TRUE,FALSE,FALSE,TRUE,FALSE,FALSE,Disabled,0.000000,0.000000,0.000000,TRUE,-4.799225,-5.825272,0.000000,-0.089935,0.005753,0.000000,0.005000,0.119000,0.013000,0.000000,-0.230000,2.510000,0.001477,Hold,0.901123,0.000000,Hold,-156.000000,2.000000,Suck,-1747.500000,1818.181818,Speed,-1732.500000,1818.181818,Speed,Off,On,0.000000,FALSE,0,,,,,0.000000,0.000000
08:14:51.185 PM 03/31/2016,Teleop Enabled,12,TRUE,-44087,NetComm_CAN_Receive.vi:5470027<APPEND>  <b>Complete call chain:</b>      NetComm_CAN_Receive.vi:5470027      WPI_CAN_PDPReceive.vi      WPI_Power Get PDP Currents.vi      Periodic Tasks.vi      Robot Main.vi,-0.000000,0.019250,-0.000000,-0.012833,TRUE,FALSE,FALSE,TRUE,FALSE,FALSE,Disabled,0.000000,0.000000,0.000000,TRUE,-4.807587,-5.818726,0.000000,-0.112289,0.106979,0.000000,0.002000,0.067000,0.061000,0.000000,-0.230000,2.540000,0.006069,Hold,0.901123,0.000000,Hold,-156.000000,2.000000,Suck,-1725.000000,1818.181818,Speed,-1747.500000,1818.181818,Speed,Off,On,0.000000,FALSE,0,,,,,0.000000,0.000000
08:14:51.286 PM 03/31/2016,Teleop Enabled,3,TRUE,-44087,NetComm_CAN_Receive.vi:5470027<APPEND>  <b>Complete call chain:</b>      NetComm_CAN_Receive.vi:5470027      WPI_CAN_PDPReceive.vi      WPI_Power Get PDP Currents.vi      Periodic Tasks.vi      Robot Main.vi,-0.000000,0.019250,-0.000000,-0.012833,TRUE,FALSE,FALSE,TRUE,FALSE,FALSE,Disabled,0.000000,0.000000,0.000000,TRUE,-4.812393,-5.811798,0.000000,-0.066833,0.148956,0.000000,0.102000,0.081000,0.131000,0.000000,-0.230000,2.510000,0.011932,Hold,0.901123,0.000000,Hold,-156.000000,2.000000,Suck,-1717.500000,1818.181818,Speed,-1725.000000,1818.181818,Speed,Off,On,0.000000,FALSE,0,,,,,0.000000,0.000000
08:14:51.389 PM 03/31/2016,Teleop Enabled,11,TRUE,-44087,NetComm_CAN_Receive.vi:5470027<APPEND>  <b>Complete call chain:</b>      NetComm_CAN_Receive.vi:5470027      WPI_CAN_PDPReceive.vi      WPI_Power Get PDP Currents.vi      Periodic Tasks.vi      Robot Main.vi,-0.000000,0.019250,-0.000000,-0.012833,TRUE,FALSE,FALSE,TRUE,FALSE,FALSE,Disabled,0.000000,0.000000,0.000000,TRUE,-4.817749,-5.800613,0.000000,-0.114258,0.263199,0.000000,-0.091000,0.088000,0.061000,0.000000,-0.230000,2.510000,0.015395,Hold,0.901123,0.000000,Hold,-156.000000,2.000000,Suck,-1740.000000,1818.181818,Speed,-1717.500000,1818.181818,Speed,Off,On,0.000000,FALSE,0,,,,,0.000000,0.000000
08:14:51.489 PM 03/31/2016,Teleop Enabled,15,TRUE,-44087,NetComm_CAN_Receive.vi:5470027<APPEND>  <b>Complete call chain:</b>      NetComm_CAN_Receive.vi:5470027      WPI_CAN_PDPReceive.vi      WPI_Power Get PDP Currents.vi      Periodic Tasks.vi      Robot Main.vi,-0.000000,0.019250,-0.000000,-0.012833,TRUE,FALSE,FALSE,TRUE,FALSE,FALSE,Disabled,0.000000,0.000000,0.000000,TRUE,-4.823929,-5.785385,0.000000,-0.123306,0.299881,0.000000,0.023000,0.057000,0.058000,0.000000,-0.310000,2.520000,0.012355,Hold,0.901123,0.000000,Hold,-156.000000,2.000000,Suck,-1762.500000,1818.181818,Speed,-1717.500000,1818.181818,Speed,Off,On,0.000000,FALSE,0,,,,,0.000000,0.000000
08:14:51.590 PM 03/31/2016,Teleop Enabled,3,TRUE,-44087,NetComm_CAN_Receive.vi:5470027<APPEND>  <b>Complete call chain:</b>      NetComm_CAN_Receive.vi:5470027      WPI_CAN_PDPReceive.vi      WPI_Power Get PDP Currents.vi      Periodic Tasks.vi      Robot Main.vi,-0.000000,0.019250,-0.000000,-0.012833,TRUE,FALSE,FALSE,TRUE,FALSE,FALSE,Disabled,0.000000,0.000000,0.000000,TRUE,-4.829956,-5.769577,0.000000,-0.106354,0.307083,0.000000,0.117000,-0.004000,0.025000,0.000000,-0.230000,2.540000,0.001787,Hold,0.901123,0.000000,Hold,-156.000000,2.000000,Suck,-1747.500000,1818.181818,Speed,-1747.500000,1818.181818,Speed,Off,On,0.000000,FALSE,0,,,,,0.000000,0.000000
08:14:51.691 PM 03/31/2016,Teleop Enabled,11,TRUE,-44087,NetComm_CAN_Receive.vi:5470027<APPEND>  <b>Complete call chain:</b>      NetComm_CAN_Receive.vi:5470027      WPI_CAN_PDPReceive.vi      WPI_Power Get PDP Currents.vi      Periodic Tasks.vi      Robot Main.vi,-0.000000,0.025667,-0.000000,-0.012833,TRUE,FALSE,FALSE,TRUE,FALSE,FALSE,Disabled,0.000000,0.000000,0.000000,TRUE,-4.836716,-5.754150,0.000000,-0.139252,0.288818,0.000000,0.117000,-0.004000,0.025000,0.000000,-0.230000,2.540000,-0.006506,Hold,0.901123,0.000000,Hold,-156.000000,2.000000,Suck,-1717.500000,1818.181818,Speed,-1770.000000,1818.181818,Speed,Off,On,0.000000,FALSE,0,,,,,0.000000,0.000000
08:14:51.793 PM 03/31/2016,Teleop Enabled,15,TRUE,-44087,NetComm_CAN_Receive.vi:5470027<APPEND>  <b>Complete call chain:</b>      NetComm_CAN_Receive.vi:5470027      WPI_CAN_PDPReceive.vi      WPI_Power Get PDP Currents.vi      Periodic Tasks.vi      Robot Main.vi,-0.000000,0.025667,-0.000000,-0.012833,TRUE,FALSE,FALSE,TRUE,FALSE,FALSE,Disabled,0.000000,0.000000,0.000000,TRUE,-4.844879,-5.754532,0.000000,-0.160767,-0.017227,0.000000,-0.071000,-0.057000,0.035000,0.000000,-0.300000,2.520000,-0.008145,Hold,0.901123,0.000000,Hold,-156.000000,2.000000,Suck,-1717.500000,1818.181818,Speed,-1770.000000,1818.181818,Speed,Off,On,0.000000,FALSE,0,,,,,0.000000,0.000000
08:14:51.892 PM 03/31/2016,Teleop Enabled,12,TRUE,-44087,NetComm_CAN_Receive.vi:5470027<APPEND>  <b>Complete call chain:</b>      NetComm_CAN_Receive.vi:5470027      WPI_CAN_PDPReceive.vi      WPI_Power Get PDP Currents.vi      Periodic Tasks.vi      Robot Main.vi,-0.000000,0.025667,-0.000000,-0.012833,TRUE,FALSE,FALSE,TRUE,FALSE,FALSE,Disabled,0.000000,0.000000,0.000000,TRUE,-4.850845,-5.755890,0.000000,-0.115128,-0.022552,0.000000,0.013000,0.044000,0.029000,0.000000,-0.300000,2.530000,-0.013350,Hold,0.901123,0.000000,Hold,-156.000000,2.000000,Suck,-1717.500000,1818.181818,Speed,-1770.000000,1818.181818,Speed,Off,On,0.000000,FALSE,0,,,,,0.000000,0.000000
08:14:51.994 PM 03/31/2016,Teleop Enabled,11,TRUE,-44087,NetComm_CAN_Receive.vi:5470027<APPEND>  <b>Complete call chain:</b>      NetComm_CAN_Receive.vi:5470027      WPI_CAN_PDPReceive.vi      WPI_Power Get PDP Currents.vi      Periodic Tasks.vi      Robot Main.vi,-0.000000,0.025667,-0.000000,-0.012833,TRUE,FALSE,FALSE,TRUE,FALSE,FALSE,Disabled,0.000000,0.000000,0.000000,TRUE,-4.855972,-5.756409,0.000000,-0.095901,0.001984,0.000000,0.042000,0.054000,0.056000,0.000000,-0.340000,2.640000,-0.013223,Hold,0.901123,0.000000,Hold,-156.000000,2.000000,Suck,-1740.000000,1818.181818,Speed,-1762.500000,1818.181818,Speed,Off,On,0.000000,FALSE,0,,,,,0.000000,0.000000
08:14:52.104 PM 03/31/2016,Teleop Enabled,18,TRUE,-44087,NetComm_CAN_Receive.vi:5470027<APPEND>  <b>Complete call chain:</b>      NetComm_CAN_Receive.vi:5470027      WPI_CAN_PDPReceive.vi      WPI_Power Get PDP Currents.vi      Periodic Tasks.vi      Robot Main.vi,-0.000000,0.025667,-0.000000,-0.012833,TRUE,FALSE,FALSE,TRUE,FALSE,FALSE,Disabled,0.000000,0.000000,0.000000,TRUE,-4.860245,-5.756866,0.000000,-0.059738,-0.019119,0.000000,-0.062000,0.048000,-0.050000,0.000000,-0.390000,2.690000,-0.018135,Hold,0.901123,0.000000,Hold,-156.000000,2.000000,Suck,-1755.000000,1818.181818,Speed,-1747.500000,1818.181818,Speed,Off,On,0.000000,FALSE,0,,,,,0.000000,0.000000
08:14:52.198 PM 03/31/2016,Teleop Enabled,9,TRUE,-44087,NetComm_CAN_Receive.vi:5470027<APPEND>  <b>Complete call chain:</b>      NetComm_CAN_Receive.vi:5470027      WPI_CAN_PDPReceive.vi      WPI_Power Get PDP Currents.vi      Periodic Tasks.vi      Robot Main.vi,-0.000000,0.025667,-0.000000,-0.012833,TRUE,FALSE,FALSE,TRUE,FALSE,FALSE,Disabled,0.000000,0.000000,0.000000,TRUE,-4.864120,-5.758057,0.000000,-0.094543,-0.030701,0.000000,0.007000,0.042000,0.061000,0.000000,-0.450000,2.800000,-0.024601,Hold,0.901123,0.000000,Hold,-156.000000,2.000000,Suck,-1732.500000,1818.181818,Speed,-1747.500000,1818.181818,Speed,Off,On,0.000000,FALSE,0,,,,,0.000000,0.000000
08:14:52.297 PM 03/31/2016,Teleop Enabled,11,TRUE,-44087,NetComm_CAN_Receive.vi:5470027<APPEND>  <b>Complete call chain:</b>      NetComm_CAN_Receive.vi:5470027      WPI_CAN_PDPReceive.vi      WPI_Power Get PDP Currents.vi      Periodic Tasks.vi      Robot Main.vi,-0.000000,0.025667,-0.000000,-0.012833,TRUE,FALSE,FALSE,TRUE,FALSE,FALSE,Disabled,0.000000,0.000000,0.000000,TRUE,-4.866714,-5.759201,0.000000,-0.009171,-0.016708,0.000000,-0.029000,0.041000,-0.035000,0.000000,-0.480000,2.870000,0.002276,Hold,0.901123,0.000000,Hold,-156.000000,2.000000,Suck,-1732.500000,1818.181818,Speed,-1755.000000,1818.181818,Speed,Off,On,0.000000,FALSE,0,,,,,0.000000,0.000000
08:14:52.399 PM 03/31/2016,Teleop Enabled,10,TRUE,-44087,NetComm_CAN_Receive.vi:5470027<APPEND>  <b>Complete call chain:</b>      NetComm_CAN_Receive.vi:5470027      WPI_CAN_PDPReceive.vi      WPI_Power Get PDP Currents.vi      Periodic Tasks.vi      Robot Main.vi,-0.000000,0.025667,-0.000000,-0.012833,TRUE,FALSE,FALSE,TRUE,FALSE,FALSE,Disabled,0.000000,0.000000,0.000000,TRUE,-4.867294,-5.758667,0.000000,-0.016373,0.006912,0.000000,-0.076000,0.024000,0.021000,0.000000,-0.460000,2.930000,0.003133,Hold,0.901123,0.000000,Hold,-156.000000,2.000000,Suck,-1747.500000,1818.181818,Speed,-1755.000000,1818.181818,Speed,Off,On,0.000000,FALSE,0,,,,,0.000000,0.000000
08:14:52.499 PM 03/31/2016,Teleop Enabled,10,TRUE,-44087,NetComm_CAN_Receive.vi:5470027<APPEND>  <b>Complete call chain:</b>      NetComm_CAN_Receive.vi:5470027      WPI_CAN_PDPReceive.vi      WPI_Power Get PDP Currents.vi      Periodic Tasks.vi      Robot Main.vi,-0.000000,0.025667,-0.000000,-0.012833,TRUE,FALSE,FALSE,TRUE,FALSE,FALSE,Disabled,0.000000,0.000000,0.000000,TRUE,-4.868347,-5.758194,0.000000,-0.015137,0.007584,0.000000,0.074000,0.042000,0.106000,0.000000,-0.460000,2.930000,-0.004269,Hold,0.901123,0.000000,Hold,-156.000000,2.000000,Suck,-1740.000000,1818.181818,Speed,-1755.000000,1818.181818,Speed,Off,On,0.000000,FALSE,0,,,,,0.000000,0.000000
08:14:52.600 PM 03/31/2016,Teleop Enabled,11,TRUE,-44087,NetComm_CAN_Receive.vi:5470027<APPEND>  <b>Complete call chain:</b>      NetComm_CAN_Receive.vi:5470027      WPI_CAN_PDPReceive.vi      WPI_Power Get PDP Currents.vi      Periodic Tasks.vi      Robot Main.vi,-0.000000,0.025667,-0.000000,-0.012833,TRUE,FALSE,FALSE,TRUE,FALSE,FALSE,Disabled,0.000000,0.000000,0.000000,TRUE,-4.868454,-5.757401,0.000000,-0.008179,0.013168,0.000000,0.182000,-0.022000,0.127000,0.000000,-0.480000,2.960000,-0.011416,Hold,0.901123,0.000000,Hold,-156.000000,2.000000,Suck,-1732.500000,1818.181818,Speed,-1755.000000,1818.181818,Speed,Off,On,0.000000,FALSE,0,,,,,0.000000,0.000000
08:14:52.700 PM 03/31/2016,Teleop Enabled,12,TRUE,-44087,NetComm_CAN_Receive.vi:5470027<APPEND>  <b>Complete call chain:</b>      NetComm_CAN_Receive.vi:5470027      WPI_CAN_PDPReceive.vi      WPI_Power Get PDP Currents.vi      Periodic Tasks.vi      Robot Main.vi,-0.000000,0.025667,-0.000000,-0.012833,TRUE,FALSE,FALSE,TRUE,FALSE,FALSE,Disabled,0.000000,0.000000,0.000000,TRUE,-4.868454,-5.757401,0.000000,-0.008179,0.013168,0.000000,-0.061000,0.122000,-0.029000,0.000000,-0.350000,2.900000,-0.026735,Hold,0.901123,0.000000,Hold,-156.000000,2.000000,Suck,-1740.000000,1818.181818,Speed,-1770.000000,1818.181818,Speed,Off,On,0.000000,FALSE,0,,,,,0.000000,0.000000
08:14:52.803 PM 03/31/2016,Teleop Enabled,9,TRUE,-44087,NetComm_CAN_Receive.vi:5470027<APPEND>  <b>Complete call chain:</b>      NetComm_CAN_Receive.vi:5470027      WPI_CAN_PDPReceive.vi      WPI_Power Get PDP Currents.vi      Periodic Tasks.vi      Robot Main.vi,-0.000000,0.025667,-0.000000,-0.012833,TRUE,FALSE,FALSE,TRUE,FALSE,FALSE,Disabled,0.000000,0.000000,0.000000,TRUE,-4.867523,-5.755539,0.000000,0.001328,0.033844,0.000000,0.007000,-0.014000,-0.066000,0.000000,-0.310000,2.920000,-0.018456,Hold,0.901123,0.000000,Hold,-156.000000,2.000000,Suck,-1717.500000,1818.181818,Speed,-1777.500000,1818.181818,Speed,Off,On,0.000000,FALSE,0,,,,,0.000000,0.000000
08:14:52.905 PM 03/31/2016,Teleop Enabled,11,TRUE,-44087,NetComm_CAN_Receive.vi:5470027<APPEND>  <b>Complete call chain:</b>      NetComm_CAN_Receive.vi:5470027      WPI_CAN_PDPReceive.vi      WPI_Power Get PDP Currents.vi      Periodic Tasks.vi      Robot Main.vi,-0.000000,0.025667,-0.000000,-0.012833,TRUE,FALSE,FALSE,TRUE,FALSE,FALSE,Disabled,0.000000,0.000000,0.000000,TRUE,-4.870163,-5.753677,0.000000,-0.086029,0.013519,0.000000,0.036000,0.001000,0.091000,0.000000,-0.400000,2.830000,-0.012004,Hold,0.901123,0.000000,Hold,-156.000000,2.000000,Suck,-1725.000000,1818.181818,Speed,-1777.500000,1818.181818,Speed,Off,On,0.000000,FALSE,0,,,,,0.000000,0.000000
08:14:53.006 PM 03/31/2016,Teleop Enabled,8,TRUE,-44087,NetComm_CAN_Receive.vi:5470027<APPEND>  <b>Complete call chain:</b>      NetComm_CAN_Receive.vi:5470027      WPI_CAN_PDPReceive.vi      WPI_Power Get PDP Currents.vi      Periodic Tasks.vi      Robot Main.vi,-0.000000,0.025667,-0.000000,-0.012833,TRUE,FALSE,FALSE,TRUE,FALSE,FALSE,Disabled,0.000000,0.000000,0.000000,TRUE,-4.874466,-5.754684,0.000000,-0.083450,-0.036560,0.000000,-0.009000,-0.017000,-0.074000,0.000000,-0.370000,2.850000,-0.009894,Hold,0.901123,0.000000,Hold,-156.000000,2.000000,Suck,-1732.500000,1818.181818,Speed,-1777.500000,1818.181818,Speed,Off,On,0.000000,FALSE,0,,,,,0.000000,0.000000
08:14:53.108 PM 03/31/2016,Teleop Enabled,9,TRUE,-44087,NetComm_CAN_Receive.vi:5470027<APPEND>  <b>Complete call chain:</b>      NetComm_CAN_Receive.vi:5470027      WPI_CAN_PDPReceive.vi      WPI_Power Get PDP Currents.vi      Periodic Tasks.vi      Robot Main.vi,-0.000000,0.025667,-0.000000,-0.012833,TRUE,FALSE,FALSE,TRUE,FALSE,FALSE,Disabled,0.000000,0.000000,0.000000,TRUE,-4.878479,-5.756775,0.000000,-0.101761,-0.046509,0.000000,-0.042000,0.045000,-0.043000,0.000000,-0.420000,2.850000,-0.027014,Hold,0.901123,0.000000,Hold,-156.000000,2.000000,Suck,-1740.000000,1818.181818,Speed,-1777.500000,1818.181818,Speed,Off,On,0.000000,FALSE,0,,,,,0.000000,0.000000
08:14:53.209 PM 03/31/2016,Teleop Enabled,9,TRUE,-44087,NetComm_CAN_Receive.vi:5470027<APPEND>  <b>Complete call chain:</b>      NetComm_CAN_Receive.vi:5470027      WPI_CAN_PDPReceive.vi      WPI_Power Get PDP Currents.vi      Periodic Tasks.vi      Robot Main.vi,-0.000000,0.025667,-0.000000,-0.012833,TRUE,FALSE,FALSE,TRUE,FALSE,FALSE,Disabled,0.000000,0.000000,0.000000,TRUE,-4.882523,-5.759659,0.000000,0.000000,-0.072540,0.000000,-0.087000,-0.019000,-0.084000,0.000000,-0.410000,2.730000,-0.025857,Hold,0.901123,51.000000,Hold,-156.000000,143360.000000,Suck,-1747.500000,1818.181818,Speed,-1755.000000,1818.181818,Speed,Off,On,0.000000,FALSE,0,,,,,0.000000,0.000000
08:14:53.309 PM 03/31/2016,Teleop Enabled,10,TRUE,-44087,NetComm_CAN_Receive.vi:5470027<APPEND>  <b>Complete call chain:</b>      NetComm_CAN_Receive.vi:5470027      WPI_CAN_PDPReceive.vi      WPI_Power Get PDP Currents.vi      Periodic Tasks.vi      Robot Main.vi,-0.000000,0.032083,-0.000000,-0.012833,TRUE,FALSE,FALSE,TRUE,FALSE,FALSE,Disabled,0.000000,0.000000,0.000000,TRUE,-4.884277,-5.767105,0.000000,-0.016678,-0.114578,0.000000,0.016000,0.032000,0.140000,0.000000,-0.360000,2.670000,0.013443,Hold,4.355225,51.000000,Hold,-156.000000,143360.000000,Suck,-1740.000000,1818.181818,Speed,-1747.500000,1818.181818,Speed,Off,On,0.000000,FALSE,0,,,,,0.000000,0.000000
08:14:53.412 PM 03/31/2016,Teleop Enabled,9,TRUE,-44087,NetComm_CAN_Receive.vi:5470027<APPEND>  <b>Complete call chain:</b>      NetComm_CAN_Receive.vi:5470027      WPI_CAN_PDPReceive.vi      WPI_Power Get PDP Currents.vi      Periodic Tasks.vi      Robot Main.vi,-0.000000,0.038500,-0.000000,0.000000,TRUE,FALSE,FALSE,TRUE,FALSE,FALSE,Disabled,0.000000,0.000000,0.000000,TRUE,-4.884842,-5.769318,0.000000,-0.033310,-0.105148,0.000000,0.052000,-0.035000,-0.067000,0.040000,-0.290000,2.690000,0.019747,Hold,8.444092,51.000000,Hold,-9748.000000,143360.000000,Suck,-1740.000000,1818.181818,Speed,-1755.000000,1818.181818,Speed,Off,On,0.000000,FALSE,0,,,,,0.000000,0.000000
08:14:53.512 PM 03/31/2016,Teleop Enabled,10,TRUE,-44087,NetComm_CAN_Receive.vi:5470027<APPEND>  <b>Complete call chain:</b>      NetComm_CAN_Receive.vi:5470027      WPI_CAN_PDPReceive.vi      WPI_Power Get PDP Currents.vi      Periodic Tasks.vi      Robot Main.vi,-0.000000,0.044917,-0.000000,0.032083,TRUE,FALSE,FALSE,TRUE,FALSE,FALSE,Disabled,0.000000,0.000000,0.000000,TRUE,-4.886917,-5.775848,0.000000,-0.017792,-0.121536,0.000000,-0.056000,0.021000,-0.015000,0.030000,-0.290000,2.670000,0.022921,Hold,14.402832,51.000000,Hold,-20683.000000,143360.000000,Suck,-1732.500000,1818.181818,Speed,-1755.000000,1818.181818,Speed,Off,On,0.000000,FALSE,0,,,,,0.000000,0.000000
08:14:53.614 PM 03/31/2016,Teleop Enabled,11,TRUE,-44087,NetComm_CAN_Receive.vi:5470027<APPEND>  <b>Complete call chain:</b>      NetComm_CAN_Receive.vi:5470027      WPI_CAN_PDPReceive.vi      WPI_Power Get PDP Currents.vi      Periodic Tasks.vi      Robot Main.vi,-0.000000,0.282333,-0.000000,0.096250,TRUE,FALSE,FALSE,TRUE,FALSE,FALSE,Disabled,0.000000,0.000000,0.000000,TRUE,-4.886536,-5.784256,0.000000,0.023270,-0.087555,0.000000,0.051000,0.075000,0.042000,0.040000,-0.180000,2.590000,0.087902,Hold,21.485596,51.000000,Hold,-30268.000000,143360.000000,Suck,-1732.500000,1818.181818,Speed,-1755.000000,1818.181818,Speed,Off,On,0.000000,FALSE,0,,,,,0.000000,0.000000
08:14:53.714 PM 03/31/2016,Teleop Enabled,10,TRUE,-44087,NetComm_CAN_Receive.vi:5470027<APPEND>  <b>Complete call chain:</b>      NetComm_CAN_Receive.vi:5470027      WPI_CAN_PDPReceive.vi      WPI_Power Get PDP Currents.vi      Periodic Tasks.vi      Robot Main.vi,-0.000000,0.295166,-0.000000,0.102666,TRUE,FALSE,FALSE,TRUE,FALSE,FALSE,Disabled,0.000000,0.000000,0.000000,TRUE,-4.886536,-5.784256,0.000000,0.023270,-0.087555,0.000000,-0.106000,-0.121000,-0.066000,0.090000,-0.460000,2.580000,0.109553,Hold,27.842773,51.000000,Hold,-40481.000000,143360.000000,Suck,-1725.000000,1818.181818,Speed,-1755.000000,1818.181818,Speed,Off,On,0.000000,FALSE,0,,,,,0.000000,0.000000
08:14:53.815 PM 03/31/2016,Teleop Enabled,10,TRUE,-44087,NetComm_CAN_Receive.vi:5470027<APPEND>  <b>Complete call chain:</b>      NetComm_CAN_Receive.vi:5470027      WPI_CAN_PDPReceive.vi      WPI_Power Get PDP Currents.vi      Periodic Tasks.vi      Robot Main.vi,-0.000000,0.307999,-0.000000,0.128333,TRUE,FALSE,FALSE,TRUE,FALSE,FALSE,Disabled,0.000000,0.000000,0.000000,TRUE,-4.883881,-5.789780,0.000000,0.057312,-0.102249,0.000000,0.027000,0.008000,0.030000,0.110000,-0.340000,2.560000,0.038791,Hold,36.732910,51.000000,Hold,-51522.000000,143360.000000,Suck,-1725.000000,1818.181818,Speed,-1762.500000,1818.181818,Speed,Off,On,0.000000,FALSE,0,,,,,0.000000,0.000000
08:14:53.915 PM 03/31/2016,Teleop Enabled,9,TRUE,-44087,NetComm_CAN_Receive.vi:5470027<APPEND>  <b>Complete call chain:</b>      NetComm_CAN_Receive.vi:5470027      WPI_CAN_PDPReceive.vi      WPI_Power Get PDP Currents.vi      Periodic Tasks.vi      Robot Main.vi,-0.000000,0.243833,-0.000000,-0.032083,TRUE,FALSE,FALSE,TRUE,FALSE,FALSE,Disabled,0.000000,0.000000,0.000000,TRUE,-4.879684,-5.794159,0.000000,0.119003,-0.075928,0.000000,0.221000,-0.026000,0.127000,0.010000,-0.830000,2.620000,0.102451,Hold,47.596924,51.000000,Hold,-51522.000000,143360.000000,Suck,-1732.500000,1818.181818,Speed,-1770.000000,1818.181818,Speed,Off,On,0.000000,FALSE,0,,,,,0.000000,0.000000
08:14:54.015 PM 03/31/2016,Teleop Enabled,9,TRUE,-44087,NetComm_CAN_Receive.vi:5470027<APPEND>  <b>Complete call chain:</b>      NetComm_CAN_Receive.vi:5470027      WPI_CAN_PDPReceive.vi      WPI_Power Get PDP Currents.vi      Periodic Tasks.vi      Robot Main.vi,-0.000000,0.147583,-0.000000,-0.205333,TRUE,FALSE,FALSE,TRUE,FALSE,FALSE,Disabled,0.000000,0.000000,0.000000,TRUE,-4.870239,-5.798325,0.000000,0.235168,-0.099106,0.000000,-0.008000,0.082000,0.012000,0.140000,-1.160000,2.610000,0.102451,Hold,55.204590,51.000000,Hold,-64039.000000,143360.000000,Suck,-1732.500000,1818.181818,Speed,-1770.000000,1818.181818,Speed,Off,On,0.000000,FALSE,0,,,,,0.000000,0.000000
08:14:54.115 PM 03/31/2016,Teleop Enabled,10,TRUE,-44087,NetComm_CAN_Receive.vi:5470027<APPEND>  <b>Complete call chain:</b>      NetComm_CAN_Receive.vi:5470027      WPI_CAN_PDPReceive.vi      WPI_Power Get PDP Currents.vi      Periodic Tasks.vi      Robot Main.vi,-0.000000,0.147583,-0.000000,-0.205333,TRUE,FALSE,FALSE,TRUE,FALSE,FALSE,Disabled,0.000000,0.000000,0.000000,TRUE,-4.859756,-5.802460,0.000000,0.169327,-0.081619,0.000000,-0.051000,0.073000,0.077000,0.310000,-1.190000,2.700000,0.313328,Hold,56.750977,51.000000,Hold,-78334.000000,143360.000000,Suck,-1740.000000,1818.181818,Speed,-1762.500000,1818.181818,Speed,Off,On,0.000000,FALSE,0,,,,,0.000000,0.000000
08:14:54.215 PM 03/31/2016,Teleop Enabled,10,TRUE,-44087,NetComm_CAN_Receive.vi:5470027<APPEND>  <b>Complete call chain:</b>      NetComm_CAN_Receive.vi:5470027      WPI_CAN_PDPReceive.vi      WPI_Power Get PDP Currents.vi      Periodic Tasks.vi      Robot Main.vi,-0.000000,0.147583,-0.000000,-0.173250,TRUE,FALSE,FALSE,TRUE,FALSE,FALSE,Disabled,0.000000,0.000000,0.000000,TRUE,-4.852585,-5.806473,0.000000,0.128586,-0.084457,0.000000,0.056000,-0.053000,0.162000,0.220000,-1.050000,2.600000,0.215091,Hold,55.672363,51.000000,Hold,-92372.000000,143360.000000,Suck,-1732.500000,1818.181818,Speed,-1762.500000,1818.181818,Speed,Off,On,0.000000,FALSE,0,,,,,0.000000,0.000000
08:14:54.315 PM 03/31/2016,Teleop Enabled,9,TRUE,-44087,NetComm_CAN_Receive.vi:5470027<APPEND>  <b>Complete call chain:</b>      NetComm_CAN_Receive.vi:5470027      WPI_CAN_PDPReceive.vi      WPI_Power Get PDP Currents.vi      Periodic Tasks.vi      Robot Main.vi,-0.000000,0.211750,-0.000000,-0.064167,TRUE,FALSE,FALSE,TRUE,FALSE,FALSE,Disabled,0.000000,0.000000,0.000000,TRUE,-4.847046,-5.809982,0.000000,0.152679,-0.087662,0.000000,-0.136000,0.130000,-0.058000,0.130000,-0.910000,2.670000,0.139448,Hold,55.324707,51.000000,Hold,-106535.000000,143360.000000,Suck,-1717.500000,1818.181818,Speed,-1762.500000,1818.181818,Speed,Off,On,0.000000,FALSE,0,,,,,0.000000,0.000000
08:14:54.417 PM 03/31/2016,Teleop Enabled,9,TRUE,-44087,NetComm_CAN_Receive.vi:5470027<APPEND>  <b>Complete call chain:</b>      NetComm_CAN_Receive.vi:5470027      WPI_CAN_PDPReceive.vi      WPI_Power Get PDP Currents.vi      Periodic Tasks.vi      Robot Main.vi,-0.000000,0.243833,-0.000000,-0.032083,TRUE,FALSE,FALSE,TRUE,FALSE,FALSE,Disabled,0.000000,0.000000,0.000000,TRUE,-4.837769,-5.813065,0.000000,0.181595,-0.040466,0.000000,0.112000,-0.109000,0.042000,0.100000,-0.890000,2.620000,0.127891,Hold,55.300537,51.000000,Hold,-121552.000000,143360.000000,Suck,-1725.000000,1818.181818,Speed,-1755.000000,1818.181818,Speed,Off,On,0.000000,FALSE,0,,,,,0.000000,0.000000
08:14:54.517 PM 03/31/2016,Teleop Enabled,9,TRUE,-44087,NetComm_CAN_Receive.vi:5470027<APPEND>  <b>Complete call chain:</b>      NetComm_CAN_Receive.vi:5470027      WPI_CAN_PDPReceive.vi      WPI_Power Get PDP Currents.vi      Periodic Tasks.vi      Robot Main.vi,-0.000000,0.243833,-0.000000,-0.032083,TRUE,FALSE,FALSE,TRUE,FALSE,FALSE,Disabled,0.000000,0.000000,0.000000,TRUE,-4.828369,-5.816116,0.000000,0.197235,-0.069321,0.000000,-0.079000,0.018000,0.163000,0.140000,-0.900000,2.570000,0.161067,Hold,55.227539,51.000000,Hold,-136858.000000,143360.000000,Suck,-1725.000000,1818.181818,Speed,-1747.500000,1818.181818,Speed,Off,On,0.000000,FALSE,0,,,,,0.000000,0.000000
08:14:54.619 PM 03/31/2016,Teleop Enabled,10,TRUE,-44087,NetComm_CAN_Receive.vi:5470027<APPEND>  <b>Complete call chain:</b>      NetComm_CAN_Receive.vi:5470027      WPI_CAN_PDPReceive.vi      WPI_Power Get PDP Currents.vi      Periodic Tasks.vi      Robot Main.vi,-0.000000,0.250249,-0.000000,-0.032083,TRUE,FALSE,FALSE,TRUE,FALSE,FALSE,Disabled,0.000000,0.000000,0.000000,TRUE,-4.817459,-5.815628,0.000000,0.152451,0.024170,0.000000,-0.079000,0.018000,0.163000,0.160000,-1.030000,2.570000,0.154626,Hold,55.215820,51.000000,Hold,-136858.000000,143360.000000,Suck,-1732.500000,1818.181818,Speed,-1747.500000,1818.181818,Speed,Off,On,0.000000,FALSE,0,,,,,0.000000,0.000000
08:14:54.720 PM 03/31/2016,Teleop Enabled,10,TRUE,-44087,NetComm_CAN_Receive.vi:5470027<APPEND>  <b>Complete call chain:</b>      NetComm_CAN_Receive.vi:5470027      WPI_CAN_PDPReceive.vi      WPI_Power Get PDP Currents.vi      Periodic Tasks.vi      Robot Main.vi,-0.000000,0.250249,-0.000000,-0.032083,TRUE,FALSE,FALSE,TRUE,FALSE,FALSE,Disabled,0.000000,0.000000,0.000000,TRUE,-4.815063,-5.817398,0.000000,0.046204,-0.030533,0.000000,-0.026000,-0.051000,-0.017000,0.170000,-0.970000,2.540000,0.211049,Hold,55.210693,51.000000,Hold,-143095.000000,143360.000000,Suck,-1717.500000,1818.181818,Speed,-1747.500000,1818.181818,Speed,Off,On,0.000000,FALSE,0,,,,,0.000000,0.000000
08:14:54.820 PM 03/31/2016,Teleop Enabled,11,TRUE,-44087,NetComm_CAN_Receive.vi:5470027<APPEND>  <b>Complete call chain:</b>      NetComm_CAN_Receive.vi:5470027      WPI_CAN_PDPReceive.vi      WPI_Power Get PDP Currents.vi      Periodic Tasks.vi      Robot Main.vi,-0.535433,0.263083,0.535433,-0.032083,TRUE,FALSE,FALSE,TRUE,FALSE,FALSE,Disabled,0.000000,0.000000,0.000000,TRUE,-4.814255,-5.819382,0.000000,0.012161,-0.061447,0.000000,-0.019000,-0.018000,0.042000,0.140000,-1.110000,2.490000,0.147221,Hold,55.196533,51.000000,Hold,-143445.000000,143360.000000,Suck,-1702.500000,1818.181818,Speed,-1747.500000,1818.181818,Speed,Off,On,0.000000,FALSE,0,,,,,0.000000,0.000000
08:14:54.921 PM 03/31/2016,Teleop Enabled,10,TRUE,-44087,NetComm_CAN_Receive.vi:5470027<APPEND>  <b>Complete call chain:</b>      NetComm_CAN_Receive.vi:5470027      WPI_CAN_PDPReceive.vi      WPI_Power Get PDP Currents.vi      Periodic Tasks.vi      Robot Main.vi,-0.779528,-0.327249,0.779528,0.089833,TRUE,FALSE,FALSE,TRUE,FALSE,FALSE,Disabled,0.000000,0.000000,0.000000,TRUE,-4.813156,-5.821976,0.000000,0.013733,0.000000,0.000000,0.528000,0.162000,0.386000,-0.410000,0.700000,2.240000,0.155314,Hold,55.212402,51.000000,Hold,-143445.000000,143360.000000,Suck,-1710.000000,1818.181818,Speed,-1755.000000,1818.181818,Speed,Off,On,0.000000,FALSE,0,,,,,0.000000,0.000000
08:14:55.021 PM 03/31/2016,Teleop Enabled,10,TRUE,-44087,NetComm_CAN_Receive.vi:5470027<APPEND>  <b>Complete call chain:</b>      NetComm_CAN_Receive.vi:5470027      WPI_CAN_PDPReceive.vi      WPI_Power Get PDP Currents.vi      Periodic Tasks.vi      Robot Main.vi,-0.984252,-2.964493,0.984252,-2.675744,TRUE,FALSE,FALSE,TRUE,FALSE,FALSE,Disabled,0.000000,0.000000,0.000000,TRUE,-4.789688,-5.827103,0.000000,0.642822,-0.056488,0.000000,0.528000,0.162000,0.386000,-0.410000,0.700000,2.240000,-0.794295,Hold,55.223145,51.000000,Hold,-143445.000000,143360.000000,Suck,-1687.500000,1818.181818,Speed,-1725.000000,1818.181818,Speed,Off,On,0.000000,FALSE,0,,,,,0.000000,0.000000
08:14:55.122 PM 03/31/2016,Teleop Enabled,10,TRUE,-44087,NetComm_CAN_Receive.vi:5470027<APPEND>  <b>Complete call chain:</b>      NetComm_CAN_Receive.vi:5470027      WPI_CAN_PDPReceive.vi      WPI_Power Get PDP Currents.vi      Periodic Tasks.vi      Robot Main.vi,-1.000000,-7.571649,1.000000,-7.058317,FALSE,FALSE,FALSE,TRUE,FALSE,FALSE,Disabled,0.000000,0.000000,0.000000,TRUE,-4.756500,-5.829941,0.000000,0.947525,-0.073166,0.000000,0.249000,-0.006000,-0.052000,-1.470000,5.320000,2.340000,-1.196213,Hold,54.930664,51.000000,Hold,-143445.000000,143360.000000,Suck,-1665.000000,1818.181818,Speed,-1695.000000,1818.181818,Speed,Off,On,0.000000,FALSE,0,,,,,0.000000,0.000000
08:14:55.222 PM 03/31/2016,Teleop Enabled,10,TRUE,-44087,NetComm_CAN_Receive.vi:5470027<APPEND>  <b>Complete call chain:</b>      NetComm_CAN_Receive.vi:5470027      WPI_CAN_PDPReceive.vi      WPI_Power Get PDP Currents.vi      Periodic Tasks.vi      Robot Main.vi,-1.000000,-13.173386,1.000000,-12.608721,FALSE,FALSE,FALSE,TRUE,FALSE,FALSE,Disabled,0.000000,0.000000,0.000000,TRUE,-4.713379,-5.832397,0.000000,1.141357,-0.050262,0.000000,0.042000,-0.046000,0.218000,-1.690000,4.720000,2.370000,-1.382755,Hold,54.939209,51.000000,Hold,-143445.000000,143360.000000,Suck,-1627.500000,1818.181818,Speed,-1672.500000,1818.181818,Speed,Off,On,0.000000,FALSE,0,,,,,0.000000,0.000000
08:14:55.323 PM 03/31/2016,Teleop Enabled,9,TRUE,-44087,NetComm_CAN_Receive.vi:5470027<APPEND>  <b>Complete call chain:</b>      NetComm_CAN_Receive.vi:5470027      WPI_CAN_PDPReceive.vi      WPI_Power Get PDP Currents.vi      Periodic Tasks.vi      Robot Main.vi,-1.000000,-19.647787,1.000000,-19.018956,FALSE,FALSE,FALSE,TRUE,FALSE,FALSE,Disabled,0.000000,0.000000,0.000000,TRUE,-4.658676,-5.833878,0.000000,1.042603,0.032318,0.000000,-0.179000,-0.099000,-0.371000,-1.810000,4.850000,2.450000,-1.529942,Hold,52.466309,51.000000,Hold,-143445.000000,143360.000000,Suck,-577.500000,1818.181818,Speed,-1672.500000,1818.181818,Speed,Off,On,0.000000,FALSE,0,,,,,0.000000,0.000000
08:14:55.425 PM 03/31/2016,Teleop Enabled,7,TRUE,-44087,NetComm_CAN_Receive.vi:5470027<APPEND>  <b>Complete call chain:</b>      NetComm_CAN_Receive.vi:5470027      WPI_CAN_PDPReceive.vi      WPI_Power Get PDP Currents.vi      Periodic Tasks.vi      Robot Main.vi,-1.000000,-26.462271,1.000000,-25.660190,FALSE,FALSE,FALSE,TRUE,FALSE,FALSE,Disabled,0.000000,0.000000,0.000000,TRUE,-4.610001,-5.832855,0.000000,0.935089,0.025558,0.000000,0.132000,-0.053000,0.202000,-2.300000,5.010000,2.410000,-2.029997,Hold,52.233643,51.000000,Hold,-143445.000000,143360.000000,Suck,-645.000000,1818.181818,Speed,-1462.500000,1818.181818,Speed,Off,On,0.000000,FALSE,0,,,,,0.000000,0.000000
08:14:55.527 PM 03/31/2016,Teleop Enabled,10,TRUE,-44087,NetComm_CAN_Receive.vi:5470027<APPEND>  <b>Complete call chain:</b>      NetComm_CAN_Receive.vi:5470027      WPI_CAN_PDPReceive.vi      WPI_Power Get PDP Currents.vi      Periodic Tasks.vi      Robot Main.vi,-1.000000,-33.283172,1.000000,-32.243675,FALSE,FALSE,FALSE,TRUE,FALSE,FALSE,Disabled,0.000000,0.000000,0.000000,TRUE,-4.563599,-5.831558,0.000000,0.943558,0.026794,0.000000,-0.204000,0.043000,-0.020000,-2.950000,4.010000,2.410000,-2.694050,Hold,54.183350,51.000000,Hold,-143445.000000,143360.000000,Suck,-1005.000000,1818.181818,Speed,-1530.000000,1818.181818,Speed,Off,On,0.000000,FALSE,0,,,,,0.000000,0.000000
08:14:55.627 PM 03/31/2016,Teleop Enabled,10,TRUE,-44087,NetComm_CAN_Receive.vi:5470027<APPEND>  <b>Complete call chain:</b>      NetComm_CAN_Receive.vi:5470027      WPI_CAN_PDPReceive.vi      WPI_Power Get PDP Currents.vi      Periodic Tasks.vi      Robot Main.vi,-1.000000,-40.283739,1.000000,-39.026075,FALSE,FALSE,FALSE,TRUE,FALSE,FALSE,Disabled,0.000000,0.000000,0.000000,TRUE,-4.517410,-5.831314,0.000000,0.948380,-0.010025,0.000000,0.042000,0.046000,-0.237000,-3.490000,3.670000,2.390000,-3.226138,Hold,54.509766,51.000000,Hold,-143445.000000,143360.000000,Suck,-1492.500000,1818.181818,Speed,-1710.000000,1818.181818,Speed,Off,On,0.000000,FALSE,0,,,,,0.000000,0.000000
08:14:55.730 PM 03/31/2016,Teleop Enabled,3,TRUE,-44087,NetComm_CAN_Receive.vi:5470027<APPEND>  <b>Complete call chain:</b>      NetComm_CAN_Receive.vi:5470027      WPI_CAN_PDPReceive.vi      WPI_Power Get PDP Currents.vi      Periodic Tasks.vi      Robot Main.vi,-1.000000,-47.630805,1.000000,-46.199892,FALSE,FALSE,TRUE,TRUE,FALSE,FALSE,Disabled,0.000000,0.000000,0.000000,TRUE,-4.472717,-5.831451,0.000000,0.875107,-0.004379,0.000000,-0.280000,-0.023000,0.031000,-3.960000,4.180000,2.500000,-3.601453,Hold,53.588867,51.000000,Hold,-143445.000000,143360.000000,Suck,-1477.500000,1818.181818,Speed,-1462.500000,1818.181818,Speed,Off,Off,0.000000,FALSE,0,,,,,0.000000,0.000000
08:14:55.832 PM 03/31/2016,Teleop Enabled,10,TRUE,-44087,NetComm_CAN_Receive.vi:5470027<APPEND>  <b>Complete call chain:</b>      NetComm_CAN_Receive.vi:5470027      WPI_CAN_PDPReceive.vi      WPI_Power Get PDP Currents.vi      Periodic Tasks.vi      Robot Main.vi,-0.740157,-54.894455,0.740157,-53.380125,FALSE,FALSE,TRUE,TRUE,FALSE,FALSE,Disabled,0.000000,0.000000,0.000000,TRUE,-4.426285,-5.831436,0.000000,0.724640,0.023621,0.000000,-0.112000,-0.061000,-0.021000,-4.470000,3.670000,2.490000,-4.109994,Hold,54.296387,51.000000,Hold,-143445.000000,143360.000000,Suck,-885.000000,1818.181818,Speed,-877.500000,1818.181818,Speed,Off,Off,0.000000,FALSE,0,,,,,0.000000,0.000000
08:14:55.933 PM 03/31/2016,Teleop Enabled,12,TRUE,-44087,NetComm_CAN_Receive.vi:5470027<APPEND>  <b>Complete call chain:</b>      NetComm_CAN_Receive.vi:5470027      WPI_CAN_PDPReceive.vi      WPI_Power Get PDP Currents.vi      Periodic Tasks.vi      Robot Main.vi,-0.952756,-61.484356,0.952756,-59.655610,TRUE,FALSE,TRUE,TRUE,FALSE,FALSE,Disabled,0.000000,0.000000,0.000000,TRUE,-4.392914,-5.829666,0.000000,0.623535,0.035446,0.000000,-0.558000,0.201000,0.164000,-4.950000,2.440000,2.490000,-4.587395,Hold,54.404785,51.000000,Hold,-143445.000000,143360.000000,Suck,-1260.000000,1818.181818,Speed,-1320.000000,1818.181818,Speed,Off,Off,0.000000,FALSE,0,,,,,0.000000,0.000000
08:14:56.034 PM 03/31/2016,Teleop Enabled,12,TRUE,-44087,NetComm_CAN_Receive.vi:5470027<APPEND>  <b>Complete call chain:</b>      NetComm_CAN_Receive.vi:5470027      WPI_CAN_PDPReceive.vi      WPI_Power Get PDP Currents.vi      Periodic Tasks.vi      Robot Main.vi,-0.960630,-68.067841,0.960630,-66.008096,TRUE,FALSE,TRUE,TRUE,FALSE,FALSE,Disabled,0.000000,0.000000,0.000000,TRUE,-4.370193,-5.824753,0.000000,0.411377,0.125641,0.000000,-0.195000,0.066000,0.134000,-5.240000,1.450000,2.550000,-4.991905,Hold,54.644775,51.000000,Hold,-143445.000000,143360.000000,Suck,-1612.500000,1818.181818,Speed,-1687.500000,1818.181818,Speed,Off,Off,0.000000,FALSE,0,,,,,0.000000,0.000000
08:14:56.134 PM 03/31/2016,Teleop Enabled,10,TRUE,-44087,NetComm_CAN_Receive.vi:5470027<APPEND>  <b>Complete call chain:</b>      NetComm_CAN_Receive.vi:5470027      WPI_CAN_PDPReceive.vi      WPI_Power Get PDP Currents.vi      Periodic Tasks.vi      Robot Main.vi,-0.000000,-74.484492,-0.000000,-72.264331,FALSE,FALSE,TRUE,TRUE,FALSE,FALSE,Disabled,0.000000,0.000000,0.000000,TRUE,-4.353058,-5.813248,0.000000,0.122086,0.270126,0.000000,0.410000,-0.549000,0.976000,-4.110000,0.640000,3.180000,-3.794797,Hold,54.486084,51.000000,Hold,-143445.000000,143360.000000,Suck,-1740.000000,1818.181818,Speed,-1770.000000,1818.181818,Speed,Off,Off,0.000000,FALSE,0,,,,,0.000000,0.000000
08:14:56.236 PM 03/31/2016,Teleop Enabled,10,TRUE,-44087,NetComm_CAN_Receive.vi:5470027<APPEND>  <b>Complete call chain:</b>      NetComm_CAN_Receive.vi:5470027      WPI_CAN_PDPReceive.vi      WPI_Power Get PDP Currents.vi      Periodic Tasks.vi      Robot Main.vi,-0.000000,-76.018072,-0.000000,-74.093077,TRUE,FALSE,TRUE,TRUE,FALSE,FALSE,Disabled,0.000000,0.000000,0.000000,TRUE,-4.358231,-5.810577,0.000000,-0.433578,0.041809,0.000000,-0.916000,-0.168000,-0.538000,-2.080000,-0.960000,2.630000,-2.051358,Hold,54.166748,51.000000,Hold,-143445.000000,143360.000000,Suck,-1732.500000,1818.181818,Speed,-1732.500000,1818.181818,Speed,Off,Off,0.000000,FALSE,0,,,,,0.000000,0.000000
08:14:56.337 PM 03/31/2016,Teleop Enabled,9,TRUE,-44087,NetComm_CAN_Receive.vi:5470027<APPEND>  <b>Complete call chain:</b>      NetComm_CAN_Receive.vi:5470027      WPI_CAN_PDPReceive.vi      WPI_Power Get PDP Currents.vi      Periodic Tasks.vi      Robot Main.vi,-0.000000,-76.685404,-0.000000,-74.946491,FALSE,FALSE,TRUE,TRUE,FALSE,FALSE,Disabled,0.000000,0.000000,0.000000,TRUE,-4.381393,-5.808289,0.000000,-0.622040,0.053696,0.000000,-0.097000,-0.071000,0.146000,-1.720000,-4.790000,2.470000,-1.794282,Hold,55.033691,51.000000,Hold,-143445.000000,143360.000000,Suck,-1740.000000,1818.181818,Speed,-1755.000000,1818.181818,Speed,Off,Off,0.000000,FALSE,0,,,,,0.000000,0.000000
08:14:56.442 PM 03/31/2016,Teleop Enabled,13,TRUE,-44087,NetComm_CAN_Receive.vi:5470027<APPEND>  <b>Complete call chain:</b>      NetComm_CAN_Receive.vi:5470027      WPI_CAN_PDPReceive.vi      WPI_Power Get PDP Currents.vi      Periodic Tasks.vi      Robot Main.vi,0.590551,-76.884320,-0.590551,-75.235241,TRUE,FALSE,TRUE,TRUE,FALSE,FALSE,Disabled,0.000000,0.000000,0.000000,TRUE,-4.419281,-5.808426,0.000000,-0.638733,-0.025253,0.000000,-0.178000,-0.522000,-0.784000,-1.440000,-2.990000,2.190000,-1.595416,Hold,55.033691,51.000000,Hold,-143445.000000,143360.000000,Suck,-1747.500000,1818.181818,Speed,-1770.000000,1818.181818,Speed,Off,Off,0.000000,FALSE,0,,,,,0.000000,0.000000
08:14:56.540 PM 03/31/2016,Teleop Enabled,11,TRUE,-44087,NetComm_CAN_Receive.vi:5470027<APPEND>  <b>Complete call chain:</b>      NetComm_CAN_Receive.vi:5470027      WPI_CAN_PDPReceive.vi      WPI_Power Get PDP Currents.vi      Periodic Tasks.vi      Robot Main.vi,1.000000,-75.145408,-1.000000,-73.400078,FALSE,FALSE,TRUE,TRUE,FALSE,FALSE,Disabled,0.000000,0.000000,0.000000,TRUE,-4.460312,-5.813309,0.000000,-1.023880,-0.119583,0.000000,-1.089000,-0.117000,-0.390000,-1.460000,-6.280000,2.440000,-1.678739,Hold,54.230713,51.000000,Hold,-143445.000000,143360.000000,Suck,-1732.500000,1818.181818,Speed,-1762.500000,1818.181818,Speed,Off,Off,0.000000,FALSE,0,,,,,0.000000,0.000000
08:14:56.640 PM 03/31/2016,Teleop Enabled,10,TRUE,-44087,NetComm_CAN_Receive.vi:5470027<APPEND>  <b>Complete call chain:</b>      NetComm_CAN_Receive.vi:5470027      WPI_CAN_PDPReceive.vi      WPI_Power Get PDP Currents.vi      Periodic Tasks.vi      Robot Main.vi,1.000000,-70.794918,-1.000000,-68.837839,FALSE,FALSE,TRUE,TRUE,FALSE,FALSE,Disabled,0.000000,0.000000,0.000000,TRUE,-4.513214,-5.816422,0.000000,-1.421875,-0.003693,0.000000,-0.172000,-0.068000,-0.175000,-1.450000,-8.810000,2.360000,-1.619806,Hold,54.398926,51.000000,Hold,-143445.000000,143360.000000,Suck,-1680.000000,1818.181818,Speed,-1695.000000,1818.181818,Speed,Off,Off,0.000000,FALSE,0,,,,,0.000000,0.000000
08:14:56.744 PM 03/31/2016,Teleop Enabled,11,TRUE,-44087,NetComm_CAN_Receive.vi:5470027<APPEND>  <b>Complete call chain:</b>      NetComm_CAN_Receive.vi:5470027      WPI_CAN_PDPReceive.vi      WPI_Power Get PDP Currents.vi      Periodic Tasks.vi      Robot Main.vi,1.000000,-65.616680,-1.000000,-63.544101,FALSE,FALSE,TRUE,TRUE,FALSE,FALSE,Disabled,0.000000,0.000000,0.000000,TRUE,-4.593155,-5.815079,0.000000,-1.737015,0.019775,0.000000,-0.235000,-0.029000,0.261000,-1.100000,-8.480000,2.580000,-1.378180,Hold,55.018799,51.000000,Hold,-143445.000000,143360.000000,Suck,-1657.500000,1818.181818,Speed,-1672.500000,1818.181818,Speed,Off,Off,0.000000,FALSE,0,,,,,0.000000,0.000000
08:14:56.843 PM 03/31/2016,Teleop Enabled,10,TRUE,-44087,NetComm_CAN_Receive.vi:5470027<APPEND>  <b>Complete call chain:</b>      NetComm_CAN_Receive.vi:5470027      WPI_CAN_PDPReceive.vi      WPI_Power Get PDP Currents.vi      Periodic Tasks.vi      Robot Main.vi,1.000000,-59.232111,-1.000000,-57.185200,FALSE,FALSE,TRUE,TRUE,FALSE,FALSE,Disabled,0.000000,0.000000,0.000000,TRUE,-4.685715,-5.814728,0.000000,-1.886063,0.014374,0.000000,-0.144000,0.108000,0.738000,-1.090000,-8.820000,2.430000,-1.330022,Hold,54.697021,51.000000,Hold,-143445.000000,143360.000000,Suck,-1657.500000,1818.181818,Speed,-1695.000000,1818.181818,Speed,Off,Off,0.000000,FALSE,0,,,,,0.000000,0.000000
08:14:56.944 PM 03/31/2016,Teleop Enabled,10,TRUE,-44087,NetComm_CAN_Receive.vi:5470027<APPEND>  <b>Complete call chain:</b>      NetComm_CAN_Receive.vi:5470027      WPI_CAN_PDPReceive.vi      WPI_Power Get PDP Currents.vi      Periodic Tasks.vi      Robot Main.vi,0.740157,-52.096795,-0.740157,-50.037050,FALSE,FALSE,TRUE,TRUE,FALSE,FALSE,Disabled,0.000000,0.000000,0.000000,TRUE,-4.803711,-5.813568,0.000000,-1.989944,-0.003922,0.000000,0.006000,0.008000,-0.056000,-0.990000,-8.850000,2.470000,-1.250995,Hold,54.672852,51.000000,Hold,-143445.000000,143360.000000,Hold,-1687.500000,0.000000,Speed,-1725.000000,0.000000,Speed,Off,Off,0.000000,FALSE,0,,,,,0.000000,0.000000
08:14:57.046 PM 03/31/2016,Teleop Enabled,14,TRUE,-44087,NetComm_CAN_Receive.vi:5470027<APPEND>  <b>Complete call chain:</b>      NetComm_CAN_Receive.vi:5470027      WPI_CAN_PDPReceive.vi      WPI_Power Get PDP Currents.vi      Periodic Tasks.vi      Robot Main.vi,-0.000000,-45.474810,-0.000000,-43.376565,FALSE,FALSE,TRUE,TRUE,FALSE,FALSE,Disabled,0.000000,0.000000,0.000000,TRUE,-4.802124,-5.812988,0.000000,0.097626,0.027969,0.000000,0.536000,0.031000,-0.133000,-0.890000,-7.900000,2.470000,-1.167633,Hold,54.652832,51.000000,Hold,-143445.000000,143360.000000,Hold,-1710.000000,0.000000,Speed,-1717.500000,0.000000,Speed,Off,Off,0.000000,FALSE,0,,,,,0.000000,0.000000
08:14:57.146 PM 03/31/2016,Teleop Enabled,10,TRUE,-44087,NetComm_CAN_Receive.vi:5470027<APPEND>  <b>Complete call chain:</b>      NetComm_CAN_Receive.vi:5470027      WPI_CAN_PDPReceive.vi      WPI_Power Get PDP Currents.vi      Periodic Tasks.vi      Robot Main.vi,-0.000000,-43.524148,-0.000000,-41.765986,FALSE,FALSE,TRUE,TRUE,FALSE,FALSE,Disabled,0.000000,0.000000,0.000000,TRUE,-4.779266,-5.812988,0.000000,0.792313,0.005386,0.000000,0.807000,0.044000,-0.073000,-1.390000,-3.330000,2.220000,-1.429839,Hold,54.911133,51.000000,Hold,-143445.000000,143360.000000,Hold,-1590.000000,0.000000,Speed,-1605.000000,0.000000,Speed,Off,Off,0.000000,FALSE,0,,,,,0.000000,0.000000
08:14:57.248 PM 03/31/2016,Teleop Enabled,10,TRUE,-44087,NetComm_CAN_Receive.vi:5470027<APPEND>  <b>Complete call chain:</b>      NetComm_CAN_Receive.vi:5470027      WPI_CAN_PDPReceive.vi      WPI_Power Get PDP Currents.vi      Periodic Tasks.vi      Robot Main.vi,-0.000000,-42.016235,-0.000000,-40.572488,TRUE,FALSE,TRUE,TRUE,FALSE,FALSE,Disabled,0.000000,0.000000,0.000000,TRUE,-4.718399,-5.811844,0.000000,1.450211,0.024902,0.000000,0.646000,0.104000,0.097000,-2.350000,0.050000,2.250000,-2.201829,Hold,54.911133,51.000000,Hold,-143445.000000,143360.000000,Hold,-1447.500000,0.000000,Speed,-1410.000000,0.000000,Speed,Off,Off,0.000000,FALSE,0,,,,,0.000000,0.000000
08:14:57.349 PM 03/31/2016,Teleop Enabled,11,TRUE,-44087,NetComm_CAN_Receive.vi:5470027<APPEND>  <b>Complete call chain:</b>      NetComm_CAN_Receive.vi:5470027      WPI_CAN_PDPReceive.vi      WPI_Power Get PDP Currents.vi      Periodic Tasks.vi      Robot Main.vi,-0.000000,-41.169237,-0.000000,-39.686991,TRUE,FALSE,TRUE,TRUE,FALSE,FALSE,Disabled,0.000000,0.000000,0.000000,TRUE,-4.630096,-5.809265,0.000000,1.911621,0.057465,0.000000,0.821000,0.021000,0.338000,-2.730000,0.300000,2.240000,-2.599689,Hold,54.844238,51.000000,Hold,-143445.000000,143360.000000,Hold,-1327.500000,0.000000,Speed,-1282.500000,0.000000,Speed,Off,Off,0.000000,FALSE,0,,,,,0.000000,0.000000
08:14:57.449 PM 03/31/2016,Teleop Enabled,8,TRUE,-44087,NetComm_CAN_Receive.vi:5470027<APPEND>  <b>Complete call chain:</b>      NetComm_CAN_Receive.vi:5470027      WPI_CAN_PDPReceive.vi      WPI_Power Get PDP Currents.vi      Periodic Tasks.vi      Robot Main.vi,-0.000000,-41.105071,-0.000000,-39.609991,TRUE,FALSE,TRUE,TRUE,FALSE,FALSE,Disabled,0.000000,0.000000,0.000000,TRUE,-4.504028,-5.807358,0.000000,2.180405,0.028687,0.000000,0.266000,0.090000,-0.075000,-2.770000,-0.160000,2.590000,-2.597148,Hold,54.844238,51.000000,Hold,-143445.000000,143360.000000,Hold,-1170.000000,0.000000,Speed,-1117.500000,0.000000,Speed,Off,Off,0.000000,FALSE,0,,,,,0.000000,0.000000
08:14:57.551 PM 03/31/2016,Teleop Enabled,10,TRUE,-44087,NetComm_CAN_Receive.vi:5470027<APPEND>  <b>Complete call chain:</b>      NetComm_CAN_Receive.vi:5470027      WPI_CAN_PDPReceive.vi      WPI_Power Get PDP Currents.vi      Periodic Tasks.vi      Robot Main.vi,0.448819,-41.111487,-0.448819,-39.667741,TRUE,FALSE,TRUE,TRUE,FALSE,FALSE,Disabled,0.000000,0.000000,0.000000,TRUE,-4.393921,-5.806641,0.000000,2.167908,-0.008545,0.000000,-0.450000,-0.020000,0.049000,-2.760000,0.140000,2.530000,-2.567794,Hold,55.093750,51.000000,Hold,-143445.000000,143360.000000,Hold,-982.500000,0.000000,Speed,-967.500000,0.000000,Speed,Off,Off,0.000000,FALSE,0,,,,,0.000000,0.000000
08:14:57.653 PM 03/31/2016,Teleop Enabled,9,TRUE,-44087,NetComm_CAN_Receive.vi:5470027<APPEND>  <b>Complete call chain:</b>      NetComm_CAN_Receive.vi:5470027      WPI_CAN_PDPReceive.vi      WPI_Power Get PDP Currents.vi      Periodic Tasks.vi      Robot Main.vi,0.488189,-39.667741,-0.488189,-38.076411,TRUE,FALSE,TRUE,TRUE,FALSE,FALSE,Disabled,0.000000,0.000000,0.000000,TRUE,-4.297745,-5.805420,0.000000,1.666489,0.066635,0.000000,-0.273000,-0.059000,-0.241000,-2.670000,-2.950000,2.750000,-2.539888,Hold,55.065186,51.000000,Hold,-143445.000000,143360.000000,Hold,-795.000000,0.000000,Speed,-787.500000,0.000000,Speed,Off,Off,0.000000,FALSE,0,,,,,0.000000,0.000000
08:14:57.753 PM 03/31/2016,Teleop Enabled,9,TRUE,-44087,NetComm_CAN_Receive.vi:5470027<APPEND>  <b>Complete call chain:</b>      NetComm_CAN_Receive.vi:5470027      WPI_CAN_PDPReceive.vi      WPI_Power Get PDP Currents.vi      Periodic Tasks.vi      Robot Main.vi,0.488189,-37.293579,-0.488189,-35.657333,FALSE,FALSE,TRUE,TRUE,FALSE,FALSE,Disabled,0.000000,0.000000,0.000000,TRUE,-4.222794,-5.803345,0.000000,1.406631,0.028732,0.000000,-0.239000,0.049000,-0.187000,-2.670000,-4.010000,2.660000,-2.586232,Hold,54.994873,51.000000,Hold,-143445.000000,143360.000000,Hold,-607.500000,0.000000,Speed,-637.500000,0.000000,Speed,Off,Off,0.000000,FALSE,0,,,,,0.000000,0.000000
08:14:57.855 PM 03/31/2016,Teleop Enabled,11,TRUE,-44087,NetComm_CAN_Receive.vi:5470027<APPEND>  <b>Complete call chain:</b>      NetComm_CAN_Receive.vi:5470027      WPI_CAN_PDPReceive.vi      WPI_Power Get PDP Currents.vi      Periodic Tasks.vi      Robot Main.vi,-0.000000,-34.091670,-0.000000,-32.461841,FALSE,FALSE,TRUE,TRUE,FALSE,FALSE,Disabled,0.000000,0.000000,0.000000,TRUE,-4.155930,-5.802414,0.000000,1.317032,0.036255,0.000000,-0.239000,0.049000,-0.187000,-2.660000,-3.190000,2.520000,-2.580321,Hold,55.014404,51.000000,Hold,-143445.000000,143360.000000,Hold,-405.000000,0.000000,Speed,-367.500000,0.000000,Speed,Off,Off,0.000000,FALSE,0,,,,,0.000000,0.000000
08:14:57.955 PM 03/31/2016,Teleop Enabled,12,TRUE,-44087,NetComm_CAN_Receive.vi:5470027<APPEND>  <b>Complete call chain:</b>      NetComm_CAN_Receive.vi:5470027      WPI_CAN_PDPReceive.vi      WPI_Power Get PDP Currents.vi      Periodic Tasks.vi      Robot Main.vi,-0.000000,-32.006258,-0.000000,-30.421346,TRUE,FALSE,TRUE,TRUE,FALSE,FALSE,Disabled,0.000000,0.000000,0.000000,TRUE,-4.087952,-5.803116,0.000000,1.472977,-0.017075,0.000000,0.395000,0.010000,0.449000,-2.710000,-1.960000,2.410000,-2.574941,Hold,54.455078,51.000000,Hold,-143445.000000,143360.000000,Hold,-210.000000,0.000000,Speed,-225.000000,0.000000,Speed,Off,Off,0.000000,FALSE,0,,,,,0.000000,0.000000
08:14:58.057 PM 03/31/2016,Teleop Enabled,10,TRUE,-44087,NetComm_CAN_Receive.vi:5470027<APPEND>  <b>Complete call chain:</b>      NetComm_CAN_Receive.vi:5470027      WPI_CAN_PDPReceive.vi      WPI_Power Get PDP Currents.vi      Periodic Tasks.vi      Robot Main.vi,-0.000000,-30.896178,-0.000000,-29.356181,TRUE,FALSE,TRUE,TRUE,FALSE,FALSE,Disabled,0.000000,0.000000,0.000000,TRUE,-3.978455,-5.802734,0.000000,1.986984,0.054276,0.000000,0.210000,-0.028000,-0.186000,-2.770000,0.920000,2.410000,-2.578479,Hold,55.009277,51.000000,Hold,-143445.000000,143360.000000,Hold,-37.500000,0.000000,Speed,-225.000000,0.000000,Speed,Off,Off,0.000000,FALSE,0,,,,,0.000000,0.000000
08:14:58.160 PM 03/31/2016,Teleop Enabled,9,TRUE,-44087,NetComm_CAN_Receive.vi:5470027<APPEND>  <b>Complete call chain:</b>      NetComm_CAN_Receive.vi:5470027      WPI_CAN_PDPReceive.vi      WPI_Power Get PDP Currents.vi      Periodic Tasks.vi      Robot Main.vi,-0.000000,-30.601012,-0.000000,-29.086682,TRUE,FALSE,TRUE,TRUE,FALSE,FALSE,Disabled,0.000000,0.000000,0.000000,TRUE,-3.895782,-5.801315,0.000000,2.093155,0.050644,0.000000,0.032000,-0.011000,-0.202000,-2.770000,1.040000,2.590000,-2.508537,Hold,54.489502,51.000000,Hold,-143445.000000,143360.000000,LowGoal,-37.500000,0.000000,Speed,-45.000000,0.000000,Speed,Off,Off,0.000000,FALSE,0,,,,,0.000000,0.000000
