Time,Robot Mode,Loop Time,Error Status,Error Code,Error Source,Left Motor Output,Left Motor Encoder,Right Motor Output,Right Motor Encoder,Is Level,Is Stalled,Ball Detector Photoeye,Vision Enabled,Vision Teleop Control,Vision Auto Control,Vision Current State,Vision X Output,Vision NavX Error,Vision NavX Target,NavX Connection Status,NavX Displacement X,NavX Displacement Y,NavX Displacement Z,NavX Velocity X,NavX Velocity Y,NavX Velocity Z,NavX Acceleration X,NavX Acceleration Y,NavX Acceleration Z,NavX Pitch,NavX Yaw,NavX Roll,Gyro Angle,Roller Arm State,Roller Arm Actual,Roller Arm Desired,Shooter Arm State,Shooter Arm Actual,Shooter Arm Desired,Shooter State,Actual RPM Left,Desired RPM Left,Control Mode Left,Actual RPM Right,Desired RPM Right,Control Mode Right,Ball Shooter Cylinder,Ball Halo Cylinder,Scaler Motor Output,Scaler Solenoid Fire,Auto To Run,Auto Current File,Auto File Status,Auto Current Command,Auto Trimmed Command,Shooter Amps Left,Shooter Amps Right
08:32:45.275 PM 03/31/2016,Teleop Enabled,12,TRUE,-44087,NetComm_CAN_Receive.vi:5470027<APPEND>  <b>Complete call chain:</b>      NetComm_CAN_Receive.vi:5470027      WPI_CAN_PDPReceive.vi      WPI_Power Get PDP Currents.vi      Periodic Tasks.vi      Robot Main.vi,-0.000000,0.000000,-0.000000,0.000000,TRUE,FALSE,FALSE,TRUE,FALSE,FALSE,Disabled,0.000000,0.000000,0.000000,TRUE,-6.235840,-4.665543,0.000000,0.000000,0.000000,0.000000,0.000000,0.000000,0.012000,-0.100000,-0.300000,2.520000,0.152812,ResetBack,0.969482,-0.000049,ResetBack,-9416.000000,-0.250000,Suck,0.000000,1818.181818,Speed,0.000000,1818.181818,Speed,Off,On,0.000000,FALSE,0,,,,,0.000000,0.000000
08:32:45.377 PM 03/31/2016,Teleop Enabled,11,TRUE,-44087,NetComm_CAN_Receive.vi:5470027<APPEND>  <b>Complete call chain:</b>      NetComm_CAN_Receive.vi:5470027      WPI_CAN_PDPReceive.vi      WPI_Power Get PDP Currents.vi      Periodic Tasks.vi      Robot Main.vi,-0.000000,0.000000,-0.000000,0.000000,TRUE,FALSE,FALSE,TRUE,FALSE,FALSE,Disabled,0.000000,0.000000,0.000000,TRUE,-6.236267,-4.665115,0.000000,-0.015457,0.019974,0.000000,0.082000,-0.004000,-0.035000,-0.100000,-0.330000,2.500000,0.147242,ResetBack,0.154297,-0.000049,ResetBack,-9416.000000,-0.250000,Suck,-217.500000,1818.181818,Speed,0.000000,1818.181818,Speed,Off,On,0.000000,FALSE,0,,,,,0.000000,0.000000
08:32:45.477 PM 03/31/2016,Teleop Enabled,10,TRUE,-44087,NetComm_CAN_Receive.vi:5470027<APPEND>  <b>Complete call chain:</b>      NetComm_CAN_Receive.vi:5470027      WPI_CAN_PDPReceive.vi      WPI_Power Get PDP Currents.vi      Periodic Tasks.vi      Robot Main.vi,-0.000000,0.000000,-0.000000,0.000000,TRUE,FALSE,FALSE,TRUE,FALSE,FALSE,Disabled,0.000000,0.000000,0.000000,TRUE,-6.236694,-4.664993,0.000000,-0.022308,-0.010422,0.000000,0.068000,0.013000,-0.033000,-0.100000,-0.320000,2.500000,0.131967,ResetBack,0.141357,-0.000049,ResetBack,-8091.000000,-0.250000,Suck,-810.000000,1818.181818,Speed,-300.000000,1818.181818,Speed,Off,On,0.000000,FALSE,0,,,,,0.000000,0.000000
08:32:45.577 PM 03/31/2016,Teleop Enabled,11,TRUE,-44087,NetComm_CAN_Receive.vi:5470027<APPEND>  <b>Complete call chain:</b>      NetComm_CAN_Receive.vi:5470027      WPI_CAN_PDPReceive.vi      WPI_Power Get PDP Currents.vi      Periodic Tasks.vi      Robot Main.vi,-0.000000,0.000000,-0.000000,0.000000,TRUE,FALSE,FALSE,TRUE,FALSE,FALSE,Disabled,0.000000,0.000000,0.000000,TRUE,-6.236496,-4.665726,0.000000,0.034348,-0.005524,0.000000,0.092000,-0.068000,0.000000,-0.110000,-0.290000,2.460000,0.123536,Reset,0.139404,-0.000049,ResetBack,-5746.000000,-0.250000,Suck,-810.000000,1818.181818,Speed,-1260.000000,1818.181818,Speed,Off,On,0.000000,FALSE,0,,,,,0.000000,0.000000
08:32:45.679 PM 03/31/2016,Teleop Enabled,10,TRUE,-44087,NetComm_CAN_Receive.vi:5470027<APPEND>  <b>Complete call chain:</b>      NetComm_CAN_Receive.vi:5470027      WPI_CAN_PDPReceive.vi      WPI_Power Get PDP Currents.vi      Periodic Tasks.vi      Robot Main.vi,-0.000000,0.000000,-0.000000,0.000000,TRUE,FALSE,FALSE,TRUE,FALSE,FALSE,Disabled,0.000000,0.000000,0.000000,TRUE,-6.234283,-4.667343,0.000000,0.031021,-0.044876,0.000000,0.004000,-0.020000,-0.022000,-0.100000,-0.290000,2.460000,0.132817,Hold,0.135742,0.000000,ResetBack,-3818.000000,-0.250000,Suck,-1545.000000,1818.181818,Speed,-1260.000000,1818.181818,Speed,Off,On,0.000000,FALSE,0,,,,,0.000000,0.000000
08:32:45.780 PM 03/31/2016,Teleop Enabled,10,TRUE,-44087,NetComm_CAN_Receive.vi:5470027<APPEND>  <b>Complete call chain:</b>      NetComm_CAN_Receive.vi:5470027      WPI_CAN_PDPReceive.vi      WPI_Power Get PDP Currents.vi      Periodic Tasks.vi      Robot Main.vi,-0.000000,0.000000,-0.000000,0.000000,TRUE,FALSE,FALSE,TRUE,FALSE,FALSE,Disabled,0.000000,0.000000,0.000000,TRUE,-6.234207,-4.669617,0.000000,0.000961,-0.050095,0.000000,0.039000,-0.056000,0.048000,-0.100000,-0.290000,2.550000,0.141207,Hold,0.616211,0.000000,ResetBack,-3326.000000,-0.250000,Suck,-1777.500000,1818.181818,Speed,-1732.500000,1818.181818,Speed,Off,On,0.000000,FALSE,0,,,,,0.000000,0.000000
08:32:45.883 PM 03/31/2016,Teleop Enabled,10,TRUE,-44087,NetComm_CAN_Receive.vi:5470027<APPEND>  <b>Complete call chain:</b>      NetComm_CAN_Receive.vi:5470027      WPI_CAN_PDPReceive.vi      WPI_Power Get PDP Currents.vi      Periodic Tasks.vi      Robot Main.vi,-0.000000,0.000000,-0.000000,0.000000,TRUE,FALSE,FALSE,TRUE,FALSE,FALSE,Disabled,0.000000,0.000000,0.000000,TRUE,-6.235092,-4.672882,0.000000,-0.029572,-0.054031,0.000000,-0.037000,-0.113000,0.019000,-0.110000,-0.260000,2.470000,0.135010,Hold,0.897217,0.000000,ResetBack,-2349.000000,-0.250000,Suck,-1777.500000,1818.181818,Speed,-1845.000000,1818.181818,Speed,Off,On,0.000000,FALSE,0,,,,,0.000000,0.000000
08:32:45.985 PM 03/31/2016,Teleop Enabled,10,TRUE,-44087,NetComm_CAN_Receive.vi:5470027<APPEND>  <b>Complete call chain:</b>      NetComm_CAN_Receive.vi:5470027      WPI_CAN_PDPReceive.vi      WPI_Power Get PDP Currents.vi      Periodic Tasks.vi      Robot Main.vi,-0.000000,0.000000,-0.000000,0.000000,TRUE,FALSE,FALSE,TRUE,FALSE,FALSE,Disabled,0.000000,0.000000,0.000000,TRUE,-6.237885,-4.678345,0.000000,-0.070190,-0.100403,0.000000,-0.007000,-0.075000,0.067000,-0.110000,-0.300000,2.460000,0.136408,Hold,0.897217,0.000000,ResetBack,-1695.000000,-0.250000,Suck,-1717.500000,1818.181818,Speed,-1747.500000,1818.181818,Speed,Off,On,0.000000,FALSE,0,,,,,0.000000,0.000000
08:32:46.086 PM 03/31/2016,Teleop Enabled,9,TRUE,-44087,NetComm_CAN_Receive.vi:5470027<APPEND>  <b>Complete call chain:</b>      NetComm_CAN_Receive.vi:5470027      WPI_CAN_PDPReceive.vi      WPI_Power Get PDP Currents.vi      Periodic Tasks.vi      Robot Main.vi,-0.000000,0.000000,-0.000000,0.000000,TRUE,FALSE,FALSE,TRUE,FALSE,FALSE,Disabled,0.000000,0.000000,0.000000,TRUE,-6.241440,-4.683884,0.000000,-0.103745,-0.161026,0.000000,0.035000,-0.027000,0.052000,-0.100000,-0.350000,2.460000,0.140195,Hold,0.897217,0.000000,ResetBack,-1695.000000,-0.250000,Suck,-1717.500000,1818.181818,Speed,-1740.000000,1818.181818,Speed,Off,On,0.000000,FALSE,0,,,,,0.000000,0.000000
08:32:46.186 PM 03/31/2016,Teleop Enabled,11,TRUE,-44087,NetComm_CAN_Receive.vi:5470027<APPEND>  <b>Complete call chain:</b>      NetComm_CAN_Receive.vi:5470027      WPI_CAN_PDPReceive.vi      WPI_Power Get PDP Currents.vi      Periodic Tasks.vi      Robot Main.vi,-0.000000,0.000000,-0.000000,0.000000,TRUE,FALSE,FALSE,TRUE,FALSE,FALSE,Disabled,0.000000,0.000000,0.000000,TRUE,-6.247086,-4.696045,0.000000,0.000000,-0.220093,0.000000,-0.005000,0.034000,0.097000,-0.100000,-0.350000,2.430000,0.138611,Hold,0.897217,0.000000,ResetBack,-1327.000000,-0.250000,Suck,-1710.000000,1818.181818,Speed,-1740.000000,1818.181818,Speed,Off,On,0.000000,FALSE,0,,,,,0.000000,0.000000
08:32:46.287 PM 03/31/2016,Teleop Enabled,9,TRUE,-44087,NetComm_CAN_Receive.vi:5470027<APPEND>  <b>Complete call chain:</b>      NetComm_CAN_Receive.vi:5470027      WPI_CAN_PDPReceive.vi      WPI_Power Get PDP Currents.vi      Periodic Tasks.vi      Robot Main.vi,-0.000000,0.000000,-0.000000,0.000000,TRUE,FALSE,FALSE,TRUE,FALSE,FALSE,Disabled,0.000000,0.000000,0.000000,TRUE,-6.246658,-4.702515,0.000000,0.016327,-0.217575,0.000000,0.083000,0.006000,0.045000,-0.100000,-0.330000,2.470000,0.118197,Hold,0.897217,0.000000,ResetBack,-915.000000,-0.250000,Suck,-1740.000000,1818.181818,Speed,-1740.000000,1818.181818,Speed,Off,On,0.000000,FALSE,0,,,,,0.000000,0.000000
08:32:46.388 PM 03/31/2016,Teleop Enabled,11,TRUE,-44087,NetComm_CAN_Receive.vi:5470027<APPEND>  <b>Complete call chain:</b>      NetComm_CAN_Receive.vi:5470027      WPI_CAN_PDPReceive.vi      WPI_Power Get PDP Currents.vi      Periodic Tasks.vi      Robot Main.vi,-0.000000,0.000000,-0.000000,0.000000,TRUE,FALSE,FALSE,TRUE,FALSE,FALSE,Disabled,0.000000,0.000000,0.000000,TRUE,-6.245621,-4.715179,0.000000,0.022324,-0.198441,0.000000,-0.137000,0.033000,-0.013000,-0.100000,-0.280000,2.480000,0.120803,Hold,0.897217,0.000000,ResetBack,-394.000000,-0.250000,Suck,-1755.000000,1818.181818,Speed,-1755.000000,1818.181818,Speed,Off,On,0.000000,FALSE,0,,,,,0.000000,0.000000
08:32:46.491 PM 03/31/2016,Teleop Enabled,10,TRUE,-44003,<LOCATION>WPI_CameraIssue HTTP Request with Authentication.vi<CALLSTACK>WPI_CameraIssue HTTP Request with Authentication.vi< <WPI_CameraIssue Get.vi< <WPI_CameraSet Image Appearance Property.vi< <WPI_CameraSet Image Size.vi< <Vision Processing.vi< <Robot Main.vi,-0.000000,0.000000,-0.000000,0.000000,TRUE,FALSE,FALSE,TRUE,FALSE,FALSE,Disabled,0.000000,0.000000,0.000000,TRUE,-6.245026,-4.724197,0.000000,0.015030,-0.177856,0.000000,-0.055000,-0.023000,0.011000,-0.100000,-0.310000,2.490000,0.138401,Hold,0.897217,0.000000,ResetBack,-180.000000,-0.250000,Suck,-1717.500000,1818.181818,Speed,-1762.500000,1818.181818,Speed,Off,On,0.000000,FALSE,0,,,,,0.000000,0.000000
08:32:46.593 PM 03/31/2016,Teleop Enabled,9,TRUE,-44087,NetComm_CAN_Receive.vi:5470027<APPEND>  <b>Complete call chain:</b>      NetComm_CAN_Receive.vi:5470027      WPI_CAN_PDPReceive.vi      WPI_Power Get PDP Currents.vi      Periodic Tasks.vi      Robot Main.vi,-0.000000,0.000000,-0.000000,0.000000,TRUE,FALSE,FALSE,TRUE,FALSE,FALSE,Disabled,0.000000,0.000000,0.000000,TRUE,-6.244232,-4.733276,0.000000,0.008774,-0.183990,0.000000,0.007000,0.012000,-0.053000,-0.100000,-0.370000,2.450000,0.136422,Hold,0.897217,0.000000,Reset,-120.000000,2.000000,Suck,-1710.000000,1818.181818,Speed,-1762.500000,1818.181818,Speed,Off,On,0.000000,FALSE,0,,,,,0.000000,0.000000
08:32:46.695 PM 03/31/2016,Teleop Enabled,10,TRUE,-44087,NetComm_CAN_Receive.vi:5470027<APPEND>  <b>Complete call chain:</b>      NetComm_CAN_Receive.vi:5470027      WPI_CAN_PDPReceive.vi      WPI_Power Get PDP Currents.vi      Periodic Tasks.vi      Robot Main.vi,-0.000000,0.000000,-0.000000,0.000000,TRUE,FALSE,FALSE,TRUE,FALSE,FALSE,Disabled,0.000000,0.000000,0.000000,TRUE,-6.243225,-4.744461,0.000000,0.010742,-0.189972,0.000000,-0.081000,0.056000,-0.041000,-0.100000,-0.250000,2.500000,0.145596,Hold,0.897217,0.000000,Hold,-163.000000,2.000000,Suck,-1717.500000,1818.181818,Speed,-1755.000000,1818.181818,Speed,Off,On,0.000000,FALSE,0,,,,,0.000000,0.000000
08:32:46.796 PM 03/31/2016,Teleop Enabled,10,TRUE,-44087,NetComm_CAN_Receive.vi:5470027<APPEND>  <b>Complete call chain:</b>      NetComm_CAN_Receive.vi:5470027      WPI_CAN_PDPReceive.vi      WPI_Power Get PDP Currents.vi      Periodic Tasks.vi      Robot Main.vi,-0.000000,0.000000,-0.000000,0.000000,TRUE,FALSE,FALSE,TRUE,FALSE,FALSE,Disabled,0.000000,0.000000,0.000000,TRUE,-6.243179,-4.755173,0.000000,-0.020935,-0.161133,0.000000,-0.134000,0.072000,-0.104000,-0.100000,-0.270000,2.490000,0.133000,Hold,0.897217,0.000000,Hold,-163.000000,2.000000,Suck,-1725.000000,1818.181818,Speed,-1755.000000,1818.181818,Speed,Off,On,0.000000,FALSE,0,,,,,0.000000,0.000000
08:32:46.896 PM 03/31/2016,Teleop Enabled,11,TRUE,-44087,NetComm_CAN_Receive.vi:5470027<APPEND>  <b>Complete call chain:</b>      NetComm_CAN_Receive.vi:5470027      WPI_CAN_PDPReceive.vi      WPI_Power Get PDP Currents.vi      Periodic Tasks.vi      Robot Main.vi,-0.000000,0.000000,-0.000000,0.000000,TRUE,FALSE,FALSE,TRUE,FALSE,FALSE,Disabled,0.000000,0.000000,0.000000,TRUE,-6.245514,-4.761612,0.000000,-0.058014,-0.175613,0.000000,-0.014000,0.041000,-0.086000,-0.100000,-0.400000,2.420000,0.121522,Hold,0.897217,0.000000,Hold,-163.000000,2.000000,Suck,-1725.000000,1818.181818,Speed,-1762.500000,1818.181818,Speed,Off,On,0.000000,FALSE,0,,,,,0.000000,0.000000
08:32:46.996 PM 03/31/2016,Teleop Enabled,11,TRUE,-44087,NetComm_CAN_Receive.vi:5470027<APPEND>  <b>Complete call chain:</b>      NetComm_CAN_Receive.vi:5470027      WPI_CAN_PDPReceive.vi      WPI_Power Get PDP Currents.vi      Periodic Tasks.vi      Robot Main.vi,-0.000000,0.000000,-0.000000,0.000000,TRUE,FALSE,FALSE,TRUE,FALSE,FALSE,Disabled,0.000000,0.000000,0.000000,TRUE,-6.245667,-4.766830,0.000000,0.016754,0.005661,0.000000,-0.004000,-0.019000,-0.046000,-0.100000,-0.340000,2.470000,0.114431,Hold,0.897217,0.000000,Hold,-163.000000,2.000000,Suck,-1717.500000,1818.181818,Speed,-1770.000000,1818.181818,Speed,Off,On,0.000000,FALSE,0,,,,,0.000000,0.000000
08:32:47.097 PM 03/31/2016,Teleop Enabled,11,TRUE,-44087,NetComm_CAN_Receive.vi:5470027<APPEND>  <b>Complete call chain:</b>      NetComm_CAN_Receive.vi:5470027      WPI_CAN_PDPReceive.vi      WPI_Power Get PDP Currents.vi      Periodic Tasks.vi      Robot Main.vi,-0.000000,0.000000,-0.000000,0.000000,TRUE,FALSE,FALSE,TRUE,FALSE,FALSE,Disabled,0.000000,0.000000,0.000000,TRUE,-6.244415,-4.766937,0.000000,0.040451,-0.006042,0.000000,0.037000,-0.074000,0.010000,-0.100000,-0.340000,2.450000,0.107484,Hold,0.897217,0.000000,Hold,-163.000000,2.000000,Suck,-1717.500000,1818.181818,Speed,-1762.500000,1818.181818,Speed,Off,On,0.000000,FALSE,0,,,,,0.000000,0.000000
08:32:47.199 PM 03/31/2016,Teleop Enabled,11,TRUE,-44087,NetComm_CAN_Receive.vi:5470027<APPEND>  <b>Complete call chain:</b>      NetComm_CAN_Receive.vi:5470027      WPI_CAN_PDPReceive.vi      WPI_Power Get PDP Currents.vi      Periodic Tasks.vi      Robot Main.vi,-0.000000,0.000000,-0.000000,0.000000,TRUE,FALSE,FALSE,TRUE,FALSE,FALSE,Disabled,0.000000,0.000000,0.000000,TRUE,-6.243301,-4.768219,0.000000,0.043686,-0.036987,0.000000,-0.037000,0.077000,-0.044000,-0.100000,-0.320000,2.460000,0.101376,Hold,0.897217,0.000000,Hold,-163.000000,2.000000,Suck,-1710.000000,1818.181818,Speed,-1762.500000,1818.181818,Speed,Off,On,0.000000,FALSE,0,,,,,0.000000,0.000000
08:32:47.299 PM 03/31/2016,Teleop Enabled,10,TRUE,-44087,NetComm_CAN_Receive.vi:5470027<APPEND>  <b>Complete call chain:</b>      NetComm_CAN_Receive.vi:5470027      WPI_CAN_PDPReceive.vi      WPI_Power Get PDP Currents.vi      Periodic Tasks.vi      Robot Main.vi,-0.000000,0.000000,-0.000000,0.000000,TRUE,FALSE,FALSE,TRUE,FALSE,FALSE,Disabled,0.000000,0.000000,0.000000,TRUE,-6.240616,-4.770096,0.000000,0.057999,-0.049698,0.000000,-0.120000,0.022000,-0.147000,-0.100000,-0.360000,2.440000,0.092009,Hold,0.897217,0.000000,Hold,-163.000000,2.000000,Suck,-1725.000000,1818.181818,Speed,-1762.500000,1818.181818,Speed,Off,On,0.000000,FALSE,0,,,,,0.000000,0.000000
08:32:47.400 PM 03/31/2016,Teleop Enabled,9,TRUE,-44087,NetComm_CAN_Receive.vi:5470027<APPEND>  <b>Complete call chain:</b>      NetComm_CAN_Receive.vi:5470027      WPI_CAN_PDPReceive.vi      WPI_Power Get PDP Currents.vi      Periodic Tasks.vi      Robot Main.vi,-0.000000,0.000000,-0.000000,0.000000,TRUE,FALSE,FALSE,TRUE,FALSE,FALSE,Disabled,0.000000,0.000000,0.000000,TRUE,-6.236725,-4.773376,0.000000,0.089691,-0.048004,0.000000,-0.120000,0.022000,-0.147000,-0.100000,-0.300000,2.470000,0.089541,Hold,0.897217,0.000000,Hold,-163.000000,2.000000,Suck,-1747.500000,1818.181818,Speed,-1755.000000,1818.181818,Speed,Off,On,0.000000,FALSE,0,,,,,0.000000,0.000000
08:32:47.503 PM 03/31/2016,Teleop Enabled,9,TRUE,-44087,NetComm_CAN_Receive.vi:5470027<APPEND>  <b>Complete call chain:</b>      NetComm_CAN_Receive.vi:5470027      WPI_CAN_PDPReceive.vi      WPI_Power Get PDP Currents.vi      Periodic Tasks.vi      Robot Main.vi,-0.000000,0.000000,-0.000000,0.000000,TRUE,FALSE,FALSE,TRUE,FALSE,FALSE,Disabled,0.000000,0.000000,0.000000,TRUE,-6.232361,-4.775833,0.000000,0.088989,-0.059692,0.000000,0.146000,0.033000,0.134000,-0.110000,-0.350000,2.460000,0.079564,Hold,0.897217,0.000000,Hold,-163.000000,2.000000,Suck,-1732.500000,1818.181818,Speed,-1747.500000,1818.181818,Speed,Off,On,0.000000,FALSE,0,,,,,0.000000,0.000000
08:32:47.604 PM 03/31/2016,Teleop Enabled,11,TRUE,-44087,NetComm_CAN_Receive.vi:5470027<APPEND>  <b>Complete call chain:</b>      NetComm_CAN_Receive.vi:5470027      WPI_CAN_PDPReceive.vi      WPI_Power Get PDP Currents.vi      Periodic Tasks.vi      Robot Main.vi,-0.000000,0.000000,-0.000000,0.000000,TRUE,FALSE,FALSE,TRUE,FALSE,FALSE,Disabled,0.000000,0.000000,0.000000,TRUE,-6.227097,-4.779648,0.000000,0.123322,-0.097198,0.000000,0.120000,-0.053000,0.112000,-0.110000,-0.330000,2.440000,0.070221,Hold,0.897217,58.000000,Hold,-163.000000,143360.000000,Suck,-1717.500000,1818.181818,Speed,-1740.000000,1818.181818,Speed,Off,On,0.000000,FALSE,0,,,,,0.000000,0.000000
08:32:47.705 PM 03/31/2016,Teleop Enabled,10,TRUE,-44087,NetComm_CAN_Receive.vi:5470027<APPEND>  <b>Complete call chain:</b>      NetComm_CAN_Receive.vi:5470027      WPI_CAN_PDPReceive.vi      WPI_Power Get PDP Currents.vi      Periodic Tasks.vi      Robot Main.vi,-0.000000,0.000000,-0.000000,0.000000,TRUE,FALSE,FALSE,TRUE,FALSE,FALSE,Disabled,0.000000,0.000000,0.000000,TRUE,-6.218826,-4.785828,0.000000,0.181534,-0.135651,0.000000,0.104000,-0.019000,0.164000,-0.110000,-0.300000,2.380000,0.072903,Hold,4.351807,58.000000,Hold,-1959.000000,143360.000000,Suck,-1702.500000,1818.181818,Speed,-1747.500000,1818.181818,Speed,Off,On,0.000000,FALSE,0,,,,,0.000000,0.000000
08:32:47.806 PM 03/31/2016,Teleop Enabled,11,TRUE,-44087,NetComm_CAN_Receive.vi:5470027<APPEND>  <b>Complete call chain:</b>      NetComm_CAN_Receive.vi:5470027      WPI_CAN_PDPReceive.vi      WPI_Power Get PDP Currents.vi      Periodic Tasks.vi      Robot Main.vi,-0.000000,0.006417,-0.000000,0.000000,TRUE,FALSE,FALSE,TRUE,FALSE,FALSE,Disabled,0.000000,0.000000,0.000000,TRUE,-6.211517,-4.791641,0.000000,0.172256,-0.160904,0.000000,0.033000,0.117000,0.009000,-0.100000,-0.160000,2.440000,0.076580,Hold,8.451416,58.000000,Hold,-13895.000000,143360.000000,Suck,-1710.000000,1818.181818,Speed,-1747.500000,1818.181818,Speed,Off,On,0.000000,FALSE,0,,,,,0.000000,0.000000
08:32:47.908 PM 03/31/2016,Teleop Enabled,11,TRUE,-44087,NetComm_CAN_Receive.vi:5470027<APPEND>  <b>Complete call chain:</b>      NetComm_CAN_Receive.vi:5470027      WPI_CAN_PDPReceive.vi      WPI_Power Get PDP Currents.vi      Periodic Tasks.vi      Robot Main.vi,-0.000000,0.006417,-0.000000,0.025667,TRUE,FALSE,FALSE,TRUE,FALSE,FALSE,Disabled,0.000000,0.000000,0.000000,TRUE,-6.202591,-4.797333,0.000000,0.171021,0.000000,0.000000,0.058000,-0.003000,-0.006000,-0.150000,-0.140000,2.480000,0.040436,Hold,14.033447,58.000000,Hold,-24792.000000,143360.000000,Suck,-1725.000000,1818.181818,Speed,-1747.500000,1818.181818,Speed,Off,On,0.000000,FALSE,0,,,,,0.000000,0.000000
08:32:48.009 PM 03/31/2016,Teleop Enabled,10,TRUE,-44087,NetComm_CAN_Receive.vi:5470027<APPEND>  <b>Complete call chain:</b>      NetComm_CAN_Receive.vi:5470027      WPI_CAN_PDPReceive.vi      WPI_Power Get PDP Currents.vi      Periodic Tasks.vi      Robot Main.vi,-0.000000,0.006417,-0.000000,0.064167,TRUE,FALSE,FALSE,TRUE,FALSE,FALSE,Disabled,0.000000,0.000000,0.000000,TRUE,-6.194748,-4.797256,0.000000,0.157745,0.011749,0.000000,0.070000,0.022000,-0.018000,-0.150000,-0.080000,2.460000,0.046079,Hold,19.310059,58.000000,Hold,-34325.000000,143360.000000,Suck,-1725.000000,1818.181818,Speed,-1762.500000,1818.181818,Speed,Off,On,0.000000,FALSE,0,,,,,0.000000,0.000000
08:32:48.110 PM 03/31/2016,Teleop Enabled,11,TRUE,-44087,NetComm_CAN_Receive.vi:5470027<APPEND>  <b>Complete call chain:</b>      NetComm_CAN_Receive.vi:5470027      WPI_CAN_PDPReceive.vi      WPI_Power Get PDP Currents.vi      Periodic Tasks.vi      Robot Main.vi,-0.000000,0.012833,-0.000000,0.096250,TRUE,FALSE,FALSE,TRUE,FALSE,FALSE,Disabled,0.000000,0.000000,0.000000,TRUE,-6.186310,-4.794968,0.000000,0.000000,0.058350,0.000000,0.021000,-0.061000,-0.120000,-0.150000,-0.310000,2.470000,0.038994,Hold,28.222168,58.000000,Hold,-34325.000000,143360.000000,Suck,-1710.000000,1818.181818,Speed,-1762.500000,1818.181818,Speed,Off,On,0.000000,FALSE,0,,,,,0.000000,0.000000
08:32:48.212 PM 03/31/2016,Teleop Enabled,10,TRUE,-44087,NetComm_CAN_Receive.vi:5470027<APPEND>  <b>Complete call chain:</b>      NetComm_CAN_Receive.vi:5470027      WPI_CAN_PDPReceive.vi      WPI_Power Get PDP Currents.vi      Periodic Tasks.vi      Robot Main.vi,-0.000000,0.012833,-0.000000,0.077000,TRUE,FALSE,FALSE,TRUE,FALSE,FALSE,Disabled,0.000000,0.000000,0.000000,TRUE,-6.186356,-4.794083,0.000000,-0.011063,-0.004623,0.000000,-0.140000,0.130000,-0.076000,-0.100000,-0.050000,2.380000,0.083362,Hold,35.064209,58.000000,Hold,-45102.000000,143360.000000,Suck,-1702.500000,1818.181818,Speed,-1755.000000,1818.181818,Speed,Off,On,0.000000,FALSE,0,,,,,0.000000,0.000000
08:32:48.312 PM 03/31/2016,Teleop Enabled,11,TRUE,-44087,NetComm_CAN_Receive.vi:5470027<APPEND>  <b>Complete call chain:</b>      NetComm_CAN_Receive.vi:5470027      WPI_CAN_PDPReceive.vi      WPI_Power Get PDP Currents.vi      Periodic Tasks.vi      Robot Main.vi,-0.000000,0.012833,-0.000000,0.070583,TRUE,FALSE,FALSE,TRUE,FALSE,FALSE,Disabled,0.000000,0.000000,0.000000,TRUE,-6.187454,-4.792572,0.000000,-0.004166,0.034134,0.000000,0.125000,-0.046000,-0.084000,-0.170000,-0.580000,2.450000,0.030618,Hold,45.122803,58.000000,Hold,-56316.000000,143360.000000,Suck,-1717.500000,1818.181818,Speed,-1747.500000,1818.181818,Speed,Off,On,0.000000,FALSE,0,,,,,0.000000,0.000000
08:32:48.414 PM 03/31/2016,Teleop Enabled,10,TRUE,-44087,NetComm_CAN_Receive.vi:5470027<APPEND>  <b>Complete call chain:</b>      NetComm_CAN_Receive.vi:5470027      WPI_CAN_PDPReceive.vi      WPI_Power Get PDP Currents.vi      Periodic Tasks.vi      Robot Main.vi,-0.000000,-0.083416,-0.000000,-0.089833,TRUE,FALSE,FALSE,TRUE,FALSE,FALSE,Disabled,0.000000,0.000000,0.000000,TRUE,-6.186157,-4.791473,0.000000,-0.006393,0.005341,0.000000,0.023000,0.080000,0.024000,-0.180000,-0.520000,2.490000,0.033723,Hold,56.655518,58.000000,Hold,-69811.000000,143360.000000,Suck,-1732.500000,1818.181818,Speed,-1747.500000,1818.181818,Speed,Off,On,0.000000,FALSE,0,,,,,0.000000,0.000000
08:32:48.514 PM 03/31/2016,Teleop Enabled,9,TRUE,-44087,NetComm_CAN_Receive.vi:5470027<APPEND>  <b>Complete call chain:</b>      NetComm_CAN_Receive.vi:5470027      WPI_CAN_PDPReceive.vi      WPI_Power Get PDP Currents.vi      Periodic Tasks.vi      Robot Main.vi,-0.000000,-0.109083,-0.000000,-0.154000,TRUE,FALSE,FALSE,TRUE,FALSE,FALSE,Disabled,0.000000,0.000000,0.000000,TRUE,-6.187119,-4.790085,0.000000,-0.017105,0.043060,0.000000,-0.064000,0.037000,-0.252000,0.000000,-0.690000,2.650000,0.199603,Hold,63.793457,58.000000,Hold,-83319.000000,143360.000000,Suck,-1740.000000,1818.181818,Speed,-1755.000000,1818.181818,Speed,Off,On,0.000000,FALSE,0,,,,,0.000000,0.000000
08:32:48.614 PM 03/31/2016,Teleop Enabled,10,TRUE,-44087,NetComm_CAN_Receive.vi:5470027<APPEND>  <b>Complete call chain:</b>      NetComm_CAN_Receive.vi:5470027      WPI_CAN_PDPReceive.vi      WPI_Power Get PDP Currents.vi      Periodic Tasks.vi      Robot Main.vi,-0.000000,-0.109083,-0.000000,-0.044917,TRUE,FALSE,FALSE,TRUE,FALSE,FALSE,Disabled,0.000000,0.000000,0.000000,TRUE,-6.188126,-4.788361,0.000000,0.004883,0.026215,0.000000,-0.064000,0.037000,-0.252000,-0.180000,-0.840000,2.580000,0.039262,Hold,63.821289,58.000000,Hold,-97395.000000,143360.000000,Suck,-1732.500000,1818.181818,Speed,-1762.500000,1818.181818,Speed,Off,On,0.000000,FALSE,0,,,,,0.000000,0.000000
08:32:48.715 PM 03/31/2016,Teleop Enabled,9,TRUE,-44087,NetComm_CAN_Receive.vi:5470027<APPEND>  <b>Complete call chain:</b>      NetComm_CAN_Receive.vi:5470027      WPI_CAN_PDPReceive.vi      WPI_Power Get PDP Currents.vi      Periodic Tasks.vi      Robot Main.vi,-0.000000,-0.109083,-0.000000,-0.025667,TRUE,FALSE,FALSE,TRUE,FALSE,FALSE,Disabled,0.000000,0.000000,0.000000,TRUE,-6.188904,-4.787079,0.000000,-0.012115,0.007629,0.000000,0.042000,-0.036000,-0.025000,-0.250000,-0.590000,2.590000,-0.044529,Hold,62.171143,58.000000,Hold,-111781.000000,143360.000000,Suck,-1710.000000,1818.181818,Speed,-1755.000000,1818.181818,Speed,Off,On,0.000000,FALSE,0,,,,,0.000000,0.000000
08:32:48.817 PM 03/31/2016,Teleop Enabled,10,TRUE,-44087,NetComm_CAN_Receive.vi:5470027<APPEND>  <b>Complete call chain:</b>      NetComm_CAN_Receive.vi:5470027      WPI_CAN_PDPReceive.vi      WPI_Power Get PDP Currents.vi      Periodic Tasks.vi      Robot Main.vi,-0.000000,-0.102666,-0.000000,-0.025667,TRUE,FALSE,FALSE,TRUE,FALSE,FALSE,Disabled,0.000000,0.000000,0.000000,TRUE,-6.189514,-4.787598,0.000000,-0.029770,-0.002151,0.000000,-0.003000,-0.017000,-0.090000,-0.260000,-0.470000,2.690000,-0.029148,Hold,61.791260,58.000000,Hold,-111781.000000,143360.000000,Suck,-1710.000000,1818.181818,Speed,-1755.000000,1818.181818,Speed,Off,On,0.000000,FALSE,0,,,,,0.000000,0.000000
08:32:48.917 PM 03/31/2016,Teleop Enabled,10,TRUE,-44087,NetComm_CAN_Receive.vi:5470027<APPEND>  <b>Complete call chain:</b>      NetComm_CAN_Receive.vi:5470027      WPI_CAN_PDPReceive.vi      WPI_Power Get PDP Currents.vi      Periodic Tasks.vi      Robot Main.vi,-0.000000,-0.102666,-0.000000,-0.064167,TRUE,FALSE,FALSE,TRUE,FALSE,FALSE,Disabled,0.000000,0.000000,0.000000,TRUE,-6.192520,-4.787292,0.000000,-0.067215,-0.003220,0.000000,-0.033000,0.012000,0.026000,-0.200000,-0.750000,2.730000,0.039696,Hold,61.785400,58.000000,Hold,-126556.000000,143360.000000,Suck,-1725.000000,1818.181818,Speed,-1762.500000,1818.181818,Speed,Off,On,0.000000,FALSE,0,,,,,0.000000,0.000000
08:32:49.018 PM 03/31/2016,Teleop Enabled,10,TRUE,-44087,NetComm_CAN_Receive.vi:5470027<APPEND>  <b>Complete call chain:</b>      NetComm_CAN_Receive.vi:5470027      WPI_CAN_PDPReceive.vi      WPI_Power Get PDP Currents.vi      Periodic Tasks.vi      Robot Main.vi,-0.000000,-0.102666,-0.000000,-0.089833,TRUE,FALSE,FALSE,TRUE,FALSE,FALSE,Disabled,0.000000,0.000000,0.000000,TRUE,-6.199280,-4.786057,0.000000,-0.246475,0.065369,0.000000,-0.073000,0.013000,-0.012000,-0.210000,-0.710000,2.800000,0.074869,Hold,61.763916,58.000000,Hold,-141950.000000,143360.000000,Suck,-1747.500000,1818.181818,Speed,-1762.500000,1818.181818,Speed,Off,On,0.000000,FALSE,0,,,,,0.000000,0.000000
08:32:49.118 PM 03/31/2016,Teleop Enabled,9,TRUE,-44087,NetComm_CAN_Receive.vi:5470027<APPEND>  <b>Complete call chain:</b>      NetComm_CAN_Receive.vi:5470027      WPI_CAN_PDPReceive.vi      WPI_Power Get PDP Currents.vi      Periodic Tasks.vi      Robot Main.vi,-0.000000,-0.102666,-0.000000,-0.096250,TRUE,FALSE,FALSE,TRUE,FALSE,FALSE,Disabled,0.000000,0.000000,0.000000,TRUE,-6.214432,-4.779877,0.000000,-0.276642,0.103027,0.000000,-0.085000,0.041000,0.188000,-0.210000,-0.680000,2.790000,0.102337,Hold,61.763428,58.000000,Hold,-143766.000000,143360.000000,Suck,-1740.000000,1818.181818,Speed,-1755.000000,1818.181818,Speed,Off,On,0.000000,FALSE,0,,,,,0.000000,0.000000
08:32:49.219 PM 03/31/2016,Teleop Enabled,9,TRUE,-44087,NetComm_CAN_Receive.vi:5470027<APPEND>  <b>Complete call chain:</b>      NetComm_CAN_Receive.vi:5470027      WPI_CAN_PDPReceive.vi      WPI_Power Get PDP Currents.vi      Periodic Tasks.vi      Robot Main.vi,-0.000000,-0.102666,-0.000000,-0.057750,TRUE,FALSE,FALSE,TRUE,FALSE,FALSE,Disabled,0.000000,0.000000,0.000000,TRUE,-6.227921,-4.774109,0.000000,-0.233002,0.127167,0.000000,-0.088000,0.036000,-0.144000,-0.250000,-0.750000,2.680000,0.067688,Hold,61.754150,58.000000,Hold,-143507.000000,143360.000000,Suck,-1725.000000,1818.181818,Speed,-1747.500000,1818.181818,Speed,Off,On,0.000000,FALSE,0,,,,,0.000000,0.000000
08:32:49.320 PM 03/31/2016,Teleop Enabled,4,TRUE,-44087,NetComm_CAN_Receive.vi:5470027<APPEND>  <b>Complete call chain:</b>      NetComm_CAN_Receive.vi:5470027      WPI_CAN_PDPReceive.vi      WPI_Power Get PDP Currents.vi      Periodic Tasks.vi      Robot Main.vi,-0.000000,-0.102666,-0.000000,-0.057750,TRUE,FALSE,FALSE,TRUE,FALSE,FALSE,Disabled,0.000000,0.000000,0.000000,TRUE,-6.236694,-4.768616,0.000000,-0.224701,0.153015,0.000000,-0.088000,0.036000,-0.144000,-0.230000,-0.450000,2.630000,0.097025,Hold,61.748291,58.000000,Hold,-143465.000000,143360.000000,Suck,-1740.000000,1818.181818,Speed,-1755.000000,1818.181818,Speed,Off,On,0.000000,FALSE,0,,,,,0.000000,0.000000
08:32:49.420 PM 03/31/2016,Teleop Enabled,10,TRUE,-44087,NetComm_CAN_Receive.vi:5470027<APPEND>  <b>Complete call chain:</b>      NetComm_CAN_Receive.vi:5470027      WPI_CAN_PDPReceive.vi      WPI_Power Get PDP Currents.vi      Periodic Tasks.vi      Robot Main.vi,-0.000000,-0.102666,-0.000000,-0.057750,TRUE,FALSE,FALSE,TRUE,FALSE,FALSE,Disabled,0.000000,0.000000,0.000000,TRUE,-6.251221,-4.758621,0.000000,-0.202927,0.125732,0.000000,0.094000,-0.055000,-0.063000,-0.250000,-0.600000,2.620000,0.139362,Hold,61.736816,58.000000,Hold,-143465.000000,143360.000000,Suck,-1755.000000,1818.181818,Speed,-1770.000000,1818.181818,Speed,Off,On,0.000000,FALSE,0,,,,,0.000000,0.000000
08:32:49.520 PM 03/31/2016,Teleop Enabled,9,TRUE,-44087,NetComm_CAN_Receive.vi:5470027<APPEND>  <b>Complete call chain:</b>      NetComm_CAN_Receive.vi:5470027      WPI_CAN_PDPReceive.vi      WPI_Power Get PDP Currents.vi      Periodic Tasks.vi      Robot Main.vi,-0.000000,-0.102666,-0.000000,-0.057750,TRUE,FALSE,FALSE,TRUE,FALSE,FALSE,Disabled,0.000000,0.000000,0.000000,TRUE,-6.259109,-4.758469,0.000000,-0.198441,0.003891,0.000000,0.079000,0.019000,-0.015000,-0.250000,-0.670000,2.660000,0.151731,Hold,61.736816,58.000000,Hold,-143465.000000,143360.000000,Suck,-1762.500000,1818.181818,Speed,-1770.000000,1818.181818,Speed,Off,On,0.000000,FALSE,0,,,,,0.000000,0.000000
08:32:49.620 PM 03/31/2016,Teleop Enabled,8,TRUE,-44087,NetComm_CAN_Receive.vi:5470027<APPEND>  <b>Complete call chain:</b>      NetComm_CAN_Receive.vi:5470027      WPI_CAN_PDPReceive.vi      WPI_Power Get PDP Currents.vi      Periodic Tasks.vi      Robot Main.vi,-0.000000,-0.102666,-0.000000,-0.064167,TRUE,FALSE,FALSE,TRUE,FALSE,FALSE,Disabled,0.000000,0.000000,0.000000,TRUE,-6.269943,-4.758072,0.000000,-0.227798,0.007095,0.000000,0.027000,0.017000,0.139000,-0.250000,-0.670000,2.660000,0.165098,Hold,61.736572,58.000000,Hold,-143465.000000,143360.000000,Suck,-1747.500000,1818.181818,Speed,-1762.500000,1818.181818,Speed,Off,On,0.000000,FALSE,0,,,,,0.000000,0.000000
08:32:49.721 PM 03/31/2016,Teleop Enabled,10,TRUE,-44087,NetComm_CAN_Receive.vi:5470027<APPEND>  <b>Complete call chain:</b>      NetComm_CAN_Receive.vi:5470027      WPI_CAN_PDPReceive.vi      WPI_Power Get PDP Currents.vi      Periodic Tasks.vi      Robot Main.vi,-0.000000,-0.102666,-0.000000,-0.064167,TRUE,FALSE,FALSE,TRUE,FALSE,FALSE,Disabled,0.000000,0.000000,0.000000,TRUE,-6.281250,-4.758148,0.000000,-0.239792,0.000000,0.000000,-0.082000,-0.007000,-0.125000,-0.250000,-0.820000,2.660000,0.158681,Hold,61.736572,58.000000,Hold,-143465.000000,143360.000000,Suck,-1732.500000,1818.181818,Speed,-1762.500000,1818.181818,Speed,Off,On,0.000000,FALSE,0,,,,,0.000000,0.000000
08:32:49.824 PM 03/31/2016,Teleop Enabled,4,TRUE,-44087,NetComm_CAN_Receive.vi:5470027<APPEND>  <b>Complete call chain:</b>      NetComm_CAN_Receive.vi:5470027      WPI_CAN_PDPReceive.vi      WPI_Power Get PDP Currents.vi      Periodic Tasks.vi      Robot Main.vi,-0.000000,-0.102666,-0.000000,-0.064167,TRUE,FALSE,FALSE,TRUE,FALSE,FALSE,Disabled,0.000000,0.000000,0.000000,TRUE,-6.292389,-4.758698,0.000000,-0.213867,-0.027985,0.000000,-0.106000,0.011000,0.069000,-0.230000,-0.830000,2.620000,0.211125,Hold,61.736572,58.000000,Hold,-143466.000000,143360.000000,Suck,-1725.000000,1818.181818,Speed,-1770.000000,1818.181818,Speed,Off,On,0.000000,FALSE,0,,,,,0.000000,0.000000
08:32:49.925 PM 03/31/2016,Teleop Enabled,8,TRUE,-44087,NetComm_CAN_Receive.vi:5470027<APPEND>  <b>Complete call chain:</b>      NetComm_CAN_Receive.vi:5470027      WPI_CAN_PDPReceive.vi      WPI_Power Get PDP Currents.vi      Periodic Tasks.vi      Robot Main.vi,-0.000000,-0.102666,-0.000000,-0.064167,TRUE,FALSE,FALSE,TRUE,FALSE,FALSE,Disabled,0.000000,0.000000,0.000000,TRUE,-6.302780,-4.760071,0.000000,-0.203629,-0.010727,0.000000,-0.002000,-0.007000,0.047000,-0.250000,-0.710000,2.630000,0.209428,Hold,61.736572,58.000000,Hold,-143466.000000,143360.000000,Suck,-1732.500000,1818.181818,Speed,-1762.500000,1818.181818,Speed,Off,On,0.000000,FALSE,0,,,,,0.000000,0.000000
08:32:50.024 PM 03/31/2016,Teleop Enabled,12,TRUE,-44087,NetComm_CAN_Receive.vi:5470027<APPEND>  <b>Complete call chain:</b>      NetComm_CAN_Receive.vi:5470027      WPI_CAN_PDPReceive.vi      WPI_Power Get PDP Currents.vi      Periodic Tasks.vi      Robot Main.vi,-0.000000,-0.102666,-0.000000,-0.064167,TRUE,FALSE,FALSE,TRUE,FALSE,FALSE,Disabled,0.000000,0.000000,0.000000,TRUE,-6.311676,-4.760361,0.000000,-0.167847,0.001663,0.000000,0.065000,0.019000,0.006000,-0.250000,-0.640000,2.610000,0.260364,Hold,61.736572,58.000000,Hold,-143466.000000,143360.000000,Suck,-1747.500000,1818.181818,Speed,-1770.000000,1818.181818,Speed,Off,On,0.000000,FALSE,0,,,,,0.000000,0.000000
08:32:50.126 PM 03/31/2016,Teleop Enabled,11,TRUE,-44087,NetComm_CAN_Receive.vi:5470027<APPEND>  <b>Complete call chain:</b>      NetComm_CAN_Receive.vi:5470027      WPI_CAN_PDPReceive.vi      WPI_Power Get PDP Currents.vi      Periodic Tasks.vi      Robot Main.vi,-0.000000,-0.102666,-0.000000,-0.064167,TRUE,FALSE,FALSE,TRUE,FALSE,FALSE,Disabled,0.000000,0.000000,0.000000,TRUE,-6.320938,-4.759521,0.000000,-0.167511,0.027298,0.000000,-0.008000,0.036000,0.049000,-0.260000,-0.600000,2.630000,0.281956,Hold,61.736572,58.000000,Hold,-143466.000000,143360.000000,Suck,-1762.500000,1818.181818,Speed,-1770.000000,1818.181818,Speed,Off,On,0.000000,FALSE,0,,,,,0.000000,0.000000
08:32:50.227 PM 03/31/2016,Teleop Enabled,9,TRUE,-44087,NetComm_CAN_Receive.vi:5470027<APPEND>  <b>Complete call chain:</b>      NetComm_CAN_Receive.vi:5470027      WPI_CAN_PDPReceive.vi      WPI_Power Get PDP Currents.vi      Periodic Tasks.vi      Robot Main.vi,-0.000000,-0.102666,-0.000000,-0.064167,TRUE,FALSE,FALSE,TRUE,FALSE,FALSE,Disabled,0.000000,0.000000,0.000000,TRUE,-6.327469,-4.758392,0.000000,-0.165115,0.000000,0.000000,0.054000,-0.048000,0.085000,-0.250000,-0.660000,2.640000,0.313751,Hold,61.736572,58.000000,Hold,-143466.000000,143360.000000,Suck,-1762.500000,1818.181818,Speed,-1770.000000,1818.181818,Speed,Off,On,0.000000,FALSE,0,,,,,0.000000,0.000000
08:32:50.327 PM 03/31/2016,Teleop Enabled,11,TRUE,-44087,NetComm_CAN_Receive.vi:5470027<APPEND>  <b>Complete call chain:</b>      NetComm_CAN_Receive.vi:5470027      WPI_CAN_PDPReceive.vi      WPI_Power Get PDP Currents.vi      Periodic Tasks.vi      Robot Main.vi,-0.000000,-0.102666,-0.000000,-0.064167,TRUE,FALSE,FALSE,TRUE,FALSE,FALSE,Disabled,0.000000,0.000000,0.000000,TRUE,-6.332199,-4.759842,0.000000,-0.005371,-0.037140,0.000000,0.054000,-0.048000,0.085000,-0.250000,-0.650000,2.620000,0.348907,Hold,61.736572,58.000000,Hold,-143466.000000,143360.000000,Suck,-1755.000000,1818.181818,Speed,-1770.000000,1818.181818,Speed,Off,On,0.000000,FALSE,0,,,,,0.000000,0.000000
08:32:50.428 PM 03/31/2016,Teleop Enabled,11,TRUE,-44087,NetComm_CAN_Receive.vi:5470027<APPEND>  <b>Complete call chain:</b>      NetComm_CAN_Receive.vi:5470027      WPI_CAN_PDPReceive.vi      WPI_Power Get PDP Currents.vi      Periodic Tasks.vi      Robot Main.vi,-0.000000,-0.102666,-0.000000,-0.064167,TRUE,FALSE,FALSE,TRUE,FALSE,FALSE,Disabled,0.000000,0.000000,0.000000,TRUE,-6.333237,-4.761566,0.000000,-0.025482,-0.035004,0.000000,0.014000,0.020000,0.010000,-0.250000,-0.650000,2.620000,0.373827,Hold,61.736572,58.000000,Hold,-143466.000000,143360.000000,Suck,-1732.500000,1818.181818,Speed,-1755.000000,1818.181818,Speed,Off,On,0.000000,FALSE,0,,,,,0.000000,0.000000
08:32:50.530 PM 03/31/2016,Teleop Enabled,10,TRUE,-44087,NetComm_CAN_Receive.vi:5470027<APPEND>  <b>Complete call chain:</b>      NetComm_CAN_Receive.vi:5470027      WPI_CAN_PDPReceive.vi      WPI_Power Get PDP Currents.vi      Periodic Tasks.vi      Robot Main.vi,-0.000000,-0.102666,-0.000000,-0.064167,TRUE,FALSE,FALSE,TRUE,FALSE,FALSE,Disabled,0.000000,0.000000,0.000000,TRUE,-6.334198,-4.763016,0.000000,0.000000,-0.032455,0.000000,0.071000,-0.063000,-0.033000,-0.260000,-0.680000,2.610000,0.403120,Hold,61.736572,58.000000,Hold,-143466.000000,143360.000000,Suck,-1717.500000,1818.181818,Speed,-1762.500000,1818.181818,Speed,Off,On,0.000000,FALSE,0,,,,,0.000000,0.000000
08:32:50.632 PM 03/31/2016,Teleop Enabled,9,TRUE,-44087,NetComm_CAN_Receive.vi:5470027<APPEND>  <b>Complete call chain:</b>      NetComm_CAN_Receive.vi:5470027      WPI_CAN_PDPReceive.vi      WPI_Power Get PDP Currents.vi      Periodic Tasks.vi      Robot Main.vi,-0.000000,-0.102666,-0.000000,-0.064167,TRUE,FALSE,FALSE,TRUE,FALSE,FALSE,Disabled,0.000000,0.000000,0.000000,TRUE,-6.332840,-4.765228,0.000000,0.028336,-0.025543,0.000000,-0.012000,-0.001000,-0.019000,-0.260000,-0.590000,2.550000,0.424106,Hold,61.736572,58.000000,Hold,-143466.000000,143360.000000,Suck,-1717.500000,1818.181818,Speed,-1755.000000,1818.181818,Speed,Off,On,0.000000,FALSE,0,,,,,0.000000,0.000000
08:32:50.732 PM 03/31/2016,Teleop Enabled,11,TRUE,-44087,NetComm_CAN_Receive.vi:5470027<APPEND>  <b>Complete call chain:</b>      NetComm_CAN_Receive.vi:5470027      WPI_CAN_PDPReceive.vi      WPI_Power Get PDP Currents.vi      Periodic Tasks.vi      Robot Main.vi,-0.000000,-0.102666,-0.000000,-0.064167,TRUE,FALSE,FALSE,TRUE,FALSE,FALSE,Disabled,0.000000,0.000000,0.000000,TRUE,-6.332245,-4.765732,0.000000,-0.001236,0.000000,0.000000,0.112000,0.006000,0.082000,-0.260000,-0.710000,2.560000,0.435542,Hold,61.736572,58.000000,Hold,-143466.000000,143360.000000,Suck,-1710.000000,1818.181818,Speed,-1755.000000,1818.181818,Speed,Off,On,0.000000,FALSE,0,,,,,0.000000,0.000000
08:32:50.833 PM 03/31/2016,Teleop Enabled,11,TRUE,-44087,NetComm_CAN_Receive.vi:5470027<APPEND>  <b>Complete call chain:</b>      NetComm_CAN_Receive.vi:5470027      WPI_CAN_PDPReceive.vi      WPI_Power Get PDP Currents.vi      Periodic Tasks.vi      Robot Main.vi,-0.000000,-0.102666,-0.000000,-0.064167,TRUE,FALSE,FALSE,TRUE,FALSE,FALSE,Disabled,0.000000,0.000000,0.000000,TRUE,-6.331528,-4.765900,0.000000,0.011139,0.000000,0.000000,0.039000,-0.010000,-0.137000,-0.260000,-0.750000,2.560000,0.463609,Hold,61.736572,58.000000,Hold,-143466.000000,143360.000000,Suck,-1710.000000,1818.181818,Speed,-1755.000000,1818.181818,Speed,Off,On,0.000000,FALSE,0,,,,,0.000000,0.000000
08:32:50.936 PM 03/31/2016,Teleop Enabled,9,TRUE,-44087,NetComm_CAN_Receive.vi:5470027<APPEND>  <b>Complete call chain:</b>      NetComm_CAN_Receive.vi:5470027      WPI_CAN_PDPReceive.vi      WPI_Power Get PDP Currents.vi      Periodic Tasks.vi      Robot Main.vi,-0.000000,-0.102666,-0.000000,-0.064167,TRUE,FALSE,FALSE,TRUE,FALSE,FALSE,Disabled,0.000000,0.000000,0.000000,TRUE,-6.330933,-4.765732,0.000000,0.031281,-0.004181,0.000000,0.039000,-0.010000,-0.137000,-0.270000,-0.750000,2.550000,0.488561,Hold,61.736572,58.000000,Hold,-143466.000000,143360.000000,Suck,-1725.000000,1818.181818,Speed,-1755.000000,1818.181818,Speed,Off,On,0.000000,FALSE,0,,,,,0.000000,0.000000
08:32:51.045 PM 03/31/2016,Teleop Enabled,15,TRUE,-44087,NetComm_CAN_Receive.vi:5470027<APPEND>  <b>Complete call chain:</b>      NetComm_CAN_Receive.vi:5470027      WPI_CAN_PDPReceive.vi      WPI_Power Get PDP Currents.vi      Periodic Tasks.vi      Robot Main.vi,-0.000000,-0.102666,-0.000000,-0.064167,TRUE,FALSE,FALSE,TRUE,FALSE,FALSE,Disabled,0.000000,0.000000,0.000000,TRUE,-6.328827,-4.765732,0.000000,0.033203,0.000000,0.000000,0.024000,0.028000,-0.048000,-0.270000,-0.750000,2.550000,0.521658,Hold,61.736572,58.000000,Hold,-143466.000000,143360.000000,Suck,-1740.000000,1818.181818,Speed,-1747.500000,1818.181818,Speed,Off,On,0.000000,FALSE,0,,,,,0.000000,0.000000
08:32:51.142 PM 03/31/2016,Teleop Enabled,8,TRUE,-44087,NetComm_CAN_Receive.vi:5470027<APPEND>  <b>Complete call chain:</b>      NetComm_CAN_Receive.vi:5470027      WPI_CAN_PDPReceive.vi      WPI_Power Get PDP Currents.vi      Periodic Tasks.vi      Robot Main.vi,-0.000000,-0.102666,-0.000000,-0.064167,TRUE,FALSE,FALSE,TRUE,FALSE,FALSE,Disabled,0.000000,0.000000,0.000000,TRUE,-6.326675,-4.765732,0.000000,0.040924,0.000000,0.000000,0.024000,0.019000,0.152000,-0.270000,-0.770000,2.580000,0.518776,Hold,61.736572,58.000000,Hold,-143466.000000,143360.000000,Suck,-1755.000000,1818.181818,Speed,-1755.000000,1818.181818,Speed,Off,On,0.000000,FALSE,0,,,,,0.000000,0.000000
08:32:51.245 PM 03/31/2016,Teleop Enabled,11,TRUE,-44087,NetComm_CAN_Receive.vi:5470027<APPEND>  <b>Complete call chain:</b>      NetComm_CAN_Receive.vi:5470027      WPI_CAN_PDPReceive.vi      WPI_Power Get PDP Currents.vi      Periodic Tasks.vi      Robot Main.vi,-0.000000,-0.102666,-0.000000,-0.064167,TRUE,FALSE,FALSE,TRUE,FALSE,FALSE,Disabled,0.000000,0.000000,0.000000,TRUE,-6.325287,-4.765991,0.000000,0.034073,-0.020065,0.000000,-0.072000,-0.013000,0.051000,-0.270000,-0.750000,2.580000,0.540433,Hold,61.736572,58.000000,Hold,-143466.000000,143360.000000,Suck,-1755.000000,1818.181818,Speed,-1762.500000,1818.181818,Speed,Off,On,0.000000,FALSE,0,,,,,0.000000,0.000000
08:32:51.350 PM 03/31/2016,Teleop Enabled,9,TRUE,-44087,NetComm_CAN_Receive.vi:5470027<APPEND>  <b>Complete call chain:</b>      NetComm_CAN_Receive.vi:5470027      WPI_CAN_PDPReceive.vi      WPI_Power Get PDP Currents.vi      Periodic Tasks.vi      Robot Main.vi,-0.000000,-0.102666,-0.000000,-0.064167,TRUE,FALSE,FALSE,TRUE,FALSE,FALSE,Disabled,0.000000,0.000000,0.000000,TRUE,-6.325134,-4.767883,0.000000,0.000122,-0.034058,0.000000,-0.043000,-0.020000,0.002000,-0.270000,-0.750000,2.580000,0.565020,Hold,61.736572,58.000000,Hold,-143466.000000,143360.000000,Suck,-1755.000000,1818.181818,Speed,-1762.500000,1818.181818,Speed,Off,On,0.000000,FALSE,0,,,,,0.000000,0.000000
08:32:51.452 PM 03/31/2016,Teleop Enabled,8,TRUE,-44087,NetComm_CAN_Receive.vi:5470027<APPEND>  <b>Complete call chain:</b>      NetComm_CAN_Receive.vi:5470027      WPI_CAN_PDPReceive.vi      WPI_Power Get PDP Currents.vi      Periodic Tasks.vi      Robot Main.vi,-0.000000,-0.102666,-0.000000,-0.064167,TRUE,FALSE,FALSE,TRUE,FALSE,FALSE,Disabled,0.000000,0.000000,0.000000,TRUE,-6.325119,-4.768280,0.000000,-0.008926,-0.012115,0.000000,0.048000,0.024000,-0.047000,-0.270000,-0.690000,2.530000,0.589886,Hold,61.736572,58.000000,Hold,-143466.000000,143360.000000,Suck,-1740.000000,1818.181818,Speed,-1770.000000,1818.181818,Speed,Off,On,0.000000,FALSE,0,,,,,0.000000,0.000000
08:32:51.555 PM 03/31/2016,Teleop Enabled,10,TRUE,-44087,NetComm_CAN_Receive.vi:5470027<APPEND>  <b>Complete call chain:</b>      NetComm_CAN_Receive.vi:5470027      WPI_CAN_PDPReceive.vi      WPI_Power Get PDP Currents.vi      Periodic Tasks.vi      Robot Main.vi,-0.000000,-0.102666,-0.000000,-0.064167,TRUE,FALSE,FALSE,TRUE,FALSE,FALSE,Disabled,0.000000,0.000000,0.000000,TRUE,-6.325531,-4.768921,0.000000,0.002853,-0.026566,0.000000,0.048000,0.024000,-0.047000,-0.270000,-0.820000,2.530000,0.605591,Hold,61.736572,58.000000,Hold,-143466.000000,143360.000000,Suck,-1725.000000,1818.181818,Speed,-1770.000000,1818.181818,Speed,Off,On,0.000000,FALSE,0,,,,,0.000000,0.000000
08:32:51.656 PM 03/31/2016,Teleop Enabled,8,TRUE,-44087,NetComm_CAN_Receive.vi:5470027<APPEND>  <b>Complete call chain:</b>      NetComm_CAN_Receive.vi:5470027      WPI_CAN_PDPReceive.vi      WPI_Power Get PDP Currents.vi      Periodic Tasks.vi      Robot Main.vi,-0.000000,-0.102666,-0.000000,-0.064167,TRUE,FALSE,FALSE,TRUE,FALSE,FALSE,Disabled,0.000000,0.000000,0.000000,TRUE,-6.324173,-4.770996,0.000000,0.061722,-0.059265,0.000000,-0.077000,0.041000,-0.002000,-0.270000,-0.830000,2.530000,0.625723,Hold,61.736572,58.000000,Hold,-143466.000000,143360.000000,Suck,-1702.500000,1818.181818,Speed,-1762.500000,1818.181818,Speed,Off,On,0.000000,FALSE,0,,,,,0.000000,0.000000
08:32:51.757 PM 03/31/2016,Teleop Enabled,9,TRUE,-44087,NetComm_CAN_Receive.vi:5470027<APPEND>  <b>Complete call chain:</b>      NetComm_CAN_Receive.vi:5470027      WPI_CAN_PDPReceive.vi      WPI_Power Get PDP Currents.vi      Periodic Tasks.vi      Robot Main.vi,-0.000000,-0.102666,-0.000000,-0.064167,TRUE,FALSE,FALSE,TRUE,FALSE,FALSE,Disabled,0.000000,0.000000,0.000000,TRUE,-6.321671,-4.773941,0.000000,0.060349,-0.058411,0.000000,0.075000,-0.043000,0.124000,-0.270000,-0.750000,2.530000,0.638181,Hold,61.736572,58.000000,Hold,-143466.000000,143360.000000,Suck,-1717.500000,1818.181818,Speed,-1770.000000,1818.181818,Speed,Off,On,0.000000,FALSE,0,,,,,0.000000,0.000000
08:32:51.859 PM 03/31/2016,Teleop Enabled,9,TRUE,-44087,NetComm_CAN_Receive.vi:5470027<APPEND>  <b>Complete call chain:</b>      NetComm_CAN_Receive.vi:5470027      WPI_CAN_PDPReceive.vi      WPI_Power Get PDP Currents.vi      Periodic Tasks.vi      Robot Main.vi,-0.000000,-0.102666,-0.000000,-0.064167,TRUE,FALSE,FALSE,TRUE,FALSE,FALSE,Disabled,0.000000,0.000000,0.000000,TRUE,-6.321671,-4.773941,0.000000,0.060349,-0.058411,0.000000,0.051000,0.028000,0.093000,-0.270000,-0.780000,2.520000,0.654737,Hold,61.736572,58.000000,Hold,-143466.000000,143360.000000,Suck,-1740.000000,1818.181818,Speed,-1770.000000,1818.181818,Speed,Off,On,0.000000,FALSE,0,,,,,0.000000,0.000000
08:32:51.959 PM 03/31/2016,Teleop Enabled,13,TRUE,-44087,NetComm_CAN_Receive.vi:5470027<APPEND>  <b>Complete call chain:</b>      NetComm_CAN_Receive.vi:5470027      WPI_CAN_PDPReceive.vi      WPI_Power Get PDP Currents.vi      Periodic Tasks.vi      Robot Main.vi,-0.000000,-0.102666,-0.000000,-0.064167,TRUE,FALSE,FALSE,TRUE,FALSE,FALSE,Disabled,0.000000,0.000000,0.000000,TRUE,-6.318268,-4.777237,0.000000,0.046600,-0.034836,0.000000,-0.027000,0.015000,0.080000,-0.270000,-0.840000,2.530000,0.682866,Hold,61.736572,58.000000,Hold,-143466.000000,143360.000000,Suck,-1732.500000,1818.181818,Speed,-1770.000000,1818.181818,Speed,Off,On,0.000000,FALSE,0,,,,,0.000000,0.000000
08:32:52.060 PM 03/31/2016,Teleop Enabled,14,TRUE,-44087,NetComm_CAN_Receive.vi:5470027<APPEND>  <b>Complete call chain:</b>      NetComm_CAN_Receive.vi:5470027      WPI_CAN_PDPReceive.vi      WPI_Power Get PDP Currents.vi      Periodic Tasks.vi      Robot Main.vi,-0.000000,-0.102666,-0.000000,-0.064167,TRUE,FALSE,FALSE,TRUE,FALSE,FALSE,Disabled,0.000000,0.000000,0.000000,TRUE,-6.312592,-4.778336,0.000000,0.092026,-0.006012,0.000000,-0.027000,-0.060000,0.068000,-0.280000,-0.790000,2.550000,0.706138,Hold,61.736572,58.000000,Hold,-143466.000000,143360.000000,Suck,-1740.000000,1818.181818,Speed,-1755.000000,1818.181818,Speed,Off,On,0.000000,FALSE,0,,,,,0.000000,0.000000
08:32:52.165 PM 03/31/2016,Teleop Enabled,12,TRUE,-44087,NetComm_CAN_Receive.vi:5470027<APPEND>  <b>Complete call chain:</b>      NetComm_CAN_Receive.vi:5470027      WPI_CAN_PDPReceive.vi      WPI_Power Get PDP Currents.vi      Periodic Tasks.vi      Robot Main.vi,-0.000000,-0.102666,-0.000000,-0.064167,TRUE,FALSE,FALSE,TRUE,FALSE,FALSE,Disabled,0.000000,0.000000,0.000000,TRUE,-6.309341,-4.779419,0.000000,0.074097,-0.034119,0.000000,0.013000,-0.014000,0.042000,-0.280000,-0.770000,2.530000,0.708014,Hold,61.736572,58.000000,Hold,-143466.000000,143360.000000,Suck,-1762.500000,1818.181818,Speed,-1755.000000,1818.181818,Speed,Off,On,0.000000,FALSE,0,,,,,0.000000,0.000000
08:32:52.275 PM 03/31/2016,Teleop Enabled,18,TRUE,-44087,NetComm_CAN_Receive.vi:5470027<APPEND>  <b>Complete call chain:</b>      NetComm_CAN_Receive.vi:5470027      WPI_CAN_PDPReceive.vi      WPI_Power Get PDP Currents.vi      Periodic Tasks.vi      Robot Main.vi,-0.000000,-0.102666,-0.000000,-0.064167,TRUE,FALSE,FALSE,TRUE,FALSE,FALSE,Disabled,0.000000,0.000000,0.000000,TRUE,-6.306702,-4.778793,0.000000,0.020233,0.006058,0.000000,-0.051000,-0.011000,-0.009000,-0.280000,-0.680000,2.550000,0.737988,Hold,61.736572,58.000000,Hold,-143466.000000,143360.000000,Suck,-1762.500000,1818.181818,Speed,-1762.500000,1818.181818,Speed,Off,On,0.000000,FALSE,0,,,,,0.000000,0.000000
08:32:52.374 PM 03/31/2016,Teleop Enabled,12,TRUE,-44087,NetComm_CAN_Receive.vi:5470027<APPEND>  <b>Complete call chain:</b>      NetComm_CAN_Receive.vi:5470027      WPI_CAN_PDPReceive.vi      WPI_Power Get PDP Currents.vi      Periodic Tasks.vi      Robot Main.vi,-0.000000,-0.102666,-0.000000,-0.064167,TRUE,FALSE,FALSE,TRUE,FALSE,FALSE,Disabled,0.000000,0.000000,0.000000,TRUE,-6.306702,-4.778793,0.000000,0.020233,0.006058,0.000000,-0.009000,0.079000,0.080000,-0.280000,-0.730000,2.580000,0.761463,Hold,61.736572,58.000000,Hold,-143466.000000,143360.000000,Suck,-1725.000000,1818.181818,Speed,-1762.500000,1818.181818,Speed,Off,On,0.000000,FALSE,0,,,,,0.000000,0.000000
08:32:52.476 PM 03/31/2016,Teleop Enabled,9,TRUE,-44087,NetComm_CAN_Receive.vi:5470027<APPEND>  <b>Complete call chain:</b>      NetComm_CAN_Receive.vi:5470027      WPI_CAN_PDPReceive.vi      WPI_Power Get PDP Currents.vi      Periodic Tasks.vi      Robot Main.vi,-0.000000,-0.102666,-0.000000,-0.064167,TRUE,FALSE,FALSE,TRUE,FALSE,FALSE,Disabled,0.000000,0.000000,0.000000,TRUE,-6.304260,-4.776215,0.000000,0.013580,0.033936,0.000000,-0.072000,-0.031000,-0.045000,-0.280000,-0.810000,2.620000,0.788687,Hold,61.736572,58.000000,Hold,-143466.000000,143360.000000,Suck,-1702.500000,1818.181818,Speed,-1747.500000,1818.181818,Speed,Off,On,0.000000,FALSE,0,,,,,0.000000,0.000000
08:32:52.578 PM 03/31/2016,Teleop Enabled,10,TRUE,-44087,NetComm_CAN_Receive.vi:5470027<APPEND>  <b>Complete call chain:</b>      NetComm_CAN_Receive.vi:5470027      WPI_CAN_PDPReceive.vi      WPI_Power Get PDP Currents.vi      Periodic Tasks.vi      Robot Main.vi,-0.000000,-0.102666,-0.000000,-0.064167,TRUE,FALSE,FALSE,TRUE,FALSE,FALSE,Disabled,0.000000,0.000000,0.000000,TRUE,-6.302475,-4.775177,0.000000,0.043259,0.007217,0.000000,0.099000,-0.031000,0.056000,-0.280000,-0.810000,2.650000,0.803094,Hold,61.736572,58.000000,Hold,-143466.000000,143360.000000,Suck,-1702.500000,1818.181818,Speed,-1740.000000,1818.181818,Speed,Off,On,0.000000,FALSE,0,,,,,0.000000,0.000000
08:32:52.678 PM 03/31/2016,Teleop Enabled,11,TRUE,-44087,NetComm_CAN_Receive.vi:5470027<APPEND>  <b>Complete call chain:</b>      NetComm_CAN_Receive.vi:5470027      WPI_CAN_PDPReceive.vi      WPI_Power Get PDP Currents.vi      Periodic Tasks.vi      Robot Main.vi,-0.000000,-0.102666,-0.000000,-0.064167,TRUE,FALSE,FALSE,TRUE,FALSE,FALSE,Disabled,0.000000,0.000000,0.000000,TRUE,-6.301636,-4.775589,0.000000,-0.010178,-0.005920,0.000000,-0.144000,-0.006000,-0.019000,-0.290000,-0.690000,2.580000,0.813411,Hold,61.736572,58.000000,Hold,-143466.000000,143360.000000,Suck,-1717.500000,1818.181818,Speed,-1755.000000,1818.181818,Speed,Off,On,0.000000,FALSE,0,,,,,0.000000,0.000000
08:32:52.784 PM 03/31/2016,Teleop Enabled,10,TRUE,-44087,NetComm_CAN_Receive.vi:5470027<APPEND>  <b>Complete call chain:</b>      NetComm_CAN_Receive.vi:5470027      WPI_CAN_PDPReceive.vi      WPI_Power Get PDP Currents.vi      Periodic Tasks.vi      Robot Main.vi,-0.000000,-0.102666,-0.000000,-0.064167,TRUE,FALSE,FALSE,TRUE,FALSE,FALSE,Disabled,0.000000,0.000000,0.000000,TRUE,-6.301636,-4.775589,0.000000,-0.010178,-0.005920,0.000000,-0.067000,0.007000,-0.021000,-0.290000,-0.740000,2.590000,0.814179,Hold,61.736572,58.000000,Hold,-143466.000000,143360.000000,Suck,-1732.500000,1818.181818,Speed,-1770.000000,1818.181818,Speed,Off,On,0.000000,FALSE,0,,,,,0.000000,0.000000
08:32:52.884 PM 03/31/2016,Teleop Enabled,10,TRUE,-44087,NetComm_CAN_Receive.vi:5470027<APPEND>  <b>Complete call chain:</b>      NetComm_CAN_Receive.vi:5470027      WPI_CAN_PDPReceive.vi      WPI_Power Get PDP Currents.vi      Periodic Tasks.vi      Robot Main.vi,-0.000000,-0.102666,-0.000000,-0.064167,TRUE,FALSE,FALSE,TRUE,FALSE,FALSE,Disabled,0.000000,0.000000,0.000000,TRUE,-6.304321,-4.774765,0.000000,-0.042023,0.000000,0.000000,0.031000,-0.009000,0.063000,-0.280000,-0.860000,2.670000,0.819477,Hold,61.736572,58.000000,Hold,-143466.000000,143360.000000,Suck,-1740.000000,1818.181818,Speed,-1777.500000,1818.181818,Speed,Off,On,0.000000,FALSE,0,,,,,0.000000,0.000000
08:32:52.986 PM 03/31/2016,Teleop Enabled,10,TRUE,-44087,NetComm_CAN_Receive.vi:5470027<APPEND>  <b>Complete call chain:</b>      NetComm_CAN_Receive.vi:5470027      WPI_CAN_PDPReceive.vi      WPI_Power Get PDP Currents.vi      Periodic Tasks.vi      Robot Main.vi,-0.000000,-0.102666,-0.000000,-0.064167,TRUE,FALSE,FALSE,TRUE,FALSE,FALSE,Disabled,0.000000,0.000000,0.000000,TRUE,-6.305222,-4.774551,0.000000,-0.037308,0.016357,0.000000,0.024000,0.026000,0.109000,-0.280000,-0.900000,2.700000,0.856763,Hold,61.736572,58.000000,Hold,-143466.000000,143360.000000,Suck,-1740.000000,1818.181818,Speed,-1777.500000,1818.181818,Speed,Off,On,0.000000,FALSE,0,,,,,0.000000,0.000000
08:32:53.091 PM 03/31/2016,Teleop Enabled,14,TRUE,-44087,NetComm_CAN_Receive.vi:5470027<APPEND>  <b>Complete call chain:</b>      NetComm_CAN_Receive.vi:5470027      WPI_CAN_PDPReceive.vi      WPI_Power Get PDP Currents.vi      Periodic Tasks.vi      Robot Main.vi,-0.000000,-0.102666,-0.000000,-0.064167,TRUE,FALSE,FALSE,TRUE,FALSE,FALSE,Disabled,0.000000,0.000000,0.000000,TRUE,-6.309021,-4.771454,0.000000,-0.100922,0.070801,0.000000,0.130000,0.053000,0.057000,-0.280000,-1.000000,2.690000,0.878809,Hold,61.736572,58.000000,Hold,-143466.000000,143360.000000,Suck,-1732.500000,1818.181818,Speed,-1762.500000,1818.181818,Speed,Off,On,0.000000,FALSE,0,,,,,0.000000,0.000000
08:32:53.194 PM 03/31/2016,Teleop Enabled,10,TRUE,-44087,NetComm_CAN_Receive.vi:5470027<APPEND>  <b>Complete call chain:</b>      NetComm_CAN_Receive.vi:5470027      WPI_CAN_PDPReceive.vi      WPI_Power Get PDP Currents.vi      Periodic Tasks.vi      Robot Main.vi,-0.000000,-0.102666,-0.000000,-0.064167,TRUE,FALSE,FALSE,TRUE,FALSE,FALSE,Disabled,0.000000,0.000000,0.000000,TRUE,-6.315170,-4.764877,0.000000,-0.076706,0.000000,0.000000,0.055000,0.077000,0.038000,-0.280000,-0.970000,2.630000,0.897964,Hold,61.736572,58.000000,Hold,-143466.000000,143360.000000,Suck,-1747.500000,1818.181818,Speed,-1762.500000,1818.181818,Speed,Off,On,0.000000,FALSE,0,,,,,0.000000,0.000000
08:32:53.292 PM 03/31/2016,Teleop Enabled,9,TRUE,-44087,NetComm_CAN_Receive.vi:5470027<APPEND>  <b>Complete call chain:</b>      NetComm_CAN_Receive.vi:5470027      WPI_CAN_PDPReceive.vi      WPI_Power Get PDP Currents.vi      Periodic Tasks.vi      Robot Main.vi,-0.000000,-0.102666,-0.000000,-0.064167,TRUE,FALSE,FALSE,TRUE,FALSE,FALSE,Disabled,0.000000,0.000000,0.000000,TRUE,-6.318924,-4.764755,0.000000,-0.105865,0.000000,0.000000,-0.067000,0.011000,-0.047000,-0.290000,-1.080000,2.690000,0.906068,Hold,61.736328,58.000000,Hold,-143466.000000,143360.000000,Suck,-1762.500000,1818.181818,Speed,-1770.000000,1818.181818,Speed,Off,On,0.000000,FALSE,0,,,,,0.000000,0.000000
08:32:53.393 PM 03/31/2016,Teleop Enabled,11,TRUE,-44087,NetComm_CAN_Receive.vi:5470027<APPEND>  <b>Complete call chain:</b>      NetComm_CAN_Receive.vi:5470027      WPI_CAN_PDPReceive.vi      WPI_Power Get PDP Currents.vi      Periodic Tasks.vi      Robot Main.vi,-0.000000,-0.102666,-0.000000,-0.064167,TRUE,FALSE,FALSE,TRUE,FALSE,FALSE,Disabled,0.000000,0.000000,0.000000,TRUE,-6.318924,-4.764755,0.000000,-0.105865,0.000000,0.000000,-0.067000,0.011000,-0.047000,-0.290000,-1.080000,2.690000,0.925935,Hold,61.736328,58.000000,Hold,-143466.000000,143360.000000,Suck,-1747.500000,1818.181818,Speed,-1770.000000,1818.181818,Speed,Off,On,0.000000,FALSE,0,,,,,0.000000,0.000000
08:32:53.496 PM 03/31/2016,Teleop Enabled,10,TRUE,-44087,NetComm_CAN_Receive.vi:5470027<APPEND>  <b>Complete call chain:</b>      NetComm_CAN_Receive.vi:5470027      WPI_CAN_PDPReceive.vi      WPI_Power Get PDP Currents.vi      Periodic Tasks.vi      Robot Main.vi,-0.000000,-0.102666,-0.000000,-0.064167,TRUE,FALSE,FALSE,TRUE,FALSE,FALSE,Disabled,0.000000,0.000000,0.000000,TRUE,-6.335938,-4.763794,0.000000,-0.195908,-0.010208,0.000000,-0.101000,-0.027000,-0.074000,-0.280000,-1.010000,2.640000,0.934971,Hold,61.736328,58.000000,Hold,-143466.000000,143360.000000,Suck,-1732.500000,1818.181818,Speed,-1770.000000,1818.181818,Speed,Off,On,0.000000,FALSE,0,,,,,0.000000,0.000000
08:32:53.598 PM 03/31/2016,Teleop Enabled,11,TRUE,-44087,NetComm_CAN_Receive.vi:5470027<APPEND>  <b>Complete call chain:</b>      NetComm_CAN_Receive.vi:5470027      WPI_CAN_PDPReceive.vi      WPI_Power Get PDP Currents.vi      Periodic Tasks.vi      Robot Main.vi,-0.000000,-0.102666,-0.000000,-0.064167,TRUE,FALSE,FALSE,TRUE,FALSE,FALSE,Disabled,0.000000,0.000000,0.000000,TRUE,-6.345306,-4.763901,0.000000,-0.175964,0.009125,0.000000,0.046000,-0.050000,-0.009000,-0.290000,-1.060000,2.650000,0.959482,Hold,61.736328,58.000000,Hold,-143466.000000,143360.000000,Suck,-1710.000000,1818.181818,Speed,-1770.000000,1818.181818,Speed,Off,On,0.000000,FALSE,0,,,,,0.000000,0.000000
08:32:53.698 PM 03/31/2016,Teleop Enabled,9,TRUE,-44087,NetComm_CAN_Receive.vi:5470027<APPEND>  <b>Complete call chain:</b>      NetComm_CAN_Receive.vi:5470027      WPI_CAN_PDPReceive.vi      WPI_Power Get PDP Currents.vi      Periodic Tasks.vi      Robot Main.vi,-0.000000,-0.102666,-0.000000,-0.089833,TRUE,FALSE,FALSE,TRUE,FALSE,FALSE,Disabled,0.000000,0.000000,0.000000,TRUE,-6.353500,-4.764450,0.000000,-0.149551,-0.035217,0.000000,0.101000,-0.046000,0.074000,-0.250000,-0.950000,2.600000,1.022794,Hold,61.734375,58.000000,Hold,-143466.000000,143360.000000,Suck,-1725.000000,1818.181818,Speed,-1770.000000,1818.181818,Speed,Off,On,0.000000,FALSE,0,,,,,0.000000,0.000000
08:32:53.798 PM 03/31/2016,Teleop Enabled,11,TRUE,-44087,NetComm_CAN_Receive.vi:5470027<APPEND>  <b>Complete call chain:</b>      NetComm_CAN_Receive.vi:5470027      WPI_CAN_PDPReceive.vi      WPI_Power Get PDP Currents.vi      Periodic Tasks.vi      Robot Main.vi,-0.000000,-0.102666,-0.000000,-0.102666,TRUE,FALSE,FALSE,TRUE,FALSE,FALSE,Disabled,0.000000,0.000000,0.000000,TRUE,-6.353500,-4.764450,0.000000,-0.149551,-0.035217,0.000000,0.101000,-0.046000,0.074000,-0.250000,-0.950000,2.600000,1.051867,Hold,61.146484,58.000000,Hold,-143466.000000,143360.000000,Suck,-1732.500000,1818.181818,Speed,-1777.500000,1818.181818,Speed,Off,On,0.000000,FALSE,0,,,,,0.000000,0.000000
08:32:53.898 PM 03/31/2016,Teleop Enabled,10,TRUE,-44087,NetComm_CAN_Receive.vi:5470027<APPEND>  <b>Complete call chain:</b>      NetComm_CAN_Receive.vi:5470027      WPI_CAN_PDPReceive.vi      WPI_Power Get PDP Currents.vi      Periodic Tasks.vi      Robot Main.vi,-0.000000,-0.102666,-0.000000,-0.102666,TRUE,FALSE,FALSE,TRUE,FALSE,FALSE,Disabled,0.000000,0.000000,0.000000,TRUE,-6.359833,-4.767380,0.000000,-0.111435,-0.073853,0.000000,-0.064000,-0.020000,0.024000,-0.240000,-0.870000,2.520000,1.045718,Hold,60.660645,58.000000,Hold,-143466.000000,143360.000000,Suck,-1732.500000,1818.181818,Speed,-1770.000000,1818.181818,Speed,Off,On,0.000000,FALSE,0,,,,,0.000000,0.000000
08:32:53.999 PM 03/31/2016,Teleop Enabled,11,TRUE,-44087,NetComm_CAN_Receive.vi:5470027<APPEND>  <b>Complete call chain:</b>      NetComm_CAN_Receive.vi:5470027      WPI_CAN_PDPReceive.vi      WPI_Power Get PDP Currents.vi      Periodic Tasks.vi      Robot Main.vi,-0.000000,-0.102666,-0.000000,-0.096250,TRUE,FALSE,FALSE,TRUE,FALSE,FALSE,Disabled,0.000000,0.000000,0.000000,TRUE,-6.369659,-4.776260,0.000000,-0.064072,-0.106140,0.000000,-0.061000,-0.039000,-0.112000,-0.290000,-0.960000,2.520000,1.047498,Hold,60.908447,58.000000,Hold,-143466.000000,143360.000000,Suck,-1747.500000,1818.181818,Speed,-1762.500000,1818.181818,Speed,Off,On,0.000000,FALSE,0,,,,,0.000000,0.000000
