Time,Robot Mode,Loop Time,Error Status,Error Code,Error Source,Left Motor Output,Left Motor Encoder,Right Motor Output,Right Motor Encoder,Is Level,Is Stalled,Ball Detector Photoeye,Vision Enabled,Vision Teleop Control,Vision Auto Control,Vision Current State,Vision X Output,Vision NavX Error,Vision NavX Target,NavX Connection Status,NavX Displacement X,NavX Displacement Y,NavX Displacement Z,NavX Velocity X,NavX Velocity Y,NavX Velocity Z,NavX Acceleration X,NavX Acceleration Y,NavX Acceleration Z,NavX Pitch,NavX Yaw,NavX Roll,Gyro Angle,Roller Arm State,Roller Arm Actual,Roller Arm Desired,Shooter Arm State,Shooter Arm Actual,Shooter Arm Desired,Shooter State,Actual RPM Left,Desired RPM Left,Control Mode Left,Actual RPM Right,Desired RPM Right,Control Mode Right,Ball Shooter Cylinder,Ball Halo Cylinder,Scaler Motor Output,Scaler Solenoid Fire,Auto To Run,Auto Current File,Auto File Status,Auto Current Command,Auto Trimmed Command,Shooter Amps Left,Shooter Amps Right
08:02:54.964 PM 04/01/2016,Teleop Enabled,10,TRUE,-44087,NetComm_CAN_Receive.vi:5470001<APPEND>  <b>Complete call chain:</b>      NetComm_CAN_Receive.vi:5470001      WPI_CAN_PDPReceive.vi      WPI_Power Get PDP Currents.vi      Periodic Tasks.vi      Robot Main.vi,-0.000000,-0.019250,-0.000000,0.000000,TRUE,FALSE,TRUE,TRUE,FALSE,FALSE,Disabled,0.078125,-3.236594,-11.443406,TRUE,-2.150116,-8.075516,0.000000,0.000000,0.000000,0.000000,0.011000,0.033000,0.008000,-0.010000,-0.680000,2.530000,0.038199,ResetBack,1.798096,-0.000049,ResetBack,-41162.000000,-0.250000,Hold,0.000000,0.000000,Speed,0.000000,0.000000,Speed,Off,Off,0.000000,FALSE,0,,,,,0.000000,0.000000
08:02:55.063 PM 04/01/2016,Teleop Enabled,10,TRUE,-44087,NetComm_CAN_Receive.vi:5470001<APPEND>  <b>Complete call chain:</b>      NetComm_CAN_Receive.vi:5470001      WPI_CAN_PDPReceive.vi      WPI_Power Get PDP Currents.vi      Periodic Tasks.vi      Robot Main.vi,-0.000000,-0.032083,-0.000000,-0.186083,TRUE,FALSE,TRUE,TRUE,FALSE,FALSE,Disabled,0.078125,-3.236594,-11.443406,TRUE,-2.148911,-8.074890,0.000000,0.034927,0.010773,0.000000,-0.008000,0.005000,0.014000,-0.010000,-0.630000,2.510000,0.044251,ResetBack,0.112793,-0.000049,ResetBack,-39334.000000,-0.250000,Hold,0.000000,0.000000,Speed,0.000000,0.000000,Speed,Off,Off,0.000000,FALSE,0,,,,,0.000000,0.000000
08:02:55.164 PM 04/01/2016,Teleop Enabled,10,TRUE,-44087,NetComm_CAN_Receive.vi:5470001<APPEND>  <b>Complete call chain:</b>      NetComm_CAN_Receive.vi:5470001      WPI_CAN_PDPReceive.vi      WPI_Power Get PDP Currents.vi      Periodic Tasks.vi      Robot Main.vi,-0.000000,-0.032083,-0.000000,-0.237416,TRUE,FALSE,TRUE,TRUE,FALSE,FALSE,Disabled,0.078125,-3.236594,-11.443406,TRUE,-2.147415,-8.074890,0.000000,0.022308,0.000000,0.000000,-0.047000,0.009000,0.008000,0.070000,-0.690000,2.510000,0.135089,ResetBack,0.025879,-0.000049,ResetBack,-34711.000000,-0.250000,Hold,0.000000,0.000000,Speed,0.000000,0.000000,Speed,Off,Off,0.000000,FALSE,0,,,,,0.000000,0.000000
08:02:55.265 PM 04/01/2016,Teleop Enabled,10,TRUE,-44087,NetComm_CAN_Receive.vi:5470001<APPEND>  <b>Complete call chain:</b>      NetComm_CAN_Receive.vi:5470001      WPI_CAN_PDPReceive.vi      WPI_Power Get PDP Currents.vi      Periodic Tasks.vi      Robot Main.vi,-0.000000,-0.032083,-0.000000,-0.224583,TRUE,FALSE,TRUE,TRUE,FALSE,FALSE,Disabled,0.078125,-3.236594,-11.443406,TRUE,-2.147049,-8.074997,0.000000,0.004288,-0.006760,0.000000,0.028000,-0.011000,0.010000,0.010000,-0.680000,2.510000,0.090185,Reset,0.025879,0.000000,ResetBack,-28624.000000,-0.250000,Hold,0.000000,0.000000,Speed,0.000000,0.000000,Speed,Off,Off,0.000000,FALSE,0,,,,,0.000000,0.000000
08:02:55.366 PM 04/01/2016,Teleop Enabled,8,TRUE,-44087,NetComm_CAN_Receive.vi:5470001<APPEND>  <b>Complete call chain:</b>      NetComm_CAN_Receive.vi:5470001      WPI_CAN_PDPReceive.vi      WPI_Power Get PDP Currents.vi      Periodic Tasks.vi      Robot Main.vi,-0.000000,-0.032083,-0.000000,-0.224583,TRUE,FALSE,TRUE,TRUE,FALSE,FALSE,Disabled,0.000000,-3.236594,-11.443406,TRUE,-2.146454,-8.075058,0.000000,0.000000,0.000000,0.000000,0.002000,-0.018000,0.019000,0.030000,-0.640000,2.530000,0.094195,Hold,1.185791,0.000000,ResetBack,-22328.000000,-0.250000,Hold,0.000000,0.000000,Speed,0.000000,0.000000,Speed,Off,Off,0.000000,FALSE,0,,,,,0.000000,0.000000
08:02:55.468 PM 04/01/2016,Teleop Enabled,9,TRUE,-44087,NetComm_CAN_Receive.vi:5470001<APPEND>  <b>Complete call chain:</b>      NetComm_CAN_Receive.vi:5470001      WPI_CAN_PDPReceive.vi      WPI_Power Get PDP Currents.vi      Periodic Tasks.vi      Robot Main.vi,-0.000000,-0.032083,-0.000000,-0.224583,TRUE,FALSE,TRUE,TRUE,FALSE,FALSE,Disabled,0.000000,-3.236594,-11.443406,TRUE,-2.146454,-8.075012,0.000000,0.000000,0.002457,0.000000,0.025000,-0.024000,-0.005000,0.020000,-0.650000,2.520000,0.086405,Hold,0.926758,0.000000,ResetBack,-22328.000000,-0.250000,Hold,0.000000,0.000000,Speed,0.000000,0.000000,Speed,Off,Off,0.000000,FALSE,0,,,,,0.000000,0.000000
08:02:55.568 PM 04/01/2016,Teleop Enabled,10,TRUE,-44087,NetComm_CAN_Receive.vi:5470001<APPEND>  <b>Complete call chain:</b>      NetComm_CAN_Receive.vi:5470001      WPI_CAN_PDPReceive.vi      WPI_Power Get PDP Currents.vi      Periodic Tasks.vi      Robot Main.vi,-0.000000,-0.032083,-0.000000,-0.224583,TRUE,FALSE,TRUE,TRUE,FALSE,FALSE,Disabled,0.000000,-3.236594,-11.443406,TRUE,-2.146225,-8.075058,0.000000,0.000000,0.004074,0.000000,-0.013000,-0.003000,0.015000,0.030000,-0.630000,2.540000,0.096226,Hold,0.926758,0.000000,ResetBack,-15704.000000,-0.250000,LowGoal,0.000000,-2181.818182,Speed,0.000000,-2181.818182,Speed,Off,Off,0.000000,FALSE,0,,,,,0.000000,0.000000
08:02:55.667 PM 04/01/2016,Teleop Enabled,11,TRUE,-44087,NetComm_CAN_Receive.vi:5470001<APPEND>  <b>Complete call chain:</b>      NetComm_CAN_Receive.vi:5470001      WPI_CAN_PDPReceive.vi      WPI_Power Get PDP Currents.vi      Periodic Tasks.vi      Robot Main.vi,-0.000000,-0.032083,-0.000000,-0.218166,TRUE,FALSE,TRUE,TRUE,FALSE,FALSE,Disabled,0.000000,-3.236594,-11.443406,TRUE,-2.147263,-8.075165,0.000000,-0.052795,-0.013168,0.000000,0.001000,-0.069000,-0.158000,0.010000,-0.540000,2.530000,0.059481,Hold,0.926758,0.000000,ResetBack,-9102.000000,-0.250000,LowGoal,60.000000,-2181.818182,Speed,15.000000,-2181.818182,Speed,Off,Off,0.000000,FALSE,0,,,,,0.000000,0.000000
08:02:55.768 PM 04/01/2016,Teleop Enabled,11,TRUE,-44087,NetComm_CAN_Receive.vi:5470001<APPEND>  <b>Complete call chain:</b>      NetComm_CAN_Receive.vi:5470001      WPI_CAN_PDPReceive.vi      WPI_Power Get PDP Currents.vi      Periodic Tasks.vi      Robot Main.vi,-0.000000,-0.032083,-0.000000,-0.205333,TRUE,FALSE,TRUE,TRUE,FALSE,FALSE,Disabled,0.000000,-3.236594,-11.443406,TRUE,-2.146408,-8.077881,0.000000,0.030914,-0.068619,0.000000,-0.081000,-0.020000,-0.119000,-0.010000,-0.560000,2.460000,0.014996,Hold,0.926758,0.000000,ResetBack,-6931.000000,-0.250000,LowGoal,517.500000,-2181.818182,Speed,247.500000,-2181.818182,Speed,Off,Off,0.000000,FALSE,0,,,,,0.000000,0.000000
08:02:55.869 PM 04/01/2016,Teleop Enabled,9,TRUE,-44087,NetComm_CAN_Receive.vi:5470001<APPEND>  <b>Complete call chain:</b>      NetComm_CAN_Receive.vi:5470001      WPI_CAN_PDPReceive.vi      WPI_Power Get PDP Currents.vi      Periodic Tasks.vi      Robot Main.vi,-0.000000,-0.032083,-0.000000,-0.224583,TRUE,FALSE,TRUE,TRUE,FALSE,FALSE,Disabled,0.000000,-3.236594,-11.443406,TRUE,-2.144348,-8.079453,0.000000,0.051880,-0.022369,0.000000,0.001000,-0.118000,-0.065000,0.030000,-0.620000,2.490000,0.062479,Hold,0.926758,0.000000,ResetBack,-6627.000000,-0.250000,LowGoal,1027.500000,-2181.818182,Speed,450.000000,-2181.818182,Speed,Off,Off,0.000000,FALSE,0,,,,,0.000000,0.000000
08:02:55.969 PM 04/01/2016,Teleop Enabled,11,TRUE,-44087,NetComm_CAN_Receive.vi:5470001<APPEND>  <b>Complete call chain:</b>      NetComm_CAN_Receive.vi:5470001      WPI_CAN_PDPReceive.vi      WPI_Power Get PDP Currents.vi      Periodic Tasks.vi      Robot Main.vi,-0.000000,-0.032083,-0.000000,-0.224583,TRUE,FALSE,TRUE,TRUE,FALSE,FALSE,Disabled,0.000000,-3.236594,-11.443406,TRUE,-2.141525,-8.080231,0.000000,0.061523,-0.019913,0.000000,-0.036000,0.017000,0.020000,0.000000,-0.520000,2.500000,0.043245,Hold,0.926758,0.000000,ResetBack,-6136.000000,-0.250000,LowGoal,1470.000000,-2181.818182,Speed,780.000000,-2181.818182,Speed,Off,Off,0.000000,FALSE,0,,,,,0.000000,0.000000
08:02:56.070 PM 04/01/2016,Teleop Enabled,9,TRUE,-44087,NetComm_CAN_Receive.vi:5470001<APPEND>  <b>Complete call chain:</b>      NetComm_CAN_Receive.vi:5470001      WPI_CAN_PDPReceive.vi      WPI_Power Get PDP Currents.vi      Periodic Tasks.vi      Robot Main.vi,-0.000000,-0.032083,-0.000000,-0.224583,TRUE,FALSE,TRUE,TRUE,FALSE,FALSE,Disabled,0.000000,-3.236594,-11.443406,TRUE,-2.138641,-8.080887,0.000000,0.065735,-0.027237,0.000000,-0.017000,0.009000,0.044000,0.000000,-0.520000,2.460000,0.018421,Hold,0.926758,0.000000,ResetBack,-5798.000000,-0.250000,LowGoal,1875.000000,-2181.818182,Speed,1537.500000,-2181.818182,Speed,Off,Off,0.000000,FALSE,0,,,,,0.000000,0.000000
08:02:56.171 PM 04/01/2016,Teleop Enabled,10,TRUE,-44087,NetComm_CAN_Receive.vi:5470001<APPEND>  <b>Complete call chain:</b>      NetComm_CAN_Receive.vi:5470001      WPI_CAN_PDPReceive.vi      WPI_Power Get PDP Currents.vi      Periodic Tasks.vi      Robot Main.vi,-0.000000,-0.032083,-0.000000,-0.224583,TRUE,FALSE,TRUE,TRUE,FALSE,FALSE,Disabled,0.000000,-3.236594,-11.443406,TRUE,-2.134476,-8.080231,0.000000,0.087982,0.058075,0.000000,-0.030000,0.133000,-0.042000,0.000000,-0.520000,2.400000,0.024311,Hold,0.926758,0.000000,Reset,-5798.000000,2.000000,LowGoal,2145.000000,-2181.818182,Speed,2235.000000,-2181.818182,Speed,Off,Off,0.000000,FALSE,0,,,,,0.000000,0.000000
08:02:56.271 PM 04/01/2016,Teleop Enabled,9,TRUE,-44087,NetComm_CAN_Receive.vi:5470001<APPEND>  <b>Complete call chain:</b>      NetComm_CAN_Receive.vi:5470001      WPI_CAN_PDPReceive.vi      WPI_Power Get PDP Currents.vi      Periodic Tasks.vi      Robot Main.vi,-0.000000,-0.032083,-0.000000,-0.224583,TRUE,FALSE,TRUE,TRUE,FALSE,FALSE,Disabled,0.000000,-3.236594,-11.443406,TRUE,-2.131210,-8.072021,0.000000,0.054291,0.228043,0.000000,-0.008000,0.184000,-0.023000,0.000000,-0.560000,2.340000,0.015891,Hold,0.926758,0.000000,Hold,-5798.000000,2.000000,LowGoal,2220.000000,-2181.818182,Speed,2452.500000,-2181.818182,Speed,Off,Off,0.000000,FALSE,0,,,,,0.000000,0.000000
08:02:56.371 PM 04/01/2016,Teleop Enabled,11,TRUE,-44087,NetComm_CAN_Receive.vi:5470001<APPEND>  <b>Complete call chain:</b>      NetComm_CAN_Receive.vi:5470001      WPI_CAN_PDPReceive.vi      WPI_Power Get PDP Currents.vi      Periodic Tasks.vi      Robot Main.vi,-0.000000,-0.032083,-0.000000,-0.224583,TRUE,FALSE,TRUE,TRUE,FALSE,FALSE,Disabled,0.000000,-3.236594,-11.443406,TRUE,-2.129211,-8.054718,0.000000,0.018845,0.427261,0.000000,0.016000,0.267000,-0.023000,0.020000,-0.530000,2.370000,0.022287,Hold,0.926758,0.000000,Hold,264.000000,2.000000,LowGoal,2197.500000,-2181.818182,Speed,2212.500000,-2181.818182,Speed,Off,Off,0.000000,FALSE,0,,,,,0.000000,0.000000
08:02:56.474 PM 04/01/2016,Teleop Enabled,10,TRUE,-44087,NetComm_CAN_Receive.vi:5470001<APPEND>  <b>Complete call chain:</b>      NetComm_CAN_Receive.vi:5470001      WPI_CAN_PDPReceive.vi      WPI_Power Get PDP Currents.vi      Periodic Tasks.vi      Robot Main.vi,-0.000000,-0.032083,-0.000000,-0.224583,TRUE,FALSE,TRUE,TRUE,FALSE,FALSE,Disabled,0.000000,-3.236594,-11.443406,TRUE,-2.129288,-8.026443,0.000000,-0.022385,0.645645,0.000000,-0.039000,0.171000,0.106000,0.010000,-0.440000,2.540000,0.026521,Hold,0.926758,0.000000,Hold,-108.000000,2.000000,LowGoal,2160.000000,-2181.818182,Speed,2212.500000,-2181.818182,Speed,Off,Off,0.000000,FALSE,0,,,,,0.000000,0.000000
08:02:56.575 PM 04/01/2016,Teleop Enabled,10,TRUE,-44087,NetComm_CAN_Receive.vi:5470001<APPEND>  <b>Complete call chain:</b>      NetComm_CAN_Receive.vi:5470001      WPI_CAN_PDPReceive.vi      WPI_Power Get PDP Currents.vi      Periodic Tasks.vi      Robot Main.vi,-0.000000,-0.032083,-0.000000,-0.224583,TRUE,FALSE,TRUE,TRUE,FALSE,FALSE,Disabled,0.000000,-3.236594,-11.443406,TRUE,-2.132721,-7.979858,0.000000,-0.085190,0.875000,0.000000,-0.006000,0.151000,0.106000,0.010000,-0.500000,2.500000,0.030656,Hold,0.926758,0.000000,Hold,-108.000000,2.000000,LowGoal,2160.000000,-2181.818182,Speed,2115.000000,-2181.818182,Speed,Off,Off,0.000000,FALSE,0,,,,,0.000000,0.000000
08:02:56.677 PM 04/01/2016,Teleop Enabled,11,TRUE,-44087,NetComm_CAN_Receive.vi:5470001<APPEND>  <b>Complete call chain:</b>      NetComm_CAN_Receive.vi:5470001      WPI_CAN_PDPReceive.vi      WPI_Power Get PDP Currents.vi      Periodic Tasks.vi      Robot Main.vi,-0.000000,-0.032083,-0.000000,-0.224583,TRUE,FALSE,TRUE,TRUE,FALSE,FALSE,Disabled,0.000000,-3.236594,-11.443406,TRUE,-2.137878,-7.930557,0.000000,-0.125351,1.059738,0.000000,-0.043000,0.170000,-0.019000,0.010000,-0.500000,2.370000,0.019034,Hold,0.926758,0.000000,Hold,-108.000000,2.000000,LowGoal,2152.500000,-2181.818182,Speed,2115.000000,-2181.818182,Speed,Off,Off,0.000000,FALSE,0,,,,,0.000000,0.000000
08:02:56.779 PM 04/01/2016,Teleop Enabled,10,TRUE,-44087,NetComm_CAN_Receive.vi:5470001<APPEND>  <b>Complete call chain:</b>      NetComm_CAN_Receive.vi:5470001      WPI_CAN_PDPReceive.vi      WPI_Power Get PDP Currents.vi      Periodic Tasks.vi      Robot Main.vi,-0.000000,-0.032083,-0.000000,-0.224583,TRUE,FALSE,TRUE,TRUE,FALSE,FALSE,Disabled,0.000000,-3.236594,-11.443406,TRUE,-2.140793,-7.872803,0.000000,-0.006088,1.219635,0.000000,-0.051000,0.189000,-0.061000,0.010000,-0.520000,2.300000,0.019351,Hold,0.926758,0.000000,Hold,-108.000000,2.000000,LowGoal,2152.500000,-2181.818182,Speed,2190.000000,-2181.818182,Speed,Off,Off,0.000000,FALSE,0,,,,,0.000000,0.000000
08:02:56.879 PM 04/01/2016,Teleop Enabled,10,TRUE,-44087,NetComm_CAN_Receive.vi:5470001<APPEND>  <b>Complete call chain:</b>      NetComm_CAN_Receive.vi:5470001      WPI_CAN_PDPReceive.vi      WPI_Power Get PDP Currents.vi      Periodic Tasks.vi      Robot Main.vi,-0.000000,-0.032083,-0.000000,-0.224583,TRUE,FALSE,TRUE,TRUE,FALSE,FALSE,Disabled,0.000000,-3.236594,-11.443406,TRUE,-2.142776,-7.807144,0.000000,-0.057083,1.373154,0.000000,0.007000,0.181000,0.100000,0.000000,-0.540000,2.400000,0.008262,Hold,0.926758,0.000000,Hold,-108.000000,2.000000,LowGoal,2145.000000,-2181.818182,Speed,2182.500000,-2181.818182,Speed,Off,Off,0.000000,FALSE,0,,,,,0.000000,0.000000
08:02:56.979 PM 04/01/2016,Teleop Enabled,10,TRUE,-44087,NetComm_CAN_Receive.vi:5470001<APPEND>  <b>Complete call chain:</b>      NetComm_CAN_Receive.vi:5470001      WPI_CAN_PDPReceive.vi      WPI_Power Get PDP Currents.vi      Periodic Tasks.vi      Robot Main.vi,-0.000000,-0.032083,-0.000000,-0.224583,TRUE,FALSE,TRUE,TRUE,FALSE,FALSE,Disabled,0.000000,-3.236594,-11.443406,TRUE,-2.144989,-7.734421,0.000000,-0.030396,1.477127,0.000000,0.002000,-0.054000,-0.040000,0.000000,-0.540000,2.350000,-0.010238,Hold,0.926758,0.000000,Hold,-108.000000,2.000000,LowGoal,2145.000000,-2181.818182,Speed,2145.000000,-2181.818182,Speed,Off,Off,0.000000,FALSE,0,,,,,0.000000,0.000000
08:02:57.079 PM 04/01/2016,Teleop Enabled,10,TRUE,-44087,NetComm_CAN_Receive.vi:5470001<APPEND>  <b>Complete call chain:</b>      NetComm_CAN_Receive.vi:5470001      WPI_CAN_PDPReceive.vi      WPI_Power Get PDP Currents.vi      Periodic Tasks.vi      Robot Main.vi,-0.000000,-0.032083,-0.000000,-0.224583,TRUE,FALSE,TRUE,TRUE,FALSE,FALSE,Disabled,0.000000,-3.236594,-11.443406,TRUE,-2.145096,-7.662521,0.000000,0.024902,1.392548,0.000000,0.020000,-0.156000,0.018000,0.000000,-0.570000,2.410000,-0.012021,Hold,0.926758,0.000000,Hold,-108.000000,2.000000,LowGoal,2122.500000,-2181.818182,Speed,2145.000000,-2181.818182,Speed,Off,Off,0.000000,FALSE,0,,,,,0.000000,0.000000
08:02:57.179 PM 04/01/2016,Teleop Enabled,9,TRUE,-44087,NetComm_CAN_Receive.vi:5470001<APPEND>  <b>Complete call chain:</b>      NetComm_CAN_Receive.vi:5470001      WPI_CAN_PDPReceive.vi      WPI_Power Get PDP Currents.vi      Periodic Tasks.vi      Robot Main.vi,-0.000000,-0.032083,-0.000000,-0.224583,TRUE,FALSE,TRUE,TRUE,FALSE,FALSE,Disabled,0.000000,-3.236594,-11.443406,TRUE,-2.143509,-7.597183,0.000000,0.014511,1.241028,0.000000,0.055000,-0.120000,0.086000,0.010000,-0.620000,2.410000,-0.020270,Hold,0.926758,0.000000,Hold,-108.000000,2.000000,LowGoal,2130.000000,-2181.818182,Speed,2160.000000,-2181.818182,Speed,Off,Off,0.000000,FALSE,0,,,,,0.000000,0.000000
08:02:57.279 PM 04/01/2016,Teleop Enabled,10,TRUE,-44087,NetComm_CAN_Receive.vi:5470001<APPEND>  <b>Complete call chain:</b>      NetComm_CAN_Receive.vi:5470001      WPI_CAN_PDPReceive.vi      WPI_Power Get PDP Currents.vi      Periodic Tasks.vi      Robot Main.vi,-0.000000,-0.032083,-0.000000,-0.224583,TRUE,FALSE,TRUE,TRUE,FALSE,FALSE,Disabled,0.000000,-3.236594,-11.443406,TRUE,-2.142456,-7.540878,0.000000,0.036835,1.041565,0.000000,0.107000,-0.128000,0.067000,0.010000,-0.630000,2.400000,-0.028108,Hold,0.927002,0.000000,Hold,-108.000000,2.000000,LowGoal,2145.000000,-2181.818182,Speed,2175.000000,-2181.818182,Speed,Off,Off,0.000000,FALSE,0,,,,,0.000000,0.000000
08:02:57.379 PM 04/01/2016,Teleop Enabled,9,TRUE,-44087,NetComm_CAN_Receive.vi:5470001<APPEND>  <b>Complete call chain:</b>      NetComm_CAN_Receive.vi:5470001      WPI_CAN_PDPReceive.vi      WPI_Power Get PDP Currents.vi      Periodic Tasks.vi      Robot Main.vi,-0.000000,-0.032083,-0.000000,-0.224583,TRUE,FALSE,TRUE,TRUE,FALSE,FALSE,Disabled,0.000000,-3.236594,-11.443406,TRUE,-2.136520,-7.487152,0.000000,0.156570,0.789398,0.000000,0.115000,-0.086000,0.070000,0.010000,-0.630000,2.340000,-0.034546,Hold,0.927002,0.000000,Hold,-108.000000,2.000000,LowGoal,2130.000000,-2181.818182,Speed,2175.000000,-2181.818182,Speed,Off,Off,0.000000,FALSE,0,,,,,0.000000,0.000000
08:02:57.480 PM 04/01/2016,Teleop Enabled,9,TRUE,-44087,NetComm_CAN_Receive.vi:5470001<APPEND>  <b>Complete call chain:</b>      NetComm_CAN_Receive.vi:5470001      WPI_CAN_PDPReceive.vi      WPI_Power Get PDP Currents.vi      Periodic Tasks.vi      Robot Main.vi,-0.000000,-0.032083,-0.000000,-0.224583,TRUE,FALSE,TRUE,TRUE,FALSE,FALSE,Disabled,0.000000,-3.236594,-11.443406,TRUE,-2.132996,-7.449005,0.000000,0.016006,0.740097,0.000000,0.042000,0.096000,-0.004000,0.010000,-0.620000,2.330000,-0.050551,Hold,0.927002,0.000000,Hold,-107.000000,2.000000,LowGoal,2092.500000,-2181.818182,Speed,2175.000000,-2181.818182,Speed,Off,Off,0.000000,FALSE,0,,,,,0.000000,0.000000
08:02:57.582 PM 04/01/2016,Teleop Enabled,10,TRUE,-44087,NetComm_CAN_Receive.vi:5470001<APPEND>  <b>Complete call chain:</b>      NetComm_CAN_Receive.vi:5470001      WPI_CAN_PDPReceive.vi      WPI_Power Get PDP Currents.vi      Periodic Tasks.vi      Robot Main.vi,-0.000000,-0.032083,-0.000000,-0.224583,TRUE,FALSE,TRUE,TRUE,FALSE,FALSE,Disabled,0.000000,-3.236594,-11.443406,TRUE,-2.132111,-7.409683,0.000000,-0.002396,0.822357,0.000000,0.042000,0.096000,-0.004000,0.000000,-0.590000,2.240000,-0.040237,Hold,0.927002,0.000000,Hold,-107.000000,2.000000,LowGoal,2115.000000,-2181.818182,Speed,2167.500000,-2181.818182,Speed,Off,Off,0.000000,FALSE,0,,,,,0.000000,0.000000
08:02:57.683 PM 04/01/2016,Teleop Enabled,10,TRUE,-44087,NetComm_CAN_Receive.vi:5470001<APPEND>  <b>Complete call chain:</b>      NetComm_CAN_Receive.vi:5470001      WPI_CAN_PDPReceive.vi      WPI_Power Get PDP Currents.vi      Periodic Tasks.vi      Robot Main.vi,-0.000000,-0.032083,-0.000000,-0.224583,TRUE,FALSE,TRUE,TRUE,FALSE,FALSE,Disabled,0.000000,-3.236594,-11.443406,TRUE,-2.133636,-7.367310,0.000000,-0.028046,0.864746,0.000000,0.043000,0.090000,-0.004000,0.000000,-0.600000,2.190000,-0.047748,Hold,0.927002,0.000000,Hold,-107.000000,2.000000,LowGoal,2100.000000,-2181.818182,Speed,2175.000000,-2181.818182,Speed,Off,Off,0.000000,FALSE,0,,,,,0.000000,0.000000
08:02:57.784 PM 04/01/2016,Teleop Enabled,10,TRUE,-44087,NetComm_CAN_Receive.vi:5470001<APPEND>  <b>Complete call chain:</b>      NetComm_CAN_Receive.vi:5470001      WPI_CAN_PDPReceive.vi      WPI_Power Get PDP Currents.vi      Periodic Tasks.vi      Robot Main.vi,-0.000000,-0.032083,-0.000000,-0.224583,TRUE,FALSE,TRUE,TRUE,FALSE,FALSE,Disabled,0.000000,-3.236594,-11.443406,TRUE,-2.134109,-7.358887,0.000000,-0.018661,-0.018219,0.000000,-0.003000,-0.130000,0.009000,0.000000,-0.550000,2.220000,-0.062651,Hold,0.927002,0.000000,Hold,-107.000000,2.000000,LowGoal,2077.500000,-2181.818182,Speed,2175.000000,-2181.818182,Speed,Off,Off,0.000000,FALSE,0,,,,,0.000000,0.000000
08:02:57.884 PM 04/01/2016,Teleop Enabled,10,TRUE,-44087,NetComm_CAN_Receive.vi:5470001<APPEND>  <b>Complete call chain:</b>      NetComm_CAN_Receive.vi:5470001      WPI_CAN_PDPReceive.vi      WPI_Power Get PDP Currents.vi      Periodic Tasks.vi      Robot Main.vi,-0.000000,-0.032083,-0.000000,-0.224583,TRUE,FALSE,TRUE,TRUE,FALSE,FALSE,Disabled,0.000000,-3.236594,-11.443406,TRUE,-2.134399,-7.363861,0.000000,0.020782,-0.162094,0.000000,0.030000,-0.115000,0.140000,0.000000,-0.580000,2.240000,-0.069357,Hold,0.927002,0.000000,Hold,-107.000000,2.000000,LowGoal,2115.000000,-2181.818182,Speed,2160.000000,-2181.818182,Speed,Off,Off,0.000000,FALSE,0,,,,,0.000000,0.000000
08:02:57.984 PM 04/01/2016,Teleop Enabled,10,TRUE,-44087,NetComm_CAN_Receive.vi:5470001<APPEND>  <b>Complete call chain:</b>      NetComm_CAN_Receive.vi:5470001      WPI_CAN_PDPReceive.vi      WPI_Power Get PDP Currents.vi      Periodic Tasks.vi      Robot Main.vi,-0.000000,-0.032083,-0.000000,-0.224583,TRUE,FALSE,TRUE,TRUE,FALSE,FALSE,Disabled,0.000000,-3.236594,-11.443406,TRUE,-2.129654,-7.375381,0.000000,0.142593,-0.278778,0.000000,0.090000,-0.204000,-0.002000,0.000000,-0.580000,2.330000,-0.070376,Hold,0.927002,0.000000,Hold,-107.000000,2.000000,LowGoal,2145.000000,-2181.818182,Speed,2167.500000,-2181.818182,Speed,Off,Off,0.000000,FALSE,0,,,,,0.000000,0.000000
08:02:58.085 PM 04/01/2016,Teleop Enabled,9,TRUE,-44087,NetComm_CAN_Receive.vi:5470001<APPEND>  <b>Complete call chain:</b>      NetComm_CAN_Receive.vi:5470001      WPI_CAN_PDPReceive.vi      WPI_Power Get PDP Currents.vi      Periodic Tasks.vi      Robot Main.vi,-0.000000,-0.032083,-0.000000,-0.224583,TRUE,FALSE,TRUE,TRUE,FALSE,FALSE,Disabled,0.000000,-3.236594,-11.443406,TRUE,-2.121262,-7.393875,0.000000,0.167664,-0.413147,0.000000,0.060000,0.018000,-0.008000,0.000000,-0.580000,2.330000,-0.075223,Hold,0.927002,0.000000,Hold,-107.000000,2.000000,LowGoal,2115.000000,-2181.818182,Speed,2175.000000,-2181.818182,Speed,Off,Off,0.000000,FALSE,0,,,,,0.000000,0.000000
08:02:58.185 PM 04/01/2016,Teleop Enabled,11,TRUE,-44087,NetComm_CAN_Receive.vi:5470001<APPEND>  <b>Complete call chain:</b>      NetComm_CAN_Receive.vi:5470001      WPI_CAN_PDPReceive.vi      WPI_Power Get PDP Currents.vi      Periodic Tasks.vi      Robot Main.vi,-0.000000,-0.032083,-0.000000,-0.224583,TRUE,FALSE,TRUE,TRUE,FALSE,FALSE,Disabled,0.000000,-3.236594,-11.443406,TRUE,-2.109573,-7.401962,0.000000,0.185501,0.020599,0.000000,0.060000,0.018000,-0.008000,0.000000,-0.600000,2.350000,-0.075850,Hold,0.927002,0.000000,Hold,-107.000000,2.000000,LowGoal,2092.500000,-2181.818182,Speed,2167.500000,-2181.818182,Speed,Off,Off,0.000000,FALSE,0,,,,,0.000000,0.000000
08:02:58.288 PM 04/01/2016,Teleop Enabled,6,TRUE,-44087,NetComm_CAN_Receive.vi:5470001<APPEND>  <b>Complete call chain:</b>      NetComm_CAN_Receive.vi:5470001      WPI_CAN_PDPReceive.vi      WPI_Power Get PDP Currents.vi      Periodic Tasks.vi      Robot Main.vi,-0.000000,-0.032083,-0.000000,-0.224583,TRUE,FALSE,TRUE,TRUE,FALSE,FALSE,Disabled,0.000000,-3.236594,-11.443406,TRUE,-2.103638,-7.399353,0.000000,0.141174,0.094940,0.000000,-0.018000,0.068000,-0.135000,-0.010000,-0.530000,2.320000,-0.092708,Hold,0.927002,0.000000,Hold,-107.000000,2.000000,LowGoal,2115.000000,-2181.818182,Speed,2160.000000,-2181.818182,Speed,Off,Off,0.000000,FALSE,0,,,,,0.000000,0.000000
08:02:58.388 PM 04/01/2016,Teleop Enabled,10,TRUE,-44087,NetComm_CAN_Receive.vi:5470001<APPEND>  <b>Complete call chain:</b>      NetComm_CAN_Receive.vi:5470001      WPI_CAN_PDPReceive.vi      WPI_Power Get PDP Currents.vi      Periodic Tasks.vi      Robot Main.vi,-0.000000,-0.032083,-0.000000,-0.224583,TRUE,FALSE,TRUE,TRUE,FALSE,FALSE,Disabled,0.000000,-3.236594,-11.443406,TRUE,-2.102020,-7.389587,0.000000,0.011276,0.203003,0.000000,-0.018000,0.068000,-0.135000,-0.010000,-0.530000,2.320000,-0.109129,Hold,0.927002,0.000000,Hold,-107.000000,2.000000,LowGoal,2152.500000,-2181.818182,Speed,2167.500000,-2181.818182,Speed,Off,Off,0.000000,FALSE,0,,,,,0.000000,0.000000
08:02:58.489 PM 04/01/2016,Teleop Enabled,10,TRUE,-44087,NetComm_CAN_Receive.vi:5470001<APPEND>  <b>Complete call chain:</b>      NetComm_CAN_Receive.vi:5470001      WPI_CAN_PDPReceive.vi      WPI_Power Get PDP Currents.vi      Periodic Tasks.vi      Robot Main.vi,-0.000000,-0.032083,-0.000000,-0.224583,TRUE,FALSE,TRUE,TRUE,FALSE,FALSE,Disabled,0.000000,-3.236594,-11.443406,TRUE,-2.100510,-7.378204,0.000000,0.029129,0.236526,0.000000,0.031000,0.026000,-0.058000,-0.010000,-0.520000,2.330000,-0.123319,Hold,0.927002,0.000000,Hold,-107.000000,2.000000,LowGoal,2152.500000,-2181.818182,Speed,2175.000000,-2181.818182,Speed,Off,Off,0.000000,FALSE,0,,,,,0.000000,0.000000
08:02:58.591 PM 04/01/2016,Teleop Enabled,11,TRUE,-44087,NetComm_CAN_Receive.vi:5470001<APPEND>  <b>Complete call chain:</b>      NetComm_CAN_Receive.vi:5470001      WPI_CAN_PDPReceive.vi      WPI_Power Get PDP Currents.vi      Periodic Tasks.vi      Robot Main.vi,-0.000000,-0.032083,-0.000000,-0.224583,TRUE,FALSE,TRUE,TRUE,FALSE,FALSE,Disabled,0.000000,-3.236594,-11.443406,TRUE,-2.099274,-7.368225,0.000000,0.023071,0.168488,0.000000,0.031000,0.026000,-0.058000,-0.010000,-0.550000,2.310000,-0.125340,Hold,0.927002,0.000000,Hold,-107.000000,2.000000,LowGoal,2130.000000,-2181.818182,Speed,2167.500000,-2181.818182,Speed,Off,Off,0.000000,FALSE,0,,,,,0.000000,0.000000
08:02:58.694 PM 04/01/2016,Teleop Enabled,10,TRUE,-44087,NetComm_CAN_Receive.vi:5470001<APPEND>  <b>Complete call chain:</b>      NetComm_CAN_Receive.vi:5470001      WPI_CAN_PDPReceive.vi      WPI_Power Get PDP Currents.vi      Periodic Tasks.vi      Robot Main.vi,-0.000000,-0.032083,-0.000000,-0.224583,TRUE,FALSE,TRUE,TRUE,FALSE,FALSE,Disabled,0.000000,-3.236594,-11.443406,TRUE,-2.098587,-7.362259,0.000000,-0.005554,0.066910,0.000000,-0.057000,-0.190000,-0.078000,-0.010000,-0.580000,2.450000,-0.143025,Hold,0.927002,0.000000,Hold,-107.000000,2.000000,LowGoal,2137.500000,-2181.818182,Speed,2167.500000,-2181.818182,Speed,Off,Off,0.000000,FALSE,0,,,,,0.000000,0.000000
08:02:58.794 PM 04/01/2016,Teleop Enabled,10,TRUE,-44087,NetComm_CAN_Receive.vi:5470001<APPEND>  <b>Complete call chain:</b>      NetComm_CAN_Receive.vi:5470001      WPI_CAN_PDPReceive.vi      WPI_Power Get PDP Currents.vi      Periodic Tasks.vi      Robot Main.vi,-0.000000,-0.032083,-0.000000,-0.224583,TRUE,FALSE,TRUE,TRUE,FALSE,FALSE,Disabled,0.000000,-3.236594,-11.443406,TRUE,-2.097076,-7.362045,0.000000,0.060867,-0.024979,0.000000,-0.057000,-0.190000,-0.078000,-0.010000,-0.580000,2.450000,-0.162520,Hold,0.927002,0.000000,Hold,-107.000000,2.000000,LowGoal,2130.000000,-2181.818182,Speed,2175.000000,-2181.818182,Speed,Off,Off,0.000000,FALSE,0,,,,,0.000000,0.000000
08:02:58.895 PM 04/01/2016,Teleop Enabled,10,TRUE,-44087,NetComm_CAN_Receive.vi:5470001<APPEND>  <b>Complete call chain:</b>      NetComm_CAN_Receive.vi:5470001      WPI_CAN_PDPReceive.vi      WPI_Power Get PDP Currents.vi      Periodic Tasks.vi      Robot Main.vi,-0.000000,-0.032083,-0.000000,-0.224583,TRUE,FALSE,TRUE,TRUE,FALSE,FALSE,Disabled,0.000000,-3.236594,-11.443406,TRUE,-2.092316,-7.366318,0.000000,0.109680,-0.108749,0.000000,0.098000,-0.019000,-0.062000,-0.010000,-0.610000,2.550000,-0.164888,Hold,0.927002,0.000000,Hold,-107.000000,2.000000,LowGoal,2115.000000,-2181.818182,Speed,2175.000000,-2181.818182,Speed,Off,Off,0.000000,FALSE,0,,,,,0.000000,0.000000
08:02:58.996 PM 04/01/2016,Teleop Enabled,10,TRUE,-44087,NetComm_CAN_Receive.vi:5470001<APPEND>  <b>Complete call chain:</b>      NetComm_CAN_Receive.vi:5470001      WPI_CAN_PDPReceive.vi      WPI_Power Get PDP Currents.vi      Periodic Tasks.vi      Robot Main.vi,-0.000000,-0.032083,-0.000000,-0.224583,TRUE,FALSE,TRUE,TRUE,FALSE,FALSE,Disabled,0.000000,-3.236594,-11.443406,TRUE,-2.089600,-7.370621,0.000000,0.006012,-0.054779,0.000000,0.098000,-0.019000,-0.062000,-0.010000,-0.600000,2.530000,-0.175023,Hold,0.927002,0.000000,Hold,-107.000000,2.000000,LowGoal,2100.000000,-2181.818182,Speed,2175.000000,-2181.818182,Speed,Off,Off,0.000000,FALSE,0,,,,,0.000000,0.000000
08:02:59.098 PM 04/01/2016,Teleop Enabled,10,TRUE,-44087,NetComm_CAN_Receive.vi:5470001<APPEND>  <b>Complete call chain:</b>      NetComm_CAN_Receive.vi:5470001      WPI_CAN_PDPReceive.vi      WPI_Power Get PDP Currents.vi      Periodic Tasks.vi      Robot Main.vi,-0.000000,-0.032083,-0.000000,-0.224583,TRUE,FALSE,TRUE,TRUE,FALSE,FALSE,Disabled,0.000000,-3.236594,-11.443406,TRUE,-2.091232,-7.368454,0.000000,-0.072174,0.127609,0.000000,-0.075000,0.135000,-0.020000,-0.010000,-0.590000,2.530000,-0.184793,Hold,0.927002,0.000000,Hold,-107.000000,2.000000,LowGoal,2115.000000,-2181.818182,Speed,2160.000000,-2181.818182,Speed,Off,Off,0.000000,FALSE,0,,,,,0.000000,0.000000
08:02:59.201 PM 04/01/2016,Teleop Enabled,10,TRUE,-44087,NetComm_CAN_Receive.vi:5470001<APPEND>  <b>Complete call chain:</b>      NetComm_CAN_Receive.vi:5470001      WPI_CAN_PDPReceive.vi      WPI_Power Get PDP Currents.vi      Periodic Tasks.vi      Robot Main.vi,-0.000000,-0.032083,-0.000000,-0.224583,TRUE,FALSE,TRUE,TRUE,FALSE,FALSE,Disabled,0.000000,-3.236594,-11.443406,TRUE,-2.091232,-7.368454,0.000000,-0.072174,0.127609,0.000000,-0.146000,0.212000,0.009000,-0.010000,-0.580000,2.580000,-0.202106,Hold,0.927002,0.000000,Hold,-107.000000,2.000000,LowGoal,2145.000000,-2181.818182,Speed,2160.000000,-2181.818182,Speed,Off,Off,0.000000,FALSE,0,,,,,0.000000,0.000000
08:02:59.304 PM 04/01/2016,Teleop Enabled,10,TRUE,-44087,NetComm_CAN_Receive.vi:5470001<APPEND>  <b>Complete call chain:</b>      NetComm_CAN_Receive.vi:5470001      WPI_CAN_PDPReceive.vi      WPI_Power Get PDP Currents.vi      Periodic Tasks.vi      Robot Main.vi,-0.000000,-0.032083,-0.000000,-0.224583,TRUE,FALSE,TRUE,TRUE,FALSE,FALSE,Disabled,0.000000,-3.236594,-11.443406,TRUE,-2.097275,-7.355469,0.000000,-0.143097,0.342712,0.000000,-0.064000,0.116000,-0.104000,-0.020000,-0.590000,2.660000,-0.203328,Hold,0.927002,0.000000,Hold,-107.000000,2.000000,LowGoal,2152.500000,-2181.818182,Speed,2160.000000,-2181.818182,Speed,Off,Off,0.000000,FALSE,0,,,,,0.000000,0.000000
08:02:59.404 PM 04/01/2016,Teleop Enabled,10,TRUE,-44087,NetComm_CAN_Receive.vi:5470001<APPEND>  <b>Complete call chain:</b>      NetComm_CAN_Receive.vi:5470001      WPI_CAN_PDPReceive.vi      WPI_Power Get PDP Currents.vi      Periodic Tasks.vi      Robot Main.vi,-0.000000,-0.032083,-0.000000,-0.224583,TRUE,FALSE,TRUE,TRUE,FALSE,FALSE,Disabled,0.000000,-3.236594,-11.443406,TRUE,-2.111267,-7.322784,0.000000,-0.232452,0.556610,0.000000,0.002000,0.073000,-0.116000,-0.020000,-0.620000,2.720000,-0.204708,Hold,0.927002,0.000000,Hold,-107.000000,2.000000,LowGoal,2145.000000,-2181.818182,Speed,2167.500000,-2181.818182,Speed,Off,Off,0.000000,FALSE,0,,,,,0.000000,0.000000
08:02:59.508 PM 04/01/2016,Teleop Enabled,11,TRUE,-44087,NetComm_CAN_Receive.vi:5470001<APPEND>  <b>Complete call chain:</b>      NetComm_CAN_Receive.vi:5470001      WPI_CAN_PDPReceive.vi      WPI_Power Get PDP Currents.vi      Periodic Tasks.vi      Robot Main.vi,-0.000000,-0.032083,-0.000000,-0.224583,TRUE,FALSE,TRUE,TRUE,FALSE,FALSE,Disabled,0.000000,-3.236594,-11.443406,TRUE,-2.114609,-7.288513,0.000000,0.000000,-0.035324,0.000000,0.011000,-0.093000,-0.005000,-0.020000,-0.600000,2.720000,-0.221019,Hold,0.927002,0.000000,Hold,-107.000000,2.000000,LowGoal,2122.500000,-2181.818182,Speed,2167.500000,-2181.818182,Speed,Off,Off,0.000000,FALSE,0,,,,,0.000000,0.000000
08:02:59.608 PM 04/01/2016,Teleop Enabled,10,TRUE,-44087,NetComm_CAN_Receive.vi:5470001<APPEND>  <b>Complete call chain:</b>      NetComm_CAN_Receive.vi:5470001      WPI_CAN_PDPReceive.vi      WPI_Power Get PDP Currents.vi      Periodic Tasks.vi      Robot Main.vi,-0.000000,-0.032083,-0.000000,-0.224583,TRUE,FALSE,TRUE,TRUE,FALSE,FALSE,Disabled,0.000000,-3.236594,-11.443406,TRUE,-2.113770,-7.292755,0.000000,0.042664,-0.120529,0.000000,0.115000,-0.187000,-0.020000,-0.020000,-0.610000,2.720000,-0.219157,Hold,0.927002,0.000000,Hold,-107.000000,2.000000,LowGoal,2100.000000,-2181.818182,Speed,2175.000000,-2181.818182,Speed,Off,Off,0.000000,FALSE,0,,,,,0.000000,0.000000
08:02:59.710 PM 04/01/2016,Teleop Enabled,10,TRUE,-44087,NetComm_CAN_Receive.vi:5470001<APPEND>  <b>Complete call chain:</b>      NetComm_CAN_Receive.vi:5470001      WPI_CAN_PDPReceive.vi      WPI_Power Get PDP Currents.vi      Periodic Tasks.vi      Robot Main.vi,-0.000000,-0.032083,-0.000000,-0.224583,TRUE,FALSE,TRUE,TRUE,FALSE,FALSE,Disabled,0.000000,-3.236594,-11.443406,TRUE,-2.111069,-7.299835,0.000000,0.052444,-0.130005,0.000000,0.115000,-0.187000,-0.020000,-0.020000,-0.580000,2.820000,-0.215373,Hold,0.927002,0.000000,Hold,-107.000000,2.000000,LowGoal,2077.500000,-2181.818182,Speed,2167.500000,-2181.818182,Speed,Off,Off,0.000000,FALSE,0,,,,,0.000000,0.000000
08:02:59.812 PM 04/01/2016,Teleop Enabled,11,TRUE,-44087,NetComm_CAN_Receive.vi:5470001<APPEND>  <b>Complete call chain:</b>      NetComm_CAN_Receive.vi:5470001      WPI_CAN_PDPReceive.vi      WPI_Power Get PDP Currents.vi      Periodic Tasks.vi      Robot Main.vi,-0.000000,-0.032083,-0.000000,-0.224583,TRUE,FALSE,TRUE,TRUE,FALSE,FALSE,Disabled,0.000000,-3.236594,-11.443406,TRUE,-2.108765,-7.303101,0.000000,0.014984,-0.018295,0.000000,0.064000,0.063000,0.109000,-0.020000,-0.600000,2.760000,-0.214038,Hold,0.927002,0.000000,Hold,-107.000000,2.000000,LowGoal,2077.500000,-2181.818182,Speed,2137.500000,-2181.818182,Speed,Off,Off,0.000000,FALSE,0,,,,,0.000000,0.000000
08:02:59.913 PM 04/01/2016,Teleop Enabled,10,TRUE,-44087,NetComm_CAN_Receive.vi:5470001<APPEND>  <b>Complete call chain:</b>      NetComm_CAN_Receive.vi:5470001      WPI_CAN_PDPReceive.vi      WPI_Power Get PDP Currents.vi      Periodic Tasks.vi      Robot Main.vi,-0.000000,-0.032083,-0.000000,-0.224583,TRUE,FALSE,TRUE,TRUE,FALSE,FALSE,Disabled,0.000000,-3.236594,-11.443406,TRUE,-2.108765,-7.303101,0.000000,0.014984,-0.018295,0.000000,-0.032000,0.051000,-0.209000,-0.020000,-0.620000,2.790000,-0.220544,Hold,0.927002,0.000000,Hold,-107.000000,2.000000,LowGoal,2122.500000,-2181.818182,Speed,2130.000000,-2181.818182,Speed,Off,Off,0.000000,FALSE,0,,,,,0.000000,0.000000
08:03:00.018 PM 04/01/2016,Teleop Enabled,10,TRUE,-44087,NetComm_CAN_Receive.vi:5470001<APPEND>  <b>Complete call chain:</b>      NetComm_CAN_Receive.vi:5470001      WPI_CAN_PDPReceive.vi      WPI_Power Get PDP Currents.vi      Periodic Tasks.vi      Robot Main.vi,-0.000000,-0.032083,-0.000000,-0.224583,TRUE,FALSE,TRUE,TRUE,FALSE,FALSE,Disabled,0.000000,-3.236594,-11.443406,TRUE,-2.108307,-7.300781,0.000000,0.036438,-0.002304,0.000000,0.059000,-0.038000,-0.091000,-0.020000,-0.610000,2.670000,-0.228190,Hold,0.927246,0.000000,Hold,-107.000000,2.000000,LowGoal,2137.500000,-2181.818182,Speed,2137.500000,-2181.818182,Speed,Off,Off,0.000000,FALSE,0,,,,,0.000000,0.000000
08:03:00.120 PM 04/01/2016,Teleop Enabled,11,TRUE,-44087,NetComm_CAN_Receive.vi:5470001<APPEND>  <b>Complete call chain:</b>      NetComm_CAN_Receive.vi:5470001      WPI_CAN_PDPReceive.vi      WPI_Power Get PDP Currents.vi      Periodic Tasks.vi      Robot Main.vi,-0.000000,-0.032083,-0.000000,-0.224583,TRUE,FALSE,TRUE,TRUE,FALSE,FALSE,Disabled,0.000000,-3.236594,-11.443406,TRUE,-2.108307,-7.300781,0.000000,0.036438,-0.002304,0.000000,0.002000,-0.076000,-0.073000,-0.020000,-0.590000,2.540000,-0.239595,Hold,0.927246,0.000000,Hold,-107.000000,2.000000,LowGoal,2137.500000,-2181.818182,Speed,2160.000000,-2181.818182,Speed,Off,Off,0.000000,FALSE,0,,,,,0.000000,0.000000
08:03:00.220 PM 04/01/2016,Teleop Enabled,10,TRUE,-44087,NetComm_CAN_Receive.vi:5470001<APPEND>  <b>Complete call chain:</b>      NetComm_CAN_Receive.vi:5470001      WPI_CAN_PDPReceive.vi      WPI_Power Get PDP Currents.vi      Periodic Tasks.vi      Robot Main.vi,-0.000000,-0.032083,-0.000000,-0.224583,TRUE,FALSE,TRUE,TRUE,FALSE,FALSE,Disabled,0.000000,-3.236594,-11.443406,TRUE,-2.104752,-7.306381,0.000000,0.091797,-0.159821,0.000000,0.067000,-0.279000,-0.050000,-0.030000,-0.570000,2.570000,-0.243317,Hold,0.927246,0.000000,Hold,-107.000000,2.000000,LowGoal,2122.500000,-2181.818182,Speed,2152.500000,-2181.818182,Speed,Off,Off,0.000000,FALSE,0,,,,,0.000000,0.000000
08:03:00.321 PM 04/01/2016,Teleop Enabled,11,TRUE,-44087,NetComm_CAN_Receive.vi:5470001<APPEND>  <b>Complete call chain:</b>      NetComm_CAN_Receive.vi:5470001      WPI_CAN_PDPReceive.vi      WPI_Power Get PDP Currents.vi      Periodic Tasks.vi      Robot Main.vi,-0.000000,-0.032083,-0.000000,-0.224583,TRUE,FALSE,TRUE,TRUE,FALSE,FALSE,Disabled,0.000000,-3.236594,-11.443406,TRUE,-2.096924,-7.322189,0.000000,0.190826,-0.410965,0.000000,0.075000,-0.176000,0.099000,-0.030000,-0.580000,2.500000,-0.267501,Hold,0.927246,0.000000,Hold,-107.000000,2.000000,LowGoal,2085.000000,-2181.818182,Speed,2145.000000,-2181.818182,Speed,Off,Off,0.000000,FALSE,0,,,,,0.000000,0.000000
08:03:00.422 PM 04/01/2016,Teleop Enabled,9,TRUE,-44087,NetComm_CAN_Receive.vi:5470001<APPEND>  <b>Complete call chain:</b>      NetComm_CAN_Receive.vi:5470001      WPI_CAN_PDPReceive.vi      WPI_Power Get PDP Currents.vi      Periodic Tasks.vi      Robot Main.vi,-0.000000,-0.032083,-0.000000,-0.224583,TRUE,FALSE,TRUE,TRUE,FALSE,FALSE,Disabled,0.000000,-3.236594,-11.443406,TRUE,-2.084503,-7.349014,0.000000,0.293182,-0.593979,0.000000,0.102000,-0.093000,0.044000,-0.030000,-0.530000,2.510000,-0.278272,Hold,0.927490,0.000000,Hold,-107.000000,2.000000,LowGoal,2085.000000,-2181.818182,Speed,2160.000000,-2181.818182,Speed,Off,Off,0.000000,FALSE,0,,,,,0.000000,0.000000
08:03:00.526 PM 04/01/2016,Teleop Enabled,10,TRUE,-44087,NetComm_CAN_Receive.vi:5470001<APPEND>  <b>Complete call chain:</b>      NetComm_CAN_Receive.vi:5470001      WPI_CAN_PDPReceive.vi      WPI_Power Get PDP Currents.vi      Periodic Tasks.vi      Robot Main.vi,-0.000000,-0.032083,-0.000000,-0.224583,TRUE,FALSE,TRUE,TRUE,FALSE,FALSE,Disabled,0.000000,-3.236594,-11.443406,TRUE,-2.067749,-7.380081,0.000000,0.352112,-0.613724,0.000000,0.051000,0.023000,-0.023000,-0.030000,-0.510000,2.480000,-0.297743,Hold,0.927490,0.000000,Hold,-107.000000,2.000000,LowGoal,2122.500000,-2181.818182,Speed,2175.000000,-2181.818182,Speed,Off,Off,0.000000,FALSE,0,,,,,0.000000,0.000000
08:03:00.629 PM 04/01/2016,Teleop Enabled,10,TRUE,-44087,NetComm_CAN_Receive.vi:5470001<APPEND>  <b>Complete call chain:</b>      NetComm_CAN_Receive.vi:5470001      WPI_CAN_PDPReceive.vi      WPI_Power Get PDP Currents.vi      Periodic Tasks.vi      Robot Main.vi,-0.000000,-0.032083,-0.000000,-0.224583,TRUE,FALSE,TRUE,TRUE,FALSE,FALSE,Disabled,0.000000,-3.236594,-11.443406,TRUE,-2.050278,-7.408508,0.000000,0.343170,-0.525864,0.000000,-0.100000,0.156000,0.012000,-0.020000,-0.540000,2.430000,-0.307634,Hold,0.927490,0.000000,Hold,-107.000000,2.000000,LowGoal,2160.000000,-2181.818182,Speed,2152.500000,-2181.818182,Speed,Off,Off,0.000000,FALSE,0,,,,,0.000000,0.000000
08:03:00.729 PM 04/01/2016,Teleop Enabled,10,TRUE,-44087,NetComm_CAN_Receive.vi:5470001<APPEND>  <b>Complete call chain:</b>      NetComm_CAN_Receive.vi:5470001      WPI_CAN_PDPReceive.vi      WPI_Power Get PDP Currents.vi      Periodic Tasks.vi      Robot Main.vi,-0.000000,-0.032083,-0.000000,-0.224583,TRUE,FALSE,TRUE,TRUE,FALSE,FALSE,Disabled,0.000000,-3.236594,-11.443406,TRUE,-2.034760,-7.429962,0.000000,0.289413,-0.355331,0.000000,-0.056000,0.146000,-0.005000,-0.020000,-0.540000,2.480000,-0.320420,Hold,0.927490,0.000000,Hold,-107.000000,2.000000,LowGoal,2152.500000,-2181.818182,Speed,2152.500000,-2181.818182,Speed,Off,Off,0.000000,FALSE,0,,,,,0.000000,0.000000
08:03:00.830 PM 04/01/2016,Teleop Enabled,10,TRUE,-44087,NetComm_CAN_Receive.vi:5470001<APPEND>  <b>Complete call chain:</b>      NetComm_CAN_Receive.vi:5470001      WPI_CAN_PDPReceive.vi      WPI_Power Get PDP Currents.vi      Periodic Tasks.vi      Robot Main.vi,-0.000000,-0.032083,-0.000000,-0.224583,TRUE,FALSE,TRUE,TRUE,FALSE,FALSE,Disabled,0.000000,-3.236594,-11.443406,TRUE,-2.022064,-7.443314,0.000000,0.240219,-0.218216,0.000000,-0.020000,0.025000,-0.046000,-0.030000,-0.550000,2.490000,-0.324186,Hold,0.927490,0.000000,Hold,-107.000000,2.000000,LowGoal,2137.500000,-2181.818182,Speed,2167.500000,-2181.818182,Speed,Off,Off,0.000000,FALSE,0,,,,,0.000000,0.000000
08:03:00.930 PM 04/01/2016,Teleop Enabled,11,TRUE,-44087,NetComm_CAN_Receive.vi:5470001<APPEND>  <b>Complete call chain:</b>      NetComm_CAN_Receive.vi:5470001      WPI_CAN_PDPReceive.vi      WPI_Power Get PDP Currents.vi      Periodic Tasks.vi      Robot Main.vi,-0.000000,-0.032083,-0.000000,-0.224583,TRUE,FALSE,TRUE,TRUE,FALSE,FALSE,Disabled,0.000000,-3.236594,-11.443406,TRUE,-2.010544,-7.454132,0.000000,0.215179,-0.243973,0.000000,0.064000,-0.167000,-0.124000,-0.030000,-0.530000,2.530000,-0.324186,Hold,0.927490,0.000000,Hold,-107.000000,2.000000,LowGoal,2107.500000,-2181.818182,Speed,2167.500000,-2181.818182,Speed,Off,Off,0.000000,FALSE,0,,,,,0.000000,0.000000
08:03:01.031 PM 04/01/2016,Teleop Enabled,10,TRUE,-44087,NetComm_CAN_Receive.vi:5470001<APPEND>  <b>Complete call chain:</b>      NetComm_CAN_Receive.vi:5470001      WPI_CAN_PDPReceive.vi      WPI_Power Get PDP Currents.vi      Periodic Tasks.vi      Robot Main.vi,-0.000000,-0.032083,-0.000000,-0.224583,TRUE,FALSE,TRUE,TRUE,FALSE,FALSE,Disabled,0.000000,-3.236594,-11.443406,TRUE,-1.998810,-7.472183,0.000000,0.256058,-0.455154,0.000000,0.144000,-0.231000,-0.016000,-0.030000,-0.580000,2.460000,-0.336124,Hold,0.927490,0.000000,Hold,-107.000000,2.000000,LowGoal,2092.500000,-2181.818182,Speed,2167.500000,-2181.818182,Speed,Off,Off,0.000000,FALSE,0,,,,,0.000000,0.000000
08:03:01.131 PM 04/01/2016,Teleop Enabled,11,TRUE,-44087,NetComm_CAN_Receive.vi:5470001<APPEND>  <b>Complete call chain:</b>      NetComm_CAN_Receive.vi:5470001      WPI_CAN_PDPReceive.vi      WPI_Power Get PDP Currents.vi      Periodic Tasks.vi      Robot Main.vi,-0.000000,-0.032083,-0.000000,-0.224583,TRUE,FALSE,TRUE,TRUE,FALSE,FALSE,Disabled,0.000000,-3.236594,-11.443406,TRUE,-1.977905,-7.507812,0.000000,0.393005,-0.685471,0.000000,0.014000,-0.125000,0.009000,-0.020000,-0.560000,2.400000,-0.339839,Hold,0.927490,0.000000,Hold,-107.000000,2.000000,LowGoal,2085.000000,-2181.818182,Speed,2152.500000,-2181.818182,Speed,Off,Off,0.000000,FALSE,0,,,,,0.000000,0.000000
08:03:01.232 PM 04/01/2016,Teleop Enabled,9,TRUE,-44087,NetComm_CAN_Receive.vi:5470001<APPEND>  <b>Complete call chain:</b>      NetComm_CAN_Receive.vi:5470001      WPI_CAN_PDPReceive.vi      WPI_Power Get PDP Currents.vi      Periodic Tasks.vi      Robot Main.vi,-0.000000,-0.032083,-0.000000,-0.224583,TRUE,FALSE,TRUE,TRUE,FALSE,FALSE,Disabled,0.000000,-3.236594,-11.443406,TRUE,-1.958878,-7.544067,0.000000,0.379272,-0.736832,0.000000,0.007000,-0.002000,-0.087000,-0.030000,-0.590000,2.420000,-0.340968,Hold,0.927490,0.000000,Hold,-107.000000,2.000000,LowGoal,2092.500000,-2181.818182,Speed,2152.500000,-2181.818182,Speed,Off,Off,0.000000,FALSE,0,,,,,0.000000,0.000000
08:03:01.332 PM 04/01/2016,Teleop Enabled,11,TRUE,-44087,NetComm_CAN_Receive.vi:5470001<APPEND>  <b>Complete call chain:</b>      NetComm_CAN_Receive.vi:5470001      WPI_CAN_PDPReceive.vi      WPI_Power Get PDP Currents.vi      Periodic Tasks.vi      Robot Main.vi,-0.000000,-0.032083,-0.000000,-0.224583,TRUE,FALSE,TRUE,TRUE,FALSE,FALSE,Disabled,0.000000,-3.236594,-11.443406,TRUE,-1.940262,-7.579056,0.000000,0.349533,-0.664917,0.000000,-0.104000,0.083000,-0.034000,-0.030000,-0.560000,2.540000,-0.347010,Hold,0.927490,0.000000,Hold,-107.000000,2.000000,LowGoal,2130.000000,-2181.818182,Speed,2160.000000,-2181.818182,Speed,Off,Off,0.000000,FALSE,0,,,,,0.000000,0.000000
08:03:01.434 PM 04/01/2016,Teleop Enabled,10,TRUE,-44087,NetComm_CAN_Receive.vi:5470001<APPEND>  <b>Complete call chain:</b>      NetComm_CAN_Receive.vi:5470001      WPI_CAN_PDPReceive.vi      WPI_Power Get PDP Currents.vi      Periodic Tasks.vi      Robot Main.vi,-0.000000,-0.032083,-0.000000,-0.224583,TRUE,FALSE,TRUE,TRUE,FALSE,FALSE,Disabled,0.000000,-3.236594,-11.443406,TRUE,-1.917557,-7.622894,0.000000,0.326477,-0.618408,0.000000,-0.011000,-0.037000,-0.092000,-0.030000,-0.570000,2.560000,-0.371796,Hold,0.927490,0.000000,Hold,-107.000000,2.000000,LowGoal,2152.500000,-2181.818182,Speed,2175.000000,-2181.818182,Speed,Off,Off,0.000000,FALSE,0,,,,,0.000000,0.000000
08:03:01.534 PM 04/01/2016,Teleop Enabled,11,TRUE,-44087,NetComm_CAN_Receive.vi:5470001<APPEND>  <b>Complete call chain:</b>      NetComm_CAN_Receive.vi:5470001      WPI_CAN_PDPReceive.vi      WPI_Power Get PDP Currents.vi      Periodic Tasks.vi      Robot Main.vi,-0.000000,-0.032083,-0.000000,-0.224583,TRUE,FALSE,TRUE,TRUE,FALSE,FALSE,Disabled,0.000000,-3.236594,-11.443406,TRUE,-1.904648,-7.649536,0.000000,0.333054,-0.699493,0.000000,0.019000,-0.107000,-0.036000,-0.040000,-0.610000,2.590000,-0.382162,Hold,0.927490,50.000000,Hold,-107.000000,145408.000000,LowGoal,2152.500000,-2181.818182,Speed,2160.000000,-2181.818182,Speed,Off,Off,0.000000,FALSE,0,,,,,0.000000,0.000000
08:03:01.636 PM 04/01/2016,Teleop Enabled,10,TRUE,-44087,NetComm_CAN_Receive.vi:5470001<APPEND>  <b>Complete call chain:</b>      NetComm_CAN_Receive.vi:5470001      WPI_CAN_PDPReceive.vi      WPI_Power Get PDP Currents.vi      Periodic Tasks.vi      Robot Main.vi,-0.000000,-0.032083,-0.000000,-0.224583,TRUE,FALSE,TRUE,TRUE,FALSE,FALSE,Disabled,0.000000,-3.236594,-11.443406,TRUE,-1.886719,-7.688904,0.000000,0.380737,-0.846527,0.000000,0.124000,-0.102000,-0.021000,-0.040000,-0.620000,2.630000,-0.382317,Hold,4.408203,50.000000,Hold,-6221.000000,145408.000000,LowGoal,2145.000000,-2181.818182,Speed,2152.500000,-2181.818182,Speed,Off,Off,0.000000,FALSE,0,,,,,0.000000,0.000000
08:03:01.736 PM 04/01/2016,Teleop Enabled,10,TRUE,-44087,NetComm_CAN_Receive.vi:5470001<APPEND>  <b>Complete call chain:</b>      NetComm_CAN_Receive.vi:5470001      WPI_CAN_PDPReceive.vi      WPI_Power Get PDP Currents.vi      Periodic Tasks.vi      Robot Main.vi,-0.000000,-0.032083,-0.000000,-0.224583,TRUE,FALSE,TRUE,TRUE,FALSE,FALSE,Disabled,0.000000,-3.236594,-11.443406,TRUE,-1.867142,-7.734177,0.000000,0.387466,-0.924805,0.000000,0.089000,-0.067000,0.187000,-0.040000,-0.570000,2.660000,-0.406139,Hold,7.854248,50.000000,Hold,-16890.000000,145408.000000,LowGoal,2152.500000,-2181.818182,Speed,2160.000000,-2181.818182,Speed,Off,Off,0.000000,FALSE,0,,,,,0.000000,0.000000
08:03:01.837 PM 04/01/2016,Teleop Enabled,10,TRUE,-44087,NetComm_CAN_Receive.vi:5470001<APPEND>  <b>Complete call chain:</b>      NetComm_CAN_Receive.vi:5470001      WPI_CAN_PDPReceive.vi      WPI_Power Get PDP Currents.vi      Periodic Tasks.vi      Robot Main.vi,-0.000000,-0.032083,-0.000000,-0.224583,TRUE,FALSE,TRUE,TRUE,FALSE,FALSE,Disabled,0.000000,-3.236594,-11.443406,TRUE,-1.850235,-7.781845,0.000000,0.000000,-0.973373,0.000000,-0.014000,-0.127000,0.210000,-0.050000,-0.650000,2.670000,-0.436516,Hold,12.912598,50.000000,Hold,-16890.000000,145408.000000,LowGoal,2137.500000,-2181.818182,Speed,2167.500000,-2181.818182,Speed,Off,Off,0.000000,FALSE,0,,,,,0.000000,0.000000
08:03:01.937 PM 04/01/2016,Teleop Enabled,10,TRUE,-44087,NetComm_CAN_Receive.vi:5470001<APPEND>  <b>Complete call chain:</b>      NetComm_CAN_Receive.vi:5470001      WPI_CAN_PDPReceive.vi      WPI_Power Get PDP Currents.vi      Periodic Tasks.vi      Robot Main.vi,-0.000000,-0.032083,-0.000000,-0.192500,TRUE,FALSE,TRUE,TRUE,FALSE,FALSE,Disabled,0.000000,-3.236594,-11.443406,TRUE,-1.849121,-7.830688,0.000000,0.044830,-0.950485,0.000000,-0.012000,-0.050000,0.020000,-0.030000,-0.670000,2.780000,-0.444004,Hold,18.996582,50.000000,Hold,-26983.000000,145408.000000,LowGoal,2115.000000,-2181.818182,Speed,2167.500000,-2181.818182,Speed,Off,Off,0.000000,FALSE,0,,,,,0.000000,0.000000
08:03:02.037 PM 04/01/2016,Teleop Enabled,10,TRUE,-44087,NetComm_CAN_Receive.vi:5470001<APPEND>  <b>Complete call chain:</b>      NetComm_CAN_Receive.vi:5470001      WPI_CAN_PDPReceive.vi      WPI_Power Get PDP Currents.vi      Periodic Tasks.vi      Robot Main.vi,-0.000000,-0.032083,-0.000000,-0.179666,TRUE,FALSE,TRUE,TRUE,FALSE,FALSE,Disabled,0.000000,-3.236594,-11.443406,TRUE,-1.846695,-7.878510,0.000000,0.042648,-0.941208,0.000000,0.016000,-0.009000,-0.042000,-0.050000,-0.730000,2.760000,-0.464838,Hold,24.526123,50.000000,Hold,-36929.000000,145408.000000,LowGoal,2115.000000,-2181.818182,Speed,2145.000000,-2181.818182,Speed,Off,Off,0.000000,FALSE,0,,,,,0.000000,0.000000
08:03:02.138 PM 04/01/2016,Teleop Enabled,7,TRUE,-44087,NetComm_CAN_Receive.vi:5470001<APPEND>  <b>Complete call chain:</b>      NetComm_CAN_Receive.vi:5470001      WPI_CAN_PDPReceive.vi      WPI_Power Get PDP Currents.vi      Periodic Tasks.vi      Robot Main.vi,-0.000000,-0.032083,-0.000000,-0.192500,TRUE,FALSE,TRUE,TRUE,FALSE,FALSE,Disabled,0.000000,-3.236594,-11.443406,TRUE,-1.843170,-7.935684,0.000000,0.070175,-0.961044,0.000000,0.040000,-0.017000,-0.015000,-0.060000,-0.800000,2.800000,-0.465881,Hold,34.220947,50.000000,Hold,-48080.000000,145408.000000,LowGoal,2122.500000,-2181.818182,Speed,2145.000000,-2181.818182,Speed,Off,Off,0.000000,FALSE,0,,,,,0.000000,0.000000
08:03:02.241 PM 04/01/2016,Teleop Enabled,10,TRUE,-44087,NetComm_CAN_Receive.vi:5470001<APPEND>  <b>Complete call chain:</b>      NetComm_CAN_Receive.vi:5470001      WPI_CAN_PDPReceive.vi      WPI_Power Get PDP Currents.vi      Periodic Tasks.vi      Robot Main.vi,-0.000000,-0.032083,-0.000000,-0.192500,TRUE,FALSE,TRUE,TRUE,FALSE,FALSE,Disabled,0.000000,-3.236594,-11.443406,TRUE,-1.839005,-7.983017,0.000000,0.099945,-0.929657,0.000000,-0.059000,0.190000,0.154000,-0.110000,-0.900000,2.720000,-0.516835,Hold,44.469238,50.000000,Hold,-60226.000000,145408.000000,LowGoal,2137.500000,-2181.818182,Speed,2160.000000,-2181.818182,Speed,Off,Off,0.000000,FALSE,0,,,,,0.000000,0.000000
08:03:02.341 PM 04/01/2016,Teleop Enabled,9,TRUE,-44087,NetComm_CAN_Receive.vi:5470001<APPEND>  <b>Complete call chain:</b>      NetComm_CAN_Receive.vi:5470001      WPI_CAN_PDPReceive.vi      WPI_Power Get PDP Currents.vi      Periodic Tasks.vi      Robot Main.vi,-0.000000,-0.141166,-0.000000,-0.301583,TRUE,FALSE,TRUE,TRUE,FALSE,FALSE,Disabled,0.000000,-3.236594,-11.443406,TRUE,-1.836411,-8.025421,0.000000,-0.003448,-0.814941,0.000000,-0.028000,0.024000,-0.090000,-0.020000,-1.370000,2.760000,-0.419162,Hold,52.560791,50.000000,Hold,-74913.000000,145408.000000,LowGoal,2122.500000,-2181.818182,Speed,2160.000000,-2181.818182,Speed,Off,Off,0.000000,FALSE,0,,,,,0.000000,0.000000
08:03:02.441 PM 04/01/2016,Teleop Enabled,10,TRUE,-44087,NetComm_CAN_Receive.vi:5470001<APPEND>  <b>Complete call chain:</b>      NetComm_CAN_Receive.vi:5470001      WPI_CAN_PDPReceive.vi      WPI_Power Get PDP Currents.vi      Periodic Tasks.vi      Robot Main.vi,-0.000000,-0.224583,-0.000000,-0.295166,TRUE,FALSE,TRUE,TRUE,FALSE,FALSE,Disabled,0.000000,-3.236594,-11.443406,TRUE,-1.837173,-8.067932,0.000000,-0.042496,-0.912247,0.000000,-0.196000,-0.253000,0.411000,-0.070000,-1.490000,2.670000,-0.452559,Hold,56.531006,50.000000,Hold,-74913.000000,145408.000000,LowGoal,2122.500000,-2181.818182,Speed,2175.000000,-2181.818182,Speed,Off,Off,0.000000,FALSE,0,,,,,0.000000,0.000000
08:03:02.543 PM 04/01/2016,Teleop Enabled,9,TRUE,-44087,NetComm_CAN_Receive.vi:5470001<APPEND>  <b>Complete call chain:</b>      NetComm_CAN_Receive.vi:5470001      WPI_CAN_PDPReceive.vi      WPI_Power Get PDP Currents.vi      Periodic Tasks.vi      Robot Main.vi,-0.000000,-0.250249,-0.000000,-0.263083,TRUE,FALSE,TRUE,TRUE,FALSE,FALSE,Disabled,0.000000,-3.236594,-11.443406,TRUE,-1.839630,-8.114944,0.000000,-0.026001,-0.970505,0.000000,-0.039000,-0.189000,0.022000,-0.230000,-1.260000,2.770000,-0.633920,Hold,55.976318,50.000000,HighGoal,-88622.000000,76595.200000,HighGoal,2100.000000,-3272.727273,Speed,2145.000000,-3272.727273,Speed,Off,Off,0.000000,FALSE,0,,,,,0.000000,0.000000
08:03:02.644 PM 04/01/2016,Teleop Enabled,10,TRUE,-44087,NetComm_CAN_Receive.vi:5470001<APPEND>  <b>Complete call chain:</b>      NetComm_CAN_Receive.vi:5470001      WPI_CAN_PDPReceive.vi      WPI_Power Get PDP Currents.vi      Periodic Tasks.vi      Robot Main.vi,-0.000000,-0.243833,-0.000000,-0.218166,TRUE,FALSE,TRUE,TRUE,FALSE,FALSE,Disabled,0.000000,-3.236594,-11.443406,TRUE,-1.840591,-8.167862,0.000000,-0.004562,-1.103027,0.000000,0.159000,-0.080000,0.083000,-0.180000,-1.370000,2.720000,-0.597711,Hold,55.254395,50.000000,Hold,-101250.000000,76595.200000,HighGoal,2107.500000,-3272.727273,Speed,2137.500000,-3272.727273,Speed,Off,Off,0.000000,FALSE,0,,,,,0.000000,0.000000
08:03:02.746 PM 04/01/2016,Teleop Enabled,10,TRUE,-44087,NetComm_CAN_Receive.vi:5470001<APPEND>  <b>Complete call chain:</b>      NetComm_CAN_Receive.vi:5470001      WPI_CAN_PDPReceive.vi      WPI_Power Get PDP Currents.vi      Periodic Tasks.vi      Robot Main.vi,-0.000000,-0.288749,-0.000000,-0.301583,TRUE,FALSE,TRUE,TRUE,FALSE,FALSE,Disabled,0.000000,-3.236594,-11.443406,TRUE,-1.838120,-8.225281,0.000000,0.061615,-1.188568,0.000000,0.009000,-0.027000,0.147000,-0.160000,-1.210000,2.790000,-0.644406,Hold,55.254395,50.000000,Hold,-98851.000000,76595.200000,HighGoal,2325.000000,-3272.727273,Speed,2407.500000,-3272.727273,Speed,Off,Off,0.000000,FALSE,0,,,,,0.000000,0.000000
08:03:02.848 PM 04/01/2016,Teleop Enabled,12,TRUE,-44087,NetComm_CAN_Receive.vi:5470001<APPEND>  <b>Complete call chain:</b>      NetComm_CAN_Receive.vi:5470001      WPI_CAN_PDPReceive.vi      WPI_Power Get PDP Currents.vi      Periodic Tasks.vi      Robot Main.vi,-0.000000,-0.301583,-0.000000,-0.275916,TRUE,FALSE,TRUE,TRUE,FALSE,FALSE,Disabled,0.000000,-3.236594,-11.443406,TRUE,-1.839035,-8.287201,0.000000,-0.069260,-1.243637,0.000000,0.004000,0.011000,-0.263000,-0.190000,-1.340000,2.690000,-0.629145,Hold,55.081055,50.000000,Hold,-92664.000000,76595.200000,HighGoal,2587.500000,-3272.727273,Speed,2722.500000,-3272.727273,Speed,Off,Off,0.000000,FALSE,0,,,,,0.000000,0.000000
08:03:02.949 PM 04/01/2016,Teleop Enabled,11,TRUE,-44087,NetComm_CAN_Receive.vi:5470001<APPEND>  <b>Complete call chain:</b>      NetComm_CAN_Receive.vi:5470001      WPI_CAN_PDPReceive.vi      WPI_Power Get PDP Currents.vi      Periodic Tasks.vi      Robot Main.vi,-0.000000,-0.301583,-0.000000,-0.230999,TRUE,FALSE,TRUE,TRUE,FALSE,FALSE,Disabled,0.000000,-3.236594,-11.443406,TRUE,-1.841965,-8.347717,0.000000,-0.067047,-1.162399,0.000000,0.030000,-0.015000,-0.251000,-0.270000,-1.230000,2.830000,-0.695638,Hold,55.079590,50.000000,Hold,-87334.000000,76595.200000,HighGoal,2827.500000,-3272.727273,Speed,3000.000000,-3272.727273,Speed,Off,Off,0.000000,FALSE,0,,,,,0.000000,0.000000
08:03:03.049 PM 04/01/2016,Teleop Enabled,10,TRUE,-44087,NetComm_CAN_Receive.vi:5470001<APPEND>  <b>Complete call chain:</b>      NetComm_CAN_Receive.vi:5470001      WPI_CAN_PDPReceive.vi      WPI_Power Get PDP Currents.vi      Periodic Tasks.vi      Robot Main.vi,-0.000000,-0.301583,-0.000000,-0.237416,TRUE,FALSE,TRUE,TRUE,FALSE,FALSE,Disabled,0.000000,-3.236594,-11.443406,TRUE,-1.842972,-8.403397,0.000000,0.022293,-1.087402,0.000000,0.048000,-0.060000,0.048000,-0.240000,-1.170000,2.840000,-0.647394,Hold,55.057617,50.000000,Hold,-80891.000000,76595.200000,HighGoal,3060.000000,-3272.727273,Speed,3255.000000,-3272.727273,Speed,Off,Off,0.000000,FALSE,0,,,,,0.000000,0.000000
08:03:03.149 PM 04/01/2016,Teleop Enabled,11,TRUE,-44087,NetComm_CAN_Receive.vi:5470001<APPEND>  <b>Complete call chain:</b>      NetComm_CAN_Receive.vi:5470001      WPI_CAN_PDPReceive.vi      WPI_Power Get PDP Currents.vi      Periodic Tasks.vi      Robot Main.vi,-0.000000,-0.301583,-0.000000,-0.243833,TRUE,FALSE,TRUE,TRUE,FALSE,FALSE,Disabled,0.000000,-3.236594,-11.443406,TRUE,-1.839966,-8.466461,0.000000,0.056259,-1.046219,0.000000,-0.088000,0.006000,-0.007000,-0.270000,-1.170000,2.880000,-0.671839,Hold,55.028320,50.000000,Hold,-80891.000000,76595.200000,HighGoal,3240.000000,-3272.727273,Speed,3255.000000,-3272.727273,Speed,Off,Off,0.000000,FALSE,0,,,,,0.000000,0.000000
08:03:03.256 PM 04/01/2016,Teleop Enabled,10,TRUE,-44087,NetComm_CAN_Receive.vi:5470001<APPEND>  <b>Complete call chain:</b>      NetComm_CAN_Receive.vi:5470001      WPI_CAN_PDPReceive.vi      WPI_Power Get PDP Currents.vi      Periodic Tasks.vi      Robot Main.vi,-0.000000,-0.301583,-0.000000,-0.243833,TRUE,FALSE,TRUE,TRUE,FALSE,FALSE,Disabled,0.000000,-3.236594,-11.443406,TRUE,-1.836136,-8.519852,0.000000,0.108292,-1.087875,0.000000,0.026000,0.007000,0.056000,-0.260000,-1.170000,2.860000,-0.655584,Hold,54.951172,50.000000,Hold,-76880.000000,76595.200000,HighGoal,3285.000000,-3272.727273,Speed,3300.000000,-3272.727273,Speed,Off,Off,0.000000,FALSE,0,,,,,0.000000,0.000000
08:03:03.357 PM 04/01/2016,Teleop Enabled,10,TRUE,-44087,NetComm_CAN_Receive.vi:5470001<APPEND>  <b>Complete call chain:</b>      NetComm_CAN_Receive.vi:5470001      WPI_CAN_PDPReceive.vi      WPI_Power Get PDP Currents.vi      Periodic Tasks.vi      Robot Main.vi,0.188976,-0.301583,0.188976,-0.186083,TRUE,FALSE,TRUE,TRUE,FALSE,FALSE,Disabled,-0.181250,-3.236594,-11.443406,TRUE,-1.829361,-8.575104,0.000000,0.160294,-1.106995,0.000000,-0.008000,0.032000,-0.005000,-0.280000,-1.160000,2.840000,-0.661959,Hold,54.947754,50.000000,Hold,-76593.000000,76595.200000,HighGoal,3262.500000,-3272.727273,Speed,3262.500000,-3272.727273,Speed,Off,Off,0.000000,FALSE,0,,,,,0.000000,0.000000
08:03:03.458 PM 04/01/2016,Teleop Enabled,9,TRUE,-44087,NetComm_CAN_Receive.vi:5470001<APPEND>  <b>Complete call chain:</b>      NetComm_CAN_Receive.vi:5470001      WPI_CAN_PDPReceive.vi      WPI_Power Get PDP Currents.vi      Periodic Tasks.vi      Robot Main.vi,0.181102,-0.705832,0.181102,0.038500,TRUE,FALSE,TRUE,TRUE,FALSE,FALSE,Disabled,-0.181250,-3.236594,-11.443406,TRUE,-1.822235,-8.629333,0.000000,0.076096,-1.080444,0.000000,0.108000,-0.187000,-0.048000,-0.630000,-1.470000,2.620000,-0.857965,Hold,54.947754,50.000000,Hold,-76665.000000,76595.200000,HighGoal,3247.500000,-3272.727273,Speed,3262.500000,-3272.727273,Speed,Off,Off,0.000000,FALSE,0,,,,,0.000000,0.000000
08:03:03.559 PM 04/01/2016,Teleop Enabled,10,TRUE,-44087,NetComm_CAN_Receive.vi:5470001<APPEND>  <b>Complete call chain:</b>      NetComm_CAN_Receive.vi:5470001      WPI_CAN_PDPReceive.vi      WPI_Power Get PDP Currents.vi      Periodic Tasks.vi      Robot Main.vi,0.181102,-1.077997,0.181102,0.436332,TRUE,FALSE,TRUE,TRUE,FALSE,FALSE,Disabled,-0.181250,-3.236594,-11.443406,TRUE,-1.817535,-8.683716,0.000000,0.104996,-1.067947,0.000000,0.000000,0.111000,0.016000,-2.310000,-1.210000,2.630000,-2.413715,Hold,54.881592,50.000000,Hold,-76665.000000,76595.200000,HighGoal,3240.000000,-3272.727273,Speed,3285.000000,-3272.727273,Speed,Off,Off,0.000000,FALSE,0,,,,,0.000000,0.000000
08:03:03.660 PM 04/01/2016,Teleop Enabled,11,TRUE,-44087,NetComm_CAN_Receive.vi:5470001<APPEND>  <b>Complete call chain:</b>      NetComm_CAN_Receive.vi:5470001      WPI_CAN_PDPReceive.vi      WPI_Power Get PDP Currents.vi      Periodic Tasks.vi      Robot Main.vi,0.181102,-1.514330,0.181102,0.705832,TRUE,FALSE,TRUE,TRUE,FALSE,FALSE,Disabled,-0.181250,-3.236594,-11.443406,TRUE,-1.811203,-8.738464,0.000000,0.151520,-1.117752,0.000000,-0.001000,-0.091000,0.016000,-3.780000,-1.140000,2.580000,-3.885374,Hold,54.876709,50.000000,Hold,-76665.000000,76595.200000,HighGoal,3247.500000,-3272.727273,Speed,3292.500000,-3272.727273,Speed,Off,Off,0.000000,FALSE,0,,,,,0.000000,0.000000
