Time,Robot Mode,Loop Time,Error Status,Error Code,Error Source,Left Motor Output,Left Motor Encoder,Right Motor Output,Right Motor Encoder,Is Level,Is Stalled,Ball Detector Photoeye,Vision Enabled,Vision Teleop Control,Vision Auto Control,Vision Current State,Vision X Output,Vision NavX Error,Vision NavX Target,NavX Connection Status,NavX Displacement X,NavX Displacement Y,NavX Displacement Z,NavX Velocity X,NavX Velocity Y,NavX Velocity Z,NavX Acceleration X,NavX Acceleration Y,NavX Acceleration Z,NavX Pitch,NavX Yaw,NavX Roll,Gyro Angle,Roller Arm State,Roller Arm Actual,Roller Arm Desired,Shooter Arm State,Shooter Arm Actual,Shooter Arm Desired,Shooter State,Actual RPM Left,Desired RPM Left,Control Mode Left,Actual RPM Right,Desired RPM Right,Control Mode Right,Ball Shooter Cylinder,Ball Halo Cylinder,Scaler Motor Output,Scaler Solenoid Fire,Auto To Run,Auto Current File,Auto File Status,Auto Current Command,Auto Trimmed Command,Shooter Amps Left,Shooter Amps Right
08:30:24.881 PM 03/31/2016,Teleop Enabled,11,TRUE,-44003,<LOCATION>WPI_CameraIssue HTTP Request with Authentication.vi<CALLSTACK>WPI_CameraIssue HTTP Request with Authentication.vi< <WPI_CameraIssue Get.vi< <WPI_CameraSet Image Appearance Property.vi< <WPI_CameraSet Image Size.vi< <Vision Processing.vi< <Robot Main.vi,-0.000000,0.000000,-0.000000,0.000000,TRUE,FALSE,FALSE,TRUE,FALSE,FALSE,Disabled,0.000000,0.000000,0.000000,TRUE,-5.673523,-4.861984,0.000000,0.000000,0.000000,0.000000,0.003000,0.000000,0.010000,0.000000,-0.290000,2.520000,0.000806,ResetBack,0.956787,-0.000049,ResetBack,-121.000000,-0.250000,Empty,0.000000,0.000000,Speed,0.000000,0.000000,Speed,Off,On,0.000000,FALSE,0,,,,,0.000000,0.000000
08:30:24.981 PM 03/31/2016,Teleop Enabled,12,TRUE,-44005,<LOCATION>WPI_CameraWait for Raw Image String.vi:6640001<CALLSTACK>WPI_CameraWait for Raw Image String.vi:6640001< <WPI_CameraGet Image.vi< <Vision Processing.vi< <Robot Main.vi,-0.000000,0.000000,-0.000000,0.000000,TRUE,FALSE,FALSE,TRUE,FALSE,FALSE,Disabled,0.000000,0.000000,0.000000,TRUE,-5.673096,-4.862213,0.000000,0.000000,0.000000,0.000000,-0.009000,-0.008000,-0.002000,-0.010000,-0.290000,2.520000,-0.006685,ResetBack,0.956787,-0.000049,ResetBack,-43.000000,-0.250000,Empty,0.000000,0.000000,Speed,0.000000,0.000000,Speed,Off,On,0.000000,FALSE,0,,,,,0.000000,0.000000
08:30:25.081 PM 03/31/2016,Teleop Enabled,13,TRUE,-1074396154,,-0.000000,0.000000,-0.000000,0.000000,TRUE,FALSE,FALSE,TRUE,FALSE,FALSE,Disabled,0.000000,0.000000,0.000000,TRUE,-5.673096,-4.862213,0.000000,0.000000,0.000000,0.000000,0.008000,0.003000,0.006000,-0.020000,-0.250000,2.500000,-0.007081,ResetBack,0.099854,-0.000049,ResetBack,-2.000000,-0.250000,Empty,0.000000,0.000000,Speed,0.000000,0.000000,Speed,Off,On,0.000000,FALSE,0,,,,,0.000000,0.000000
08:30:25.182 PM 03/31/2016,Teleop Enabled,14,TRUE,-44087,NetComm_CAN_Receive.vi:5470027<APPEND>  <b>Complete call chain:</b>      NetComm_CAN_Receive.vi:5470027      WPI_CAN_PDPReceive.vi      WPI_Power Get PDP Currents.vi      Periodic Tasks.vi      Robot Main.vi,-0.000000,0.000000,-0.000000,0.000000,TRUE,FALSE,FALSE,TRUE,FALSE,FALSE,Disabled,0.000000,0.000000,0.000000,TRUE,-5.673096,-4.862213,0.000000,0.000000,0.000000,0.000000,0.000000,-0.012000,-0.001000,-0.010000,-0.300000,2.510000,-0.014937,Reset,-0.033203,-0.000049,ResetBack,-2.000000,-0.250000,Empty,0.000000,0.000000,Speed,0.000000,0.000000,Speed,On,On,0.000000,FALSE,0,,,,,0.000000,0.000000
08:30:25.289 PM 03/31/2016,Teleop Enabled,11,TRUE,-44087,NetComm_CAN_Receive.vi:5470027<APPEND>  <b>Complete call chain:</b>      NetComm_CAN_Receive.vi:5470027      WPI_CAN_PDPReceive.vi      WPI_Power Get PDP Currents.vi      Periodic Tasks.vi      Robot Main.vi,-0.000000,0.000000,-0.000000,0.000000,TRUE,FALSE,FALSE,TRUE,FALSE,FALSE,Disabled,0.000000,0.000000,0.000000,TRUE,-5.673096,-4.862213,0.000000,0.000000,0.000000,0.000000,0.000000,-0.012000,-0.001000,-0.010000,-0.300000,2.510000,-0.025058,Hold,-0.033203,0.000000,ResetBack,1.000000,-0.250000,Empty,0.000000,0.000000,Speed,0.000000,0.000000,Speed,On,On,0.000000,FALSE,0,,,,,0.000000,0.000000
08:30:25.387 PM 03/31/2016,Teleop Enabled,8,TRUE,-44087,NetComm_CAN_Receive.vi:5470027<APPEND>  <b>Complete call chain:</b>      NetComm_CAN_Receive.vi:5470027      WPI_CAN_PDPReceive.vi      WPI_Power Get PDP Currents.vi      Periodic Tasks.vi      Robot Main.vi,-0.000000,0.000000,-0.000000,0.000000,TRUE,FALSE,FALSE,TRUE,FALSE,FALSE,Disabled,0.000000,0.000000,0.000000,TRUE,-5.673096,-4.862228,0.000000,0.000000,-0.001587,0.000000,0.000000,0.022000,0.054000,-0.020000,-0.270000,2.520000,-0.044533,Hold,1.178711,0.000000,ResetBack,3.000000,-0.250000,Empty,0.000000,0.000000,Speed,0.000000,0.000000,Speed,On,On,0.000000,FALSE,0,,,,,0.000000,0.000000
08:30:25.496 PM 03/31/2016,Teleop Enabled,8,TRUE,-44087,NetComm_CAN_Receive.vi:5470027<APPEND>  <b>Complete call chain:</b>      NetComm_CAN_Receive.vi:5470027      WPI_CAN_PDPReceive.vi      WPI_Power Get PDP Currents.vi      Periodic Tasks.vi      Robot Main.vi,-0.000000,0.000000,-0.000000,0.000000,TRUE,FALSE,FALSE,TRUE,FALSE,FALSE,Disabled,0.000000,0.000000,0.000000,TRUE,-5.673096,-4.862320,0.000000,0.000000,0.000000,0.000000,-0.001000,0.004000,0.003000,-0.020000,-0.260000,2.520000,-0.024590,Hold,0.892822,0.000000,ResetBack,5.000000,-0.250000,Empty,0.000000,0.000000,Speed,0.000000,0.000000,Speed,On,On,0.000000,FALSE,0,,,,,0.000000,0.000000
08:30:25.598 PM 03/31/2016,Teleop Enabled,11,TRUE,-44087,NetComm_CAN_Receive.vi:5470027<APPEND>  <b>Complete call chain:</b>      NetComm_CAN_Receive.vi:5470027      WPI_CAN_PDPReceive.vi      WPI_Power Get PDP Currents.vi      Periodic Tasks.vi      Robot Main.vi,-0.000000,0.000000,-0.000000,0.000000,TRUE,FALSE,FALSE,TRUE,FALSE,FALSE,Disabled,0.000000,0.000000,0.000000,TRUE,-5.673096,-4.862320,0.000000,0.000000,0.000000,0.000000,-0.001000,0.005000,0.010000,-0.010000,-0.270000,2.530000,-0.040188,Hold,0.892822,0.000000,ResetBack,6.000000,-0.250000,Empty,0.000000,0.000000,Speed,0.000000,0.000000,Speed,On,On,0.000000,FALSE,0,,,,,0.000000,0.000000
08:30:25.699 PM 03/31/2016,Teleop Enabled,10,TRUE,-44087,NetComm_CAN_Receive.vi:5470027<APPEND>  <b>Complete call chain:</b>      NetComm_CAN_Receive.vi:5470027      WPI_CAN_PDPReceive.vi      WPI_Power Get PDP Currents.vi      Periodic Tasks.vi      Robot Main.vi,-0.000000,0.000000,-0.000000,0.000000,TRUE,FALSE,FALSE,TRUE,FALSE,FALSE,Disabled,0.000000,0.000000,0.000000,TRUE,-5.673096,-4.862320,0.000000,0.000000,0.000000,0.000000,0.000000,0.000000,0.017000,-0.020000,-0.260000,2.530000,-0.049962,Hold,0.892822,0.000000,ResetBack,6.000000,-0.250000,Empty,0.000000,0.000000,Speed,0.000000,0.000000,Speed,On,On,0.000000,FALSE,0,,,,,0.000000,0.000000
08:30:25.800 PM 03/31/2016,Teleop Enabled,12,TRUE,-44087,NetComm_CAN_Receive.vi:5470027<APPEND>  <b>Complete call chain:</b>      NetComm_CAN_Receive.vi:5470027      WPI_CAN_PDPReceive.vi      WPI_Power Get PDP Currents.vi      Periodic Tasks.vi      Robot Main.vi,-0.000000,0.000000,-0.000000,0.000000,TRUE,FALSE,FALSE,TRUE,FALSE,FALSE,Disabled,0.000000,0.000000,0.000000,TRUE,-5.673096,-4.862320,0.000000,0.000000,0.000000,0.000000,-0.001000,0.003000,0.018000,-0.020000,-0.260000,2.520000,-0.041476,Hold,0.892822,0.000000,ResetBack,7.000000,-0.250000,Empty,0.000000,0.000000,Speed,0.000000,0.000000,Speed,On,On,0.000000,FALSE,0,,,,,0.000000,0.000000
08:30:25.904 PM 03/31/2016,Teleop Enabled,11,TRUE,-44087,NetComm_CAN_Receive.vi:5470027<APPEND>  <b>Complete call chain:</b>      NetComm_CAN_Receive.vi:5470027      WPI_CAN_PDPReceive.vi      WPI_Power Get PDP Currents.vi      Periodic Tasks.vi      Robot Main.vi,-0.000000,0.000000,-0.000000,0.000000,TRUE,FALSE,FALSE,TRUE,FALSE,FALSE,Disabled,0.000000,0.000000,0.000000,TRUE,-5.673096,-4.862320,0.000000,0.000000,0.000000,0.000000,-0.005000,0.000000,0.019000,-0.020000,-0.270000,2.530000,-0.030577,Hold,0.892822,0.000000,ResetBack,7.000000,-0.250000,Empty,0.000000,0.000000,Speed,0.000000,0.000000,Speed,On,On,0.000000,FALSE,0,,,,,0.000000,0.000000
08:30:26.005 PM 03/31/2016,Teleop Enabled,8,TRUE,-44087,NetComm_CAN_Receive.vi:5470027<APPEND>  <b>Complete call chain:</b>      NetComm_CAN_Receive.vi:5470027      WPI_CAN_PDPReceive.vi      WPI_Power Get PDP Currents.vi      Periodic Tasks.vi      Robot Main.vi,-0.000000,0.000000,-0.000000,0.000000,TRUE,FALSE,FALSE,TRUE,FALSE,FALSE,Disabled,0.000000,0.000000,0.000000,TRUE,-5.673096,-4.862320,0.000000,0.000000,0.000000,0.000000,0.003000,-0.003000,0.004000,-0.020000,-0.270000,2.530000,-0.026243,Hold,0.892822,0.000000,ResetBack,8.000000,-0.250000,Empty,0.000000,0.000000,Speed,0.000000,0.000000,Speed,On,On,0.000000,FALSE,0,,,,,0.000000,0.000000
08:30:26.105 PM 03/31/2016,Teleop Enabled,11,TRUE,-44087,NetComm_CAN_Receive.vi:5470027<APPEND>  <b>Complete call chain:</b>      NetComm_CAN_Receive.vi:5470027      WPI_CAN_PDPReceive.vi      WPI_Power Get PDP Currents.vi      Periodic Tasks.vi      Robot Main.vi,-0.000000,0.000000,-0.000000,0.000000,TRUE,FALSE,FALSE,TRUE,FALSE,FALSE,Disabled,0.000000,0.000000,0.000000,TRUE,-5.673096,-4.862320,0.000000,0.000000,0.000000,0.000000,0.000000,0.000000,0.008000,-0.020000,-0.260000,2.520000,-0.013240,Hold,0.892822,0.000000,Reset,8.000000,2.000000,Suck,0.000000,0.000000,Speed,0.000000,0.000000,Speed,On,On,0.000000,FALSE,0,,,,,0.000000,0.000000
08:30:26.207 PM 03/31/2016,Teleop Enabled,6,TRUE,-44087,NetComm_CAN_Receive.vi:5470027<APPEND>  <b>Complete call chain:</b>      NetComm_CAN_Receive.vi:5470027      WPI_CAN_PDPReceive.vi      WPI_Power Get PDP Currents.vi      Periodic Tasks.vi      Robot Main.vi,-0.000000,0.000000,-0.000000,0.000000,TRUE,FALSE,FALSE,TRUE,FALSE,FALSE,Disabled,0.000000,0.000000,0.000000,TRUE,-5.673096,-4.862320,0.000000,0.000000,0.000000,0.000000,0.000000,-0.003000,0.003000,-0.020000,-0.270000,2.520000,-0.018917,Hold,0.892822,0.000000,Hold,8.000000,2.000000,Suck,-15.000000,1818.181818,Speed,0.000000,1818.181818,Speed,Off,On,0.000000,FALSE,0,,,,,0.000000,0.000000
08:30:26.311 PM 03/31/2016,Teleop Enabled,9,TRUE,-44087,NetComm_CAN_Receive.vi:5470027<APPEND>  <b>Complete call chain:</b>      NetComm_CAN_Receive.vi:5470027      WPI_CAN_PDPReceive.vi      WPI_Power Get PDP Currents.vi      Periodic Tasks.vi      Robot Main.vi,-0.000000,0.000000,-0.000000,0.000000,TRUE,FALSE,FALSE,TRUE,FALSE,FALSE,Disabled,0.000000,0.000000,0.000000,TRUE,-5.673050,-4.861053,0.000000,0.004074,0.039536,0.000000,0.033000,0.024000,0.014000,-0.020000,-0.280000,2.510000,-0.017433,Hold,0.892822,0.000000,Hold,-188.000000,2.000000,Suck,-375.000000,1818.181818,Speed,-22.500000,1818.181818,Speed,Off,On,0.000000,FALSE,0,,,,,0.000000,0.000000
08:30:26.410 PM 03/31/2016,Teleop Enabled,10,TRUE,-44087,NetComm_CAN_Receive.vi:5470027<APPEND>  <b>Complete call chain:</b>      NetComm_CAN_Receive.vi:5470027      WPI_CAN_PDPReceive.vi      WPI_Power Get PDP Currents.vi      Periodic Tasks.vi      Robot Main.vi,-0.000000,0.000000,-0.000000,0.000000,TRUE,FALSE,FALSE,TRUE,FALSE,FALSE,Disabled,0.000000,0.000000,0.000000,TRUE,-5.672226,-4.860229,0.000000,0.022369,-0.037506,0.000000,0.013000,-0.142000,-0.093000,-0.020000,-0.260000,2.460000,-0.017530,Hold,0.892822,0.000000,Hold,-188.000000,2.000000,Suck,-877.500000,1818.181818,Speed,-540.000000,1818.181818,Speed,Off,On,0.000000,FALSE,0,,,,,0.000000,0.000000
08:30:26.511 PM 03/31/2016,Teleop Enabled,13,TRUE,-44087,NetComm_CAN_Receive.vi:5470027<APPEND>  <b>Complete call chain:</b>      NetComm_CAN_Receive.vi:5470027      WPI_CAN_PDPReceive.vi      WPI_Power Get PDP Currents.vi      Periodic Tasks.vi      Robot Main.vi,-0.000000,0.000000,-0.000000,0.000000,TRUE,FALSE,FALSE,TRUE,FALSE,FALSE,Disabled,0.000000,0.000000,0.000000,TRUE,-5.671692,-4.863602,0.000000,-0.001266,-0.103043,0.000000,0.093000,-0.142000,0.017000,-0.020000,-0.260000,2.460000,-0.014899,Hold,0.893066,0.000000,Hold,-188.000000,2.000000,Suck,-877.500000,1818.181818,Speed,-960.000000,1818.181818,Speed,Off,On,0.000000,FALSE,0,,,,,0.000000,0.000000
08:30:26.618 PM 03/31/2016,Teleop Enabled,9,TRUE,-44087,NetComm_CAN_Receive.vi:5470027<APPEND>  <b>Complete call chain:</b>      NetComm_CAN_Receive.vi:5470027      WPI_CAN_PDPReceive.vi      WPI_Power Get PDP Currents.vi      Periodic Tasks.vi      Robot Main.vi,-0.000000,0.000000,-0.000000,0.000000,TRUE,FALSE,FALSE,TRUE,FALSE,FALSE,Disabled,0.000000,0.000000,0.000000,TRUE,-5.671692,-4.863602,0.000000,-0.001266,-0.103043,0.000000,0.024000,-0.005000,0.001000,-0.020000,-0.280000,2.460000,-0.018225,Hold,0.893066,0.000000,Hold,-188.000000,2.000000,Suck,-1672.500000,1818.181818,Speed,-1447.500000,1818.181818,Speed,Off,On,0.000000,FALSE,0,,,,,0.000000,0.000000
08:30:26.717 PM 03/31/2016,Teleop Enabled,11,TRUE,-44087,NetComm_CAN_Receive.vi:5470027<APPEND>  <b>Complete call chain:</b>      NetComm_CAN_Receive.vi:5470027      WPI_CAN_PDPReceive.vi      WPI_Power Get PDP Currents.vi      Periodic Tasks.vi      Robot Main.vi,-0.000000,0.000000,-0.000000,0.000000,TRUE,FALSE,FALSE,TRUE,FALSE,FALSE,Disabled,0.000000,0.000000,0.000000,TRUE,-5.674301,-4.876953,0.000000,-0.035782,-0.129517,0.000000,-0.028000,0.063000,-0.010000,-0.020000,-0.300000,2.400000,-0.024735,Hold,0.893311,0.000000,Hold,-188.000000,2.000000,Suck,-1672.500000,1818.181818,Speed,-1807.500000,1818.181818,Speed,Off,On,0.000000,FALSE,0,,,,,0.000000,0.000000
08:30:26.818 PM 03/31/2016,Teleop Enabled,13,TRUE,-44087,NetComm_CAN_Receive.vi:5470027<APPEND>  <b>Complete call chain:</b>      NetComm_CAN_Receive.vi:5470027      WPI_CAN_PDPReceive.vi      WPI_Power Get PDP Currents.vi      Periodic Tasks.vi      Robot Main.vi,-0.000000,0.000000,-0.000000,0.000000,TRUE,FALSE,FALSE,TRUE,FALSE,FALSE,Disabled,0.000000,0.000000,0.000000,TRUE,-5.674301,-4.876953,0.000000,-0.035782,-0.129517,0.000000,-0.078000,-0.017000,0.047000,-0.020000,-0.340000,2.420000,-0.029757,Hold,0.893311,0.000000,Hold,-188.000000,2.000000,Suck,-1815.000000,1818.181818,Speed,-1837.500000,1818.181818,Speed,Off,On,0.000000,FALSE,0,,,,,0.000000,0.000000
08:30:26.919 PM 03/31/2016,Teleop Enabled,11,TRUE,-44087,NetComm_CAN_Receive.vi:5470027<APPEND>  <b>Complete call chain:</b>      NetComm_CAN_Receive.vi:5470027      WPI_CAN_PDPReceive.vi      WPI_Power Get PDP Currents.vi      Periodic Tasks.vi      Robot Main.vi,-0.000000,0.000000,-0.000000,0.000000,TRUE,FALSE,FALSE,TRUE,FALSE,FALSE,Disabled,0.000000,0.000000,0.000000,TRUE,-5.677963,-4.878098,0.000000,-0.056442,0.010620,0.000000,-0.039000,0.075000,0.038000,-0.020000,-0.400000,2.380000,-0.027124,Hold,0.893555,0.000000,Hold,-188.000000,2.000000,Suck,-1770.000000,1818.181818,Speed,-1792.500000,1818.181818,Speed,Off,On,0.000000,FALSE,0,,,,,0.000000,0.000000
08:30:27.021 PM 03/31/2016,Teleop Enabled,11,TRUE,-44087,NetComm_CAN_Receive.vi:5470027<APPEND>  <b>Complete call chain:</b>      NetComm_CAN_Receive.vi:5470027      WPI_CAN_PDPReceive.vi      WPI_Power Get PDP Currents.vi      Periodic Tasks.vi      Robot Main.vi,-0.000000,0.000000,-0.000000,0.000000,TRUE,FALSE,FALSE,TRUE,FALSE,FALSE,Disabled,0.000000,0.000000,0.000000,TRUE,-5.682312,-4.877914,0.000000,-0.060394,0.005325,0.000000,-0.193000,-0.029000,0.014000,-0.020000,-0.360000,2.380000,-0.009990,Hold,0.893555,0.000000,Hold,-188.000000,2.000000,Suck,-1725.000000,1818.181818,Speed,-1755.000000,1818.181818,Speed,Off,On,0.000000,FALSE,0,,,,,0.000000,0.000000
08:30:27.122 PM 03/31/2016,Teleop Enabled,11,TRUE,-44087,NetComm_CAN_Receive.vi:5470027<APPEND>  <b>Complete call chain:</b>      NetComm_CAN_Receive.vi:5470027      WPI_CAN_PDPReceive.vi      WPI_Power Get PDP Currents.vi      Periodic Tasks.vi      Robot Main.vi,-0.000000,0.000000,-0.000000,0.000000,TRUE,FALSE,FALSE,TRUE,FALSE,FALSE,Disabled,0.000000,0.000000,0.000000,TRUE,-5.686859,-4.877594,0.000000,-0.105682,0.012222,0.000000,0.052000,-0.079000,0.010000,-0.020000,-0.350000,2.380000,-0.008073,Hold,0.893555,0.000000,Hold,-188.000000,2.000000,Suck,-1732.500000,1818.181818,Speed,-1755.000000,1818.181818,Speed,Off,On,0.000000,FALSE,0,,,,,0.000000,0.000000
08:30:27.222 PM 03/31/2016,Teleop Enabled,11,TRUE,-44087,NetComm_CAN_Receive.vi:5470027<APPEND>  <b>Complete call chain:</b>      NetComm_CAN_Receive.vi:5470027      WPI_CAN_PDPReceive.vi      WPI_Power Get PDP Currents.vi      Periodic Tasks.vi      Robot Main.vi,-0.000000,0.000000,-0.000000,0.000000,TRUE,FALSE,FALSE,TRUE,FALSE,FALSE,Disabled,0.000000,0.000000,0.000000,TRUE,-5.692780,-4.875580,0.000000,-0.140030,0.049988,0.000000,0.008000,0.026000,-0.028000,-0.020000,-0.400000,2.400000,-0.009412,Hold,0.893555,0.000000,Hold,-188.000000,2.000000,Suck,-1725.000000,1818.181818,Speed,-1770.000000,1818.181818,Speed,Off,On,0.000000,FALSE,0,,,,,0.000000,0.000000
08:30:27.322 PM 03/31/2016,Teleop Enabled,11,TRUE,-44087,NetComm_CAN_Receive.vi:5470027<APPEND>  <b>Complete call chain:</b>      NetComm_CAN_Receive.vi:5470027      WPI_CAN_PDPReceive.vi      WPI_Power Get PDP Currents.vi      Periodic Tasks.vi      Robot Main.vi,-0.000000,0.000000,-0.000000,0.000000,TRUE,FALSE,FALSE,TRUE,FALSE,FALSE,Disabled,0.000000,0.000000,0.000000,TRUE,-5.692780,-4.875580,0.000000,-0.140030,0.049988,0.000000,-0.052000,-0.032000,0.028000,-0.020000,-0.400000,2.400000,-0.009006,Hold,0.893555,0.000000,Hold,-188.000000,2.000000,Suck,-1732.500000,1818.181818,Speed,-1762.500000,1818.181818,Speed,Off,On,0.000000,FALSE,0,,,,,0.000000,0.000000
08:30:27.423 PM 03/31/2016,Teleop Enabled,10,TRUE,-44087,NetComm_CAN_Receive.vi:5470027<APPEND>  <b>Complete call chain:</b>      NetComm_CAN_Receive.vi:5470027      WPI_CAN_PDPReceive.vi      WPI_Power Get PDP Currents.vi      Periodic Tasks.vi      Robot Main.vi,-0.000000,0.000000,-0.000000,0.000000,TRUE,FALSE,FALSE,TRUE,FALSE,FALSE,Disabled,0.000000,0.000000,0.000000,TRUE,-5.699875,-4.871506,0.000000,-0.137329,0.106842,0.000000,0.068000,-0.034000,0.071000,-0.010000,-0.490000,2.410000,-0.001866,Hold,0.893799,0.000000,Hold,-188.000000,2.000000,Suck,-1747.500000,1818.181818,Speed,-1762.500000,1818.181818,Speed,Off,On,0.000000,FALSE,0,,,,,0.000000,0.000000
08:30:27.523 PM 03/31/2016,Teleop Enabled,11,TRUE,-44087,NetComm_CAN_Receive.vi:5470027<APPEND>  <b>Complete call chain:</b>      NetComm_CAN_Receive.vi:5470027      WPI_CAN_PDPReceive.vi      WPI_Power Get PDP Currents.vi      Periodic Tasks.vi      Robot Main.vi,-0.000000,0.000000,-0.000000,0.000000,TRUE,FALSE,FALSE,TRUE,FALSE,FALSE,Disabled,0.000000,0.000000,0.000000,TRUE,-5.707886,-4.870407,0.000000,-0.115479,0.006790,0.000000,0.057000,-0.024000,0.069000,-0.020000,-0.450000,2.440000,-0.006734,Hold,0.893799,0.000000,Hold,-188.000000,2.000000,Suck,-1747.500000,1818.181818,Speed,-1762.500000,1818.181818,Speed,Off,On,0.000000,FALSE,0,,,,,0.000000,0.000000
08:30:27.623 PM 03/31/2016,Teleop Enabled,10,TRUE,-44087,NetComm_CAN_Receive.vi:5470027<APPEND>  <b>Complete call chain:</b>      NetComm_CAN_Receive.vi:5470027      WPI_CAN_PDPReceive.vi      WPI_Power Get PDP Currents.vi      Periodic Tasks.vi      Robot Main.vi,-0.000000,0.000000,-0.000000,0.000000,TRUE,FALSE,FALSE,TRUE,FALSE,FALSE,Disabled,0.000000,0.000000,0.000000,TRUE,-5.716583,-4.870163,0.000000,-0.101501,0.017670,0.000000,-0.125000,0.047000,0.035000,-0.020000,-0.460000,2.430000,-0.000434,Hold,0.893799,0.000000,Hold,-188.000000,2.000000,Suck,-1740.000000,1818.181818,Speed,-1755.000000,1818.181818,Speed,Off,On,0.000000,FALSE,0,,,,,0.000000,0.000000
08:30:27.724 PM 03/31/2016,Teleop Enabled,11,TRUE,-44087,NetComm_CAN_Receive.vi:5470027<APPEND>  <b>Complete call chain:</b>      NetComm_CAN_Receive.vi:5470027      WPI_CAN_PDPReceive.vi      WPI_Power Get PDP Currents.vi      Periodic Tasks.vi      Robot Main.vi,-0.000000,0.000000,-0.000000,0.000000,TRUE,FALSE,FALSE,TRUE,FALSE,FALSE,Disabled,0.000000,0.000000,0.000000,TRUE,-5.716583,-4.870163,0.000000,-0.101501,0.017670,0.000000,0.099000,-0.016000,0.041000,-0.010000,-0.510000,2.450000,-0.010008,Hold,0.893799,0.000000,Hold,-188.000000,2.000000,Suck,-1740.000000,1818.181818,Speed,-1755.000000,1818.181818,Speed,Off,On,0.000000,FALSE,0,,,,,0.000000,0.000000
08:30:27.824 PM 03/31/2016,Teleop Enabled,11,TRUE,-44087,NetComm_CAN_Receive.vi:5470027<APPEND>  <b>Complete call chain:</b>      NetComm_CAN_Receive.vi:5470027      WPI_CAN_PDPReceive.vi      WPI_Power Get PDP Currents.vi      Periodic Tasks.vi      Robot Main.vi,-0.000000,0.000000,-0.000000,0.000000,TRUE,FALSE,FALSE,TRUE,FALSE,FALSE,Disabled,0.000000,0.000000,0.000000,TRUE,-5.722626,-4.869675,0.000000,-0.101242,0.022598,0.000000,0.034000,0.045000,0.062000,-0.010000,-0.540000,2.480000,-0.010008,Hold,0.893799,0.000000,Hold,-187.000000,2.000000,Suck,-1740.000000,1818.181818,Speed,-1755.000000,1818.181818,Speed,Off,On,0.000000,FALSE,0,,,,,0.000000,0.000000
08:30:27.924 PM 03/31/2016,Teleop Enabled,11,TRUE,-44087,NetComm_CAN_Receive.vi:5470027<APPEND>  <b>Complete call chain:</b>      NetComm_CAN_Receive.vi:5470027      WPI_CAN_PDPReceive.vi      WPI_Power Get PDP Currents.vi      Periodic Tasks.vi      Robot Main.vi,-0.000000,0.000000,-0.000000,0.000000,TRUE,FALSE,FALSE,TRUE,FALSE,FALSE,Disabled,0.000000,0.000000,0.000000,TRUE,-5.727127,-4.868057,0.000000,-0.083817,0.040878,0.000000,-0.074000,0.012000,-0.012000,-0.010000,-0.540000,2.510000,-0.005832,Hold,0.894043,0.000000,Hold,-187.000000,2.000000,Suck,-1740.000000,1818.181818,Speed,-1762.500000,1818.181818,Speed,Off,On,0.000000,FALSE,0,,,,,0.000000,0.000000
08:30:28.023 PM 03/31/2016,Teleop Enabled,10,TRUE,-44087,NetComm_CAN_Receive.vi:5470027<APPEND>  <b>Complete call chain:</b>      NetComm_CAN_Receive.vi:5470027      WPI_CAN_PDPReceive.vi      WPI_Power Get PDP Currents.vi      Periodic Tasks.vi      Robot Main.vi,-0.000000,0.000000,-0.000000,0.000000,TRUE,FALSE,FALSE,TRUE,FALSE,FALSE,Disabled,0.000000,0.000000,0.000000,TRUE,-5.731125,-4.865509,0.000000,-0.081573,0.067032,0.000000,0.117000,-0.015000,0.144000,-0.010000,-0.490000,2.550000,0.004417,Hold,0.894043,0.000000,Hold,-186.000000,2.000000,Suck,-1725.000000,1818.181818,Speed,-1762.500000,1818.181818,Speed,Off,On,0.000000,FALSE,0,,,,,0.000000,0.000000
08:30:28.124 PM 03/31/2016,Teleop Enabled,10,TRUE,-44087,NetComm_CAN_Receive.vi:5470027<APPEND>  <b>Complete call chain:</b>      NetComm_CAN_Receive.vi:5470027      WPI_CAN_PDPReceive.vi      WPI_Power Get PDP Currents.vi      Periodic Tasks.vi      Robot Main.vi,-0.000000,0.000000,-0.000000,0.000000,TRUE,FALSE,FALSE,TRUE,FALSE,FALSE,Disabled,0.000000,0.000000,0.000000,TRUE,-5.734192,-4.862915,0.000000,-0.078262,0.077881,0.000000,-0.048000,0.019000,0.037000,-0.020000,-0.400000,2.590000,-0.004503,Hold,0.894043,0.000000,Hold,-186.000000,2.000000,Suck,-1732.500000,1818.181818,Speed,-1755.000000,1818.181818,Speed,Off,On,0.000000,FALSE,0,,,,,0.000000,0.000000
08:30:28.225 PM 03/31/2016,Teleop Enabled,11,TRUE,-44087,NetComm_CAN_Receive.vi:5470027<APPEND>  <b>Complete call chain:</b>      NetComm_CAN_Receive.vi:5470027      WPI_CAN_PDPReceive.vi      WPI_Power Get PDP Currents.vi      Periodic Tasks.vi      Robot Main.vi,-0.000000,0.000000,-0.000000,0.000000,TRUE,FALSE,FALSE,TRUE,FALSE,FALSE,Disabled,0.000000,0.000000,0.000000,TRUE,-5.737045,-4.857391,0.000000,-0.033600,0.082382,0.000000,0.065000,-0.058000,0.132000,-0.020000,-0.370000,2.550000,-0.009326,Hold,0.894043,0.000000,Hold,-185.000000,2.000000,Suck,-1732.500000,1818.181818,Speed,-1755.000000,1818.181818,Speed,Off,On,0.000000,FALSE,0,,,,,0.000000,0.000000
08:30:28.326 PM 03/31/2016,Teleop Enabled,9,TRUE,-44087,NetComm_CAN_Receive.vi:5470027<APPEND>  <b>Complete call chain:</b>      NetComm_CAN_Receive.vi:5470027      WPI_CAN_PDPReceive.vi      WPI_Power Get PDP Currents.vi      Periodic Tasks.vi      Robot Main.vi,-0.000000,0.000000,-0.000000,0.000000,TRUE,FALSE,FALSE,TRUE,FALSE,FALSE,Disabled,0.000000,0.000000,0.000000,TRUE,-5.738388,-4.852783,0.000000,-0.026306,0.088379,0.000000,-0.016000,0.082000,-0.049000,-0.010000,-0.480000,2.510000,-0.012727,Hold,0.894287,0.000000,Hold,-185.000000,2.000000,Suck,-1725.000000,1818.181818,Speed,-1755.000000,1818.181818,Speed,Off,On,0.000000,FALSE,0,,,,,0.000000,0.000000
08:30:28.427 PM 03/31/2016,Teleop Enabled,9,TRUE,-44087,NetComm_CAN_Receive.vi:5470027<APPEND>  <b>Complete call chain:</b>      NetComm_CAN_Receive.vi:5470027      WPI_CAN_PDPReceive.vi      WPI_Power Get PDP Currents.vi      Periodic Tasks.vi      Robot Main.vi,-0.000000,0.000000,-0.000000,0.000000,TRUE,FALSE,FALSE,TRUE,FALSE,FALSE,Disabled,0.000000,0.000000,0.000000,TRUE,-5.741913,-4.847046,0.000000,-0.077774,0.108749,0.000000,0.061000,-0.001000,-0.019000,-0.020000,-0.440000,2.540000,-0.004734,Hold,0.894287,0.000000,Hold,-185.000000,2.000000,Suck,-1725.000000,1818.181818,Speed,-1762.500000,1818.181818,Speed,Off,On,0.000000,FALSE,0,,,,,0.000000,0.000000
08:30:28.527 PM 03/31/2016,Teleop Enabled,9,TRUE,-44087,NetComm_CAN_Receive.vi:5470027<APPEND>  <b>Complete call chain:</b>      NetComm_CAN_Receive.vi:5470027      WPI_CAN_PDPReceive.vi      WPI_Power Get PDP Currents.vi      Periodic Tasks.vi      Robot Main.vi,-0.000000,0.000000,-0.000000,0.000000,TRUE,FALSE,FALSE,TRUE,FALSE,FALSE,Disabled,0.000000,0.000000,0.000000,TRUE,-5.745453,-4.843399,0.000000,-0.087616,0.095276,0.000000,0.065000,0.030000,0.099000,-0.020000,-0.440000,2.560000,0.004121,Hold,0.894287,0.000000,Hold,-185.000000,2.000000,Suck,-1717.500000,1818.181818,Speed,-1755.000000,1818.181818,Speed,Off,On,0.000000,FALSE,0,,,,,0.000000,0.000000
08:30:28.631 PM 03/31/2016,Teleop Enabled,9,TRUE,-44087,NetComm_CAN_Receive.vi:5470027<APPEND>  <b>Complete call chain:</b>      NetComm_CAN_Receive.vi:5470027      WPI_CAN_PDPReceive.vi      WPI_Power Get PDP Currents.vi      Periodic Tasks.vi      Robot Main.vi,-0.000000,0.000000,-0.000000,0.000000,TRUE,FALSE,FALSE,TRUE,FALSE,FALSE,Disabled,0.000000,0.000000,0.000000,TRUE,-5.749954,-4.837982,0.000000,-0.083054,0.101044,0.000000,-0.093000,-0.005000,0.088000,-0.020000,-0.370000,2.600000,0.012304,Hold,0.894287,0.000000,Hold,-185.000000,2.000000,Suck,-1740.000000,1818.181818,Speed,-1740.000000,1818.181818,Speed,Off,On,0.000000,FALSE,0,,,,,0.000000,0.000000
08:30:28.731 PM 03/31/2016,Teleop Enabled,9,TRUE,-44087,NetComm_CAN_Receive.vi:5470027<APPEND>  <b>Complete call chain:</b>      NetComm_CAN_Receive.vi:5470027      WPI_CAN_PDPReceive.vi      WPI_Power Get PDP Currents.vi      Periodic Tasks.vi      Robot Main.vi,-0.000000,0.000000,-0.000000,0.000000,TRUE,FALSE,FALSE,TRUE,FALSE,FALSE,Disabled,0.000000,0.000000,0.000000,TRUE,-5.754395,-4.836655,0.000000,-0.087204,0.026566,0.000000,-0.132000,0.035000,-0.062000,-0.020000,-0.340000,2.630000,0.024483,Hold,0.894287,0.000000,Hold,-184.000000,2.000000,Suck,-1762.500000,1818.181818,Speed,-1740.000000,1818.181818,Speed,Off,On,0.000000,FALSE,0,,,,,0.000000,0.000000
08:30:28.832 PM 03/31/2016,Teleop Enabled,9,TRUE,-44087,NetComm_CAN_Receive.vi:5470027<APPEND>  <b>Complete call chain:</b>      NetComm_CAN_Receive.vi:5470027      WPI_CAN_PDPReceive.vi      WPI_Power Get PDP Currents.vi      Periodic Tasks.vi      Robot Main.vi,-0.000000,0.000000,-0.000000,0.000000,TRUE,FALSE,FALSE,TRUE,FALSE,FALSE,Disabled,0.000000,0.000000,0.000000,TRUE,-5.759537,-4.834183,0.000000,-0.103317,0.062088,0.000000,-0.077000,-0.028000,0.039000,-0.020000,-0.320000,2.670000,0.032033,Hold,0.894531,0.000000,Hold,-184.000000,2.000000,Suck,-1755.000000,1818.181818,Speed,-1740.000000,1818.181818,Speed,Off,On,0.000000,FALSE,0,,,,,0.000000,0.000000
08:30:28.932 PM 03/31/2016,Teleop Enabled,9,TRUE,-44087,NetComm_CAN_Receive.vi:5470027<APPEND>  <b>Complete call chain:</b>      NetComm_CAN_Receive.vi:5470027      WPI_CAN_PDPReceive.vi      WPI_Power Get PDP Currents.vi      Periodic Tasks.vi      Robot Main.vi,-0.000000,0.000000,-0.000000,0.000000,TRUE,FALSE,FALSE,TRUE,FALSE,FALSE,Disabled,0.000000,0.000000,0.000000,TRUE,-5.765533,-4.831421,0.000000,-0.072464,0.025604,0.000000,0.017000,-0.144000,-0.050000,-0.020000,-0.220000,2.710000,0.036543,Hold,0.894531,0.000000,Hold,-184.000000,2.000000,Suck,-1725.000000,1818.181818,Speed,-1747.500000,1818.181818,Speed,Off,On,0.000000,FALSE,0,,,,,0.000000,0.000000
08:30:29.033 PM 03/31/2016,Teleop Enabled,9,TRUE,-44087,NetComm_CAN_Receive.vi:5470027<APPEND>  <b>Complete call chain:</b>      NetComm_CAN_Receive.vi:5470027      WPI_CAN_PDPReceive.vi      WPI_Power Get PDP Currents.vi      Periodic Tasks.vi      Robot Main.vi,-0.000000,0.000000,-0.000000,0.000000,TRUE,FALSE,FALSE,TRUE,FALSE,FALSE,Disabled,0.000000,0.000000,0.000000,TRUE,-5.768616,-4.832489,0.000000,-0.081680,-0.044327,0.000000,-0.031000,0.007000,0.113000,-0.030000,-0.200000,2.660000,0.029523,Hold,0.894531,0.000000,Hold,-184.000000,2.000000,Suck,-1725.000000,1818.181818,Speed,-1747.500000,1818.181818,Speed,Off,On,0.000000,FALSE,0,,,,,0.000000,0.000000
08:30:29.135 PM 03/31/2016,Teleop Enabled,9,TRUE,-44087,NetComm_CAN_Receive.vi:5470027<APPEND>  <b>Complete call chain:</b>      NetComm_CAN_Receive.vi:5470027      WPI_CAN_PDPReceive.vi      WPI_Power Get PDP Currents.vi      Periodic Tasks.vi      Robot Main.vi,-0.000000,0.000000,-0.000000,0.000000,TRUE,FALSE,FALSE,TRUE,FALSE,FALSE,Disabled,0.000000,0.000000,0.000000,TRUE,-5.773346,-4.834991,0.000000,-0.089539,-0.025986,0.000000,-0.104000,0.042000,0.037000,-0.030000,-0.170000,2.610000,0.036037,Hold,0.894531,58.000000,Hold,-184.000000,143360.000000,Suck,-1747.500000,1818.181818,Speed,-1740.000000,1818.181818,Speed,Off,On,0.000000,FALSE,0,,,,,0.000000,0.000000
08:30:29.236 PM 03/31/2016,Teleop Enabled,9,TRUE,-44087,NetComm_CAN_Receive.vi:5470027<APPEND>  <b>Complete call chain:</b>      NetComm_CAN_Receive.vi:5470027      WPI_CAN_PDPReceive.vi      WPI_Power Get PDP Currents.vi      Periodic Tasks.vi      Robot Main.vi,-0.000000,0.000000,-0.000000,0.000000,TRUE,FALSE,FALSE,TRUE,FALSE,FALSE,Disabled,0.000000,0.000000,0.000000,TRUE,-5.777466,-4.835388,0.000000,-0.102585,0.007004,0.000000,0.000000,-0.020000,0.023000,-0.030000,-0.130000,2.610000,0.035637,Hold,5.617676,58.000000,Hold,-9722.000000,143360.000000,Suck,-1732.500000,1818.181818,Speed,-1747.500000,1818.181818,Speed,Off,On,0.000000,FALSE,0,,,,,0.000000,0.000000
08:30:29.337 PM 03/31/2016,Teleop Enabled,11,TRUE,-44087,NetComm_CAN_Receive.vi:5470027<APPEND>  <b>Complete call chain:</b>      NetComm_CAN_Receive.vi:5470027      WPI_CAN_PDPReceive.vi      WPI_Power Get PDP Currents.vi      Periodic Tasks.vi      Robot Main.vi,-0.000000,0.000000,-0.000000,0.000000,TRUE,FALSE,FALSE,TRUE,FALSE,FALSE,Disabled,0.000000,0.000000,0.000000,TRUE,-5.782867,-4.834122,0.000000,-0.112518,0.044098,0.000000,-0.076000,0.087000,-0.069000,-0.010000,-0.080000,2.540000,0.038529,Hold,8.451904,58.000000,Hold,-9722.000000,143360.000000,Suck,-1717.500000,1818.181818,Speed,-1747.500000,1818.181818,Speed,Off,On,0.000000,FALSE,0,,,,,0.000000,0.000000
08:30:29.437 PM 03/31/2016,Teleop Enabled,9,TRUE,-44087,NetComm_CAN_Receive.vi:5470027<APPEND>  <b>Complete call chain:</b>      NetComm_CAN_Receive.vi:5470027      WPI_CAN_PDPReceive.vi      WPI_Power Get PDP Currents.vi      Periodic Tasks.vi      Robot Main.vi,-0.000000,0.000000,-0.000000,0.012833,TRUE,FALSE,FALSE,TRUE,FALSE,FALSE,Disabled,0.000000,0.000000,0.000000,TRUE,-5.789993,-4.830566,0.000000,-0.168823,0.080734,0.000000,0.152000,-0.065000,-0.051000,-0.060000,-0.080000,2.430000,-0.005969,Hold,15.290527,58.000000,Hold,-21276.000000,143360.000000,Suck,-1732.500000,1818.181818,Speed,-1755.000000,1818.181818,Speed,Off,On,0.000000,FALSE,0,,,,,0.000000,0.000000
08:30:29.537 PM 03/31/2016,Teleop Enabled,10,TRUE,-44087,NetComm_CAN_Receive.vi:5470027<APPEND>  <b>Complete call chain:</b>      NetComm_CAN_Receive.vi:5470027      WPI_CAN_PDPReceive.vi      WPI_Power Get PDP Currents.vi      Periodic Tasks.vi      Robot Main.vi,-0.000000,0.000000,-0.000000,0.051333,TRUE,FALSE,FALSE,TRUE,FALSE,FALSE,Disabled,0.000000,0.000000,0.000000,TRUE,-5.797791,-4.826309,0.000000,-0.156464,0.096222,0.000000,0.032000,-0.039000,-0.018000,-0.040000,-0.080000,2.570000,-0.017784,Hold,20.716553,58.000000,Hold,-31513.000000,143360.000000,Suck,-1740.000000,1818.181818,Speed,-1762.500000,1818.181818,Speed,Off,On,0.000000,FALSE,0,,,,,0.000000,0.000000
08:30:29.638 PM 03/31/2016,Teleop Enabled,11,TRUE,-44087,NetComm_CAN_Receive.vi:5470027<APPEND>  <b>Complete call chain:</b>      NetComm_CAN_Receive.vi:5470027      WPI_CAN_PDPReceive.vi      WPI_Power Get PDP Currents.vi      Periodic Tasks.vi      Robot Main.vi,-0.000000,0.006417,-0.000000,0.109083,TRUE,FALSE,FALSE,TRUE,FALSE,FALSE,Disabled,0.000000,0.000000,0.000000,TRUE,-5.804947,-4.821350,0.000000,-0.133514,0.099457,0.000000,0.036000,0.037000,-0.026000,-0.030000,-0.200000,2.570000,0.027974,Hold,28.291260,58.000000,Hold,-42140.000000,143360.000000,Suck,-1747.500000,1818.181818,Speed,-1755.000000,1818.181818,Speed,Off,On,0.000000,FALSE,0,,,,,0.000000,0.000000
08:30:29.739 PM 03/31/2016,Teleop Enabled,10,TRUE,-44087,NetComm_CAN_Receive.vi:5470027<APPEND>  <b>Complete call chain:</b>      NetComm_CAN_Receive.vi:5470027      WPI_CAN_PDPReceive.vi      WPI_Power Get PDP Currents.vi      Periodic Tasks.vi      Robot Main.vi,-0.000000,0.006417,-0.000000,0.102666,TRUE,FALSE,FALSE,TRUE,FALSE,FALSE,Disabled,0.000000,0.000000,0.000000,TRUE,-5.808975,-4.815445,0.000000,0.006531,0.099487,0.000000,0.081000,0.030000,0.011000,0.030000,-0.140000,2.560000,0.057150,Hold,36.948975,58.000000,Hold,-53724.000000,143360.000000,Suck,-1740.000000,1818.181818,Speed,-1740.000000,1818.181818,Speed,Off,On,0.000000,FALSE,0,,,,,0.000000,0.000000
08:30:29.839 PM 03/31/2016,Teleop Enabled,11,TRUE,-44087,NetComm_CAN_Receive.vi:5470027<APPEND>  <b>Complete call chain:</b>      NetComm_CAN_Receive.vi:5470027      WPI_CAN_PDPReceive.vi      WPI_Power Get PDP Currents.vi      Periodic Tasks.vi      Robot Main.vi,-0.000000,0.006417,-0.000000,0.096250,TRUE,FALSE,FALSE,TRUE,FALSE,FALSE,Disabled,0.000000,0.000000,0.000000,TRUE,-5.808823,-4.809143,0.000000,0.032333,0.123825,0.000000,0.081000,0.030000,0.011000,-0.080000,-0.580000,2.630000,0.015185,Hold,36.948975,58.000000,Hold,-66910.000000,143360.000000,Suck,-1747.500000,1818.181818,Speed,-1740.000000,1818.181818,Speed,Off,On,0.000000,FALSE,0,,,,,0.000000,0.000000
08:30:29.939 PM 03/31/2016,Teleop Enabled,11,TRUE,-44087,NetComm_CAN_Receive.vi:5470027<APPEND>  <b>Complete call chain:</b>      NetComm_CAN_Receive.vi:5470027      WPI_CAN_PDPReceive.vi      WPI_Power Get PDP Currents.vi      Periodic Tasks.vi      Robot Main.vi,-0.000000,-0.025667,-0.000000,-0.012833,TRUE,FALSE,FALSE,TRUE,FALSE,FALSE,Disabled,0.000000,0.000000,0.000000,TRUE,-5.803970,-4.803162,0.000000,0.114273,0.115097,0.000000,-0.019000,0.035000,0.112000,-0.050000,-0.730000,2.710000,-0.011987,Hold,59.191650,58.000000,Hold,-81157.000000,143360.000000,Suck,-1740.000000,1818.181818,Speed,-1755.000000,1818.181818,Speed,Off,On,0.000000,FALSE,0,,,,,0.000000,0.000000
08:30:30.039 PM 03/31/2016,Teleop Enabled,10,TRUE,-44087,NetComm_CAN_Receive.vi:5470027<APPEND>  <b>Complete call chain:</b>      NetComm_CAN_Receive.vi:5470027      WPI_CAN_PDPReceive.vi      WPI_Power Get PDP Currents.vi      Periodic Tasks.vi      Robot Main.vi,-0.000000,-0.121916,-0.000000,-0.186083,TRUE,FALSE,FALSE,TRUE,FALSE,FALSE,Disabled,0.000000,0.000000,0.000000,TRUE,-5.806839,-4.798386,0.000000,-0.140060,-0.008331,0.000000,-0.202000,-0.065000,0.038000,0.150000,-1.100000,2.660000,0.198298,Hold,64.454590,58.000000,Hold,-81157.000000,143360.000000,Suck,-1702.500000,1818.181818,Speed,-1747.500000,1818.181818,Speed,Off,On,0.000000,FALSE,0,,,,,0.000000,0.000000
08:30:30.140 PM 03/31/2016,Teleop Enabled,10,TRUE,-44087,NetComm_CAN_Receive.vi:5470027<APPEND>  <b>Complete call chain:</b>      NetComm_CAN_Receive.vi:5470027      WPI_CAN_PDPReceive.vi      WPI_Power Get PDP Currents.vi      Periodic Tasks.vi      Robot Main.vi,-0.000000,-0.115500,-0.000000,-0.077000,TRUE,FALSE,FALSE,TRUE,FALSE,FALSE,Disabled,0.000000,0.000000,0.000000,TRUE,-5.815750,-4.799454,0.000000,-0.162659,-0.035980,0.000000,0.067000,0.009000,-0.177000,0.000000,-1.270000,2.540000,0.144333,Hold,63.836182,58.000000,Hold,-95253.000000,143360.000000,Suck,-1695.000000,1818.181818,Speed,-1732.500000,1818.181818,Speed,Off,On,0.000000,FALSE,0,,,,,0.000000,0.000000
08:30:30.241 PM 03/31/2016,Teleop Enabled,14,TRUE,-44087,NetComm_CAN_Receive.vi:5470027<APPEND>  <b>Complete call chain:</b>      NetComm_CAN_Receive.vi:5470027      WPI_CAN_PDPReceive.vi      WPI_Power Get PDP Currents.vi      Periodic Tasks.vi      Robot Main.vi,-0.000000,-0.121916,-0.000000,-0.038500,TRUE,FALSE,FALSE,TRUE,FALSE,FALSE,Disabled,0.000000,0.000000,0.000000,TRUE,-5.822128,-4.800339,0.000000,-0.171906,-0.012680,0.000000,0.065000,-0.011000,0.139000,-0.180000,-0.820000,2.680000,-0.141093,Hold,63.836182,58.000000,Hold,-109796.000000,143360.000000,Suck,-1725.000000,1818.181818,Speed,-1740.000000,1818.181818,Speed,Off,On,0.000000,FALSE,0,,,,,0.000000,0.000000
08:30:30.341 PM 03/31/2016,Teleop Enabled,11,TRUE,-44087,NetComm_CAN_Receive.vi:5470027<APPEND>  <b>Complete call chain:</b>      NetComm_CAN_Receive.vi:5470027      WPI_CAN_PDPReceive.vi      WPI_Power Get PDP Currents.vi      Periodic Tasks.vi      Robot Main.vi,-0.000000,-0.115500,-0.000000,-0.032083,TRUE,FALSE,FALSE,TRUE,FALSE,FALSE,Disabled,0.000000,0.000000,0.000000,TRUE,-5.832825,-4.800110,0.000000,-0.139771,0.015198,0.000000,0.065000,-0.011000,0.139000,-0.130000,-0.850000,2.680000,-0.071123,Hold,61.939697,58.000000,Hold,-109796.000000,143360.000000,Suck,-1740.000000,1818.181818,Speed,-1747.500000,1818.181818,Speed,Off,On,0.000000,FALSE,0,,,,,0.000000,0.000000
08:30:30.441 PM 03/31/2016,Teleop Enabled,11,TRUE,-44087,NetComm_CAN_Receive.vi:5470027<APPEND>  <b>Complete call chain:</b>      NetComm_CAN_Receive.vi:5470027      WPI_CAN_PDPReceive.vi      WPI_Power Get PDP Currents.vi      Periodic Tasks.vi      Robot Main.vi,-0.000000,-0.115500,-0.000000,-0.038500,TRUE,FALSE,FALSE,TRUE,FALSE,FALSE,Disabled,0.000000,0.000000,0.000000,TRUE,-5.838852,-4.799927,0.000000,-0.157684,0.008713,0.000000,-0.141000,0.086000,-0.142000,-0.090000,-0.880000,2.640000,-0.046220,Hold,61.825928,58.000000,Hold,-139949.000000,143360.000000,Suck,-1740.000000,1818.181818,Speed,-1740.000000,1818.181818,Speed,Off,On,0.000000,FALSE,0,,,,,0.000000,0.000000
08:30:30.541 PM 03/31/2016,Teleop Enabled,11,TRUE,-44087,NetComm_CAN_Receive.vi:5470027<APPEND>  <b>Complete call chain:</b>      NetComm_CAN_Receive.vi:5470027      WPI_CAN_PDPReceive.vi      WPI_Power Get PDP Currents.vi      Periodic Tasks.vi      Robot Main.vi,-0.000000,-0.115500,-0.000000,-0.070583,TRUE,FALSE,FALSE,TRUE,FALSE,FALSE,Disabled,0.000000,0.000000,0.000000,TRUE,-5.843063,-4.798935,0.000000,0.019012,0.014069,0.000000,-0.378000,-0.165000,0.404000,-0.100000,-0.750000,2.790000,0.005264,Hold,61.820068,58.000000,Hold,-139949.000000,143360.000000,Suck,-1732.500000,1818.181818,Speed,-1725.000000,1818.181818,Speed,Off,On,0.000000,FALSE,0,,,,,0.000000,0.000000
08:30:30.641 PM 03/31/2016,Teleop Enabled,11,TRUE,-44087,NetComm_CAN_Receive.vi:5470027<APPEND>  <b>Complete call chain:</b>      NetComm_CAN_Receive.vi:5470027      WPI_CAN_PDPReceive.vi      WPI_Power Get PDP Currents.vi      Periodic Tasks.vi      Robot Main.vi,-0.000000,-0.115500,-0.000000,-0.089833,TRUE,FALSE,FALSE,TRUE,FALSE,FALSE,Disabled,0.000000,0.000000,0.000000,TRUE,-5.843918,-4.801025,0.000000,-0.016266,-0.021133,0.000000,0.092000,-0.092000,0.045000,-0.080000,-0.730000,2.700000,0.044406,Hold,61.820068,58.000000,Hold,-143631.000000,143360.000000,Suck,-1732.500000,1818.181818,Speed,-1725.000000,1818.181818,Speed,Off,On,0.000000,FALSE,0,,,,,0.000000,0.000000
08:30:30.741 PM 03/31/2016,Teleop Enabled,11,TRUE,-44087,NetComm_CAN_Receive.vi:5470027<APPEND>  <b>Complete call chain:</b>      NetComm_CAN_Receive.vi:5470027      WPI_CAN_PDPReceive.vi      WPI_Power Get PDP Currents.vi      Periodic Tasks.vi      Robot Main.vi,-0.000000,-0.115500,-0.000000,-0.038500,TRUE,FALSE,FALSE,TRUE,FALSE,FALSE,Disabled,0.000000,0.000000,0.000000,TRUE,-5.842712,-4.802994,0.000000,0.034454,-0.057434,0.000000,-0.053000,0.104000,-0.119000,-0.160000,-0.870000,2.650000,0.008699,Hold,61.817627,58.000000,Hold,-143592.000000,143360.000000,Suck,-1732.500000,1818.181818,Speed,-1725.000000,1818.181818,Speed,Off,On,0.000000,FALSE,0,,,,,0.000000,0.000000
08:30:30.841 PM 03/31/2016,Teleop Enabled,14,TRUE,-44087,NetComm_CAN_Receive.vi:5470027<APPEND>  <b>Complete call chain:</b>      NetComm_CAN_Receive.vi:5470027      WPI_CAN_PDPReceive.vi      WPI_Power Get PDP Currents.vi      Periodic Tasks.vi      Robot Main.vi,-0.000000,-0.115500,-0.000000,-0.044917,TRUE,FALSE,FALSE,TRUE,FALSE,FALSE,Disabled,0.000000,0.000000,0.000000,TRUE,-5.840515,-4.804840,0.000000,0.000000,-0.026703,0.000000,-0.053000,0.104000,-0.119000,-0.130000,-0.470000,2.610000,-0.000771,Hold,61.816162,58.000000,Hold,-143592.000000,143360.000000,Suck,-1732.500000,1818.181818,Speed,-1755.000000,1818.181818,Speed,Off,On,0.000000,FALSE,0,,,,,0.000000,0.000000
08:30:30.941 PM 03/31/2016,Teleop Enabled,12,TRUE,-44087,NetComm_CAN_Receive.vi:5470027<APPEND>  <b>Complete call chain:</b>      NetComm_CAN_Receive.vi:5470027      WPI_CAN_PDPReceive.vi      WPI_Power Get PDP Currents.vi      Periodic Tasks.vi      Robot Main.vi,-0.000000,-0.115500,-0.000000,-0.057750,TRUE,FALSE,FALSE,TRUE,FALSE,FALSE,Disabled,0.000000,0.000000,0.000000,TRUE,-5.840210,-4.806854,0.000000,0.012024,-0.060837,0.000000,0.010000,-0.080000,-0.049000,-0.140000,-0.580000,2.540000,0.064696,Hold,61.735352,58.000000,Hold,-143470.000000,143360.000000,Suck,-1747.500000,1818.181818,Speed,-1762.500000,1818.181818,Speed,Off,On,0.000000,FALSE,0,,,,,0.000000,0.000000
08:30:31.041 PM 03/31/2016,Teleop Enabled,11,TRUE,-44087,NetComm_CAN_Receive.vi:5470027<APPEND>  <b>Complete call chain:</b>      NetComm_CAN_Receive.vi:5470027      WPI_CAN_PDPReceive.vi      WPI_Power Get PDP Currents.vi      Periodic Tasks.vi      Robot Main.vi,-0.000000,-0.115500,-0.000000,-0.057750,TRUE,FALSE,FALSE,TRUE,FALSE,FALSE,Disabled,0.000000,0.000000,0.000000,TRUE,-5.838501,-4.807922,0.000000,0.047028,-0.037338,0.000000,-0.100000,0.001000,-0.100000,-0.180000,-0.580000,2.550000,0.011078,Hold,61.731689,58.000000,Hold,-143470.000000,143360.000000,Suck,-1755.000000,1818.181818,Speed,-1755.000000,1818.181818,Speed,Off,On,0.000000,FALSE,0,,,,,0.000000,0.000000
08:30:31.142 PM 03/31/2016,Teleop Enabled,8,TRUE,-44087,NetComm_CAN_Receive.vi:5470027<APPEND>  <b>Complete call chain:</b>      NetComm_CAN_Receive.vi:5470027      WPI_CAN_PDPReceive.vi      WPI_Power Get PDP Currents.vi      Periodic Tasks.vi      Robot Main.vi,-0.000000,-0.115500,-0.000000,-0.057750,TRUE,FALSE,FALSE,TRUE,FALSE,FALSE,Disabled,0.000000,0.000000,0.000000,TRUE,-5.837433,-4.809875,0.000000,0.007462,-0.055756,0.000000,0.037000,0.001000,-0.024000,-0.120000,-0.600000,2.510000,0.073967,Hold,61.731689,58.000000,Hold,-143470.000000,143360.000000,Suck,-1762.500000,1818.181818,Speed,-1747.500000,1818.181818,Speed,Off,On,0.000000,FALSE,0,,,,,0.000000,0.000000
08:30:31.242 PM 03/31/2016,Teleop Enabled,11,TRUE,-44087,NetComm_CAN_Receive.vi:5470027<APPEND>  <b>Complete call chain:</b>      NetComm_CAN_Receive.vi:5470027      WPI_CAN_PDPReceive.vi      WPI_Power Get PDP Currents.vi      Periodic Tasks.vi      Robot Main.vi,-0.000000,-0.115500,-0.000000,-0.057750,TRUE,FALSE,FALSE,TRUE,FALSE,FALSE,Disabled,0.000000,0.000000,0.000000,TRUE,-5.836487,-4.813171,0.000000,0.045868,-0.060043,0.000000,-0.039000,0.015000,-0.065000,-0.160000,-0.700000,2.510000,0.044860,Hold,61.731689,58.000000,Hold,-143471.000000,143360.000000,Suck,-1747.500000,1818.181818,Speed,-1740.000000,1818.181818,Speed,Off,On,0.000000,FALSE,0,,,,,0.000000,0.000000
08:30:31.343 PM 03/31/2016,Teleop Enabled,11,TRUE,-44087,NetComm_CAN_Receive.vi:5470027<APPEND>  <b>Complete call chain:</b>      NetComm_CAN_Receive.vi:5470027      WPI_CAN_PDPReceive.vi      WPI_Power Get PDP Currents.vi      Periodic Tasks.vi      Robot Main.vi,-0.000000,-0.115500,-0.000000,-0.057750,TRUE,FALSE,FALSE,TRUE,FALSE,FALSE,Disabled,0.000000,0.000000,0.000000,TRUE,-5.833618,-4.816849,0.000000,0.051743,-0.055527,0.000000,-0.039000,0.015000,-0.065000,-0.160000,-0.700000,2.510000,0.066972,Hold,61.731689,58.000000,Hold,-143471.000000,143360.000000,Suck,-1732.500000,1818.181818,Speed,-1725.000000,1818.181818,Speed,Off,On,0.000000,FALSE,0,,,,,0.000000,0.000000
08:30:31.443 PM 03/31/2016,Teleop Enabled,11,TRUE,-44087,NetComm_CAN_Receive.vi:5470027<APPEND>  <b>Complete call chain:</b>      NetComm_CAN_Receive.vi:5470027      WPI_CAN_PDPReceive.vi      WPI_Power Get PDP Currents.vi      Periodic Tasks.vi      Robot Main.vi,-0.000000,-0.115500,-0.000000,-0.057750,TRUE,FALSE,FALSE,TRUE,FALSE,FALSE,Disabled,0.000000,0.000000,0.000000,TRUE,-5.830185,-4.819687,0.000000,0.099289,-0.070679,0.000000,0.147000,-0.082000,-0.006000,-0.140000,-0.610000,2.460000,0.070638,Hold,61.731689,58.000000,Hold,-143471.000000,143360.000000,Suck,-1725.000000,1818.181818,Speed,-1732.500000,1818.181818,Speed,Off,On,0.000000,FALSE,0,,,,,0.000000,0.000000
08:30:31.544 PM 03/31/2016,Teleop Enabled,10,TRUE,-44087,NetComm_CAN_Receive.vi:5470027<APPEND>  <b>Complete call chain:</b>      NetComm_CAN_Receive.vi:5470027      WPI_CAN_PDPReceive.vi      WPI_Power Get PDP Currents.vi      Periodic Tasks.vi      Robot Main.vi,-0.000000,-0.115500,-0.000000,-0.057750,TRUE,FALSE,FALSE,TRUE,FALSE,FALSE,Disabled,0.000000,0.000000,0.000000,TRUE,-5.822006,-4.823441,0.000000,0.152603,-0.061035,0.000000,-0.046000,-0.037000,-0.079000,-0.150000,-0.570000,2.460000,0.088625,Hold,61.731689,58.000000,Hold,-143471.000000,143360.000000,Suck,-1725.000000,1818.181818,Speed,-1747.500000,1818.181818,Speed,Off,On,0.000000,FALSE,0,,,,,0.000000,0.000000
08:30:31.643 PM 03/31/2016,Teleop Enabled,11,TRUE,-44087,NetComm_CAN_Receive.vi:5470027<APPEND>  <b>Complete call chain:</b>      NetComm_CAN_Receive.vi:5470027      WPI_CAN_PDPReceive.vi      WPI_Power Get PDP Currents.vi      Periodic Tasks.vi      Robot Main.vi,-0.000000,-0.115500,-0.000000,-0.057750,TRUE,FALSE,FALSE,TRUE,FALSE,FALSE,Disabled,0.000000,0.000000,0.000000,TRUE,-5.817108,-4.826645,0.000000,0.119736,-0.092300,0.000000,0.035000,-0.079000,-0.023000,-0.150000,-0.680000,2.490000,0.085455,Hold,61.731689,58.000000,Hold,-143471.000000,143360.000000,Suck,-1725.000000,1818.181818,Speed,-1740.000000,1818.181818,Speed,Off,On,0.000000,FALSE,0,,,,,0.000000,0.000000
08:30:31.744 PM 03/31/2016,Teleop Enabled,11,TRUE,-44087,NetComm_CAN_Receive.vi:5470027<APPEND>  <b>Complete call chain:</b>      NetComm_CAN_Receive.vi:5470027      WPI_CAN_PDPReceive.vi      WPI_Power Get PDP Currents.vi      Periodic Tasks.vi      Robot Main.vi,-0.000000,-0.115500,-0.000000,-0.057750,TRUE,FALSE,FALSE,TRUE,FALSE,FALSE,Disabled,0.000000,0.000000,0.000000,TRUE,-5.811310,-4.834427,0.000000,0.083344,-0.156403,0.000000,-0.091000,-0.001000,-0.051000,-0.140000,-0.780000,2.520000,0.086198,Hold,61.731689,58.000000,Hold,-143471.000000,143360.000000,Suck,-1740.000000,1818.181818,Speed,-1740.000000,1818.181818,Speed,Off,On,0.000000,FALSE,0,,,,,0.000000,0.000000
08:30:31.844 PM 03/31/2016,Teleop Enabled,11,TRUE,-44087,NetComm_CAN_Receive.vi:5470027<APPEND>  <b>Complete call chain:</b>      NetComm_CAN_Receive.vi:5470027      WPI_CAN_PDPReceive.vi      WPI_Power Get PDP Currents.vi      Periodic Tasks.vi      Robot Main.vi,-0.000000,-0.115500,-0.000000,-0.057750,TRUE,FALSE,FALSE,TRUE,FALSE,FALSE,Disabled,0.000000,0.000000,0.000000,TRUE,-5.807266,-4.842072,0.000000,0.074600,-0.156952,0.000000,0.045000,-0.014000,-0.040000,-0.140000,-0.780000,2.510000,0.103587,Hold,61.731689,58.000000,Hold,-143471.000000,143360.000000,Suck,-1725.000000,1818.181818,Speed,-1740.000000,1818.181818,Speed,Off,On,0.000000,FALSE,0,,,,,0.000000,0.000000
08:30:31.945 PM 03/31/2016,Teleop Enabled,11,TRUE,-44087,NetComm_CAN_Receive.vi:5470027<APPEND>  <b>Complete call chain:</b>      NetComm_CAN_Receive.vi:5470027      WPI_CAN_PDPReceive.vi      WPI_Power Get PDP Currents.vi      Periodic Tasks.vi      Robot Main.vi,-0.000000,-0.115500,-0.000000,-0.057750,TRUE,FALSE,FALSE,TRUE,FALSE,FALSE,Disabled,0.000000,0.000000,0.000000,TRUE,-5.803223,-4.849991,0.000000,0.098999,-0.164871,0.000000,0.045000,-0.014000,-0.040000,-0.150000,-0.640000,2.470000,0.099566,Hold,61.731689,58.000000,Hold,-143471.000000,143360.000000,Suck,-1725.000000,1818.181818,Speed,-1747.500000,1818.181818,Speed,Off,On,0.000000,FALSE,0,,,,,0.000000,0.000000
08:30:32.045 PM 03/31/2016,Teleop Enabled,11,TRUE,-44087,NetComm_CAN_Receive.vi:5470027<APPEND>  <b>Complete call chain:</b>      NetComm_CAN_Receive.vi:5470027      WPI_CAN_PDPReceive.vi      WPI_Power Get PDP Currents.vi      Periodic Tasks.vi      Robot Main.vi,-0.000000,-0.115500,-0.000000,-0.057750,TRUE,FALSE,FALSE,TRUE,FALSE,FALSE,Disabled,0.000000,0.000000,0.000000,TRUE,-5.803223,-4.849991,0.000000,0.098999,-0.164871,0.000000,0.012000,0.067000,-0.111000,-0.150000,-0.640000,2.470000,0.098998,Hold,61.731689,58.000000,Hold,-143471.000000,143360.000000,Suck,-1740.000000,1818.181818,Speed,-1747.500000,1818.181818,Speed,Off,On,0.000000,FALSE,0,,,,,0.000000,0.000000
08:30:32.146 PM 03/31/2016,Teleop Enabled,11,TRUE,-44087,NetComm_CAN_Receive.vi:5470027<APPEND>  <b>Complete call chain:</b>      NetComm_CAN_Receive.vi:5470027      WPI_CAN_PDPReceive.vi      WPI_Power Get PDP Currents.vi      Periodic Tasks.vi      Robot Main.vi,-0.000000,-0.115500,-0.000000,-0.057750,TRUE,FALSE,FALSE,TRUE,FALSE,FALSE,Disabled,0.000000,0.000000,0.000000,TRUE,-5.790497,-4.862122,0.000000,0.179153,-0.118912,0.000000,0.068000,-0.023000,0.022000,-0.160000,-0.460000,2.440000,0.121894,Hold,61.731689,58.000000,Hold,-143471.000000,143360.000000,Suck,-1747.500000,1818.181818,Speed,-1740.000000,1818.181818,Speed,Off,On,0.000000,FALSE,0,,,,,0.000000,0.000000
08:30:32.247 PM 03/31/2016,Teleop Enabled,8,TRUE,-44087,NetComm_CAN_Receive.vi:5470027<APPEND>  <b>Complete call chain:</b>      NetComm_CAN_Receive.vi:5470027      WPI_CAN_PDPReceive.vi      WPI_Power Get PDP Currents.vi      Periodic Tasks.vi      Robot Main.vi,-0.000000,-0.115500,-0.000000,-0.057750,TRUE,FALSE,FALSE,TRUE,FALSE,FALSE,Disabled,0.000000,0.000000,0.000000,TRUE,-5.781525,-4.868622,0.000000,0.169235,-0.125534,0.000000,-0.068000,0.034000,-0.039000,-0.160000,-0.530000,2.460000,0.132167,Hold,61.731689,58.000000,Hold,-143471.000000,143360.000000,Suck,-1762.500000,1818.181818,Speed,-1762.500000,1818.181818,Speed,Off,On,0.000000,FALSE,0,,,,,0.000000,0.000000
08:30:32.347 PM 03/31/2016,Teleop Enabled,10,TRUE,-44087,NetComm_CAN_Receive.vi:5470027<APPEND>  <b>Complete call chain:</b>      NetComm_CAN_Receive.vi:5470027      WPI_CAN_PDPReceive.vi      WPI_Power Get PDP Currents.vi      Periodic Tasks.vi      Robot Main.vi,-0.000000,-0.115500,-0.000000,-0.057750,TRUE,FALSE,FALSE,TRUE,FALSE,FALSE,Disabled,0.000000,0.000000,0.000000,TRUE,-5.773346,-4.874008,0.000000,0.173233,-0.103851,0.000000,-0.012000,-0.050000,-0.055000,-0.160000,-0.630000,2.520000,0.140598,Hold,61.731689,58.000000,Hold,-143471.000000,143360.000000,Suck,-1755.000000,1818.181818,Speed,-1770.000000,1818.181818,Speed,Off,On,0.000000,FALSE,0,,,,,0.000000,0.000000
08:30:32.447 PM 03/31/2016,Teleop Enabled,9,TRUE,-44087,NetComm_CAN_Receive.vi:5470027<APPEND>  <b>Complete call chain:</b>      NetComm_CAN_Receive.vi:5470027      WPI_CAN_PDPReceive.vi      WPI_Power Get PDP Currents.vi      Periodic Tasks.vi      Robot Main.vi,-0.000000,-0.115500,-0.000000,-0.057750,TRUE,FALSE,FALSE,TRUE,FALSE,FALSE,Disabled,0.000000,0.000000,0.000000,TRUE,-5.773346,-4.874008,0.000000,0.173233,-0.103851,0.000000,-0.012000,-0.050000,-0.055000,-0.160000,-0.630000,2.520000,0.168362,Hold,61.731689,58.000000,Hold,-143471.000000,143360.000000,Suck,-1747.500000,1818.181818,Speed,-1762.500000,1818.181818,Speed,Off,On,0.000000,FALSE,0,,,,,0.000000,0.000000
08:30:32.549 PM 03/31/2016,Teleop Enabled,8,TRUE,-44087,NetComm_CAN_Receive.vi:5470027<APPEND>  <b>Complete call chain:</b>      NetComm_CAN_Receive.vi:5470027      WPI_CAN_PDPReceive.vi      WPI_Power Get PDP Currents.vi      Periodic Tasks.vi      Robot Main.vi,-0.000000,-0.115500,-0.000000,-0.057750,TRUE,FALSE,FALSE,TRUE,FALSE,FALSE,Disabled,0.000000,0.000000,0.000000,TRUE,-5.762650,-4.877289,0.000000,0.141647,0.026642,0.000000,0.109000,-0.011000,0.024000,-0.160000,-0.640000,2.500000,0.167814,Hold,61.731689,58.000000,Hold,-143471.000000,143360.000000,Suck,-1732.500000,1818.181818,Speed,-1770.000000,1818.181818,Speed,Off,On,0.000000,FALSE,0,,,,,0.000000,0.000000
08:30:32.651 PM 03/31/2016,Teleop Enabled,9,TRUE,-44087,NetComm_CAN_Receive.vi:5470027<APPEND>  <b>Complete call chain:</b>      NetComm_CAN_Receive.vi:5470027      WPI_CAN_PDPReceive.vi      WPI_Power Get PDP Currents.vi      Periodic Tasks.vi      Robot Main.vi,-0.000000,-0.115500,-0.000000,-0.057750,TRUE,FALSE,FALSE,TRUE,FALSE,FALSE,Disabled,0.000000,0.000000,0.000000,TRUE,-5.749786,-4.875717,0.000000,0.169296,0.026321,0.000000,0.053000,0.043000,0.028000,-0.150000,-0.710000,2.550000,0.192212,Hold,61.731689,58.000000,Hold,-143471.000000,143360.000000,Suck,-1725.000000,1818.181818,Speed,-1770.000000,1818.181818,Speed,Off,On,0.000000,FALSE,0,,,,,0.000000,0.000000
08:30:32.751 PM 03/31/2016,Teleop Enabled,10,TRUE,-44087,NetComm_CAN_Receive.vi:5470027<APPEND>  <b>Complete call chain:</b>      NetComm_CAN_Receive.vi:5470027      WPI_CAN_PDPReceive.vi      WPI_Power Get PDP Currents.vi      Periodic Tasks.vi      Robot Main.vi,-0.000000,-0.115500,-0.000000,-0.057750,TRUE,FALSE,FALSE,TRUE,FALSE,FALSE,Disabled,0.000000,0.000000,0.000000,TRUE,-5.741714,-4.873154,0.000000,0.180923,0.049881,0.000000,0.004000,0.072000,0.067000,-0.150000,-0.710000,2.550000,0.188397,Hold,61.731689,58.000000,Hold,-143471.000000,143360.000000,Suck,-1740.000000,1818.181818,Speed,-1762.500000,1818.181818,Speed,Off,On,0.000000,FALSE,0,,,,,0.000000,0.000000
08:30:32.851 PM 03/31/2016,Teleop Enabled,9,TRUE,-44087,NetComm_CAN_Receive.vi:5470027<APPEND>  <b>Complete call chain:</b>      NetComm_CAN_Receive.vi:5470027      WPI_CAN_PDPReceive.vi      WPI_Power Get PDP Currents.vi      Periodic Tasks.vi      Robot Main.vi,-0.000000,-0.115500,-0.000000,-0.057750,TRUE,FALSE,FALSE,TRUE,FALSE,FALSE,Disabled,0.000000,0.000000,0.000000,TRUE,-5.731522,-4.870529,0.000000,0.228546,0.056015,0.000000,0.006000,-0.012000,0.006000,-0.150000,-0.640000,2.560000,0.188928,Hold,61.731689,58.000000,Hold,-143471.000000,143360.000000,Suck,-1732.500000,1818.181818,Speed,-1747.500000,1818.181818,Speed,Off,On,0.000000,FALSE,0,,,,,0.000000,0.000000
08:30:32.953 PM 03/31/2016,Teleop Enabled,9,TRUE,-44087,NetComm_CAN_Receive.vi:5470027<APPEND>  <b>Complete call chain:</b>      NetComm_CAN_Receive.vi:5470027      WPI_CAN_PDPReceive.vi      WPI_Power Get PDP Currents.vi      Periodic Tasks.vi      Robot Main.vi,-0.000000,-0.115500,-0.000000,-0.057750,TRUE,FALSE,FALSE,TRUE,FALSE,FALSE,Disabled,0.000000,0.000000,0.000000,TRUE,-5.715637,-4.864609,0.000000,0.282913,0.109802,0.000000,0.041000,0.094000,0.021000,-0.160000,-0.450000,2.540000,0.191544,Hold,61.731689,58.000000,Hold,-143471.000000,143360.000000,Suck,-1747.500000,1818.181818,Speed,-1740.000000,1818.181818,Speed,Off,On,0.000000,FALSE,0,,,,,0.000000,0.000000
08:30:33.053 PM 03/31/2016,Teleop Enabled,9,TRUE,-44087,NetComm_CAN_Receive.vi:5470027<APPEND>  <b>Complete call chain:</b>      NetComm_CAN_Receive.vi:5470027      WPI_CAN_PDPReceive.vi      WPI_Power Get PDP Currents.vi      Periodic Tasks.vi      Robot Main.vi,-0.000000,-0.115500,-0.000000,-0.057750,TRUE,FALSE,FALSE,TRUE,FALSE,FALSE,Disabled,0.000000,0.000000,0.000000,TRUE,-5.702454,-4.859146,0.000000,0.267578,0.112411,0.000000,-0.157000,0.051000,0.048000,-0.160000,-0.450000,2.540000,0.187451,Hold,61.731445,58.000000,Hold,-143471.000000,143360.000000,Suck,-1740.000000,1818.181818,Speed,-1755.000000,1818.181818,Speed,Off,On,0.000000,FALSE,0,,,,,0.000000,0.000000
08:30:33.154 PM 03/31/2016,Teleop Enabled,9,TRUE,-44087,NetComm_CAN_Receive.vi:5470027<APPEND>  <b>Complete call chain:</b>      NetComm_CAN_Receive.vi:5470027      WPI_CAN_PDPReceive.vi      WPI_Power Get PDP Currents.vi      Periodic Tasks.vi      Robot Main.vi,-0.000000,-0.115500,-0.000000,-0.057750,TRUE,FALSE,FALSE,TRUE,FALSE,FALSE,Disabled,0.000000,0.000000,0.000000,TRUE,-5.696671,-4.852814,0.000000,0.006134,0.120316,0.000000,0.071000,-0.047000,0.044000,-0.170000,-0.310000,2.470000,0.176245,Hold,61.731445,58.000000,Hold,-143471.000000,143360.000000,Suck,-1725.000000,1818.181818,Speed,-1755.000000,1818.181818,Speed,Off,On,0.000000,FALSE,0,,,,,0.000000,0.000000
08:30:33.255 PM 03/31/2016,Teleop Enabled,9,TRUE,-44087,NetComm_CAN_Receive.vi:5470027<APPEND>  <b>Complete call chain:</b>      NetComm_CAN_Receive.vi:5470027      WPI_CAN_PDPReceive.vi      WPI_Power Get PDP Currents.vi      Periodic Tasks.vi      Robot Main.vi,-0.000000,-0.115500,-0.000000,-0.057750,TRUE,FALSE,FALSE,TRUE,FALSE,FALSE,Disabled,0.000000,0.000000,0.000000,TRUE,-5.696838,-4.846893,0.000000,-0.013947,0.116104,0.000000,0.071000,-0.047000,0.044000,-0.170000,-0.400000,2.510000,0.162354,Hold,61.731445,58.000000,Hold,-143471.000000,143360.000000,Suck,-1725.000000,1818.181818,Speed,-1755.000000,1818.181818,Speed,Off,On,0.000000,FALSE,0,,,,,0.000000,0.000000
08:30:33.357 PM 03/31/2016,Teleop Enabled,11,TRUE,-44087,NetComm_CAN_Receive.vi:5470027<APPEND>  <b>Complete call chain:</b>      NetComm_CAN_Receive.vi:5470027      WPI_CAN_PDPReceive.vi      WPI_Power Get PDP Currents.vi      Periodic Tasks.vi      Robot Main.vi,-0.000000,-0.115500,-0.000000,-0.057750,TRUE,FALSE,FALSE,TRUE,FALSE,FALSE,Disabled,0.000000,0.000000,0.000000,TRUE,-5.697357,-4.841629,0.000000,0.006317,0.100754,0.000000,-0.048000,-0.015000,-0.006000,-0.170000,-0.400000,2.510000,0.179419,Hold,61.731445,58.000000,Hold,-143471.000000,143360.000000,Suck,-1747.500000,1818.181818,Speed,-1755.000000,1818.181818,Speed,Off,On,0.000000,FALSE,0,,,,,0.000000,0.000000
08:30:33.459 PM 03/31/2016,Teleop Enabled,11,TRUE,-44087,NetComm_CAN_Receive.vi:5470027<APPEND>  <b>Complete call chain:</b>      NetComm_CAN_Receive.vi:5470027      WPI_CAN_PDPReceive.vi      WPI_Power Get PDP Currents.vi      Periodic Tasks.vi      Robot Main.vi,-0.000000,-0.115500,-0.000000,-0.057750,TRUE,FALSE,FALSE,TRUE,FALSE,FALSE,Disabled,0.000000,0.000000,0.000000,TRUE,-5.697189,-4.835449,0.000000,0.009888,0.133881,0.000000,0.092000,0.021000,-0.005000,-0.170000,-0.360000,2.450000,0.174634,Hold,61.731445,58.000000,Hold,-143471.000000,143360.000000,Suck,-1762.500000,1818.181818,Speed,-1762.500000,1818.181818,Speed,Off,On,0.000000,FALSE,0,,,,,0.000000,0.000000
08:30:33.559 PM 03/31/2016,Teleop Enabled,11,TRUE,-44087,NetComm_CAN_Receive.vi:5470027<APPEND>  <b>Complete call chain:</b>      NetComm_CAN_Receive.vi:5470027      WPI_CAN_PDPReceive.vi      WPI_Power Get PDP Currents.vi      Periodic Tasks.vi      Robot Main.vi,-0.000000,-0.115500,-0.000000,-0.057750,TRUE,FALSE,FALSE,TRUE,FALSE,FALSE,Disabled,0.000000,0.000000,0.000000,TRUE,-5.697189,-4.835449,0.000000,0.009888,0.133881,0.000000,0.092000,0.021000,-0.005000,-0.170000,-0.360000,2.450000,0.176713,Hold,61.731445,58.000000,Hold,-143471.000000,143360.000000,Suck,-1762.500000,1818.181818,Speed,-1762.500000,1818.181818,Speed,Off,On,0.000000,FALSE,0,,,,,0.000000,0.000000
08:30:33.660 PM 03/31/2016,Teleop Enabled,11,TRUE,-44087,NetComm_CAN_Receive.vi:5470027<APPEND>  <b>Complete call chain:</b>      NetComm_CAN_Receive.vi:5470027      WPI_CAN_PDPReceive.vi      WPI_Power Get PDP Currents.vi      Periodic Tasks.vi      Robot Main.vi,-0.000000,-0.115500,-0.000000,-0.057750,TRUE,FALSE,FALSE,TRUE,FALSE,FALSE,Disabled,0.000000,0.000000,0.000000,TRUE,-5.694763,-4.829163,0.000000,0.049911,0.086853,0.000000,0.040000,0.044000,0.062000,-0.180000,-0.320000,2.430000,0.191244,Hold,61.731445,58.000000,Hold,-143471.000000,143360.000000,Suck,-1755.000000,1818.181818,Speed,-1762.500000,1818.181818,Speed,Off,On,0.000000,FALSE,0,,,,,0.000000,0.000000
