Time,Robot Mode,Loop Time,Error Status,Error Code,Error Source,Left Motor Output,Left Motor Encoder,Right Motor Output,Right Motor Encoder,Is Level,Is Stalled,Ball Detector Photoeye,Vision Enabled,Vision Teleop Control,Vision Auto Control,Vision Current State,Vision X Output,Vision NavX Error,Vision NavX Target,NavX Connection Status,NavX Displacement X,NavX Displacement Y,NavX Displacement Z,NavX Velocity X,NavX Velocity Y,NavX Velocity Z,NavX Acceleration X,NavX Acceleration Y,NavX Acceleration Z,NavX Pitch,NavX Yaw,NavX Roll,Gyro Angle,Roller Arm State,Roller Arm Actual,Roller Arm Desired,Shooter Arm State,Shooter Arm Actual,Shooter Arm Desired,Shooter State,Actual RPM Left,Desired RPM Left,Control Mode Left,Actual RPM Right,Desired RPM Right,Scaler Motor Output,Auto To Run,Auto Current File,Auto File Status,Auto Current Command,Auto Trimmed Command
12:24:52.141 PM 03/20/2016,Teleop Enabled,10,TRUE,-44003,<LOCATION>WPI_CameraIssue HTTP Request with Authentication.vi<CALLSTACK>WPI_CameraIssue HTTP Request with Authentication.vi< <WPI_CameraIssue Get.vi< <WPI_CameraSet Image Appearance Property.vi< <WPI_CameraSet Image Size.vi< <Vision Processing.vi< <Robot Main.vi,-0.000000,11.164974,0.000000,5.980319,TRUE,FALSE,FALSE,FALSE,FALSE,FALSE,Disabled,0.000000,0.000000,0.000000,TRUE,0.031677,0.001434,0.000000,0.000000,0.000000,0.000000,0.000000,0.000000,0.030000,10.380000,0.300000,2.200000,13.203887,ResetBack,0.000000,-0.000049,ResetBack,-3.000000,-0.300000,Suck,-7.500000,2181.818182,Speed,0.000000,2181.818182,Speed,Off,On0.000000,20,,,,
12:24:52.241 PM 03/20/2016,Teleop Enabled,10,FALSE,0,NO ERROR,-0.000000,11.164974,0.000000,5.980319,TRUE,TRUE,FALSE,FALSE,FALSE,FALSE,Disabled,0.000000,0.000000,0.000000,TRUE,0.032181,0.001541,0.000000,0.018036,0.007050,0.000000,-0.061000,-0.017000,-0.010000,10.380000,0.320000,2.170000,13.217888,ResetBack,-0.313721,-0.000049,ResetBack,-3.000000,-0.300000,Suck,-495.000000,2181.818182,Speed,0.000000,2181.818182,Speed,Off,On0.000000,20,,,,
12:24:52.341 PM 03/20/2016,Teleop Enabled,10,FALSE,0,NO ERROR,-0.000000,11.164974,0.000000,5.980319,TRUE,FALSE,FALSE,FALSE,FALSE,FALSE,Disabled,0.000000,0.000000,0.000000,TRUE,0.031845,0.001678,0.000000,-0.015839,0.008102,0.000000,0.035000,-0.006000,0.023000,10.380000,0.310000,2.140000,13.226794,ResetBack,-2.036621,-0.000049,ResetBack,2777.000000,-0.300000,Suck,-1222.500000,0.000000,Speed,-427.500000,0.000000,Speed,Off,On0.000000,20,,,,
12:24:52.441 PM 03/20/2016,Teleop Enabled,11,FALSE,0,NO ERROR,-0.000000,11.164974,0.000000,5.980319,TRUE,FALSE,FALSE,FALSE,FALSE,FALSE,Disabled,0.000000,0.000000,0.000000,TRUE,0.031128,0.001450,0.000000,-0.010498,-0.015717,0.000000,0.049000,0.016000,0.028000,10.380000,0.320000,2.100000,13.212634,Reset,-2.409424,-0.000049,ResetBack,9662.000000,-0.300000,Suck,-1305.000000,2181.818182,Speed,-1185.000000,2181.818182,Speed,Off,On0.000000,20,,,,
12:24:52.542 PM 03/20/2016,Teleop Enabled,10,FALSE,0,NO ERROR,-0.000000,11.164974,0.000000,5.980319,TRUE,FALSE,FALSE,FALSE,FALSE,FALSE,Disabled,0.000000,0.000000,0.000000,TRUE,0.030655,0.001053,0.000000,-0.018829,0.001236,0.000000,0.064000,-0.035000,0.126000,10.390000,0.330000,2.050000,13.239948,Hold,-2.409424,0.000000,ResetBack,13369.000000,-0.300000,Suck,-1702.500000,2181.818182,Speed,-1245.000000,2181.818182,Speed,Off,On0.000000,20,,,,
12:24:52.642 PM 03/20/2016,Teleop Enabled,10,FALSE,0,NO ERROR,-0.000000,11.164974,0.000000,5.980319,TRUE,FALSE,FALSE,FALSE,FALSE,FALSE,Disabled,0.000000,0.000000,0.000000,TRUE,0.030624,0.001801,0.000000,0.018112,0.031067,0.000000,0.034000,0.066000,-0.013000,10.380000,0.250000,2.080000,13.227455,Hold,1.080566,0.000000,ResetBack,13945.000000,-0.300000,Suck,-1702.500000,2181.818182,Speed,-1755.000000,2181.818182,Speed,Off,On0.000000,20,,,,
12:24:52.742 PM 03/20/2016,Teleop Enabled,10,FALSE,0,NO ERROR,-0.000000,11.164974,0.000000,5.980319,TRUE,FALSE,FALSE,FALSE,FALSE,FALSE,Disabled,0.000000,0.000000,0.000000,TRUE,0.032135,0.004227,0.000000,0.041336,0.049637,0.000000,0.064000,-0.070000,0.118000,10.390000,0.260000,2.090000,13.246495,Hold,0.964111,0.000000,ResetBack,13945.000000,-0.300000,Suck,-2197.500000,2181.818182,Speed,-2242.500000,2181.818182,Speed,Off,On0.000000,20,,,,
12:24:52.842 PM 03/20/2016,Teleop Enabled,10,FALSE,0,NO ERROR,-0.000000,11.164974,0.000000,5.980319,TRUE,FALSE,FALSE,FALSE,FALSE,FALSE,Disabled,0.000000,0.000000,0.000000,TRUE,0.035156,0.004669,0.000000,0.056091,-0.000427,0.000000,0.009000,-0.023000,0.100000,10.380000,0.290000,2.090000,13.252465,Hold,0.942871,0.000000,ResetBack,15391.000000,-0.300000,Suck,-2190.000000,2181.818182,Speed,-2272.500000,2181.818182,Speed,Off,On0.000000,20,,,,
12:24:52.942 PM 03/20/2016,Teleop Enabled,10,FALSE,0,NO ERROR,-0.000000,11.164974,0.000000,5.980319,TRUE,FALSE,FALSE,FALSE,FALSE,FALSE,Disabled,0.000000,0.000000,0.000000,TRUE,0.037827,0.004883,0.000000,0.056152,0.014404,0.000000,-0.108000,-0.007000,0.052000,10.380000,0.310000,2.090000,13.252437,Hold,0.942871,0.000000,ResetBack,16212.000000,-0.300000,Suck,-2070.000000,2181.818182,Speed,-2077.500000,2181.818182,Speed,Off,On0.000000,20,,,,
12:24:53.042 PM 03/20/2016,Teleop Enabled,11,FALSE,0,NO ERROR,-0.000000,11.164974,0.000000,5.980319,TRUE,FALSE,FALSE,FALSE,FALSE,FALSE,Disabled,0.000000,0.000000,0.000000,TRUE,0.038116,0.004852,0.000000,-0.019104,0.004227,0.000000,0.055000,0.058000,0.067000,10.380000,0.360000,2.090000,13.243927,Hold,0.942871,0.000000,ResetBack,16212.000000,-0.300000,Suck,-2085.000000,2181.818182,Speed,-2070.000000,2181.818182,Speed,Off,On0.000000,20,,,,
12:24:53.142 PM 03/20/2016,Teleop Enabled,10,FALSE,0,NO ERROR,-0.000000,11.164974,0.000000,5.980319,TRUE,FALSE,FALSE,FALSE,FALSE,FALSE,Disabled,0.000000,0.000000,0.000000,TRUE,0.038712,0.006470,0.000000,0.035278,0.039688,0.000000,0.062000,0.059000,-0.021000,10.380000,0.310000,2.050000,13.276666,Hold,0.942871,0.000000,ResetBack,16212.000000,-0.300000,Suck,-2137.500000,2181.818182,Speed,-2152.500000,2181.818182,Speed,Off,On0.000000,20,,,,
12:24:53.242 PM 03/20/2016,Teleop Enabled,10,FALSE,0,NO ERROR,-0.000000,11.164974,0.000000,5.980319,TRUE,FALSE,FALSE,FALSE,FALSE,FALSE,Disabled,0.000000,0.000000,0.000000,TRUE,0.041687,0.007278,0.000000,0.072052,-0.006561,0.000000,-0.071000,0.013000,0.001000,10.380000,0.340000,2.080000,13.282449,Hold,0.942871,0.000000,ResetBack,16213.000000,-0.300000,Suck,-2130.000000,2181.818182,Speed,-2137.500000,2181.818182,Speed,Off,On0.000000,20,,,,
12:24:53.342 PM 03/20/2016,Teleop Enabled,9,FALSE,0,NO ERROR,-0.000000,11.164974,0.000000,5.980319,TRUE,FALSE,FALSE,FALSE,FALSE,FALSE,Disabled,0.000000,0.000000,0.000000,TRUE,0.043732,0.007080,0.000000,0.027817,-0.006180,0.000000,0.087000,-0.011000,0.108000,10.380000,0.290000,2.100000,13.286257,Hold,0.942871,0.000000,ResetBack,16219.000000,-0.300000,Suck,-2115.000000,2181.818182,Speed,-2092.500000,2181.818182,Speed,Off,On0.000000,20,,,,
12:24:53.442 PM 03/20/2016,Teleop Enabled,10,FALSE,0,NO ERROR,-0.000000,11.164974,0.000000,5.980319,TRUE,FALSE,FALSE,FALSE,FALSE,FALSE,Disabled,0.000000,0.000000,0.000000,TRUE,0.046265,0.007233,0.000000,0.073837,0.014664,0.000000,0.013000,0.009000,0.127000,10.380000,0.330000,2.150000,13.292805,Hold,0.942871,0.000000,Reset,16219.000000,2.000000,Suck,-2115.000000,2181.818182,Speed,-2107.500000,2181.818182,Speed,Off,On0.000000,20,,,,
12:24:53.542 PM 03/20/2016,Teleop Enabled,10,FALSE,0,NO ERROR,-0.000000,11.164974,0.000000,5.980319,TRUE,FALSE,FALSE,FALSE,FALSE,FALSE,Disabled,0.000000,0.000000,0.000000,TRUE,0.050491,0.006882,0.000000,0.060806,-0.020676,0.000000,-0.055000,0.025000,-0.005000,10.380000,0.270000,2.150000,13.305656,Hold,0.942871,0.000000,Hold,-87.000000,2.000000,Suck,-2115.000000,2181.818182,Speed,-2130.000000,2181.818182,Speed,Off,On0.000000,20,,,,
12:24:53.642 PM 03/20/2016,Teleop Enabled,9,FALSE,0,NO ERROR,-0.000000,11.164974,0.000000,5.980319,TRUE,FALSE,FALSE,FALSE,FALSE,FALSE,Disabled,0.000000,0.000000,0.000000,TRUE,0.051865,0.006134,0.000000,0.016052,-0.016724,0.000000,-0.055000,0.025000,-0.005000,10.380000,0.260000,2.170000,13.320703,Hold,0.942871,0.000000,Hold,-222.000000,2.000000,Suck,-2115.000000,2181.818182,Speed,-2130.000000,2181.818182,Speed,Off,On0.000000,20,,,,
12:24:53.742 PM 03/20/2016,Teleop Enabled,10,FALSE,0,NO ERROR,-0.000000,11.164974,0.000000,5.980319,TRUE,FALSE,FALSE,FALSE,FALSE,FALSE,Disabled,0.000000,0.000000,0.000000,TRUE,0.051056,0.006561,0.000000,-0.035141,0.000000,0.000000,-0.019000,0.011000,0.014000,10.380000,0.230000,2.140000,13.323075,Hold,0.942871,0.000000,Hold,-273.000000,2.000000,Suck,-2122.500000,2181.818182,Speed,-2122.500000,2181.818182,Speed,Off,On0.000000,20,,,,
12:24:53.842 PM 03/20/2016,Teleop Enabled,10,FALSE,0,NO ERROR,-0.000000,11.164974,0.000000,5.980319,TRUE,FALSE,FALSE,FALSE,FALSE,FALSE,Disabled,0.000000,0.000000,0.000000,TRUE,0.050873,0.007263,0.000000,0.013855,0.027176,0.000000,0.000000,0.024000,-0.043000,10.380000,0.230000,2.140000,13.321553,Hold,0.942871,0.000000,Hold,-273.000000,2.000000,Suck,-2122.500000,2181.818182,Speed,-2115.000000,2181.818182,Speed,Off,On0.000000,20,,,,
12:24:53.942 PM 03/20/2016,Teleop Enabled,9,FALSE,0,NO ERROR,-0.000000,11.164974,0.000000,5.980319,TRUE,FALSE,FALSE,FALSE,FALSE,FALSE,Disabled,0.000000,0.000000,0.000000,TRUE,0.051529,0.009659,0.000000,0.016678,0.045090,0.000000,0.000000,0.024000,-0.043000,10.380000,0.250000,2.180000,13.341806,Hold,0.942871,0.000000,Hold,-273.000000,2.000000,Suck,-2130.000000,2181.818182,Speed,-2130.000000,2181.818182,Speed,Off,On0.000000,20,,,,
12:24:54.042 PM 03/20/2016,Teleop Enabled,9,FALSE,0,NO ERROR,-0.000000,11.164974,0.000000,5.980319,TRUE,FALSE,FALSE,FALSE,FALSE,FALSE,Disabled,0.000000,0.000000,0.000000,TRUE,0.051727,0.010788,0.000000,0.007065,-0.011642,0.000000,-0.077000,0.049000,-0.062000,10.380000,0.250000,2.180000,13.341025,Hold,0.942871,0.000000,Hold,-273.000000,2.000000,Suck,-2115.000000,2181.818182,Speed,-2130.000000,2181.818182,Speed,Off,On0.000000,20,,,,
12:24:54.143 PM 03/20/2016,Teleop Enabled,10,FALSE,0,NO ERROR,-0.000000,11.164974,0.000000,5.980319,TRUE,FALSE,FALSE,FALSE,FALSE,FALSE,Disabled,0.000000,0.000000,0.000000,TRUE,0.051971,0.010361,0.000000,0.008591,-0.004669,0.000000,0.021000,0.023000,0.127000,10.370000,0.250000,2.230000,13.326249,Hold,0.942871,0.000000,Hold,-273.000000,2.000000,Suck,-2122.500000,2181.818182,Speed,-2122.500000,2181.818182,Speed,Off,On0.000000,20,,,,
12:24:54.244 PM 03/20/2016,Teleop Enabled,10,FALSE,0,NO ERROR,-0.000000,11.164974,0.000000,5.980319,TRUE,FALSE,FALSE,FALSE,FALSE,FALSE,Disabled,0.000000,0.000000,0.000000,TRUE,0.053558,0.010345,0.000000,0.039093,-0.000549,0.000000,0.021000,0.023000,0.127000,10.370000,0.250000,2.230000,13.327189,Hold,0.942871,0.000000,Hold,-273.000000,2.000000,Suck,-2137.500000,2181.818182,Speed,-2122.500000,2181.818182,Speed,Off,On0.000000,20,,,,
12:24:54.344 PM 03/20/2016,Teleop Enabled,10,FALSE,0,NO ERROR,-0.000000,11.164974,0.000000,5.980319,TRUE,FALSE,FALSE,FALSE,FALSE,FALSE,Disabled,0.000000,0.000000,0.000000,TRUE,0.054825,0.010376,0.000000,0.037399,-0.009323,0.000000,0.105000,-0.014000,0.107000,10.370000,0.240000,2.250000,13.321829,Hold,0.942871,0.000000,Hold,-273.000000,2.000000,Suck,-2130.000000,2181.818182,Speed,-2122.500000,2181.818182,Speed,Off,On0.000000,20,,,,
12:24:54.444 PM 03/20/2016,Teleop Enabled,11,FALSE,0,NO ERROR,-0.000000,11.164974,0.000000,5.980319,TRUE,FALSE,FALSE,FALSE,FALSE,FALSE,Disabled,0.000000,0.000000,0.000000,TRUE,0.056122,0.010437,0.000000,0.002151,0.002884,0.000000,0.105000,-0.014000,0.107000,10.380000,0.220000,2.290000,13.316520,Hold,0.942871,0.000000,Hold,-213.000000,2.000000,Suck,-2122.500000,2181.818182,Speed,-2122.500000,2181.818182,Speed,Off,On0.000000,20,,,,
12:24:54.544 PM 03/20/2016,Teleop Enabled,10,FALSE,0,NO ERROR,-0.000000,11.164974,0.000000,5.980319,TRUE,FALSE,FALSE,FALSE,FALSE,FALSE,Disabled,0.000000,0.000000,0.000000,TRUE,0.055161,0.010971,0.000000,-0.024002,0.000000,0.000000,-0.048000,0.044000,0.076000,10.380000,0.250000,2.250000,13.326607,Hold,0.942871,0.000000,Hold,-213.000000,2.000000,Suck,-2130.000000,2181.818182,Speed,-2122.500000,2181.818182,Speed,Off,On0.000000,20,,,,
12:24:54.644 PM 03/20/2016,Teleop Enabled,10,FALSE,0,NO ERROR,-0.000000,11.164974,0.000000,5.980319,TRUE,FALSE,FALSE,FALSE,FALSE,FALSE,Disabled,0.000000,0.000000,0.000000,TRUE,0.056290,0.010437,0.000000,0.070389,-0.015945,0.000000,0.029000,0.017000,0.091000,10.370000,0.290000,2.190000,13.342019,Hold,0.942871,0.000000,Hold,-274.000000,2.000000,Suck,-2137.500000,2181.818182,Speed,-2115.000000,2181.818182,Speed,Off,On0.000000,20,,,,
12:24:54.745 PM 03/20/2016,Teleop Enabled,10,FALSE,0,NO ERROR,-0.000000,11.164974,0.000000,5.980319,TRUE,FALSE,FALSE,FALSE,FALSE,FALSE,Disabled,0.000000,0.000000,0.000000,TRUE,0.060059,0.008392,0.000000,0.000000,-0.048935,0.000000,0.053000,-0.088000,-0.078000,10.380000,0.250000,2.160000,13.343761,Hold,0.942871,0.000000,Hold,-274.000000,2.000000,Suck,-2137.500000,2181.818182,Speed,-2122.500000,2181.818182,Speed,Off,On0.000000,20,,,,
12:24:54.845 PM 03/20/2016,Teleop Enabled,10,FALSE,0,NO ERROR,-0.000000,11.164974,0.000000,5.980319,TRUE,FALSE,FALSE,FALSE,FALSE,FALSE,Disabled,0.000000,0.000000,0.000000,TRUE,0.059280,0.005402,0.000000,-0.033752,-0.067322,0.000000,-0.001000,-0.029000,-0.060000,10.370000,0.330000,2.150000,13.359070,Hold,0.942871,0.000000,Hold,-274.000000,2.000000,Suck,-2137.500000,2181.818182,Speed,-2122.500000,2181.818182,Speed,Off,On0.000000,20,,,,
12:24:54.945 PM 03/20/2016,Teleop Enabled,10,FALSE,0,NO ERROR,-0.000000,11.164974,0.000000,5.980319,TRUE,FALSE,FALSE,FALSE,FALSE,FALSE,Disabled,0.000000,0.000000,0.000000,TRUE,0.058929,0.003677,0.000000,0.021667,-0.005096,0.000000,0.034000,-0.068000,0.009000,10.370000,0.290000,2.200000,13.353108,Hold,0.942871,0.000000,Hold,-274.000000,2.000000,Suck,-2122.500000,2181.818182,Speed,-2122.500000,2181.818182,Speed,Off,On0.000000,20,,,,
12:24:55.045 PM 03/20/2016,Teleop Enabled,10,FALSE,0,NO ERROR,-0.000000,11.164974,0.000000,5.980319,TRUE,FALSE,FALSE,FALSE,FALSE,FALSE,Disabled,0.000000,0.000000,0.000000,TRUE,0.060562,0.005600,0.000000,0.013077,0.067444,0.000000,0.119000,0.053000,0.149000,10.370000,0.300000,2.210000,13.344171,Hold,0.942871,0.000000,Hold,-240.000000,2.000000,Suck,-2130.000000,2181.818182,Speed,-2115.000000,2181.818182,Speed,Off,On0.000000,20,,,,
12:24:55.146 PM 03/20/2016,Teleop Enabled,10,FALSE,0,NO ERROR,-0.000000,11.164974,0.000000,5.980319,TRUE,FALSE,FALSE,FALSE,FALSE,FALSE,Disabled,0.000000,0.000000,0.000000,TRUE,0.060562,0.005600,0.000000,0.013077,0.067444,0.000000,-0.061000,0.059000,0.039000,10.370000,0.330000,2.250000,13.367846,Hold,0.942871,0.000000,Hold,-223.000000,2.000000,Suck,-2130.000000,2181.818182,Speed,-2115.000000,2181.818182,Speed,Off,On0.000000,20,,,,
12:24:55.246 PM 03/20/2016,Teleop Enabled,10,FALSE,0,NO ERROR,-0.000000,11.164974,0.000000,5.980319,TRUE,FALSE,FALSE,FALSE,FALSE,FALSE,Disabled,0.000000,0.000000,0.000000,TRUE,0.060806,0.011642,0.000000,0.003021,0.109482,0.000000,-0.065000,-0.044000,0.007000,10.370000,0.290000,2.230000,13.378163,Hold,0.942871,0.000000,Hold,-223.000000,2.000000,Suck,-2130.000000,2181.818182,Speed,-2122.500000,2181.818182,Speed,Off,On0.000000,20,,,,
12:24:55.347 PM 03/20/2016,Teleop Enabled,10,FALSE,0,NO ERROR,-0.000000,11.164974,0.000000,5.980319,TRUE,FALSE,FALSE,FALSE,FALSE,FALSE,Disabled,0.000000,0.000000,0.000000,TRUE,0.062012,0.020660,0.000000,0.007584,0.088608,0.000000,-0.023000,0.012000,-0.090000,10.370000,0.270000,2.240000,13.378163,Hold,0.942871,0.000000,Hold,-223.000000,2.000000,Suck,-2115.000000,2181.818182,Speed,-2122.500000,2181.818182,Speed,Off,On0.000000,20,,,,
12:24:55.449 PM 03/20/2016,Teleop Enabled,10,FALSE,0,NO ERROR,-0.000000,11.164974,0.000000,5.980319,TRUE,FALSE,FALSE,FALSE,FALSE,FALSE,Disabled,0.000000,0.000000,0.000000,TRUE,0.062012,0.020660,0.000000,0.007584,0.088608,0.000000,0.023000,-0.106000,0.067000,10.370000,0.240000,2.240000,13.389634,Hold,0.942871,0.000000,Hold,-223.000000,2.000000,Suck,-2130.000000,2181.818182,Speed,-2107.500000,2181.818182,Speed,Off,On0.000000,20,,,,
12:24:55.550 PM 03/20/2016,Teleop Enabled,10,FALSE,0,NO ERROR,-0.000000,11.164974,0.000000,5.980319,TRUE,FALSE,FALSE,FALSE,FALSE,FALSE,Disabled,0.000000,0.000000,0.000000,TRUE,0.063324,0.023911,0.000000,0.019836,0.041443,0.000000,-0.003000,-0.074000,-0.118000,10.370000,0.250000,2.260000,13.390615,Hold,0.942871,0.000000,Hold,-223.000000,2.000000,Suck,-2137.500000,2181.818182,Speed,-2115.000000,2181.818182,Speed,Off,On0.000000,20,,,,
12:24:55.650 PM 03/20/2016,Teleop Enabled,10,FALSE,0,NO ERROR,-0.000000,11.164974,0.000000,5.980319,TRUE,FALSE,FALSE,FALSE,FALSE,FALSE,Disabled,0.000000,0.000000,0.000000,TRUE,0.064819,0.024841,0.000000,0.054642,-0.003311,0.000000,0.082000,-0.024000,-0.143000,10.370000,0.270000,2.220000,13.381760,Hold,0.942871,0.000000,Hold,-223.000000,2.000000,Suck,-2137.500000,2181.818182,Speed,-2130.000000,2181.818182,Speed,Off,On0.000000,20,,,,
12:24:55.750 PM 03/20/2016,Teleop Enabled,10,FALSE,0,NO ERROR,-0.000000,11.164974,0.000000,5.980319,TRUE,FALSE,FALSE,FALSE,FALSE,FALSE,Disabled,0.000000,0.000000,0.000000,TRUE,0.066040,0.024857,0.000000,-0.016876,0.007095,0.000000,-0.108000,0.026000,0.066000,10.370000,0.270000,2.240000,13.387664,Hold,0.942871,0.000000,Hold,-223.000000,2.000000,Suck,-2130.000000,2181.818182,Speed,-2122.500000,2181.818182,Speed,Off,On0.000000,20,,,,
12:24:55.850 PM 03/20/2016,Teleop Enabled,10,FALSE,0,NO ERROR,-0.000000,11.164974,0.000000,5.980319,TRUE,FALSE,FALSE,FALSE,FALSE,FALSE,Disabled,0.000000,0.000000,0.000000,TRUE,0.062012,0.026642,0.000000,-0.114944,0.046265,0.000000,-0.031000,0.051000,0.136000,10.370000,0.210000,2.240000,13.393489,Hold,0.942871,0.000000,Hold,-223.000000,2.000000,Suck,-2137.500000,2181.818182,Speed,-2115.000000,2181.818182,Speed,Off,On0.000000,20,,,,
12:24:55.950 PM 03/20/2016,Teleop Enabled,10,FALSE,0,NO ERROR,-0.000000,11.164974,0.000000,5.980319,TRUE,FALSE,FALSE,FALSE,FALSE,FALSE,Disabled,0.000000,0.000000,0.000000,TRUE,0.055893,0.030518,0.000000,-0.121872,0.104767,0.000000,0.057000,0.039000,0.102000,10.370000,0.210000,2.240000,13.406027,Hold,0.942871,0.000000,Hold,-223.000000,2.000000,Suck,-2137.500000,2181.818182,Speed,-2115.000000,2181.818182,Speed,Off,On0.000000,20,,,,
12:24:56.050 PM 03/20/2016,Teleop Enabled,10,FALSE,0,NO ERROR,-0.000000,11.164974,0.000000,5.980319,TRUE,FALSE,FALSE,FALSE,FALSE,FALSE,Disabled,0.000000,0.000000,0.000000,TRUE,0.049362,0.037811,0.000000,-0.149368,0.164856,0.000000,0.036000,-0.082000,0.015000,10.370000,0.230000,2.260000,13.406698,Hold,0.942871,0.000000,Hold,-223.000000,2.000000,Suck,-2137.500000,2181.818182,Speed,-2122.500000,2181.818182,Speed,Off,On0.000000,20,,,,
12:24:56.150 PM 03/20/2016,Teleop Enabled,10,FALSE,0,NO ERROR,-0.000000,11.164974,0.000000,5.980319,TRUE,FALSE,FALSE,FALSE,FALSE,FALSE,Disabled,0.000000,0.000000,0.000000,TRUE,0.043518,0.044785,0.000000,0.000000,0.124451,0.000000,0.091000,-0.062000,0.056000,10.380000,0.200000,2.250000,13.407679,Hold,0.942871,0.000000,Hold,-223.000000,2.000000,Suck,-2130.000000,2181.818182,Speed,-2130.000000,2181.818182,Speed,Off,On0.000000,20,,,,
12:24:56.250 PM 03/20/2016,Teleop Enabled,10,FALSE,0,NO ERROR,-0.000000,11.164974,0.000000,5.980319,TRUE,FALSE,FALSE,FALSE,FALSE,FALSE,Disabled,0.000000,0.000000,0.000000,TRUE,0.045471,0.048660,0.000000,0.067093,0.050964,0.000000,-0.008000,-0.006000,-0.099000,10.370000,0.250000,2.270000,13.412737,Hold,0.942871,0.000000,Hold,-223.000000,2.000000,Suck,-2137.500000,2181.818182,Speed,-2122.500000,2181.818182,Speed,Off,On0.000000,20,,,,
12:24:56.350 PM 03/20/2016,Teleop Enabled,10,FALSE,0,NO ERROR,-0.000000,11.164974,0.000000,5.980319,TRUE,FALSE,FALSE,FALSE,FALSE,FALSE,Disabled,0.000000,0.000000,0.000000,TRUE,0.043701,0.049576,0.000000,-0.038773,-0.023270,0.000000,0.008000,-0.016000,0.123000,10.370000,0.210000,2.280000,13.434628,Hold,0.942871,0.000000,Hold,-223.000000,2.000000,Suck,-2130.000000,2181.818182,Speed,-2115.000000,2181.818182,Speed,Off,On0.000000,20,,,,
12:24:56.450 PM 03/20/2016,Teleop Enabled,10,FALSE,0,NO ERROR,-0.000000,11.164974,0.000000,5.980319,TRUE,FALSE,FALSE,FALSE,FALSE,FALSE,Disabled,0.000000,0.000000,0.000000,TRUE,0.042770,0.048157,0.000000,-0.002228,-0.027863,0.000000,-0.022000,0.068000,-0.031000,10.370000,0.240000,2.280000,13.438707,Hold,0.942871,0.000000,Hold,-223.000000,2.000000,Suck,-2122.500000,2181.818182,Speed,-2115.000000,2181.818182,Speed,Off,On0.000000,20,,,,
12:24:56.550 PM 03/20/2016,Teleop Enabled,10,FALSE,0,NO ERROR,-0.000000,11.164974,0.000000,5.980319,TRUE,FALSE,FALSE,FALSE,FALSE,FALSE,Disabled,0.000000,0.000000,0.000000,TRUE,0.042633,0.048248,0.000000,0.000000,0.039520,0.000000,-0.025000,0.063000,-0.031000,10.380000,0.210000,2.270000,13.437382,Hold,0.942871,0.000000,Hold,-223.000000,2.000000,Suck,-2137.500000,2181.818182,Speed,-2122.500000,2181.818182,Speed,Off,On0.000000,20,,,,
12:24:56.650 PM 03/20/2016,Teleop Enabled,10,FALSE,0,NO ERROR,-0.000000,11.164974,0.000000,5.980319,TRUE,FALSE,FALSE,FALSE,FALSE,FALSE,Disabled,0.000000,0.000000,0.000000,TRUE,0.042572,0.052048,0.000000,-0.007812,0.094009,0.000000,-0.037000,0.030000,0.028000,10.380000,0.250000,2.230000,13.451765,Hold,0.942871,0.000000,Hold,-223.000000,2.000000,Suck,-2137.500000,2181.818182,Speed,-2122.500000,2181.818182,Speed,Off,On0.000000,20,,,,
12:24:56.750 PM 03/20/2016,Teleop Enabled,10,FALSE,0,NO ERROR,-0.000000,11.164974,0.000000,5.980319,TRUE,FALSE,FALSE,FALSE,FALSE,FALSE,Disabled,0.000000,0.000000,0.000000,TRUE,0.040970,0.058807,0.000000,-0.047760,0.162781,0.000000,-0.057000,0.040000,0.071000,10.380000,0.270000,2.210000,13.473326,Hold,0.942871,0.000000,Hold,-223.000000,2.000000,Suck,-2137.500000,2181.818182,Speed,-2122.500000,2181.818182,Speed,Off,On0.000000,20,,,,
12:24:56.850 PM 03/20/2016,Teleop Enabled,10,FALSE,0,NO ERROR,-0.000000,11.164974,0.000000,5.980319,TRUE,FALSE,FALSE,FALSE,FALSE,FALSE,Disabled,0.000000,0.000000,0.000000,TRUE,0.037735,0.066391,0.000000,-0.058975,0.143005,0.000000,-0.007000,-0.015000,0.074000,10.370000,0.240000,2.220000,13.502797,Hold,0.942871,0.000000,Hold,-223.000000,2.000000,Suck,-2137.500000,2181.818182,Speed,-2115.000000,2181.818182,Speed,Off,On0.000000,20,,,,
12:24:56.950 PM 03/20/2016,Teleop Enabled,10,FALSE,0,NO ERROR,-0.000000,11.164974,0.000000,5.980319,TRUE,FALSE,FALSE,FALSE,FALSE,FALSE,Disabled,0.000000,0.000000,0.000000,TRUE,0.036713,0.073715,0.000000,-0.025772,0.138596,0.000000,-0.030000,-0.058000,0.027000,10.370000,0.290000,2.200000,13.513373,Hold,0.942871,0.000000,Hold,-223.000000,2.000000,Suck,-2137.500000,2181.818182,Speed,-2115.000000,2181.818182,Speed,Off,On0.000000,20,,,,
12:24:57.050 PM 03/20/2016,Teleop Enabled,10,FALSE,0,NO ERROR,-0.000000,11.164974,0.000000,5.980319,TRUE,FALSE,FALSE,FALSE,FALSE,FALSE,Disabled,0.000000,0.000000,0.000000,TRUE,0.034576,0.079422,0.000000,0.000000,0.085098,0.000000,-0.011000,-0.084000,0.029000,10.380000,0.200000,2.200000,13.504722,Hold,0.942871,0.000000,Hold,-223.000000,2.000000,Suck,-2137.500000,2181.818182,Speed,-2122.500000,2181.818182,Speed,Off,On0.000000,20,,,,
12:24:57.150 PM 03/20/2016,Teleop Enabled,10,FALSE,0,NO ERROR,-0.000000,11.164974,0.000000,5.980319,TRUE,FALSE,FALSE,FALSE,FALSE,FALSE,Disabled,0.000000,0.000000,0.000000,TRUE,0.035049,0.082001,0.000000,0.038544,0.025833,0.000000,0.116000,-0.069000,0.033000,10.380000,0.220000,2.200000,13.504539,Hold,0.942871,0.000000,Hold,-223.000000,2.000000,Suck,-2137.500000,2181.818182,Speed,-2122.500000,2181.818182,Speed,Off,On0.000000,20,,,,
12:24:57.250 PM 03/20/2016,Teleop Enabled,10,FALSE,0,NO ERROR,-0.000000,11.164974,0.000000,5.980319,TRUE,FALSE,FALSE,FALSE,FALSE,FALSE,Disabled,0.000000,0.000000,0.000000,TRUE,0.038330,0.081482,0.000000,0.060684,-0.000778,0.000000,-0.107000,0.043000,-0.073000,10.380000,0.240000,2.190000,13.495761,Hold,0.942871,0.000000,Hold,-223.000000,2.000000,Suck,-2130.000000,2181.818182,Speed,-2122.500000,2181.818182,Speed,Off,On0.000000,20,,,,
12:24:57.350 PM 03/20/2016,Teleop Enabled,10,FALSE,0,NO ERROR,-0.000000,11.164974,0.000000,5.980319,TRUE,FALSE,FALSE,FALSE,FALSE,FALSE,Disabled,0.000000,0.000000,0.000000,TRUE,0.039062,0.082031,0.000000,-0.003967,0.005753,0.000000,-0.050000,0.012000,0.103000,10.380000,0.230000,2.150000,13.503355,Hold,0.942871,0.000000,Hold,-223.000000,2.000000,Suck,-2137.500000,2181.818182,Speed,-2115.000000,2181.818182,Speed,Off,On0.000000,20,,,,
12:24:57.450 PM 03/20/2016,Teleop Enabled,9,FALSE,0,NO ERROR,-0.000000,11.164974,0.000000,5.980319,TRUE,FALSE,FALSE,FALSE,FALSE,FALSE,Disabled,0.000000,0.000000,0.000000,TRUE,0.038483,0.082275,0.000000,-0.011597,0.016205,0.000000,0.064000,0.021000,0.060000,10.380000,0.280000,2.110000,13.531997,Hold,0.942871,0.000000,Hold,-223.000000,2.000000,Suck,-2145.000000,2181.818182,Speed,-2122.500000,2181.818182,Speed,Off,On0.000000,20,,,,
12:24:57.550 PM 03/20/2016,Teleop Enabled,9,FALSE,0,NO ERROR,-0.000000,11.164974,0.000000,5.980319,TRUE,FALSE,FALSE,FALSE,FALSE,FALSE,Disabled,0.000000,0.000000,0.000000,TRUE,0.038391,0.084106,0.000000,0.022766,0.039917,0.000000,0.107000,0.004000,0.017000,10.380000,0.270000,2.120000,13.552897,Hold,0.942871,0.000000,Hold,-223.000000,2.000000,Suck,-2137.500000,2181.818182,Speed,-2122.500000,2181.818182,Speed,Off,On0.000000,20,,,,
12:24:57.650 PM 03/20/2016,Teleop Enabled,10,FALSE,0,NO ERROR,-0.000000,11.164974,0.000000,5.980319,TRUE,FALSE,FALSE,FALSE,FALSE,FALSE,Disabled,0.000000,0.000000,0.000000,TRUE,0.043030,0.083862,0.000000,0.092484,-0.007645,0.000000,0.052000,-0.051000,-0.012000,10.380000,0.230000,2.150000,13.551117,Hold,0.942871,0.000000,Hold,-223.000000,2.000000,Suck,-2137.500000,2181.818182,Speed,-2122.500000,2181.818182,Speed,Off,On0.000000,20,,,,
12:24:57.750 PM 03/20/2016,Teleop Enabled,9,FALSE,0,NO ERROR,-0.000000,11.164974,0.000000,5.980319,TRUE,FALSE,FALSE,FALSE,FALSE,FALSE,Disabled,0.000000,0.000000,0.000000,TRUE,0.046341,0.083237,0.000000,0.067673,-0.009399,0.000000,-0.071000,-0.044000,0.050000,10.380000,0.270000,2.140000,13.548979,Hold,0.942871,0.000000,Hold,-223.000000,2.000000,Suck,-2137.500000,2181.818182,Speed,-2122.500000,2181.818182,Speed,Off,On0.000000,20,,,,
12:24:57.850 PM 03/20/2016,Teleop Enabled,10,FALSE,0,NO ERROR,-0.000000,11.164974,0.000000,5.980319,TRUE,FALSE,FALSE,FALSE,FALSE,FALSE,Disabled,0.000000,0.000000,0.000000,TRUE,0.048660,0.082397,0.000000,0.061081,-0.029816,0.000000,0.053000,-0.015000,0.048000,10.380000,0.230000,2.130000,13.553747,Hold,0.942871,0.000000,Hold,-223.000000,2.000000,Suck,-2145.000000,2181.818182,Speed,-2122.500000,2181.818182,Speed,Off,On0.000000,20,,,,
12:24:57.951 PM 03/20/2016,Teleop Enabled,12,FALSE,0,NO ERROR,-0.000000,11.164974,0.000000,5.980319,TRUE,FALSE,FALSE,FALSE,FALSE,FALSE,Disabled,0.000000,0.000000,0.000000,TRUE,0.053589,0.082581,0.000000,0.119003,0.013031,0.000000,-0.022000,0.111000,0.077000,10.380000,0.280000,2.100000,13.553833,Hold,0.942871,0.000000,Hold,-223.000000,2.000000,Suck,-2137.500000,2181.818182,Speed,-2122.500000,2181.818182,Speed,Off,On0.000000,20,,,,
12:24:58.051 PM 03/20/2016,Teleop Enabled,10,FALSE,0,NO ERROR,-0.000000,11.164974,0.000000,5.980319,TRUE,FALSE,FALSE,FALSE,FALSE,FALSE,Disabled,0.000000,0.000000,0.000000,TRUE,0.058441,0.085373,0.000000,0.072495,0.072342,0.000000,-0.031000,0.046000,0.123000,10.380000,0.280000,2.140000,13.558887,Hold,0.942871,0.000000,Hold,-223.000000,2.000000,Suck,-2137.500000,2181.818182,Speed,-2122.500000,2181.818182,Speed,Off,On0.000000,20,,,,
12:24:58.152 PM 03/20/2016,Teleop Enabled,9,FALSE,0,NO ERROR,-0.000000,11.164974,0.000000,5.980319,TRUE,FALSE,FALSE,FALSE,FALSE,FALSE,Disabled,0.000000,0.000000,0.000000,TRUE,0.061081,0.090302,0.000000,0.048203,0.115967,0.000000,-0.032000,0.027000,0.118000,10.380000,0.230000,2.130000,13.566688,Hold,0.942871,0.000000,Hold,-223.000000,2.000000,Suck,-2137.500000,2181.818182,Speed,-2122.500000,2181.818182,Speed,Off,On0.000000,20,,,,
12:24:58.252 PM 03/20/2016,Teleop Enabled,10,FALSE,0,NO ERROR,-0.000000,11.164974,0.000000,5.980319,TRUE,FALSE,FALSE,FALSE,FALSE,FALSE,Disabled,0.000000,0.000000,0.000000,TRUE,0.064957,0.097168,0.000000,0.078339,0.099762,0.000000,-0.023000,-0.033000,-0.067000,10.380000,0.250000,2.160000,13.570061,Hold,0.942871,0.000000,Hold,-223.000000,2.000000,Suck,-2130.000000,2181.818182,Speed,-2122.500000,2181.818182,Speed,Off,On0.000000,20,,,,
12:24:58.352 PM 03/20/2016,Teleop Enabled,10,FALSE,0,NO ERROR,-0.000000,11.164974,0.000000,5.980319,TRUE,FALSE,FALSE,FALSE,FALSE,FALSE,Disabled,0.000000,0.000000,0.000000,TRUE,0.066254,0.101257,0.000000,-0.007538,0.070755,0.000000,-0.032000,-0.013000,0.012000,10.380000,0.180000,2.140000,13.576038,Hold,0.942871,0.000000,Hold,-223.000000,2.000000,Suck,-2145.000000,2181.818182,Speed,-2122.500000,2181.818182,Speed,Off,On0.000000,20,,,,
12:24:58.452 PM 03/20/2016,Teleop Enabled,10,FALSE,0,NO ERROR,-0.000000,11.164974,0.000000,5.980319,TRUE,FALSE,FALSE,FALSE,FALSE,FALSE,Disabled,0.000000,0.000000,0.000000,TRUE,0.064545,0.103561,0.000000,-0.061127,0.031433,0.000000,-0.033000,0.005000,0.036000,10.380000,0.250000,2.150000,13.581260,Hold,0.942871,0.000000,Hold,-223.000000,2.000000,Suck,-2152.500000,2181.818182,Speed,-2122.500000,2181.818182,Speed,Off,On0.000000,20,,,,
12:24:58.552 PM 03/20/2016,Teleop Enabled,11,FALSE,0,NO ERROR,-0.000000,11.164974,0.000000,5.980319,TRUE,FALSE,FALSE,FALSE,FALSE,FALSE,Disabled,0.000000,0.000000,0.000000,TRUE,0.060638,0.103821,0.000000,-0.073776,-0.012238,0.000000,0.073000,-0.059000,-0.036000,10.370000,0.260000,2.140000,13.582042,Hold,0.942871,0.000000,Hold,-223.000000,2.000000,Suck,-2122.500000,2181.818182,Speed,-2115.000000,2181.818182,Speed,Off,On0.000000,20,,,,
12:24:58.653 PM 03/20/2016,Teleop Enabled,10,FALSE,0,NO ERROR,-0.000000,11.164974,0.000000,5.980319,TRUE,FALSE,FALSE,FALSE,FALSE,FALSE,Disabled,0.000000,0.000000,0.000000,TRUE,0.059326,0.103363,0.000000,-0.005630,0.000000,0.000000,0.020000,0.069000,0.063000,10.370000,0.300000,2.150000,13.586307,Hold,0.942871,0.000000,Hold,-223.000000,2.000000,Suck,-2130.000000,2181.818182,Speed,-2122.500000,2181.818182,Speed,Off,On0.000000,20,,,,
12:24:58.753 PM 03/20/2016,Teleop Enabled,11,FALSE,0,NO ERROR,-0.000000,11.164974,0.000000,5.980319,TRUE,FALSE,FALSE,FALSE,FALSE,FALSE,Disabled,0.000000,0.000000,0.000000,TRUE,0.058105,0.105270,0.000000,-0.048447,0.069504,0.000000,-0.020000,0.091000,0.077000,10.370000,0.280000,2.170000,13.589267,Hold,0.942871,0.000000,Hold,-223.000000,2.000000,Suck,-2152.500000,2181.818182,Speed,-2122.500000,2181.818182,Speed,Off,On0.000000,20,,,,
12:24:58.853 PM 03/20/2016,Teleop Enabled,11,FALSE,0,NO ERROR,-0.000000,11.164974,0.000000,5.980319,TRUE,FALSE,FALSE,FALSE,FALSE,FALSE,Disabled,0.000000,0.000000,0.000000,TRUE,0.054977,0.111938,0.000000,-0.066208,0.172409,0.000000,-0.080000,0.013000,0.036000,10.370000,0.290000,2.170000,13.591027,Hold,0.942871,0.000000,Hold,-223.000000,2.000000,Suck,-2145.000000,2181.818182,Speed,-2122.500000,2181.818182,Speed,Off,On0.000000,20,,,,
12:24:58.955 PM 03/20/2016,Teleop Enabled,13,FALSE,0,NO ERROR,-0.000000,11.164974,0.000000,5.980319,TRUE,FALSE,FALSE,FALSE,FALSE,FALSE,Disabled,0.000000,0.000000,0.000000,TRUE,0.050156,0.121307,0.000000,-0.097565,0.203033,0.000000,0.099000,0.032000,0.180000,10.370000,0.270000,2.120000,13.581012,Hold,0.942871,0.000000,Hold,-223.000000,2.000000,Suck,-2137.500000,2181.818182,Speed,-2122.500000,2181.818182,Speed,Off,On0.000000,20,,,,
12:24:59.057 PM 03/20/2016,Teleop Enabled,10,FALSE,0,NO ERROR,-0.000000,11.164974,0.000000,5.980319,TRUE,FALSE,FALSE,FALSE,FALSE,FALSE,Disabled,0.000000,0.000000,0.000000,TRUE,0.045944,0.132858,0.000000,-0.084381,0.237427,0.000000,-0.031000,0.049000,0.047000,10.370000,0.310000,2.070000,13.592720,Hold,0.942871,0.000000,Hold,-223.000000,2.000000,Suck,-2152.500000,2181.818182,Speed,-2122.500000,2181.818182,Speed,Off,On0.000000,20,,,,
12:24:59.157 PM 03/20/2016,Teleop Enabled,10,FALSE,0,NO ERROR,-0.000000,11.164974,0.000000,5.980319,TRUE,FALSE,FALSE,FALSE,FALSE,FALSE,Disabled,0.000000,0.000000,0.000000,TRUE,0.040909,0.144577,0.000000,-0.128891,0.219727,0.000000,-0.025000,-0.105000,-0.003000,10.370000,0.340000,2.100000,13.589756,Hold,0.942871,0.000000,Hold,-223.000000,2.000000,Suck,-2145.000000,2181.818182,Speed,-2115.000000,2181.818182,Speed,Off,On0.000000,20,,,,
12:24:59.257 PM 03/20/2016,Teleop Enabled,10,FALSE,0,NO ERROR,-0.000000,11.164974,0.000000,5.980319,TRUE,FALSE,FALSE,FALSE,FALSE,FALSE,Disabled,0.000000,0.000000,0.000000,TRUE,0.032608,0.153641,0.000000,-0.192581,0.164780,0.000000,0.112000,-0.120000,-0.077000,10.370000,0.250000,2.120000,13.610264,Hold,0.942871,0.000000,Hold,-223.000000,2.000000,Suck,-2122.500000,2181.818182,Speed,-2122.500000,2181.818182,Speed,Off,On0.000000,20,,,,
12:24:59.357 PM 03/20/2016,Teleop Enabled,11,FALSE,0,NO ERROR,-0.000000,11.164974,0.000000,5.980319,TRUE,FALSE,FALSE,FALSE,FALSE,FALSE,Disabled,0.000000,0.000000,0.000000,TRUE,0.025467,0.159042,0.000000,-0.123505,0.091995,0.000000,-0.056000,0.000000,0.011000,10.370000,0.330000,2.110000,13.616075,Hold,0.942871,0.000000,Hold,-223.000000,2.000000,Suck,-2145.000000,2181.818182,Speed,-2122.500000,2181.818182,Speed,Off,On0.000000,20,,,,
12:24:59.457 PM 03/20/2016,Teleop Enabled,10,FALSE,0,NO ERROR,-0.251969,11.164974,-0.251969,5.980319,TRUE,FALSE,FALSE,FALSE,FALSE,FALSE,Disabled,0.000000,0.000000,0.000000,TRUE,0.015518,0.164200,0.000000,-0.212616,0.097595,0.000000,-0.108000,0.029000,0.076000,10.370000,0.260000,2.140000,13.598617,Hold,0.942871,0.000000,Hold,-223.000000,2.000000,Suck,-2152.500000,2181.818182,Speed,-2115.000000,2181.818182,Speed,Off,On0.000000,20,,,,
12:24:59.557 PM 03/20/2016,Teleop Enabled,11,FALSE,0,NO ERROR,-0.322835,11.075141,-0.322835,5.563237,TRUE,FALSE,FALSE,FALSE,FALSE,FALSE,Disabled,0.000000,0.000000,0.000000,TRUE,0.006531,0.168396,0.000000,-0.190918,0.108841,0.000000,0.173000,0.051000,0.114000,10.680000,0.880000,2.150000,13.872170,Hold,0.942871,0.000000,Hold,-223.000000,2.000000,Suck,-2137.500000,2181.818182,Speed,-2122.500000,2181.818182,Speed,Off,On0.000000,20,,,,
12:24:59.658 PM 03/20/2016,Teleop Enabled,11,FALSE,0,NO ERROR,-0.346457,10.702975,-0.346457,4.549406,TRUE,FALSE,FALSE,FALSE,FALSE,FALSE,Disabled,0.000000,0.000000,0.000000,TRUE,0.000122,0.174881,0.000000,-0.074799,0.154480,0.000000,0.165000,0.020000,-0.066000,12.480000,1.650000,2.380000,15.613196,Hold,0.942871,0.000000,Hold,-223.000000,2.000000,Suck,-2122.500000,2181.818182,Speed,-2122.500000,2181.818182,Speed,Off,On0.000000,20,,,,
12:24:59.758 PM 03/20/2016,Teleop Enabled,10,FALSE,0,NO ERROR,-0.362205,9.265645,-0.362205,2.919577,TRUE,FALSE,FALSE,FALSE,FALSE,FALSE,Disabled,0.000000,0.000000,0.000000,TRUE,0.002304,0.180374,0.000000,0.121872,0.000000,0.000000,0.129000,0.137000,-0.062000,13.240000,2.900000,1.980000,16.424080,Hold,0.942871,0.000000,Hold,-223.000000,2.000000,Suck,-2130.000000,2181.818182,Speed,-2115.000000,2181.818182,Speed,Off,On0.000000,20,,,,
12:24:59.859 PM 03/20/2016,Teleop Enabled,9,FALSE,0,NO ERROR,-0.362205,7.321400,-0.362205,0.686582,TRUE,FALSE,FALSE,FALSE,FALSE,FALSE,Disabled,0.000000,0.000000,0.000000,TRUE,0.015381,0.180466,0.000000,0.262604,-0.022369,0.000000,0.032000,-0.027000,0.024000,13.600000,2.940000,2.150000,16.763488,Hold,0.942871,0.000000,Hold,-223.000000,2.000000,Suck,-2130.000000,2181.818182,Speed,-2107.500000,2181.818182,Speed,Off,On0.000000,20,,,,
12:24:59.959 PM 03/20/2016,Teleop Enabled,9,FALSE,0,NO ERROR,-0.362205,5.011405,-0.362205,-2.374161,FALSE,FALSE,FALSE,FALSE,FALSE,FALSE,Disabled,0.000000,0.000000,0.000000,TRUE,0.031433,0.178146,0.000000,0.369705,-0.069077,0.000000,0.102000,-0.036000,0.095000,14.800000,3.110000,2.310000,17.928695,Hold,0.942871,0.000000,Hold,-223.000000,2.000000,Suck,-2130.000000,2181.818182,Speed,-2115.000000,2181.818182,Speed,Off,On0.000000,20,,,,
12:25:00.059 PM 03/20/2016,Teleop Enabled,10,FALSE,0,NO ERROR,-0.362205,2.528161,-0.362205,-5.851986,FALSE,FALSE,FALSE,FALSE,FALSE,FALSE,Disabled,0.000000,0.000000,0.000000,TRUE,0.051315,0.174362,0.000000,0.385101,-0.092087,0.000000,0.015000,-0.020000,0.019000,16.790000,3.530000,2.330000,19.831056,Hold,0.942871,0.000000,Hold,-223.000000,2.000000,Suck,-2115.000000,2181.818182,Speed,-2115.000000,2181.818182,Speed,Off,On0.000000,20,,,,
12:25:00.159 PM 03/20/2016,Teleop Enabled,9,FALSE,0,NO ERROR,-0.000000,-0.006417,0.000000,-9.393978,TRUE,FALSE,FALSE,FALSE,FALSE,FALSE,Disabled,0.000000,0.000000,0.000000,TRUE,0.069611,0.169373,0.000000,0.363525,-0.107101,0.000000,0.161000,-0.091000,0.122000,18.800000,2.840000,2.430000,21.828325,Hold,0.942871,0.000000,Hold,-223.000000,2.000000,Suck,-2122.500000,2181.818182,Speed,-2107.500000,2181.818182,Speed,Off,On0.000000,20,,,,
12:25:00.260 PM 03/20/2016,Teleop Enabled,10,FALSE,0,NO ERROR,-0.000000,-2.053329,0.000000,-12.409804,TRUE,FALSE,FALSE,FALSE,FALSE,FALSE,Disabled,0.000000,0.000000,0.000000,TRUE,0.087296,0.162781,0.000000,0.300339,-0.147751,0.000000,-0.232000,0.052000,0.005000,21.200000,2.020000,2.370000,23.801991,Hold,0.942871,0.000000,Hold,-223.000000,2.000000,Suck,-2145.000000,2181.818182,Speed,-2107.500000,2181.818182,Speed,Off,On0.000000,20,,,,
12:25:00.360 PM 03/20/2016,Teleop Enabled,9,FALSE,0,NO ERROR,-0.000000,-3.233992,0.000000,-14.610716,TRUE,FALSE,FALSE,FALSE,FALSE,FALSE,Disabled,0.000000,0.000000,0.000000,TRUE,0.090698,0.160309,0.000000,-0.051559,-0.012421,0.000000,-0.247000,0.134000,-0.046000,22.850000,-0.090000,2.550000,25.746778,Hold,0.942871,0.000000,Hold,-223.000000,2.000000,Suck,-2137.500000,2181.818182,Speed,-2122.500000,2181.818182,Speed,Off,On0.000000,20,,,,
12:25:00.461 PM 03/20/2016,Teleop Enabled,10,FALSE,0,NO ERROR,-0.000000,-3.991157,0.000000,-15.996713,TRUE,FALSE,FALSE,FALSE,FALSE,FALSE,Disabled,0.000000,0.000000,0.000000,TRUE,0.080078,0.161102,0.000000,-0.311554,0.004059,0.000000,-0.272000,0.023000,0.419000,24.520000,0.000000,1.930000,27.131427,Hold,0.942871,0.000000,Hold,-223.000000,2.000000,Suck,-2137.500000,2181.818182,Speed,-2137.500000,2181.818182,Speed,Off,On0.000000,20,,,,
12:25:00.561 PM 03/20/2016,Teleop Enabled,10,FALSE,0,NO ERROR,-0.000000,-4.157990,0.000000,-16.400962,TRUE,FALSE,FALSE,FALSE,FALSE,FALSE,Disabled,0.000000,0.000000,0.000000,TRUE,0.059494,0.161453,0.000000,-0.445068,0.016113,0.000000,0.077000,0.062000,0.127000,25.100000,-1.080000,2.140000,27.834194,Hold,0.943115,0.000000,Hold,-223.000000,2.000000,Suck,-2137.500000,2181.818182,Speed,-2122.500000,2181.818182,Speed,Off,On0.000000,20,,,,
12:25:00.662 PM 03/20/2016,Teleop Enabled,10,FALSE,0,NO ERROR,0.244094,-4.190074,0.244094,-16.484378,TRUE,FALSE,FALSE,FALSE,FALSE,FALSE,Disabled,0.000000,0.000000,0.000000,TRUE,0.037048,0.162903,0.000000,-0.471405,0.025223,0.000000,-0.032000,-0.049000,0.362000,25.250000,-0.980000,1.990000,28.040025,Hold,0.943115,0.000000,Hold,-223.000000,2.000000,Suck,-2145.000000,2181.818182,Speed,-2122.500000,2181.818182,Speed,Off,On0.000000,20,,,,
12:25:00.762 PM 03/20/2016,Teleop Enabled,10,FALSE,0,NO ERROR,0.346457,-3.593325,0.346457,-15.849130,TRUE,FALSE,FALSE,FALSE,FALSE,FALSE,Disabled,0.000000,0.000000,0.000000,TRUE,0.005905,0.166229,0.000000,-0.603607,0.129486,0.000000,-0.134000,0.162000,0.201000,25.190000,-2.830000,2.170000,27.939860,Hold,0.943115,0.000000,Hold,-223.000000,2.000000,Suck,-2145.000000,2181.818182,Speed,-2122.500000,2181.818182,Speed,Off,On0.000000,20,,,,
12:25:00.862 PM 03/20/2016,Teleop Enabled,10,FALSE,0,NO ERROR,0.346457,-2.130328,0.346457,-14.328383,FALSE,FALSE,FALSE,FALSE,FALSE,FALSE,Disabled,0.000000,0.000000,0.000000,TRUE,-0.020844,0.174332,0.000000,-0.717087,0.241882,0.000000,-0.083000,-0.014000,-0.048000,25.140000,-3.260000,2.110000,27.941530,Hold,0.943115,0.000000,Hold,-223.000000,2.000000,Suck,-2130.000000,2181.818182,Speed,-2115.000000,2181.818182,Speed,Off,On0.000000,20,,,,
12:25:00.962 PM 03/20/2016,Teleop Enabled,10,FALSE,0,NO ERROR,0.346457,-0.115500,0.346457,-11.954222,TRUE,FALSE,FALSE,FALSE,FALSE,FALSE,Disabled,0.000000,0.000000,0.000000,TRUE,-0.067123,0.176773,0.000000,-0.795029,0.083633,0.000000,-0.083000,-0.014000,-0.048000,24.480000,-2.990000,2.100000,27.415297,Hold,0.943115,0.000000,Hold,-223.000000,2.000000,Suck,-2122.500000,2181.818182,Speed,-2100.000000,2181.818182,Speed,Off,On0.000000,20,,,,
12:25:01.063 PM 03/20/2016,Teleop Enabled,12,FALSE,0,NO ERROR,-0.000000,2.245828,0.000000,-8.861396,TRUE,FALSE,FALSE,FALSE,FALSE,FALSE,Disabled,0.000000,0.000000,0.000000,TRUE,-0.118851,0.177658,0.000000,-0.853287,-0.043976,0.000000,-0.181000,-0.080000,-0.270000,24.480000,-2.990000,2.100000,25.974338,Hold,0.943115,0.000000,Hold,-223.000000,2.000000,Suck,-2122.500000,2181.818182,Speed,-2100.000000,2181.818182,Speed,Off,On0.000000,20,,,,
12:25:01.163 PM 03/20/2016,Teleop Enabled,11,FALSE,0,NO ERROR,-0.000000,3.445742,0.000000,-6.814484,TRUE,FALSE,FALSE,FALSE,FALSE,FALSE,Disabled,0.000000,0.000000,0.000000,TRUE,-0.152069,0.172638,0.000000,-0.501587,-0.165619,0.000000,0.097000,-0.013000,-0.132000,21.270000,-0.270000,2.120000,24.547443,Hold,0.943115,0.000000,Hold,-223.000000,2.000000,Suck,-2130.000000,2181.818182,Speed,-2122.500000,2181.818182,Speed,Off,On0.000000,20,,,,
12:25:01.263 PM 03/20/2016,Teleop Enabled,10,FALSE,0,NO ERROR,-0.000000,4.337657,0.000000,-5.216738,TRUE,FALSE,FALSE,FALSE,FALSE,FALSE,Disabled,0.000000,0.000000,0.000000,TRUE,-0.171661,0.161972,0.000000,-0.326355,-0.296402,0.000000,0.413000,-0.041000,0.126000,19.880000,0.120000,1.960000,23.103675,Hold,0.943604,0.000000,Hold,-223.000000,2.000000,Suck,-2145.000000,2181.818182,Speed,-2122.500000,2181.818182,Speed,Off,On0.000000,20,,,,
12:25:01.363 PM 03/20/2016,Teleop Enabled,10,FALSE,0,NO ERROR,-0.000000,4.761156,0.000000,-4.414656,TRUE,FALSE,FALSE,FALSE,FALSE,FALSE,Disabled,0.000000,0.000000,0.000000,TRUE,-0.183731,0.142624,0.000000,-0.187012,-0.414490,0.000000,0.200000,-0.232000,0.224000,18.980000,-0.070000,1.820000,22.237132,Hold,0.943604,0.000000,Hold,-223.000000,2.000000,Suck,-2145.000000,2181.818182,Speed,-2115.000000,2181.818182,Speed,Off,On0.000000,20,,,,
12:25:01.463 PM 03/20/2016,Teleop Enabled,10,FALSE,0,NO ERROR,-0.000000,4.793239,0.000000,-4.292740,TRUE,FALSE,FALSE,FALSE,FALSE,FALSE,Disabled,0.000000,0.000000,0.000000,TRUE,-0.189362,0.125000,0.000000,-0.089310,-0.326813,0.000000,0.111000,0.075000,-0.078000,18.780000,0.800000,2.130000,21.950029,Hold,0.943604,0.000000,Hold,-223.000000,2.000000,Suck,-2145.000000,2181.818182,Speed,-2122.500000,2181.818182,Speed,Off,On0.000000,20,,,,
12:25:01.563 PM 03/20/2016,Teleop Enabled,10,FALSE,0,NO ERROR,-0.267717,4.600739,-0.267717,-4.478823,TRUE,FALSE,FALSE,FALSE,FALSE,FALSE,Disabled,0.000000,0.000000,0.000000,TRUE,-0.191086,0.111206,0.000000,0.026108,-0.351654,0.000000,0.301000,-0.026000,-0.110000,18.790000,1.290000,2.020000,21.949654,Hold,0.944580,0.000000,Hold,-223.000000,2.000000,Suck,-2137.500000,2181.818182,Speed,-2122.500000,2181.818182,Speed,Off,On0.000000,20,,,,
12:25:01.664 PM 03/20/2016,Teleop Enabled,10,FALSE,0,NO ERROR,-0.393701,3.631825,-0.393701,-5.563237,TRUE,FALSE,FALSE,FALSE,FALSE,FALSE,Disabled,0.000000,0.000000,0.000000,TRUE,-0.179703,0.092148,0.000000,0.257111,-0.316208,0.000000,0.301000,-0.026000,-0.110000,18.920000,2.630000,2.000000,22.142585,Hold,0.944580,0.000000,Hold,-223.000000,2.000000,Suck,-2130.000000,2181.818182,Speed,-2115.000000,2181.818182,Speed,Off,On0.000000,20,,,,
12:25:01.764 PM 03/20/2016,Teleop Enabled,11,FALSE,0,NO ERROR,-0.000000,1.835162,0.000000,-7.456149,FALSE,FALSE,FALSE,FALSE,FALSE,FALSE,Disabled,0.000000,0.000000,0.000000,TRUE,-0.161636,0.088638,0.000000,0.445114,-0.017853,0.000000,0.175000,-0.012000,0.053000,18.990000,3.210000,2.130000,22.177927,Hold,0.944580,0.000000,Hold,-223.000000,2.000000,Suck,-2115.000000,2181.818182,Speed,-2107.500000,2181.818182,Speed,Off,On0.000000,20,,,,
12:25:01.864 PM 03/20/2016,Teleop Enabled,10,FALSE,0,NO ERROR,-0.000000,0.423499,0.000000,-9.278478,FALSE,FALSE,FALSE,FALSE,FALSE,FALSE,Disabled,0.000000,0.000000,0.000000,TRUE,-0.139908,0.088242,0.000000,0.368073,0.017365,0.000000,0.153000,-0.020000,0.024000,18.990000,3.210000,2.130000,22.585701,Hold,0.944580,0.000000,Hold,-223.000000,2.000000,Suck,-2115.000000,2181.818182,Speed,-2100.000000,2181.818182,Speed,Off,On0.000000,20,,,,
12:25:01.964 PM 03/20/2016,Teleop Enabled,10,FALSE,0,NO ERROR,-0.000000,-0.526165,0.000000,-10.722225,TRUE,FALSE,FALSE,FALSE,FALSE,FALSE,Disabled,0.000000,0.000000,0.000000,TRUE,-0.127426,0.090179,0.000000,0.168427,-0.000977,0.000000,-0.210000,0.174000,0.031000,20.540000,0.190000,2.480000,23.605514,Hold,0.944824,0.000000,Hold,-223.000000,2.000000,Suck,-2137.500000,2181.818182,Speed,-2115.000000,2181.818182,Speed,Off,On0.000000,20,,,,
12:25:02.064 PM 03/20/2016,Teleop Enabled,10,FALSE,0,NO ERROR,-0.000000,-0.975331,0.000000,-11.447307,TRUE,FALSE,FALSE,FALSE,FALSE,FALSE,Disabled,0.000000,0.000000,0.000000,TRUE,-0.125000,0.088470,0.000000,-0.021301,-0.040726,0.000000,-0.220000,-0.134000,-0.278000,20.540000,0.190000,2.480000,24.402446,Hold,0.944824,0.000000,Hold,-223.000000,2.000000,Suck,-2152.500000,2181.818182,Speed,-2130.000000,2181.818182,Speed,Off,On0.000000,20,,,,
12:25:02.164 PM 03/20/2016,Teleop Enabled,9,FALSE,0,NO ERROR,-0.000000,-0.988164,0.000000,-11.485806,TRUE,FALSE,FALSE,FALSE,FALSE,FALSE,Disabled,0.000000,0.000000,0.000000,TRUE,-0.127121,0.087540,0.000000,-0.025513,-0.012054,0.000000,-0.071000,0.062000,-0.263000,21.310000,0.470000,2.180000,24.573723,Hold,0.944824,0.000000,Hold,-223.000000,2.000000,Suck,-2152.500000,2181.818182,Speed,-2122.500000,2181.818182,Speed,Off,On0.000000,20,,,,
12:25:02.264 PM 03/20/2016,Teleop Enabled,10,FALSE,0,NO ERROR,-0.000000,-1.000998,0.000000,-11.440890,TRUE,FALSE,FALSE,FALSE,FALSE,FALSE,Disabled,0.000000,0.000000,0.000000,TRUE,-0.131027,0.086548,0.000000,-0.101227,-0.005997,0.000000,-0.191000,0.008000,-0.304000,21.410000,-0.280000,2.380000,24.499891,Hold,0.944824,0.000000,Hold,-223.000000,2.000000,Suck,-2137.500000,2181.818182,Speed,-2122.500000,2181.818182,Speed,Off,On0.000000,20,,,,
12:25:02.364 PM 03/20/2016,Teleop Enabled,10,FALSE,0,NO ERROR,-0.000000,-0.962498,0.000000,-11.415223,TRUE,FALSE,FALSE,FALSE,FALSE,FALSE,Disabled,0.000000,0.000000,0.000000,TRUE,-0.136353,0.087646,0.000000,-0.100204,0.038422,0.000000,-0.021000,0.057000,-0.032000,21.530000,-0.020000,2.260000,24.705381,Hold,0.944824,0.000000,Hold,-223.000000,2.000000,Suck,-2130.000000,2181.818182,Speed,-2122.500000,2181.818182,Speed,Off,On0.000000,20,,,,
12:25:02.464 PM 03/20/2016,Teleop Enabled,10,FALSE,0,NO ERROR,-0.000000,-0.962498,0.000000,-11.408807,TRUE,FALSE,FALSE,FALSE,FALSE,FALSE,Disabled,0.000000,0.000000,0.000000,TRUE,-0.141068,0.089005,0.000000,-0.072556,0.007065,0.000000,0.008000,0.047000,0.096000,21.530000,-0.020000,2.260000,24.647625,Hold,0.944824,0.000000,Hold,-223.000000,2.000000,Suck,-2152.500000,2181.818182,Speed,-2122.500000,2181.818182,Speed,Off,On0.000000,20,,,,
12:25:02.564 PM 03/20/2016,Teleop Enabled,10,FALSE,0,NO ERROR,-0.000000,-0.962498,0.000000,-11.408807,TRUE,FALSE,FALSE,FALSE,FALSE,FALSE,Disabled,0.000000,0.000000,0.000000,TRUE,-0.142487,0.088104,0.000000,-0.007217,-0.033188,0.000000,0.098000,-0.056000,-0.047000,21.450000,0.090000,2.250000,24.668318,Hold,0.944824,0.000000,Hold,-223.000000,2.000000,Suck,-2152.500000,2181.818182,Speed,-2122.500000,2181.818182,Speed,Off,On0.000000,20,,,,
12:25:02.665 PM 03/20/2016,Teleop Enabled,10,FALSE,0,NO ERROR,-0.000000,-0.962498,0.000000,-11.408807,TRUE,FALSE,FALSE,FALSE,FALSE,FALSE,Disabled,0.000000,0.000000,0.000000,TRUE,-0.142883,0.086151,0.000000,-0.019684,-0.033020,0.000000,-0.003000,-0.054000,-0.018000,21.430000,-0.010000,2.280000,24.684360,Hold,0.944824,0.000000,Hold,-223.000000,2.000000,Suck,-2145.000000,2181.818182,Speed,-2122.500000,2181.818182,Speed,Off,On0.000000,20,,,,
12:25:02.765 PM 03/20/2016,Teleop Enabled,10,FALSE,0,NO ERROR,-0.000000,-0.962498,0.000000,-11.408807,TRUE,FALSE,FALSE,FALSE,FALSE,FALSE,Disabled,0.000000,0.000000,0.000000,TRUE,-0.143402,0.085800,0.000000,0.009125,-0.002731,0.000000,-0.039000,0.000000,-0.084000,21.440000,0.040000,2.270000,24.681648,Hold,0.944824,0.000000,Hold,-223.000000,2.000000,Suck,-2137.500000,2181.818182,Speed,-2122.500000,2181.818182,Speed,Off,On0.000000,20,,,,
12:25:02.865 PM 03/20/2016,Teleop Enabled,10,FALSE,0,NO ERROR,-0.000000,-0.962498,0.000000,-11.408807,TRUE,FALSE,FALSE,FALSE,FALSE,FALSE,Disabled,0.000000,0.000000,0.000000,TRUE,-0.142990,0.085861,0.000000,-0.006454,0.007217,0.000000,0.047000,0.000000,0.140000,21.440000,0.070000,2.290000,24.689417,Hold,0.944824,0.000000,Hold,-223.000000,2.000000,Suck,-2152.500000,2181.818182,Speed,-2130.000000,2181.818182,Speed,Off,On0.000000,20,,,,
12:25:02.965 PM 03/20/2016,Teleop Enabled,10,FALSE,0,NO ERROR,-0.000000,-0.962498,0.000000,-11.408807,TRUE,FALSE,FALSE,FALSE,FALSE,FALSE,Disabled,0.000000,0.000000,0.000000,TRUE,-0.143066,0.087158,0.000000,0.024460,0.037842,0.000000,-0.069000,-0.009000,0.127000,21.440000,0.050000,2.290000,24.719581,Hold,0.944824,0.000000,Hold,-223.000000,2.000000,Suck,-2145.000000,2181.818182,Speed,-2122.500000,2181.818182,Speed,Off,On0.000000,20,,,,
12:25:03.065 PM 03/20/2016,Teleop Enabled,10,FALSE,0,NO ERROR,-0.000000,-0.962498,0.000000,-11.408807,TRUE,FALSE,FALSE,FALSE,FALSE,FALSE,Disabled,0.000000,0.000000,0.000000,TRUE,-0.141754,0.091431,0.000000,0.011536,0.122009,0.000000,-0.020000,0.083000,0.119000,21.440000,0.040000,2.270000,24.716669,Hold,0.944824,0.000000,Hold,-223.000000,2.000000,Suck,-2137.500000,2181.818182,Speed,-2122.500000,2181.818182,Speed,Off,On0.000000,20,,,,
12:25:03.166 PM 03/20/2016,Teleop Enabled,10,FALSE,0,NO ERROR,-0.000000,-0.962498,0.000000,-11.408807,TRUE,FALSE,FALSE,FALSE,FALSE,FALSE,Disabled,0.000000,0.000000,0.000000,TRUE,-0.143036,0.099442,0.000000,-0.051071,0.177521,0.000000,-0.049000,0.055000,0.105000,21.440000,0.100000,2.290000,24.712823,Hold,0.944824,0.000000,Hold,-223.000000,2.000000,Suck,-2145.000000,2181.818182,Speed,-2122.500000,2181.818182,Speed,Off,On0.000000,20,,,,
12:25:03.267 PM 03/20/2016,Teleop Enabled,10,FALSE,0,NO ERROR,-0.000000,-0.962498,0.000000,-11.408807,TRUE,FALSE,FALSE,FALSE,FALSE,FALSE,Disabled,0.000000,0.000000,0.000000,TRUE,-0.145706,0.107574,0.000000,-0.041214,0.133850,0.000000,-0.016000,0.024000,0.034000,21.440000,0.070000,2.300000,24.716569,Hold,0.944824,0.000000,Hold,-223.000000,2.000000,Suck,-2145.000000,2181.818182,Speed,-2122.500000,2181.818182,Speed,Off,On0.000000,20,,,,
12:25:03.367 PM 03/20/2016,Teleop Enabled,9,FALSE,0,NO ERROR,-0.000000,-0.962498,0.000000,-11.408807,TRUE,FALSE,FALSE,FALSE,FALSE,FALSE,Disabled,0.000000,0.000000,0.000000,TRUE,-0.145706,0.107574,0.000000,-0.041214,0.133850,0.000000,0.036000,-0.012000,0.043000,21.440000,0.080000,2.320000,24.739734,Hold,0.944824,0.000000,Hold,-223.000000,2.000000,Suck,-2145.000000,2181.818182,Speed,-2122.500000,2181.818182,Speed,Off,On0.000000,20,,,,
12:25:03.469 PM 03/20/2016,Teleop Enabled,11,FALSE,0,NO ERROR,-0.000000,-0.962498,0.000000,-11.408807,TRUE,FALSE,FALSE,FALSE,FALSE,FALSE,Disabled,0.000000,0.000000,0.000000,TRUE,-0.146973,0.113007,0.000000,-0.036682,0.007553,0.000000,0.015000,-0.056000,-0.021000,21.440000,0.120000,2.330000,24.761942,Hold,0.944824,0.000000,Hold,-223.000000,2.000000,Suck,-2145.000000,2181.818182,Speed,-2130.000000,2181.818182,Speed,Off,On0.000000,20,,,,
12:25:03.569 PM 03/20/2016,Teleop Enabled,10,FALSE,0,NO ERROR,-0.000000,-0.962498,0.000000,-11.408807,TRUE,FALSE,FALSE,FALSE,FALSE,FALSE,Disabled,0.000000,0.000000,0.000000,TRUE,-0.149185,0.112076,0.000000,-0.076584,-0.033646,0.000000,-0.033000,-0.023000,-0.010000,21.430000,0.160000,2.360000,24.764152,Hold,0.944824,0.000000,Hold,-223.000000,2.000000,Suck,-2152.500000,2181.818182,Speed,-2122.500000,2181.818182,Speed,Off,On0.000000,20,,,,
12:25:03.670 PM 03/20/2016,Teleop Enabled,12,FALSE,0,NO ERROR,-0.000000,-0.962498,0.000000,-11.408807,TRUE,FALSE,FALSE,FALSE,FALSE,FALSE,Disabled,0.000000,0.000000,0.000000,TRUE,-0.154633,0.111603,0.000000,-0.119705,0.013275,0.000000,-0.060000,0.026000,-0.045000,21.430000,0.170000,2.320000,24.770087,Hold,0.944824,0.000000,Hold,-223.000000,2.000000,Suck,-2145.000000,2181.818182,Speed,-2122.500000,2181.818182,Speed,Off,On0.000000,20,,,,
12:25:03.770 PM 03/20/2016,Teleop Enabled,11,FALSE,0,NO ERROR,-0.000000,-0.962498,0.000000,-11.408807,TRUE,FALSE,FALSE,FALSE,FALSE,FALSE,Disabled,0.000000,0.000000,0.000000,TRUE,-0.154633,0.111603,0.000000,-0.119705,0.013275,0.000000,0.012000,0.019000,0.053000,21.430000,0.160000,2.330000,24.762062,Hold,0.944824,0.000000,Hold,-223.000000,2.000000,Suck,-2145.000000,2181.818182,Speed,-2130.000000,2181.818182,Speed,Off,On0.000000,20,,,,
12:25:03.871 PM 03/20/2016,Teleop Enabled,10,FALSE,0,NO ERROR,-0.204724,-0.879081,0.204724,-11.549973,TRUE,FALSE,FALSE,FALSE,FALSE,FALSE,Disabled,0.000000,0.000000,0.000000,TRUE,-0.154510,0.112686,0.000000,0.067673,0.000000,0.000000,0.148000,-0.018000,0.030000,21.440000,0.140000,2.320000,24.781210,Hold,0.944824,0.000000,Hold,-223.000000,2.000000,Suck,-2145.000000,2181.818182,Speed,-2130.000000,2181.818182,Speed,Off,On0.000000,20,,,,
12:25:03.972 PM 03/20/2016,Teleop Enabled,10,FALSE,0,NO ERROR,-0.299213,-0.121916,0.299213,-12.230138,TRUE,FALSE,FALSE,FALSE,FALSE,FALSE,Disabled,0.000000,0.000000,0.000000,TRUE,-0.148758,0.114395,0.000000,0.133484,0.057968,0.000000,0.000000,0.013000,0.079000,21.440000,0.140000,2.320000,24.781210,Hold,0.944824,0.000000,Hold,-223.000000,2.000000,Suck,-2152.500000,2181.818182,Speed,-2122.500000,2181.818182,Speed,Off,On0.000000,20,,,,
12:25:04.072 PM 03/20/2016,Teleop Enabled,10,FALSE,0,NO ERROR,-0.346457,-0.121916,0.346457,-12.230138,TRUE,FALSE,FALSE,FALSE,FALSE,FALSE,Disabled,0.000000,0.000000,0.000000,TRUE,-0.139221,0.121597,0.000000,0.240982,0.210846,0.000000,0.086000,0.049000,0.075000,22.960000,0.330000,2.770000,26.167039,Hold,0.944824,0.000000,Hold,-223.000000,2.000000,Suck,-2145.000000,2181.818182,Speed,-2115.000000,2181.818182,Speed,Off,On0.000000,20,,,,
12:25:04.173 PM 03/20/2016,Teleop Enabled,9,FALSE,0,NO ERROR,-0.346457,1.334664,0.346457,-13.545552,FALSE,FALSE,FALSE,FALSE,FALSE,FALSE,Disabled,0.000000,0.000000,0.000000,TRUE,-0.124512,0.132996,0.000000,0.335220,0.228516,0.000000,0.105000,-0.048000,0.114000,29.330000,0.890000,3.100000,30.982496,Hold,0.944824,0.000000,Hold,-223.000000,2.000000,Suck,-2130.000000,2181.818182,Speed,-2107.500000,2181.818182,Speed,Off,On0.000000,20,,,,
12:25:04.274 PM 03/20/2016,Teleop Enabled,10,FALSE,0,NO ERROR,-0.244094,3.259659,0.244094,-15.618130,FALSE,FALSE,FALSE,FALSE,FALSE,FALSE,Disabled,0.000000,0.000000,0.000000,TRUE,-0.104919,0.142105,0.000000,0.426498,0.139862,0.000000,0.111000,-0.159000,0.228000,37.520000,1.260000,3.400000,40.151615,Hold,0.944824,0.000000,Hold,-223.000000,2.000000,Suck,-2130.000000,2181.818182,Speed,-2107.500000,2181.818182,Speed,Off,On0.000000,20,,,,
12:25:04.374 PM 03/20/2016,Teleop Enabled,10,FALSE,0,NO ERROR,-0.000000,5.441321,0.000000,-18.325957,FALSE,FALSE,FALSE,FALSE,FALSE,FALSE,Disabled,0.000000,0.000000,0.000000,TRUE,-0.081039,0.146088,0.000000,0.506104,0.051010,0.000000,-0.023000,-0.148000,0.050000,45.350000,1.520000,3.580000,49.715765,Hold,0.944824,0.000000,Hold,-223.000000,2.000000,Suck,-2130.000000,2181.818182,Speed,-2115.000000,2181.818182,Speed,Off,On0.000000,20,,,,
12:25:04.474 PM 03/20/2016,Teleop Enabled,10,FALSE,0,NO ERROR,0.181102,6.423068,-0.181102,-20.186786,FALSE,FALSE,FALSE,FALSE,FALSE,FALSE,Disabled,0.000000,0.000000,0.000000,TRUE,-0.056854,0.147751,0.000000,0.277878,0.042267,0.000000,-0.271000,0.010000,0.131000,55.050000,0.930000,3.310000,58.421881,Hold,0.944824,0.000000,Hold,-223.000000,2.000000,Suck,-2137.500000,2181.818182,Speed,-2130.000000,2181.818182,Speed,Off,On0.000000,20,,,,
12:25:04.574 PM 03/20/2016,Teleop Enabled,9,FALSE,0,NO ERROR,0.188976,6.596318,-0.188976,-21.072284,TRUE,FALSE,FALSE,FALSE,FALSE,FALSE,Disabled,0.000000,0.000000,0.000000,TRUE,-0.050629,0.149872,0.000000,0.111420,0.061218,0.000000,-0.179000,0.158000,-0.052000,59.190000,0.460000,2.540000,61.287759,Hold,0.944824,0.000000,Hold,-223.000000,2.000000,Suck,-2137.500000,2181.818182,Speed,-2130.000000,2181.818182,Speed,Off,On0.000000,20,,,,
12:25:04.674 PM 03/20/2016,Teleop Enabled,9,FALSE,0,NO ERROR,0.299213,5.999569,-0.299213,-20.834868,TRUE,FALSE,FALSE,FALSE,FALSE,FALSE,Disabled,0.000000,0.000000,0.000000,TRUE,-0.049316,0.156998,0.000000,-0.009811,0.183289,0.000000,-0.026000,0.167000,-0.134000,57.730000,-0.470000,2.130000,59.946944,Hold,0.944824,0.000000,Hold,-223.000000,2.000000,Suck,-2137.500000,2181.818182,Speed,-2115.000000,2181.818182,Speed,Off,On0.000000,20,,,,
12:25:04.774 PM 03/20/2016,Teleop Enabled,10,FALSE,0,NO ERROR,0.307087,4.985738,-0.307087,-19.891620,TRUE,FALSE,FALSE,FALSE,FALSE,FALSE,Disabled,0.000000,0.000000,0.000000,TRUE,-0.052917,0.169662,0.000000,-0.133255,0.294220,0.000000,-0.149000,0.107000,0.116000,54.090000,-0.680000,1.810000,56.439163,Hold,0.944824,0.000000,Hold,-223.000000,2.000000,Suck,-2130.000000,2181.818182,Speed,-2115.000000,2181.818182,Speed,Off,On0.000000,20,,,,
12:25:04.874 PM 03/20/2016,Teleop Enabled,9,FALSE,0,NO ERROR,0.307087,3.516325,-0.307087,-18.191207,TRUE,FALSE,FALSE,FALSE,FALSE,FALSE,Disabled,0.000000,0.000000,0.000000,TRUE,-0.063522,0.178528,0.000000,-0.253235,-0.019089,0.000000,0.016000,-0.155000,0.119000,47.800000,-1.020000,1.430000,50.383525,Hold,0.944824,0.000000,Hold,-223.000000,2.000000,Suck,-2137.500000,2181.818182,Speed,-2115.000000,2181.818182,Speed,Off,On0.000000,20,,,,
12:25:04.974 PM 03/20/2016,Teleop Enabled,10,FALSE,0,NO ERROR,0.307087,1.847996,-0.307087,-16.022379,TRUE,FALSE,FALSE,FALSE,FALSE,FALSE,Disabled,0.000000,0.000000,0.000000,TRUE,-0.077515,0.175430,0.000000,-0.288345,-0.072067,0.000000,-0.032000,-0.037000,-0.122000,39.940000,-1.170000,1.300000,42.779234,Hold,0.944824,0.000000,Hold,-223.000000,2.000000,Suck,-2145.000000,2181.818182,Speed,-2115.000000,2181.818182,Speed,Off,On0.000000,20,,,,
12:25:05.074 PM 03/20/2016,Teleop Enabled,10,FALSE,0,NO ERROR,0.236220,0.109083,-0.236220,-13.564802,TRUE,FALSE,FALSE,FALSE,FALSE,FALSE,Disabled,0.000000,0.000000,0.000000,TRUE,-0.092606,0.169662,0.000000,-0.310272,-0.146881,0.000000,-0.002000,0.110000,-0.047000,31.290000,-1.110000,1.190000,34.398189,Hold,0.944824,0.000000,Hold,-223.000000,2.000000,Suck,-2130.000000,2181.818182,Speed,-2115.000000,2181.818182,Speed,Off,On0.000000,20,,,,
12:25:05.174 PM 03/20/2016,Teleop Enabled,9,FALSE,0,NO ERROR,-0.000000,-1.629830,0.000000,-10.953224,TRUE,FALSE,FALSE,FALSE,FALSE,FALSE,Disabled,0.000000,0.000000,0.000000,TRUE,-0.111343,0.161896,0.000000,-0.298798,-0.128616,0.000000,0.098000,-0.080000,-0.046000,22.160000,-1.140000,1.080000,25.558457,Hold,0.944824,0.000000,Hold,-223.000000,2.000000,Suck,-2145.000000,2181.818182,Speed,-2115.000000,2181.818182,Speed,Off,On0.000000,20,,,,
12:25:05.274 PM 03/20/2016,Teleop Enabled,9,FALSE,0,NO ERROR,-0.000000,-2.945243,0.000000,-8.899896,TRUE,FALSE,FALSE,FALSE,FALSE,FALSE,Disabled,0.000000,0.000000,0.000000,TRUE,-0.120270,0.157089,0.000000,-0.175613,-0.104843,0.000000,0.140000,0.063000,0.182000,13.690000,-0.810000,1.170000,17.393828,Hold,0.944824,0.000000,Hold,-223.000000,2.000000,Suck,-2160.000000,2181.818182,Speed,-2122.500000,2181.818182,Speed,Off,On0.000000,20,,,,
12:25:05.374 PM 03/20/2016,Teleop Enabled,9,FALSE,0,NO ERROR,-0.000000,-3.298159,0.000000,-7.706399,TRUE,FALSE,FALSE,FALSE,FALSE,FALSE,Disabled,0.000000,0.000000,0.000000,TRUE,-0.122543,0.156387,0.000000,0.053894,0.080811,0.000000,0.114000,0.052000,0.255000,8.730000,-0.210000,1.760000,12.698530,Hold,0.944824,0.000000,Hold,-223.000000,2.000000,Suck,-2160.000000,2181.818182,Speed,-2130.000000,2181.818182,Speed,Off,On0.000000,20,,,,
12:25:05.474 PM 03/20/2016,Teleop Enabled,10,FALSE,0,NO ERROR,-0.000000,-3.278909,0.000000,-7.430483,TRUE,FALSE,FALSE,FALSE,FALSE,FALSE,Disabled,0.000000,0.000000,0.000000,TRUE,-0.116852,0.162140,0.000000,0.143326,0.130508,0.000000,0.017000,0.024000,0.032000,7.900000,0.610000,2.120000,11.868188,Hold,0.944824,0.000000,Hold,-223.000000,2.000000,Suck,-2152.500000,2181.818182,Speed,-2122.500000,2181.818182,Speed,Off,On0.000000,20,,,,
