Time,Robot Mode,Loop Time,Error Status,Error Code,Error Source,Left Motor Output,Left Motor Encoder,Right Motor Output,Right Motor Encoder,Is Level,Is Stalled,Ball Detector Photoeye,Vision Enabled,Vision Teleop Control,Vision Auto Control,Vision Current State,Vision X Output,Vision NavX Error,Vision NavX Target,NavX Connection Status,NavX Displacement X,NavX Displacement Y,NavX Displacement Z,NavX Velocity X,NavX Velocity Y,NavX Velocity Z,NavX Acceleration X,NavX Acceleration Y,NavX Acceleration Z,NavX Pitch,NavX Yaw,NavX Roll,Gyro Angle,Roller Arm State,Roller Arm Actual,Roller Arm Desired,Shooter Arm State,Shooter Arm Actual,Shooter Arm Desired,Shooter State,Actual RPM Left,Desired RPM Left,Control Mode Left,Actual RPM Right,Desired RPM Right,Scaler Motor Output,Auto To Run,Auto Current File,Auto File Status,Auto Current Command,Auto Trimmed Command
01:14:58.310 PM 03/20/2016,Teleop Enabled,11,TRUE,-44003,<LOCATION>WPI_CameraIssue HTTP Request with Authentication.vi<CALLSTACK>WPI_CameraIssue HTTP Request with Authentication.vi< <WPI_CameraIssue Get.vi< <WPI_CameraSet Image Appearance Property.vi< <WPI_CameraSet Image Size.vi< <Vision Processing.vi< <Robot Main.vi,-0.000000,48.657470,0.000000,77.692818,TRUE,FALSE,TRUE,FALSE,FALSE,FALSE,Disabled,0.000000,0.000000,0.000000,TRUE,0.123703,-0.099472,0.000000,0.000000,0.000000,0.000000,0.000000,0.001000,0.014000,-49.850000,-0.180000,2.780000,139.026342,ResetBack,0.000000,-0.000049,ResetBack,-2159.000000,-0.300000,LowGoal,0.000000,-1454.545455,Speed,0.000000,-1454.545455,Speed,Off,Off0.000000,0,,,,
01:14:58.411 PM 03/20/2016,Teleop Enabled,9,FALSE,0,NO ERROR,-0.000000,48.657470,0.000000,77.692818,TRUE,FALSE,TRUE,FALSE,FALSE,FALSE,Disabled,0.000000,0.000000,0.000000,TRUE,0.123703,-0.099503,0.000000,0.000000,-0.002167,0.000000,0.055000,0.085000,0.071000,-49.850000,-0.180000,2.780000,139.773402,ResetBack,-0.048340,-0.000049,ResetBack,-2159.000000,-0.300000,LowGoal,0.000000,-1454.545455,Speed,0.000000,-1454.545455,Speed,Off,Off0.000000,0,,,,
01:14:58.511 PM 03/20/2016,Teleop Enabled,10,FALSE,0,NO ERROR,-0.000000,48.651053,0.000000,77.692818,TRUE,FALSE,TRUE,FALSE,FALSE,FALSE,Disabled,0.000000,0.000000,0.000000,TRUE,0.124039,-0.099106,0.000000,-0.000412,0.005737,0.000000,0.079000,0.108000,0.008000,-49.850000,-0.200000,2.760000,140.509390,ResetBack,-0.781006,-0.000049,ResetBack,-406.000000,-0.300000,LowGoal,427.500000,-1454.545455,Speed,465.000000,-1454.545455,Speed,Off,Off0.000000,0,,,,
01:14:58.611 PM 03/20/2016,Teleop Enabled,10,FALSE,0,NO ERROR,-0.000000,48.651053,0.000000,77.692818,TRUE,FALSE,TRUE,FALSE,FALSE,FALSE,Disabled,0.000000,0.000000,0.000000,TRUE,0.124329,-0.097794,0.000000,0.004074,0.035278,0.000000,0.028000,0.096000,0.021000,-49.850000,-0.220000,2.740000,141.249829,ResetBack,-0.813477,-0.000049,ResetBack,8448.000000,-0.300000,LowGoal,1320.000000,-1454.545455,Speed,1170.000000,-1454.545455,Speed,Off,Off0.000000,0,,,,
01:14:58.712 PM 03/20/2016,Teleop Enabled,10,FALSE,0,NO ERROR,-0.000000,48.651053,0.000000,77.692818,TRUE,FALSE,TRUE,FALSE,FALSE,FALSE,Disabled,0.000000,0.000000,0.000000,TRUE,0.125671,-0.095428,0.000000,0.033539,0.000000,0.000000,-0.001000,-0.089000,-0.052000,-49.850000,-0.230000,2.750000,142.151910,Reset,-1.070801,0.000000,ResetBack,17208.000000,-0.300000,LowGoal,1657.500000,-1454.545455,Speed,1665.000000,-1454.545455,Speed,Off,Off0.000000,0,,,,
01:14:58.812 PM 03/20/2016,Teleop Enabled,9,FALSE,0,NO ERROR,-0.000000,48.651053,0.000000,77.692818,TRUE,FALSE,TRUE,FALSE,FALSE,FALSE,Disabled,0.000000,0.000000,0.000000,TRUE,0.125427,-0.095978,0.000000,-0.024368,-0.007080,0.000000,-0.017000,0.013000,-0.004000,-49.840000,-0.240000,2.770000,142.889347,Hold,0.993164,0.000000,ResetBack,20665.000000,-0.300000,LowGoal,1417.500000,-1454.545455,Speed,1432.500000,-1454.545455,Speed,Off,Off0.000000,0,,,,
01:14:58.912 PM 03/20/2016,Teleop Enabled,11,FALSE,0,NO ERROR,-0.000000,48.651053,0.000000,77.692818,TRUE,FALSE,TRUE,FALSE,FALSE,FALSE,Disabled,0.000000,0.000000,0.000000,TRUE,0.123444,-0.097107,0.000000,-0.035492,-0.035095,0.000000,0.008000,0.009000,0.018000,-49.850000,-0.250000,2.730000,143.615830,Hold,0.981201,0.000000,ResetBack,21564.000000,-0.300000,LowGoal,1305.000000,-1454.545455,Speed,1267.500000,-1454.545455,Speed,Off,Off0.000000,0,,,,
01:14:59.012 PM 03/20/2016,Teleop Enabled,10,FALSE,0,NO ERROR,-0.000000,48.651053,0.000000,77.692818,TRUE,FALSE,TRUE,FALSE,FALSE,FALSE,Disabled,0.000000,0.000000,0.000000,TRUE,0.121643,-0.098633,0.000000,-0.020447,-0.022598,0.000000,0.040000,-0.036000,0.031000,-49.860000,-0.230000,2.810000,144.352644,Hold,0.937500,0.000000,ResetBack,21564.000000,-0.300000,LowGoal,1387.500000,-1454.545455,Speed,1387.500000,-1454.545455,Speed,Off,Off0.000000,0,,,,
01:14:59.112 PM 03/20/2016,Teleop Enabled,9,FALSE,0,NO ERROR,-0.000000,48.651053,0.000000,77.692818,TRUE,FALSE,TRUE,FALSE,FALSE,FALSE,Disabled,0.000000,0.000000,0.000000,TRUE,0.121918,-0.099335,0.000000,0.012421,-0.006805,0.000000,-0.009000,-0.053000,0.048000,-49.860000,-0.130000,2.590000,145.099411,Hold,0.937500,0.000000,ResetBack,21647.000000,-0.300000,LowGoal,1440.000000,-1454.545455,Speed,1440.000000,-1454.545455,Speed,Off,Off0.000000,0,,,,
01:14:59.212 PM 03/20/2016,Teleop Enabled,10,FALSE,0,NO ERROR,-0.000000,48.651053,0.000000,77.692818,TRUE,FALSE,TRUE,FALSE,FALSE,FALSE,Disabled,0.000000,0.000000,0.000000,TRUE,0.122040,-0.100586,0.000000,-0.008820,-0.023163,0.000000,-0.054000,0.045000,0.103000,-49.850000,-0.200000,2.640000,145.847651,Hold,0.937500,0.000000,ResetBack,21651.000000,-0.300000,LowGoal,1395.000000,-1454.545455,Speed,1365.000000,-1454.545455,Speed,Off,Off0.000000,0,,,,
01:14:59.312 PM 03/20/2016,Teleop Enabled,10,FALSE,0,NO ERROR,-0.000000,48.651053,0.000000,77.692818,TRUE,FALSE,TRUE,FALSE,FALSE,FALSE,Disabled,0.000000,0.000000,0.000000,TRUE,0.121338,-0.101257,0.000000,-0.019409,-0.009399,0.000000,0.074000,0.014000,-0.017000,-49.850000,-0.190000,2.660000,146.588920,Hold,0.937500,0.000000,ResetBack,21653.000000,-0.300000,LowGoal,1387.500000,-1454.545455,Speed,1357.500000,-1454.545455,Speed,Off,Off0.000000,0,,,,
01:14:59.413 PM 03/20/2016,Teleop Enabled,9,FALSE,0,NO ERROR,-0.000000,48.651053,0.000000,77.692818,TRUE,FALSE,TRUE,FALSE,FALSE,FALSE,Disabled,0.000000,0.000000,0.000000,TRUE,0.120880,-0.101532,0.000000,-0.014694,-0.013321,0.000000,0.003000,0.038000,0.007000,-49.850000,-0.260000,2.640000,147.313196,Hold,0.937500,0.000000,ResetBack,21683.000000,-0.300000,LowGoal,1410.000000,-1454.545455,Speed,1395.000000,-1454.545455,Speed,Off,Off0.000000,0,,,,
01:14:59.513 PM 03/20/2016,Teleop Enabled,9,FALSE,0,NO ERROR,-0.000000,48.651053,0.000000,77.692818,TRUE,FALSE,TRUE,FALSE,FALSE,FALSE,Disabled,0.000000,0.000000,0.000000,TRUE,0.120132,-0.101807,0.000000,0.000000,-0.024643,0.000000,0.047000,0.044000,0.013000,-49.840000,-0.210000,2.670000,148.046000,Hold,0.937500,0.000000,ResetBack,21922.000000,-0.300000,LowGoal,1402.500000,-1454.545455,Speed,1395.000000,-1454.545455,Speed,Off,Off0.000000,0,,,,
01:14:59.613 PM 03/20/2016,Teleop Enabled,11,FALSE,0,NO ERROR,-0.000000,48.651053,0.000000,77.692818,TRUE,FALSE,TRUE,FALSE,FALSE,FALSE,Disabled,0.000000,0.000000,0.000000,TRUE,0.120422,-0.102249,0.000000,0.004990,0.000000,0.000000,0.019000,0.040000,-0.021000,-49.840000,-0.190000,2.700000,148.789341,Hold,0.937500,0.000000,Reset,0.000000,2.000000,LowGoal,1395.000000,-1454.545455,Speed,1372.500000,-1454.545455,Speed,Off,Off0.000000,0,,,,
01:14:59.714 PM 03/20/2016,Teleop Enabled,9,FALSE,0,NO ERROR,-0.000000,48.651053,0.000000,77.692818,TRUE,FALSE,TRUE,FALSE,FALSE,FALSE,Disabled,0.000000,0.000000,0.000000,TRUE,0.121124,-0.102341,0.000000,0.007874,-0.002197,0.000000,-0.015000,0.008000,-0.047000,-49.850000,-0.180000,2.650000,149.516798,Hold,0.937500,0.000000,Hold,0.000000,2.000000,LowGoal,1402.500000,-1454.545455,Speed,1380.000000,-1454.545455,Speed,Off,Off0.000000,0,,,,
01:14:59.814 PM 03/20/2016,Teleop Enabled,10,FALSE,0,NO ERROR,-0.000000,48.651053,0.000000,77.692818,TRUE,FALSE,TRUE,FALSE,FALSE,FALSE,Disabled,0.000000,0.000000,0.000000,TRUE,0.121292,-0.102463,0.000000,0.013840,-0.018341,0.000000,-0.045000,0.073000,0.092000,-49.850000,-0.160000,2.630000,150.260194,Hold,0.937500,0.000000,Hold,-176.000000,2.000000,LowGoal,1410.000000,-1454.545455,Speed,1387.500000,-1454.545455,Speed,Off,Off0.000000,0,,,,
01:14:59.915 PM 03/20/2016,Teleop Enabled,10,FALSE,0,NO ERROR,-0.000000,48.651053,0.000000,77.692818,TRUE,FALSE,TRUE,FALSE,FALSE,FALSE,Disabled,0.000000,0.000000,0.000000,TRUE,0.121506,-0.102783,0.000000,0.000000,0.007095,0.000000,-0.043000,-0.006000,0.030000,-49.840000,-0.140000,2.730000,150.997298,Hold,0.937500,0.000000,Hold,-205.000000,2.000000,LowGoal,1402.500000,-1454.545455,Speed,1380.000000,-1454.545455,Speed,Off,Off0.000000,0,,,,
01:15:00.015 PM 03/20/2016,Teleop Enabled,10,FALSE,0,NO ERROR,-0.000000,48.651053,0.000000,77.692818,TRUE,FALSE,TRUE,FALSE,FALSE,FALSE,Disabled,0.000000,0.000000,0.000000,TRUE,0.121307,-0.103088,0.000000,-0.015793,-0.006439,0.000000,-0.009000,0.016000,-0.014000,-49.850000,-0.120000,2.780000,151.716954,Hold,0.937500,0.000000,Hold,-209.000000,2.000000,LowGoal,1402.500000,-1454.545455,Speed,1380.000000,-1454.545455,Speed,Off,Off0.000000,0,,,,
01:15:00.115 PM 03/20/2016,Teleop Enabled,11,FALSE,0,NO ERROR,-0.000000,48.651053,0.000000,77.692818,TRUE,FALSE,TRUE,FALSE,FALSE,FALSE,Disabled,0.000000,0.000000,0.000000,TRUE,0.120819,-0.103333,0.000000,0.000000,-0.011063,0.000000,-0.023000,0.066000,0.051000,-49.840000,-0.120000,2.700000,152.591498,Hold,0.937500,0.000000,Hold,-260.000000,2.000000,LowGoal,1402.500000,-1454.545455,Speed,1387.500000,-1454.545455,Speed,Off,Off0.000000,0,,,,
01:15:00.215 PM 03/20/2016,Teleop Enabled,10,FALSE,0,NO ERROR,-0.000000,48.651053,0.000000,77.692818,TRUE,FALSE,TRUE,FALSE,FALSE,FALSE,Disabled,0.000000,0.000000,0.000000,TRUE,0.121399,-0.103134,0.000000,0.029129,0.006821,0.000000,-0.030000,0.026000,0.132000,-49.840000,-0.110000,2.690000,153.327589,Hold,0.937500,0.000000,Hold,-233.000000,2.000000,LowGoal,1402.500000,-1454.545455,Speed,1387.500000,-1454.545455,Speed,Off,Off0.000000,0,,,,
01:15:00.315 PM 03/20/2016,Teleop Enabled,10,FALSE,0,NO ERROR,-0.000000,48.651053,0.000000,77.692818,TRUE,FALSE,TRUE,FALSE,FALSE,FALSE,Disabled,0.000000,0.000000,0.000000,TRUE,0.122269,-0.103058,0.000000,0.000000,-0.005478,0.000000,0.002000,-0.028000,-0.047000,-49.840000,-0.120000,2.710000,154.050774,Hold,0.937500,0.000000,Hold,-224.000000,2.000000,LowGoal,1402.500000,-1454.545455,Speed,1387.500000,-1454.545455,Speed,Off,Off0.000000,0,,,,
01:15:00.415 PM 03/20/2016,Teleop Enabled,10,FALSE,0,NO ERROR,-0.000000,48.651053,0.000000,77.692818,TRUE,FALSE,TRUE,FALSE,FALSE,FALSE,Disabled,0.000000,0.000000,0.000000,TRUE,0.122726,-0.103348,0.000000,0.022308,0.000946,0.000000,-0.060000,0.121000,0.077000,-49.850000,-0.160000,2.680000,154.799438,Hold,0.937500,0.000000,Hold,-224.000000,2.000000,LowGoal,1402.500000,-1454.545455,Speed,1380.000000,-1454.545455,Speed,Off,Off0.000000,0,,,,
01:15:00.515 PM 03/20/2016,Teleop Enabled,10,FALSE,0,NO ERROR,-0.000000,48.651053,0.000000,77.692818,TRUE,FALSE,TRUE,FALSE,FALSE,FALSE,Disabled,0.000000,0.000000,0.000000,TRUE,0.123428,-0.101883,0.000000,0.015305,0.027420,0.000000,-0.029000,-0.050000,-0.090000,-49.850000,-0.160000,2.690000,155.537309,Hold,0.937500,0.000000,Hold,-215.000000,2.000000,LowGoal,1402.500000,-1454.545455,Speed,1380.000000,-1454.545455,Speed,Off,Off0.000000,0,,,,
01:15:00.615 PM 03/20/2016,Teleop Enabled,10,FALSE,0,NO ERROR,-0.000000,48.651053,0.000000,77.692818,TRUE,FALSE,TRUE,FALSE,FALSE,FALSE,Disabled,0.000000,0.000000,0.000000,TRUE,0.123520,-0.100830,0.000000,-0.003372,0.026779,0.000000,-0.056000,0.027000,0.030000,-49.850000,-0.180000,2.720000,156.268126,Hold,0.937500,0.000000,Hold,-215.000000,2.000000,LowGoal,1402.500000,-1454.545455,Speed,1387.500000,-1454.545455,Speed,Off,Off0.000000,0,,,,
01:15:00.716 PM 03/20/2016,Teleop Enabled,9,FALSE,0,NO ERROR,-0.000000,48.651053,0.000000,77.692818,TRUE,FALSE,TRUE,FALSE,FALSE,FALSE,Disabled,0.000000,0.000000,0.000000,TRUE,0.123825,-0.099091,0.000000,0.017456,0.000000,0.000000,0.043000,-0.005000,0.113000,-49.850000,-0.210000,2.700000,157.004957,Hold,0.937500,0.000000,Hold,-215.000000,2.000000,LowGoal,1402.500000,-1454.545455,Speed,1380.000000,-1454.545455,Speed,Off,Off0.000000,0,,,,
01:15:00.817 PM 03/20/2016,Teleop Enabled,9,FALSE,0,NO ERROR,-0.000000,48.651053,0.000000,77.692818,TRUE,FALSE,TRUE,FALSE,FALSE,FALSE,Disabled,0.000000,0.000000,0.000000,TRUE,0.124878,-0.098190,0.000000,0.037994,0.035202,0.000000,-0.065000,-0.048000,0.040000,-49.850000,-0.190000,2.700000,157.749541,Hold,0.937500,0.000000,Hold,-214.000000,2.000000,LowGoal,1402.500000,-1454.545455,Speed,1380.000000,-1454.545455,Speed,Off,Off0.000000,0,,,,
01:15:00.918 PM 03/20/2016,Teleop Enabled,11,FALSE,0,NO ERROR,-0.000000,48.651053,0.000000,77.692818,TRUE,FALSE,TRUE,FALSE,FALSE,FALSE,Disabled,0.000000,0.000000,0.000000,TRUE,0.126587,-0.097366,0.000000,0.023575,0.006546,0.000000,0.085000,-0.037000,-0.056000,-49.850000,-0.210000,2.760000,158.497936,Hold,0.937500,0.000000,Hold,-214.000000,2.000000,LowGoal,1402.500000,-1454.545455,Speed,1380.000000,-1454.545455,Speed,Off,Off0.000000,0,,,,
01:15:01.019 PM 03/20/2016,Teleop Enabled,11,FALSE,0,NO ERROR,-0.000000,48.651053,0.000000,77.692818,TRUE,FALSE,TRUE,FALSE,FALSE,FALSE,Disabled,0.000000,0.000000,0.000000,TRUE,0.127899,-0.096786,0.000000,0.046112,0.026031,0.000000,-0.003000,-0.016000,-0.057000,-49.850000,-0.200000,2.690000,159.253705,Hold,0.937500,51.000000,Hold,-214.000000,143360.000000,LowGoal,1402.500000,-1454.545455,Speed,1387.500000,-1454.545455,Speed,Off,Off0.000000,0,,,,
01:15:01.120 PM 03/20/2016,Teleop Enabled,11,FALSE,0,NO ERROR,-0.000000,48.651053,0.000000,77.692818,TRUE,FALSE,TRUE,FALSE,FALSE,FALSE,Disabled,0.000000,0.000000,0.000000,TRUE,0.131042,-0.096161,0.000000,0.065735,-0.010330,0.000000,0.139000,-0.098000,-0.145000,-49.850000,-0.140000,2.660000,160.012714,Hold,4.380615,51.000000,Hold,-360.000000,143360.000000,LowGoal,1402.500000,-1454.545455,Speed,1380.000000,-1454.545455,Speed,Off,Off0.000000,0,,,,
01:15:01.221 PM 03/20/2016,Teleop Enabled,9,FALSE,0,NO ERROR,-0.000000,48.651053,0.000000,77.692818,TRUE,FALSE,TRUE,FALSE,FALSE,FALSE,Disabled,0.000000,0.000000,0.000000,TRUE,0.134842,-0.097000,0.000000,0.083313,-0.026627,0.000000,-0.104000,0.033000,-0.090000,-49.820000,-0.130000,2.600000,160.781392,Hold,9.656738,51.000000,Hold,-14719.000000,143360.000000,LowGoal,1402.500000,-1454.545455,Speed,1395.000000,-1454.545455,Speed,Off,Off0.000000,0,,,,
01:15:01.321 PM 03/20/2016,Teleop Enabled,10,FALSE,0,NO ERROR,-0.000000,48.657470,0.000000,77.692818,TRUE,FALSE,TRUE,FALSE,FALSE,FALSE,Disabled,0.000000,0.000000,0.000000,TRUE,0.138138,-0.099060,0.000000,0.066345,-0.063446,0.000000,-0.023000,-0.010000,0.035000,-49.790000,-0.140000,2.600000,161.553885,Hold,9.656738,51.000000,Hold,-29249.000000,143360.000000,LowGoal,1410.000000,-1454.545455,Speed,1395.000000,-1454.545455,Speed,Off,Off0.000000,0,,,,
01:15:01.421 PM 03/20/2016,Teleop Enabled,10,FALSE,0,NO ERROR,-0.000000,48.670303,0.000000,77.692818,TRUE,FALSE,TRUE,FALSE,FALSE,FALSE,Disabled,0.000000,0.000000,0.000000,TRUE,0.141144,-0.098846,0.000000,0.068436,0.000000,0.000000,0.033000,0.007000,-0.044000,-49.740000,-0.110000,2.660000,162.317200,Hold,21.629395,51.000000,Hold,-40562.000000,143360.000000,LowGoal,1410.000000,-1454.545455,Speed,1395.000000,-1454.545455,Speed,Off,Off0.000000,0,,,,
01:15:01.522 PM 03/20/2016,Teleop Enabled,11,FALSE,0,NO ERROR,-0.000000,48.670303,0.000000,77.692818,TRUE,FALSE,TRUE,FALSE,FALSE,FALSE,Disabled,0.000000,0.000000,0.000000,TRUE,0.144470,-0.099487,0.000000,0.051010,-0.026138,0.000000,-0.040000,0.034000,-0.040000,-49.810000,-0.260000,2.660000,162.984302,Hold,29.785156,51.000000,Hold,-54487.000000,143360.000000,LowGoal,1410.000000,-1454.545455,Speed,1395.000000,-1454.545455,Speed,Off,Off0.000000,0,,,,
01:15:01.624 PM 03/20/2016,Teleop Enabled,10,FALSE,0,NO ERROR,-0.000000,48.670303,0.000000,77.692818,TRUE,FALSE,TRUE,FALSE,FALSE,FALSE,Disabled,0.000000,0.000000,0.000000,TRUE,0.147141,-0.099945,0.000000,0.073288,-0.005753,0.000000,0.013000,-0.026000,0.066000,-49.790000,-0.170000,2.660000,163.748616,Hold,29.785156,51.000000,Hold,-69118.000000,143360.000000,LowGoal,1410.000000,-1454.545455,Speed,1395.000000,-1454.545455,Speed,Off,Off0.000000,0,,,,
01:15:01.724 PM 03/20/2016,Teleop Enabled,9,FALSE,0,NO ERROR,-0.000000,48.670303,0.000000,77.692818,TRUE,FALSE,TRUE,FALSE,FALSE,FALSE,Disabled,0.000000,0.000000,0.000000,TRUE,0.149368,-0.099701,0.000000,0.042511,0.021713,0.000000,0.111000,0.074000,-0.162000,-49.800000,-0.540000,2.770000,164.510034,Hold,39.066162,51.000000,Hold,-69118.000000,143360.000000,LowGoal,1417.500000,-1454.545455,Speed,1395.000000,-1454.545455,Speed,Off,Off0.000000,0,,,,
01:15:01.824 PM 03/20/2016,Teleop Enabled,9,FALSE,0,NO ERROR,-0.000000,48.516303,0.000000,77.602985,TRUE,FALSE,TRUE,FALSE,FALSE,FALSE,Disabled,0.000000,0.000000,0.000000,TRUE,0.151108,-0.096893,0.000000,-0.027039,0.047363,0.000000,-0.133000,-0.087000,-0.209000,-49.900000,-0.980000,2.690000,165.270140,Hold,49.759521,51.000000,Hold,-69118.000000,143360.000000,LowGoal,1417.500000,-1454.545455,Speed,1395.000000,-1454.545455,Speed,Off,Off0.000000,0,,,,
01:15:01.923 PM 03/20/2016,Teleop Enabled,8,FALSE,0,NO ERROR,-0.000000,48.445720,0.000000,77.538819,TRUE,FALSE,TRUE,FALSE,FALSE,FALSE,Disabled,0.000000,0.000000,0.000000,TRUE,0.148346,-0.094879,0.000000,-0.093506,0.026764,0.000000,-0.069000,-0.007000,-0.067000,-49.940000,-1.070000,2.840000,166.012662,Hold,56.001221,51.000000,Hold,-86606.000000,143360.000000,LowGoal,1410.000000,-1454.545455,Speed,1395.000000,-1454.545455,Speed,Off,Off0.000000,0,,,,
01:15:02.024 PM 03/20/2016,Teleop Enabled,10,FALSE,0,NO ERROR,-0.000000,48.445720,0.000000,77.538819,TRUE,FALSE,TRUE,FALSE,FALSE,FALSE,Disabled,0.000000,0.000000,0.000000,TRUE,0.143478,-0.094254,0.000000,-0.094330,-0.002625,0.000000,-0.069000,-0.007000,-0.067000,-49.870000,-0.590000,2.690000,166.788725,Hold,56.537598,51.000000,Hold,-106620.000000,143360.000000,LowGoal,1410.000000,-1454.545455,Speed,1387.500000,-1454.545455,Speed,Off,Off0.000000,0,,,,
01:15:02.124 PM 03/20/2016,Teleop Enabled,10,FALSE,0,NO ERROR,-0.000000,48.477803,0.000000,77.538819,TRUE,FALSE,TRUE,FALSE,FALSE,FALSE,Disabled,0.000000,0.000000,0.000000,TRUE,0.138855,-0.094971,0.000000,-0.086548,-0.006210,0.000000,-0.083000,-0.239000,0.186000,-49.760000,-0.880000,2.760000,167.636193,Hold,55.662109,51.000000,Hold,-127703.000000,143360.000000,LowGoal,1417.500000,-1454.545455,Speed,1387.500000,-1454.545455,Speed,Off,Off0.000000,0,,,,
01:15:02.225 PM 03/20/2016,Teleop Enabled,11,FALSE,0,NO ERROR,-0.000000,48.477803,0.000000,77.538819,TRUE,FALSE,TRUE,FALSE,FALSE,FALSE,Disabled,0.000000,0.000000,0.000000,TRUE,0.129898,-0.097153,0.000000,-0.200424,-0.049042,0.000000,-0.048000,0.056000,0.040000,-49.850000,-0.820000,2.720000,168.288090,Hold,55.364746,51.000000,Hold,-146006.000000,143360.000000,LowGoal,1417.500000,-1454.545455,Speed,1395.000000,-1454.545455,Speed,Off,Off0.000000,0,,,,
01:15:02.326 PM 03/20/2016,Teleop Enabled,9,FALSE,0,NO ERROR,-0.000000,48.477803,0.000000,77.551652,TRUE,FALSE,TRUE,FALSE,FALSE,FALSE,Disabled,0.000000,0.000000,0.000000,TRUE,0.119034,-0.099838,0.000000,-0.230957,-0.046356,0.000000,-0.048000,0.056000,0.040000,-49.830000,-0.860000,2.830000,169.028780,Hold,55.366211,51.000000,Hold,-143040.000000,143360.000000,LowGoal,1395.000000,-1454.545455,Speed,1372.500000,-1454.545455,Speed,Off,Off0.000000,0,,,,
01:15:02.427 PM 03/20/2016,Teleop Enabled,11,FALSE,0,NO ERROR,-0.000000,48.497053,0.000000,77.564485,TRUE,FALSE,TRUE,FALSE,FALSE,FALSE,Disabled,0.000000,0.000000,0.000000,TRUE,0.107986,-0.103058,0.000000,-0.230408,-0.079132,0.000000,-0.005000,0.057000,0.049000,-49.770000,-0.980000,2.780000,169.841062,Hold,55.058105,51.000000,Hold,-143442.000000,143360.000000,LowGoal,1395.000000,-1454.545455,Speed,1380.000000,-1454.545455,Speed,Off,Off0.000000,0,,,,
01:15:02.527 PM 03/20/2016,Teleop Enabled,9,FALSE,0,NO ERROR,-0.000000,48.497053,0.000000,77.564485,TRUE,FALSE,TRUE,FALSE,FALSE,FALSE,Disabled,0.000000,0.000000,0.000000,TRUE,0.095535,-0.106918,0.000000,-0.253387,-0.075119,0.000000,0.029000,0.001000,0.006000,-49.820000,-0.710000,2.840000,170.519222,Hold,55.054932,51.000000,Hold,-143442.000000,143360.000000,LowGoal,1417.500000,-1454.545455,Speed,1402.500000,-1454.545455,Speed,Off,Off0.000000,0,,,,
01:15:02.627 PM 03/20/2016,Teleop Enabled,10,FALSE,0,NO ERROR,-0.000000,48.497053,0.000000,77.564485,TRUE,FALSE,TRUE,FALSE,FALSE,FALSE,Disabled,0.000000,0.000000,0.000000,TRUE,0.082962,-0.110138,0.000000,-0.264191,-0.057312,0.000000,-0.003000,-0.093000,-0.062000,-49.790000,-0.860000,2.840000,171.309554,Hold,54.997559,51.000000,Hold,-143492.000000,143360.000000,LowGoal,1417.500000,-1454.545455,Speed,1395.000000,-1454.545455,Speed,Off,Off0.000000,0,,,,
01:15:02.727 PM 03/20/2016,Teleop Enabled,10,FALSE,0,NO ERROR,-0.000000,48.497053,0.000000,77.564485,TRUE,FALSE,TRUE,FALSE,FALSE,FALSE,Disabled,0.000000,0.000000,0.000000,TRUE,0.067902,-0.113953,0.000000,-0.248764,-0.068970,0.000000,-0.003000,-0.093000,-0.062000,-49.820000,-0.930000,2.860000,172.029655,Hold,54.997559,51.000000,Hold,-143492.000000,143360.000000,LowGoal,1417.500000,-1454.545455,Speed,1387.500000,-1454.545455,Speed,Off,Off0.000000,0,,,,
01:15:02.828 PM 03/20/2016,Teleop Enabled,11,FALSE,0,NO ERROR,-0.000000,48.497053,0.000000,77.564485,TRUE,FALSE,TRUE,FALSE,FALSE,FALSE,Disabled,0.000000,0.000000,0.000000,TRUE,0.057495,-0.116425,0.000000,-0.274475,-0.070862,0.000000,-0.042000,-0.082000,0.027000,-49.810000,-0.860000,2.940000,172.782876,Hold,54.997559,51.000000,Hold,-143491.000000,143360.000000,LowGoal,1417.500000,-1454.545455,Speed,1395.000000,-1454.545455,Speed,Off,Off0.000000,0,,,,
01:15:02.928 PM 03/20/2016,Teleop Enabled,9,FALSE,0,NO ERROR,-0.000000,48.497053,0.000000,77.564485,TRUE,FALSE,TRUE,FALSE,FALSE,FALSE,Disabled,0.000000,0.000000,0.000000,TRUE,0.041321,-0.120361,0.000000,-0.255676,-0.079346,0.000000,0.015000,0.049000,-0.063000,-49.810000,-0.790000,2.850000,173.540662,Hold,54.997559,51.000000,Hold,-143491.000000,143360.000000,LowGoal,1410.000000,-1454.545455,Speed,1395.000000,-1454.545455,Speed,Off,Off0.000000,0,,,,
01:15:03.027 PM 03/20/2016,Teleop Enabled,10,FALSE,0,NO ERROR,-0.000000,48.497053,0.000000,77.564485,TRUE,FALSE,TRUE,FALSE,FALSE,FALSE,Disabled,0.000000,0.000000,0.000000,TRUE,0.040634,-0.124512,0.000000,-0.022415,-0.089996,0.000000,0.015000,0.049000,-0.063000,-49.810000,-0.920000,2.840000,174.270206,Hold,54.997559,51.000000,Hold,-143491.000000,143360.000000,LowGoal,1417.500000,-1454.545455,Speed,1395.000000,-1454.545455,Speed,Off,Off0.000000,0,,,,
01:15:03.128 PM 03/20/2016,Teleop Enabled,10,FALSE,0,NO ERROR,-0.000000,48.497053,0.000000,77.564485,TRUE,FALSE,TRUE,FALSE,FALSE,FALSE,Disabled,0.000000,0.000000,0.000000,TRUE,0.039978,-0.128723,0.000000,-0.017319,-0.112885,0.000000,0.021000,0.007000,0.057000,-49.810000,-0.920000,2.840000,174.999935,Hold,54.997559,51.000000,Hold,-143491.000000,143360.000000,LowGoal,1417.500000,-1454.545455,Speed,1395.000000,-1454.545455,Speed,Off,Off0.000000,0,,,,
01:15:03.227 PM 03/20/2016,Teleop Enabled,10,FALSE,0,NO ERROR,-0.000000,48.497053,0.000000,77.564485,TRUE,FALSE,TRUE,FALSE,FALSE,FALSE,Disabled,0.000000,0.000000,0.000000,TRUE,0.039307,-0.134445,0.000000,-0.029190,-0.114502,0.000000,0.070000,0.063000,-0.062000,-49.810000,-0.860000,2.810000,175.739211,Hold,54.997559,51.000000,Hold,-143491.000000,143360.000000,LowGoal,1417.500000,-1454.545455,Speed,1395.000000,-1454.545455,Speed,Off,Off0.000000,0,,,,
01:15:03.329 PM 03/20/2016,Teleop Enabled,10,FALSE,0,NO ERROR,-0.000000,48.497053,0.000000,77.564485,TRUE,FALSE,TRUE,FALSE,FALSE,FALSE,Disabled,0.000000,0.000000,0.000000,TRUE,0.039307,-0.134445,0.000000,-0.029190,-0.114502,0.000000,0.104000,0.017000,0.099000,-49.810000,-0.800000,2.790000,176.471914,Hold,54.997559,51.000000,Hold,-143491.000000,143360.000000,LowGoal,1417.500000,-1454.545455,Speed,1395.000000,-1454.545455,Speed,Off,Off0.000000,0,,,,
01:15:03.429 PM 03/20/2016,Teleop Enabled,10,FALSE,0,NO ERROR,-0.000000,48.497053,0.000000,77.564485,TRUE,FALSE,TRUE,FALSE,FALSE,FALSE,Disabled,0.000000,0.000000,0.000000,TRUE,0.038559,-0.133469,0.000000,0.002243,0.031204,0.000000,0.074000,-0.133000,-0.020000,-49.810000,-0.800000,2.790000,177.238765,Hold,54.997559,51.000000,Hold,-143490.000000,143360.000000,LowGoal,1410.000000,-1454.545455,Speed,1395.000000,-1454.545455,Speed,Off,Off0.000000,0,,,,
01:15:03.530 PM 03/20/2016,Teleop Enabled,10,FALSE,0,NO ERROR,-0.000000,48.497053,0.000000,77.564485,TRUE,FALSE,TRUE,FALSE,FALSE,FALSE,Disabled,0.000000,0.000000,0.000000,TRUE,0.038315,-0.132553,0.000000,-0.007782,0.008224,0.000000,0.074000,-0.133000,-0.020000,-49.800000,-0.800000,2.850000,177.985483,Hold,54.997559,51.000000,Hold,-143490.000000,143360.000000,LowGoal,1417.500000,-1454.545455,Speed,1395.000000,-1454.545455,Speed,Off,Off0.000000,0,,,,
01:15:03.630 PM 03/20/2016,Teleop Enabled,10,FALSE,0,NO ERROR,-0.000000,48.497053,0.000000,77.564485,TRUE,FALSE,TRUE,FALSE,FALSE,FALSE,Disabled,0.000000,0.000000,0.000000,TRUE,0.036530,-0.132568,0.000000,-0.058746,-0.000824,0.000000,-0.169000,0.140000,0.132000,-49.810000,-0.820000,2.890000,178.722280,Hold,54.997559,51.000000,Hold,-143490.000000,143360.000000,LowGoal,1417.500000,-1454.545455,Speed,1387.500000,-1454.545455,Speed,Off,Off0.000000,0,,,,
01:15:03.731 PM 03/20/2016,Teleop Enabled,9,FALSE,0,NO ERROR,-0.000000,48.497053,0.000000,77.564485,TRUE,FALSE,TRUE,FALSE,FALSE,FALSE,Disabled,0.000000,0.000000,0.000000,TRUE,0.034637,-0.131546,0.000000,-0.031708,0.040024,0.000000,0.031000,0.089000,-0.001000,-49.810000,-0.920000,2.910000,179.461883,Hold,54.997559,51.000000,Hold,-143490.000000,143360.000000,LowGoal,1417.500000,-1454.545455,Speed,1395.000000,-1454.545455,Speed,Off,Off0.000000,0,,,,
01:15:03.831 PM 03/20/2016,Teleop Enabled,10,FALSE,0,NO ERROR,-0.000000,48.497053,0.000000,77.564485,TRUE,FALSE,TRUE,FALSE,FALSE,FALSE,Disabled,0.000000,0.000000,0.000000,TRUE,0.033432,-0.129456,0.000000,-0.020599,0.031982,0.000000,-0.057000,0.142000,0.169000,-49.810000,-0.840000,2.950000,-179.660950,Hold,54.997559,51.000000,Hold,-143490.000000,143360.000000,LowGoal,1410.000000,-1454.545455,Speed,1395.000000,-1454.545455,Speed,Off,Off0.000000,0,,,,
01:15:03.931 PM 03/20/2016,Teleop Enabled,11,FALSE,0,NO ERROR,-0.000000,48.497053,0.000000,77.564485,TRUE,FALSE,TRUE,FALSE,FALSE,FALSE,Disabled,0.000000,0.000000,0.000000,TRUE,0.033432,-0.129456,0.000000,-0.020599,0.031982,0.000000,-0.041000,0.027000,0.003000,-49.810000,-0.940000,2.960000,-178.903814,Hold,54.997559,51.000000,Hold,-143490.000000,143360.000000,LowGoal,1410.000000,-1454.545455,Speed,1387.500000,-1454.545455,Speed,Off,Off0.000000,0,,,,
01:15:04.031 PM 03/20/2016,Teleop Enabled,9,FALSE,0,NO ERROR,-0.000000,48.497053,0.000000,77.564485,TRUE,FALSE,TRUE,FALSE,FALSE,FALSE,Disabled,0.000000,0.000000,0.000000,TRUE,0.031158,-0.128189,0.000000,-0.009598,0.000000,0.000000,0.081000,-0.001000,0.055000,-49.810000,-0.850000,2.890000,-178.167682,Hold,54.997559,51.000000,Hold,-143490.000000,143360.000000,LowGoal,1410.000000,-1454.545455,Speed,1395.000000,-1454.545455,Speed,Off,Off0.000000,0,,,,
01:15:04.131 PM 03/20/2016,Teleop Enabled,11,FALSE,0,NO ERROR,-0.000000,48.497053,0.000000,77.564485,TRUE,FALSE,TRUE,FALSE,FALSE,FALSE,Disabled,0.000000,0.000000,0.000000,TRUE,0.031158,-0.128189,0.000000,-0.009598,0.000000,0.000000,0.040000,-0.012000,-0.080000,-49.820000,-0.860000,2.930000,-177.425422,Hold,54.997559,51.000000,Hold,-143490.000000,143360.000000,LowGoal,1417.500000,-1454.545455,Speed,1387.500000,-1454.545455,Speed,Off,Off0.000000,0,,,,
01:15:04.231 PM 03/20/2016,Teleop Enabled,10,FALSE,0,NO ERROR,-0.000000,48.497053,0.000000,77.564485,TRUE,FALSE,TRUE,FALSE,FALSE,FALSE,Disabled,0.000000,0.000000,0.000000,TRUE,0.031754,-0.129211,0.000000,0.007294,-0.030457,0.000000,0.084000,-0.111000,0.063000,-49.810000,-0.790000,2.840000,-176.687120,Hold,54.997559,51.000000,Hold,-143490.000000,143360.000000,LowGoal,1410.000000,-1454.545455,Speed,1395.000000,-1454.545455,Speed,Off,Off0.000000,0,,,,
01:15:04.332 PM 03/20/2016,Teleop Enabled,10,FALSE,0,NO ERROR,-0.000000,48.497053,0.000000,77.564485,TRUE,FALSE,TRUE,FALSE,FALSE,FALSE,Disabled,0.000000,0.000000,0.000000,TRUE,0.031754,-0.129211,0.000000,0.007294,-0.030457,0.000000,-0.003000,0.093000,0.108000,-49.800000,-0.810000,2.850000,-175.954444,Hold,54.997559,51.000000,Hold,-143490.000000,143360.000000,LowGoal,1410.000000,-1454.545455,Speed,1387.500000,-1454.545455,Speed,Off,Off0.000000,0,,,,
01:15:04.434 PM 03/20/2016,Teleop Enabled,10,FALSE,0,NO ERROR,-0.000000,48.497053,0.000000,77.564485,TRUE,FALSE,TRUE,FALSE,FALSE,FALSE,Disabled,0.000000,0.000000,0.000000,TRUE,0.033066,-0.129761,0.000000,0.021622,-0.003937,0.000000,0.007000,-0.124000,0.020000,-49.800000,-0.810000,2.840000,-175.224002,Hold,54.997559,51.000000,Hold,-143490.000000,143360.000000,LowGoal,1410.000000,-1454.545455,Speed,1395.000000,-1454.545455,Speed,Off,Off0.000000,0,,,,
01:15:04.535 PM 03/20/2016,Teleop Enabled,9,FALSE,0,NO ERROR,-0.000000,48.497053,0.000000,77.564485,TRUE,FALSE,TRUE,FALSE,FALSE,FALSE,Disabled,0.000000,0.000000,0.000000,TRUE,0.034348,-0.130173,0.000000,0.033890,-0.009506,0.000000,-0.078000,0.078000,0.042000,-49.800000,-0.780000,2.810000,-175.224002,Hold,54.997559,51.000000,Hold,-143490.000000,143360.000000,LowGoal,1417.500000,-1454.545455,Speed,1387.500000,-1454.545455,Speed,Off,Off0.000000,0,,,,
01:15:04.635 PM 03/20/2016,Teleop Enabled,10,FALSE,0,NO ERROR,-0.000000,48.497053,0.000000,77.564485,TRUE,FALSE,TRUE,FALSE,FALSE,FALSE,Disabled,0.000000,0.000000,0.000000,TRUE,0.035645,-0.130569,0.000000,0.042526,-0.018311,0.000000,-0.054000,-0.060000,0.096000,-49.810000,-0.760000,2.810000,-174.488961,Hold,54.997559,51.000000,Hold,-143490.000000,143360.000000,LowGoal,1417.500000,-1454.545455,Speed,1387.500000,-1454.545455,Speed,Off,Off0.000000,0,,,,
01:15:04.735 PM 03/20/2016,Teleop Enabled,9,FALSE,0,NO ERROR,-0.000000,48.497053,0.000000,77.564485,TRUE,FALSE,TRUE,FALSE,FALSE,FALSE,Disabled,0.000000,0.000000,0.000000,TRUE,0.038177,-0.132217,0.000000,0.060394,-0.029739,0.000000,0.019000,0.038000,0.007000,-49.810000,-0.710000,2.790000,-173.756082,Hold,54.997559,51.000000,Hold,-143490.000000,143360.000000,LowGoal,1410.000000,-1454.545455,Speed,1395.000000,-1454.545455,Speed,Off,Off0.000000,0,,,,
01:15:04.835 PM 03/20/2016,Teleop Enabled,9,FALSE,0,NO ERROR,-0.000000,48.497053,0.000000,77.564485,TRUE,FALSE,TRUE,FALSE,FALSE,FALSE,Disabled,0.000000,0.000000,0.000000,TRUE,0.037750,-0.133347,0.000000,-0.036270,-0.006790,0.000000,-0.098000,-0.074000,-0.014000,-49.810000,-0.770000,2.800000,-173.005724,Hold,54.997559,51.000000,Hold,-143490.000000,143360.000000,LowGoal,1417.500000,-1454.545455,Speed,1395.000000,-1454.545455,Speed,Off,Off0.000000,0,,,,
01:15:04.935 PM 03/20/2016,Teleop Enabled,11,FALSE,0,NO ERROR,-0.000000,48.497053,0.000000,77.564485,TRUE,FALSE,TRUE,FALSE,FALSE,FALSE,Disabled,0.000000,0.000000,0.000000,TRUE,0.036697,-0.133911,0.000000,-0.016769,-0.013992,0.000000,0.036000,0.040000,0.027000,-49.820000,-0.760000,2.810000,-172.265268,Hold,54.997559,51.000000,Hold,-143490.000000,143360.000000,LowGoal,1417.500000,-1454.545455,Speed,1387.500000,-1454.545455,Speed,Off,Off0.000000,0,,,,
01:15:05.037 PM 03/20/2016,Teleop Enabled,10,FALSE,0,NO ERROR,-0.000000,48.497053,0.000000,77.564485,TRUE,FALSE,TRUE,FALSE,FALSE,FALSE,Disabled,0.000000,0.000000,0.000000,TRUE,0.035980,-0.134933,0.000000,-0.022675,-0.023132,0.000000,0.067000,-0.095000,0.051000,-49.820000,-0.750000,2.780000,-171.524949,Hold,54.997559,51.000000,Hold,-143490.000000,143360.000000,LowGoal,1410.000000,-1454.545455,Speed,1395.000000,-1454.545455,Speed,Off,Off0.000000,0,,,,
01:15:05.137 PM 03/20/2016,Teleop Enabled,9,FALSE,0,NO ERROR,-0.000000,48.497053,0.000000,77.564485,TRUE,FALSE,TRUE,FALSE,FALSE,FALSE,Disabled,0.000000,0.000000,0.000000,TRUE,0.035782,-0.135757,0.000000,0.005707,-0.010574,0.000000,-0.083000,-0.017000,-0.085000,-49.820000,-0.700000,2.760000,-170.793533,Hold,54.997559,51.000000,Hold,-143490.000000,143360.000000,LowGoal,1410.000000,-1454.545455,Speed,1395.000000,-1454.545455,Speed,Off,Off0.000000,0,,,,
01:15:05.238 PM 03/20/2016,Teleop Enabled,11,FALSE,0,NO ERROR,-0.000000,48.497053,0.000000,77.564485,TRUE,FALSE,TRUE,FALSE,FALSE,FALSE,Disabled,0.000000,0.000000,0.000000,TRUE,0.035019,-0.136551,0.000000,-0.024857,-0.031601,0.000000,0.012000,-0.020000,-0.008000,-49.810000,-0.770000,2.790000,-170.048409,Hold,54.997559,51.000000,Hold,-143490.000000,143360.000000,LowGoal,1417.500000,-1454.545455,Speed,1387.500000,-1454.545455,Speed,Off,Off0.000000,0,,,,
01:15:05.338 PM 03/20/2016,Teleop Enabled,10,FALSE,0,NO ERROR,-0.000000,48.497053,0.000000,77.564485,TRUE,FALSE,TRUE,FALSE,FALSE,FALSE,Disabled,0.000000,0.000000,0.000000,TRUE,0.034912,-0.138016,0.000000,0.023254,-0.000381,0.000000,0.028000,0.095000,0.097000,-49.810000,-0.690000,2.770000,-169.317340,Hold,54.997559,51.000000,Hold,-143490.000000,143360.000000,LowGoal,1410.000000,-1454.545455,Speed,1387.500000,-1454.545455,Speed,Off,Off0.000000,0,,,,
01:15:05.438 PM 03/20/2016,Teleop Enabled,9,FALSE,0,NO ERROR,-0.000000,48.497053,0.000000,77.564485,TRUE,FALSE,TRUE,FALSE,FALSE,FALSE,Disabled,0.000000,0.000000,0.000000,TRUE,0.036484,-0.138046,0.000000,0.030106,0.001175,0.000000,0.082000,-0.093000,-0.029000,-49.800000,-0.760000,2.800000,-168.423717,Hold,54.997559,51.000000,Hold,-143490.000000,143360.000000,LowGoal,1410.000000,-1454.545455,Speed,1387.500000,-1454.545455,Speed,Off,Off0.000000,0,,,,
01:15:05.539 PM 03/20/2016,Teleop Enabled,9,FALSE,0,NO ERROR,-0.000000,48.497053,0.000000,77.564485,TRUE,FALSE,TRUE,FALSE,FALSE,FALSE,Disabled,0.000000,0.000000,0.000000,TRUE,0.038330,-0.138809,0.000000,0.033218,-0.010391,0.000000,-0.139000,0.067000,0.086000,-49.800000,-0.720000,2.820000,-167.682906,Hold,54.997559,51.000000,Hold,-143490.000000,143360.000000,LowGoal,1410.000000,-1454.545455,Speed,1387.500000,-1454.545455,Speed,Off,Off0.000000,0,,,,
01:15:05.641 PM 03/20/2016,Teleop Enabled,9,FALSE,0,NO ERROR,-0.000000,48.497053,0.000000,77.564485,TRUE,FALSE,TRUE,FALSE,FALSE,FALSE,Disabled,0.000000,0.000000,0.000000,TRUE,0.038818,-0.139908,0.000000,-0.009018,-0.035294,0.000000,0.099000,0.031000,0.029000,-49.810000,-0.820000,2.860000,-166.938071,Hold,54.997559,51.000000,Hold,-143490.000000,143360.000000,LowGoal,1417.500000,-1454.545455,Speed,1387.500000,-1454.545455,Speed,Off,Off0.000000,0,,,,
01:15:05.741 PM 03/20/2016,Teleop Enabled,9,FALSE,0,NO ERROR,-0.000000,48.497053,0.000000,77.564485,TRUE,FALSE,TRUE,FALSE,FALSE,FALSE,Disabled,0.000000,0.000000,0.000000,TRUE,0.038925,-0.139847,0.000000,0.008209,0.017487,0.000000,0.007000,0.115000,0.087000,-49.810000,-0.760000,2.880000,-166.212607,Hold,54.997559,51.000000,Hold,-143489.000000,143360.000000,LowGoal,1410.000000,-1454.545455,Speed,1387.500000,-1454.545455,Speed,Off,Off0.000000,0,,,,
01:15:05.842 PM 03/20/2016,Teleop Enabled,11,FALSE,0,NO ERROR,-0.000000,48.497053,0.000000,77.564485,TRUE,FALSE,TRUE,FALSE,FALSE,FALSE,Disabled,0.000000,0.000000,0.000000,TRUE,0.039001,-0.139023,0.000000,-0.018555,0.010208,0.000000,0.102000,-0.041000,-0.002000,-49.820000,-0.790000,2.910000,-165.483573,Hold,54.997559,51.000000,Hold,-143489.000000,143360.000000,LowGoal,1410.000000,-1454.545455,Speed,1395.000000,-1454.545455,Speed,Off,Off0.000000,0,,,,
01:15:05.941 PM 03/20/2016,Teleop Enabled,9,FALSE,0,NO ERROR,-0.000000,48.497053,0.000000,77.564485,TRUE,FALSE,TRUE,FALSE,FALSE,FALSE,Disabled,0.000000,0.000000,0.000000,TRUE,0.040024,-0.138992,0.000000,0.039291,0.005157,0.000000,0.040000,0.052000,0.031000,-49.820000,-0.730000,2.810000,-164.758113,Hold,54.997559,51.000000,Hold,-143489.000000,143360.000000,LowGoal,1417.500000,-1454.545455,Speed,1387.500000,-1454.545455,Speed,Off,Off0.000000,0,,,,
01:15:06.043 PM 03/20/2016,Teleop Enabled,10,FALSE,0,NO ERROR,-0.000000,48.497053,0.000000,77.564485,TRUE,FALSE,TRUE,FALSE,FALSE,FALSE,Disabled,0.000000,0.000000,0.000000,TRUE,0.040863,-0.138870,0.000000,0.007431,0.000000,0.000000,0.091000,-0.018000,0.054000,-49.820000,-0.760000,2.860000,-164.017498,Hold,54.997559,51.000000,Hold,-143489.000000,143360.000000,LowGoal,1417.500000,-1454.545455,Speed,1387.500000,-1454.545455,Speed,Off,Off0.000000,0,,,,
01:15:06.143 PM 03/20/2016,Teleop Enabled,10,FALSE,0,NO ERROR,-0.000000,48.497053,0.000000,77.564485,TRUE,FALSE,TRUE,FALSE,FALSE,FALSE,Disabled,0.000000,0.000000,0.000000,TRUE,0.042175,-0.138626,0.000000,0.034225,0.000000,0.000000,0.047000,0.021000,-0.056000,-49.820000,-0.730000,2.850000,-163.285586,Hold,54.997559,51.000000,Hold,-143489.000000,143360.000000,LowGoal,1410.000000,-1454.545455,Speed,1387.500000,-1454.545455,Speed,Off,Off0.000000,0,,,,
01:15:06.245 PM 03/20/2016,Teleop Enabled,10,FALSE,0,NO ERROR,-0.000000,48.497053,0.000000,77.564485,TRUE,FALSE,TRUE,FALSE,FALSE,FALSE,Disabled,0.000000,0.000000,0.000000,TRUE,0.043854,-0.139572,0.000000,0.036667,-0.040405,0.000000,-0.003000,0.085000,0.175000,-49.820000,-0.750000,2.920000,-162.551302,Hold,54.997559,51.000000,Hold,-143489.000000,143360.000000,LowGoal,1410.000000,-1454.545455,Speed,1387.500000,-1454.545455,Speed,Off,Off0.000000,0,,,,
01:15:06.345 PM 03/20/2016,Teleop Enabled,10,FALSE,0,NO ERROR,-0.000000,48.497053,0.000000,77.564485,TRUE,FALSE,TRUE,FALSE,FALSE,FALSE,Disabled,0.000000,0.000000,0.000000,TRUE,0.045105,-0.141556,0.000000,0.000000,-0.039093,0.000000,-0.025000,0.043000,-0.009000,-49.820000,-0.820000,2.900000,-161.819731,Hold,54.997559,51.000000,Hold,-143489.000000,143360.000000,LowGoal,1417.500000,-1454.545455,Speed,1395.000000,-1454.545455,Speed,Off,Off0.000000,0,,,,
01:15:06.445 PM 03/20/2016,Teleop Enabled,10,FALSE,0,NO ERROR,-0.000000,48.497053,0.000000,77.564485,TRUE,FALSE,TRUE,FALSE,FALSE,FALSE,Disabled,0.000000,0.000000,0.000000,TRUE,0.044296,-0.142075,0.000000,-0.029190,0.001709,0.000000,-0.054000,0.009000,0.071000,-49.820000,-0.800000,2.980000,-161.079560,Hold,54.997559,51.000000,Hold,-143489.000000,143360.000000,LowGoal,1417.500000,-1454.545455,Speed,1387.500000,-1454.545455,Speed,Off,Off0.000000,0,,,,
01:15:06.546 PM 03/20/2016,Teleop Enabled,10,FALSE,0,NO ERROR,-0.000000,48.497053,0.000000,77.564485,TRUE,FALSE,TRUE,FALSE,FALSE,FALSE,Disabled,0.000000,0.000000,0.000000,TRUE,0.043610,-0.142181,0.000000,0.003067,-0.014938,0.000000,-0.051000,0.080000,0.020000,-49.820000,-0.770000,2.900000,-160.343607,Hold,54.997559,51.000000,Hold,-143489.000000,143360.000000,LowGoal,1417.500000,-1454.545455,Speed,1387.500000,-1454.545455,Speed,Off,Off0.000000,0,,,,
01:15:06.646 PM 03/20/2016,Teleop Enabled,9,FALSE,0,NO ERROR,-0.000000,48.497053,0.000000,77.564485,TRUE,FALSE,TRUE,FALSE,FALSE,FALSE,Disabled,0.000000,0.000000,0.000000,TRUE,0.043777,-0.141983,0.000000,0.013138,0.017548,0.000000,0.052000,-0.049000,0.061000,-49.820000,-0.720000,2.960000,-159.583328,Hold,54.997559,51.000000,Hold,-143489.000000,143360.000000,LowGoal,1417.500000,-1454.545455,Speed,1387.500000,-1454.545455,Speed,Off,Off0.000000,0,,,,
01:15:06.746 PM 03/20/2016,Teleop Enabled,9,FALSE,0,NO ERROR,-0.000000,48.497053,0.000000,77.564485,TRUE,FALSE,TRUE,FALSE,FALSE,FALSE,Disabled,0.000000,0.000000,0.000000,TRUE,0.044540,-0.141068,0.000000,0.014618,0.025970,0.000000,-0.017000,-0.005000,-0.016000,-49.830000,-0.710000,2.900000,-158.847598,Hold,54.997559,51.000000,Hold,-143489.000000,143360.000000,LowGoal,1417.500000,-1454.545455,Speed,1395.000000,-1454.545455,Speed,Off,Off0.000000,0,,,,
01:15:06.847 PM 03/20/2016,Teleop Enabled,9,FALSE,0,NO ERROR,-0.000000,48.497053,0.000000,77.564485,TRUE,FALSE,TRUE,FALSE,FALSE,FALSE,Disabled,0.000000,0.000000,0.000000,TRUE,0.045013,-0.139862,0.000000,0.015701,0.026306,0.000000,-0.014000,-0.051000,0.077000,-49.830000,-0.710000,2.940000,-158.088273,Hold,54.997559,51.000000,Hold,-143489.000000,143360.000000,LowGoal,1410.000000,-1454.545455,Speed,1387.500000,-1454.545455,Speed,Off,Off0.000000,0,,,,
01:15:06.947 PM 03/20/2016,Teleop Enabled,10,FALSE,0,NO ERROR,-0.000000,48.497053,0.000000,77.564485,TRUE,FALSE,TRUE,FALSE,FALSE,FALSE,Disabled,0.000000,0.000000,0.000000,TRUE,0.045486,-0.138535,0.000000,0.017197,0.040695,0.000000,0.119000,0.020000,-0.069000,-49.840000,-0.780000,2.930000,-157.338742,Hold,54.997559,51.000000,Hold,-143489.000000,143360.000000,LowGoal,1410.000000,-1454.545455,Speed,1395.000000,-1454.545455,Speed,Off,Off0.000000,0,,,,
01:15:07.047 PM 03/20/2016,Teleop Enabled,9,FALSE,0,NO ERROR,-0.000000,48.497053,0.000000,77.564485,TRUE,FALSE,TRUE,FALSE,FALSE,FALSE,Disabled,0.000000,0.000000,0.000000,TRUE,0.046753,-0.135971,0.000000,0.021851,0.046997,0.000000,-0.115000,-0.009000,0.014000,-49.830000,-0.710000,2.950000,-156.591325,Hold,54.997559,51.000000,Hold,-143489.000000,143360.000000,LowGoal,1417.500000,-1454.545455,Speed,1387.500000,-1454.545455,Speed,Off,Off0.000000,0,,,,
01:15:07.147 PM 03/20/2016,Teleop Enabled,10,FALSE,0,NO ERROR,-0.000000,48.497053,0.000000,77.564485,TRUE,FALSE,TRUE,FALSE,FALSE,FALSE,Disabled,0.000000,0.000000,0.000000,TRUE,0.048004,-0.133667,0.000000,0.008606,0.026382,0.000000,0.048000,-0.032000,-0.108000,-49.840000,-0.730000,2.890000,-155.843150,Hold,54.997559,51.000000,Hold,-143489.000000,143360.000000,LowGoal,1417.500000,-1454.545455,Speed,1387.500000,-1454.545455,Speed,Off,Off0.000000,0,,,,
01:15:07.247 PM 03/20/2016,Teleop Enabled,10,FALSE,0,NO ERROR,-0.000000,48.497053,0.000000,77.564485,TRUE,FALSE,TRUE,FALSE,FALSE,FALSE,Disabled,0.000000,0.000000,0.000000,TRUE,0.049088,-0.131607,0.000000,0.035187,0.038895,0.000000,0.000000,-0.081000,-0.019000,-49.840000,-0.660000,2.890000,-155.109879,Hold,54.997559,51.000000,Hold,-143489.000000,143360.000000,LowGoal,1410.000000,-1454.545455,Speed,1387.500000,-1454.545455,Speed,Off,Off0.000000,0,,,,
01:15:07.348 PM 03/20/2016,Teleop Enabled,9,FALSE,0,NO ERROR,-0.000000,48.497053,0.000000,77.564485,TRUE,FALSE,TRUE,FALSE,FALSE,FALSE,Disabled,0.000000,0.000000,0.000000,TRUE,0.050720,-0.130676,0.000000,0.040604,-0.005493,0.000000,-0.013000,0.074000,0.042000,-49.830000,-0.730000,2.850000,-154.190068,Hold,54.997559,51.000000,Hold,-143489.000000,143360.000000,LowGoal,1410.000000,-1454.545455,Speed,1395.000000,-1454.545455,Speed,Off,Off0.000000,0,,,,
01:15:07.449 PM 03/20/2016,Teleop Enabled,9,FALSE,0,NO ERROR,-0.000000,48.497053,0.000000,77.564485,TRUE,FALSE,TRUE,FALSE,FALSE,FALSE,Disabled,0.000000,0.000000,0.000000,TRUE,0.053391,-0.129166,0.000000,0.051804,0.039474,0.000000,0.045000,-0.088000,-0.153000,-49.840000,-0.660000,2.890000,-153.450497,Hold,54.997559,51.000000,Hold,-143489.000000,143360.000000,LowGoal,1417.500000,-1454.545455,Speed,1387.500000,-1454.545455,Speed,Off,Off0.000000,0,,,,
01:15:07.551 PM 03/20/2016,Teleop Enabled,9,FALSE,0,NO ERROR,-0.000000,48.497053,0.000000,77.564485,TRUE,FALSE,TRUE,FALSE,FALSE,FALSE,Disabled,0.000000,0.000000,0.000000,TRUE,0.055176,-0.128067,0.000000,0.032028,0.013519,0.000000,-0.086000,0.089000,0.015000,-49.830000,-0.700000,2.830000,-152.705551,Hold,54.997559,51.000000,Hold,-143489.000000,143360.000000,LowGoal,1417.500000,-1454.545455,Speed,1395.000000,-1454.545455,Speed,Off,Off0.000000,0,,,,
01:15:07.651 PM 03/20/2016,Teleop Enabled,10,FALSE,0,NO ERROR,-0.000000,48.497053,0.000000,77.564485,TRUE,FALSE,TRUE,FALSE,FALSE,FALSE,Disabled,0.000000,0.000000,0.000000,TRUE,0.055817,-0.126694,0.000000,0.025314,0.039413,0.000000,0.057000,0.081000,0.121000,-49.830000,-0.690000,2.860000,-151.973977,Hold,54.997559,51.000000,Hold,-143489.000000,143360.000000,LowGoal,1417.500000,-1454.545455,Speed,1395.000000,-1454.545455,Speed,Off,Off0.000000,0,,,,
01:15:07.751 PM 03/20/2016,Teleop Enabled,10,FALSE,0,NO ERROR,-0.000000,48.497053,0.000000,77.564485,TRUE,FALSE,TRUE,FALSE,FALSE,FALSE,Disabled,0.000000,0.000000,0.000000,TRUE,0.057388,-0.123825,0.000000,0.023346,0.066010,0.000000,0.020000,0.044000,0.012000,-49.830000,-0.740000,2.850000,-151.237655,Hold,54.997559,51.000000,Hold,-143489.000000,143360.000000,LowGoal,1417.500000,-1454.545455,Speed,1387.500000,-1454.545455,Speed,Off,Off0.000000,0,,,,
01:15:07.851 PM 03/20/2016,Teleop Enabled,10,FALSE,0,NO ERROR,-0.000000,48.497053,0.000000,77.564485,TRUE,FALSE,TRUE,FALSE,FALSE,FALSE,Disabled,0.000000,0.000000,0.000000,TRUE,0.058685,-0.120712,0.000000,0.028778,0.056976,0.000000,0.094000,-0.022000,0.118000,-49.840000,-0.730000,2.880000,-150.502930,Hold,54.997559,51.000000,Hold,-143489.000000,143360.000000,LowGoal,1417.500000,-1454.545455,Speed,1395.000000,-1454.545455,Speed,Off,Off0.000000,0,,,,
01:15:07.951 PM 03/20/2016,Teleop Enabled,10,FALSE,0,NO ERROR,-0.000000,48.497053,0.000000,77.564485,TRUE,FALSE,TRUE,FALSE,FALSE,FALSE,Disabled,0.000000,0.000000,0.000000,TRUE,0.061264,-0.118011,0.000000,0.046478,0.055893,0.000000,0.124000,-0.023000,-0.073000,-49.840000,-0.750000,2.830000,-149.755482,Hold,54.997559,51.000000,Hold,-143489.000000,143360.000000,LowGoal,1417.500000,-1454.545455,Speed,1395.000000,-1454.545455,Speed,Off,Off0.000000,0,,,,
01:15:08.051 PM 03/20/2016,Teleop Enabled,10,FALSE,0,NO ERROR,-0.000000,48.497053,0.000000,77.564485,TRUE,FALSE,TRUE,FALSE,FALSE,FALSE,Disabled,0.000000,0.000000,0.000000,TRUE,0.063980,-0.115570,0.000000,0.060211,0.054428,0.000000,-0.090000,0.030000,0.089000,-49.840000,-0.730000,2.810000,-149.013866,Hold,54.997559,51.000000,Hold,-143489.000000,143360.000000,LowGoal,1417.500000,-1454.545455,Speed,1387.500000,-1454.545455,Speed,Off,Off0.000000,0,,,,
01:15:08.152 PM 03/20/2016,Teleop Enabled,10,FALSE,0,NO ERROR,-0.000000,48.497053,0.000000,77.564485,TRUE,FALSE,TRUE,FALSE,FALSE,FALSE,Disabled,0.000000,0.000000,0.000000,TRUE,0.066284,-0.114365,0.000000,0.043777,-0.007172,0.000000,0.101000,-0.036000,-0.153000,-49.830000,-0.700000,2.750000,-148.272883,Hold,54.997559,51.000000,Hold,-143489.000000,143360.000000,LowGoal,1417.500000,-1454.545455,Speed,1395.000000,-1454.545455,Speed,Off,Off0.000000,0,,,,
01:15:08.253 PM 03/20/2016,Teleop Enabled,10,FALSE,0,NO ERROR,-0.000000,48.497053,0.000000,77.564485,TRUE,FALSE,TRUE,FALSE,FALSE,FALSE,Disabled,0.000000,0.000000,0.000000,TRUE,0.068192,-0.115326,0.000000,0.034256,-0.018967,0.000000,-0.108000,-0.027000,0.134000,-49.830000,-0.730000,2.800000,-147.537507,Hold,54.997559,51.000000,Hold,-143489.000000,143360.000000,LowGoal,1417.500000,-1454.545455,Speed,1395.000000,-1454.545455,Speed,Off,Off0.000000,0,,,,
01:15:08.355 PM 03/20/2016,Teleop Enabled,11,FALSE,0,NO ERROR,-0.000000,48.497053,0.000000,77.564485,TRUE,FALSE,TRUE,FALSE,FALSE,FALSE,Disabled,0.000000,0.000000,0.000000,TRUE,0.069824,-0.115585,0.000000,0.030533,0.000778,0.000000,0.065000,0.006000,-0.053000,-49.840000,-0.690000,2.760000,-146.794858,Hold,54.997559,51.000000,Hold,-143489.000000,143360.000000,LowGoal,1417.500000,-1454.545455,Speed,1395.000000,-1454.545455,Speed,Off,Off0.000000,0,,,,
01:15:08.456 PM 03/20/2016,Teleop Enabled,11,FALSE,0,NO ERROR,-0.000000,48.497053,0.000000,77.564485,TRUE,FALSE,TRUE,FALSE,FALSE,FALSE,Disabled,0.000000,0.000000,0.000000,TRUE,0.072495,-0.114532,0.000000,0.044418,0.043381,0.000000,-0.111000,0.071000,0.061000,-49.830000,-0.720000,2.780000,-146.054894,Hold,54.997559,51.000000,Hold,-143489.000000,143360.000000,LowGoal,1410.000000,-1454.545455,Speed,1395.000000,-1454.545455,Speed,Off,Off0.000000,0,,,,
01:15:08.557 PM 03/20/2016,Teleop Enabled,11,FALSE,0,NO ERROR,-0.000000,48.497053,0.000000,77.564485,TRUE,FALSE,TRUE,FALSE,FALSE,FALSE,Disabled,0.000000,0.000000,0.000000,TRUE,0.075287,-0.112411,0.000000,0.069763,0.017822,0.000000,-0.058000,-0.127000,-0.039000,-49.840000,-0.640000,2.710000,-145.319440,Hold,54.997559,51.000000,Hold,-143489.000000,143360.000000,LowGoal,1417.500000,-1454.545455,Speed,1387.500000,-1454.545455,Speed,Off,Off0.000000,0,,,,
01:15:08.658 PM 03/20/2016,Teleop Enabled,10,FALSE,0,NO ERROR,-0.000000,48.497053,0.000000,77.564485,TRUE,FALSE,TRUE,FALSE,FALSE,FALSE,Disabled,0.000000,0.000000,0.000000,TRUE,0.078308,-0.112381,0.000000,0.068420,0.003723,0.000000,-0.036000,0.086000,0.151000,-49.830000,-0.680000,2.760000,-144.434936,Hold,54.997559,51.000000,Hold,-143489.000000,143360.000000,LowGoal,1417.500000,-1454.545455,Speed,1387.500000,-1454.545455,Speed,Off,Off0.000000,0,,,,
01:15:08.757 PM 03/20/2016,Teleop Enabled,11,FALSE,0,NO ERROR,-0.000000,48.497053,0.000000,77.564485,TRUE,FALSE,TRUE,FALSE,FALSE,FALSE,Disabled,0.000000,0.000000,0.000000,TRUE,0.082626,-0.111816,0.000000,0.097534,0.005386,0.000000,-0.093000,-0.013000,-0.047000,-49.840000,-0.630000,2.710000,-143.692779,Hold,54.997559,51.000000,Hold,-143489.000000,143360.000000,LowGoal,1417.500000,-1454.545455,Speed,1402.500000,-1454.545455,Speed,Off,Off0.000000,0,,,,
01:15:08.858 PM 03/20/2016,Teleop Enabled,9,FALSE,0,NO ERROR,0.181102,48.484220,-0.181102,77.718485,TRUE,FALSE,TRUE,FALSE,FALSE,FALSE,Disabled,0.000000,0.000000,0.000000,TRUE,0.086014,-0.112183,0.000000,0.048233,-0.011185,0.000000,0.161000,-0.041000,0.044000,-49.840000,-0.720000,2.820000,-142.957005,Hold,54.997559,51.000000,Hold,-143489.000000,143360.000000,LowGoal,1417.500000,-1454.545455,Speed,1395.000000,-1454.545455,Speed,Off,Off0.000000,0,,,,
01:15:08.959 PM 03/20/2016,Teleop Enabled,11,FALSE,0,NO ERROR,0.181102,48.683136,-0.181102,78.064984,TRUE,FALSE,TRUE,FALSE,FALSE,FALSE,Disabled,0.000000,0.000000,0.000000,TRUE,0.088715,-0.114548,0.000000,0.046692,-0.069061,0.000000,-0.001000,-0.023000,0.009000,-50.290000,-1.130000,2.630000,-142.634991,Hold,54.997559,51.000000,Hold,-143489.000000,143360.000000,LowGoal,1417.500000,-1454.545455,Speed,1387.500000,-1454.545455,Speed,Off,Off0.000000,0,,,,
01:15:09.059 PM 03/20/2016,Teleop Enabled,10,FALSE,0,NO ERROR,0.181102,48.150554,-0.181102,78.417900,TRUE,FALSE,TRUE,FALSE,FALSE,FALSE,Disabled,0.000000,0.000000,0.000000,TRUE,0.090897,-0.115723,0.000000,0.056442,0.034210,0.000000,-0.084000,0.115000,0.246000,-51.170000,-0.610000,2.630000,-142.759044,Hold,54.997559,51.000000,Hold,-143489.000000,143360.000000,LowGoal,1410.000000,-1454.545455,Speed,1387.500000,-1454.545455,Speed,Off,Off0.000000,0,,,,
01:15:09.159 PM 03/20/2016,Teleop Enabled,11,FALSE,0,NO ERROR,0.181102,47.727055,-0.181102,78.757982,TRUE,FALSE,TRUE,FALSE,FALSE,FALSE,Disabled,0.000000,0.000000,0.000000,TRUE,0.094254,-0.111496,0.000000,0.072784,0.051254,0.000000,0.066000,-0.106000,0.003000,-52.790000,-0.790000,2.480000,-143.580872,Hold,54.999268,51.000000,Hold,-143488.000000,143360.000000,LowGoal,1410.000000,-1454.545455,Speed,1387.500000,-1454.545455,Speed,Off,Off0.000000,0,,,,
01:15:09.259 PM 03/20/2016,Teleop Enabled,11,FALSE,0,NO ERROR,0.181102,47.207306,-0.181102,78.969732,TRUE,FALSE,TRUE,FALSE,FALSE,FALSE,Disabled,0.000000,0.000000,0.000000,TRUE,0.097153,-0.109024,0.000000,0.065903,0.082169,0.000000,-0.020000,0.160000,-0.095000,-54.360000,-0.680000,2.670000,-144.379504,Hold,55.011719,51.000000,Hold,-143488.000000,143360.000000,LowGoal,1417.500000,-1454.545455,Speed,1387.500000,-1454.545455,Speed,Off,Off0.000000,0,,,,
01:15:09.359 PM 03/20/2016,Teleop Enabled,11,FALSE,0,NO ERROR,0.181102,46.629808,-0.181102,78.976149,TRUE,FALSE,TRUE,FALSE,FALSE,FALSE,Disabled,0.000000,0.000000,0.000000,TRUE,0.100601,-0.100815,0.000000,0.056747,0.132935,0.000000,-0.059000,-0.084000,0.010000,-55.580000,-0.400000,2.690000,-144.849978,Hold,55.009277,51.000000,Hold,-143488.000000,143360.000000,LowGoal,1410.000000,-1454.545455,Speed,1395.000000,-1454.545455,Speed,Off,Off0.000000,0,,,,
01:15:09.459 PM 03/20/2016,Teleop Enabled,11,FALSE,0,NO ERROR,-0.000000,46.007392,0.000000,79.008232,TRUE,FALSE,TRUE,FALSE,FALSE,FALSE,Disabled,0.000000,0.000000,0.000000,TRUE,0.102600,-0.095810,0.000000,0.000000,0.137238,0.000000,-0.003000,-0.007000,0.010000,-56.940000,-0.480000,2.580000,-145.421845,Hold,55.008301,51.000000,Hold,-143488.000000,143360.000000,LowGoal,1410.000000,-1454.545455,Speed,1387.500000,-1454.545455,Speed,Off,Off0.000000,0,,,,
01:15:09.560 PM 03/20/2016,Teleop Enabled,11,FALSE,0,NO ERROR,-0.000000,45.750726,0.000000,78.892732,TRUE,FALSE,TRUE,FALSE,FALSE,FALSE,Disabled,0.000000,0.000000,0.000000,TRUE,0.100189,-0.086990,0.000000,-0.080566,0.157089,0.000000,-0.066000,-0.037000,-0.106000,-57.910000,-0.670000,2.790000,-145.615544,Hold,55.008301,51.000000,Hold,-143488.000000,143360.000000,LowGoal,1417.500000,-1454.545455,Speed,1395.000000,-1454.545455,Speed,Off,Off0.000000,0,,,,
01:15:09.661 PM 03/20/2016,Teleop Enabled,10,FALSE,0,NO ERROR,-0.000000,45.750726,0.000000,78.661733,TRUE,FALSE,TRUE,FALSE,FALSE,FALSE,Disabled,0.000000,0.000000,0.000000,TRUE,0.093872,-0.078323,0.000000,-0.131943,0.165222,0.000000,-0.005000,-0.095000,0.004000,-57.400000,-0.680000,2.950000,-144.383401,Hold,55.008301,51.000000,Hold,-143488.000000,143360.000000,LowGoal,1417.500000,-1454.545455,Speed,1395.000000,-1454.545455,Speed,Off,Off0.000000,0,,,,
01:15:09.761 PM 03/20/2016,Teleop Enabled,10,FALSE,0,NO ERROR,-0.000000,45.750726,0.000000,78.629649,TRUE,FALSE,TRUE,FALSE,FALSE,FALSE,Disabled,0.000000,0.000000,0.000000,TRUE,0.092575,-0.072769,0.000000,0.007782,0.068680,0.000000,-0.002000,0.053000,0.008000,-57.040000,-0.820000,2.700000,-143.310373,Hold,55.008057,51.000000,Hold,-143488.000000,143360.000000,LowGoal,1417.500000,-1454.545455,Speed,1395.000000,-1454.545455,Speed,Off,Off0.000000,0,,,,
01:15:09.862 PM 03/20/2016,Teleop Enabled,11,FALSE,0,NO ERROR,-0.000000,45.750726,0.000000,78.636066,TRUE,FALSE,TRUE,FALSE,FALSE,FALSE,Disabled,0.000000,0.000000,0.000000,TRUE,0.092789,-0.068344,0.000000,-0.000534,0.106812,0.000000,-0.050000,0.014000,0.034000,-57.150000,-0.630000,2.800000,-142.676877,Hold,55.007568,51.000000,Hold,-143488.000000,143360.000000,LowGoal,1417.500000,-1454.545455,Speed,1387.500000,-1454.545455,Speed,Off,Off0.000000,0,,,,
01:15:09.962 PM 03/20/2016,Teleop Enabled,9,FALSE,0,NO ERROR,-0.259843,45.981726,0.259843,78.218984,TRUE,FALSE,TRUE,FALSE,FALSE,FALSE,Disabled,0.000000,0.000000,0.000000,TRUE,0.092316,-0.063782,0.000000,-0.005875,0.082825,0.000000,-0.026000,0.347000,-0.162000,-57.120000,-0.770000,2.730000,-141.884228,Hold,55.007568,51.000000,Hold,-143488.000000,143360.000000,LowGoal,1417.500000,-1454.545455,Speed,1395.000000,-1454.545455,Speed,Off,Off0.000000,0,,,,
01:15:10.062 PM 03/20/2016,Teleop Enabled,9,FALSE,0,NO ERROR,-0.000000,46.572058,0.000000,77.878901,FALSE,FALSE,TRUE,FALSE,FALSE,FALSE,Disabled,0.000000,0.000000,0.000000,TRUE,0.088669,-0.055923,0.000000,-0.128616,0.196136,0.000000,0.064000,-0.158000,-0.335000,-55.160000,-0.750000,3.110000,-139.026113,Hold,54.997070,51.000000,Hold,-143488.000000,143360.000000,LowGoal,1410.000000,-1454.545455,Speed,1395.000000,-1454.545455,Speed,Off,Off0.000000,0,,,,
01:15:10.163 PM 03/20/2016,Teleop Enabled,10,FALSE,0,NO ERROR,-0.000000,46.719641,0.000000,77.808318,TRUE,FALSE,TRUE,FALSE,FALSE,FALSE,Disabled,0.000000,0.000000,0.000000,TRUE,0.085022,-0.049301,0.000000,-0.038101,0.087448,0.000000,-0.036000,-0.032000,0.009000,-54.000000,-0.830000,2.690000,-137.252979,Hold,55.000244,51.000000,Hold,-143488.000000,143360.000000,LowGoal,1402.500000,-1454.545455,Speed,1387.500000,-1454.545455,Speed,Off,Off0.000000,0,,,,
01:15:10.263 PM 03/20/2016,Teleop Enabled,10,FALSE,0,NO ERROR,-0.000000,46.713224,0.000000,77.981568,TRUE,FALSE,TRUE,FALSE,FALSE,FALSE,Disabled,0.000000,0.000000,0.000000,TRUE,0.081833,-0.045303,0.000000,-0.075928,0.081558,0.000000,0.121000,0.057000,-0.034000,-54.620000,-0.570000,2.600000,-137.105730,Hold,54.996826,51.000000,Hold,-143488.000000,143360.000000,LowGoal,1417.500000,-1454.545455,Speed,1387.500000,-1454.545455,Speed,Off,Off0.000000,0,,,,
01:15:10.365 PM 03/20/2016,Teleop Enabled,10,FALSE,0,NO ERROR,-0.000000,46.713224,0.000000,77.994401,TRUE,FALSE,TRUE,FALSE,FALSE,FALSE,Disabled,0.000000,0.000000,0.000000,TRUE,0.078369,-0.040176,0.000000,-0.084885,0.139816,0.000000,0.079000,-0.049000,0.085000,-54.670000,-0.820000,2.870000,-136.396209,Hold,54.996826,51.000000,Hold,-143488.000000,143360.000000,LowGoal,1417.500000,-1454.545455,Speed,1402.500000,-1454.545455,Speed,Off,Off0.000000,0,,,,
01:15:10.466 PM 03/20/2016,Teleop Enabled,10,FALSE,0,NO ERROR,-0.000000,46.713224,0.000000,77.968734,TRUE,FALSE,TRUE,FALSE,FALSE,FALSE,Disabled,0.000000,0.000000,0.000000,TRUE,0.075592,-0.032806,0.000000,-0.035522,0.133072,0.000000,-0.030000,-0.113000,-0.072000,-54.600000,-0.750000,2.670000,-135.587476,Hold,54.996826,51.000000,Hold,-143488.000000,143360.000000,LowGoal,1410.000000,-1454.545455,Speed,1395.000000,-1454.545455,Speed,Off,Off0.000000,0,,,,
01:15:10.567 PM 03/20/2016,Teleop Enabled,10,FALSE,0,NO ERROR,-0.000000,46.713224,0.000000,77.968734,TRUE,FALSE,TRUE,FALSE,FALSE,FALSE,Disabled,0.000000,0.000000,0.000000,TRUE,0.073456,-0.028259,0.000000,-0.047592,0.087387,0.000000,0.000000,-0.078000,0.039000,-54.640000,-0.660000,2.750000,-134.870828,Hold,54.996826,51.000000,Hold,-143488.000000,143360.000000,LowGoal,1417.500000,-1454.545455,Speed,1395.000000,-1454.545455,Speed,Off,Off0.000000,0,,,,
01:15:10.667 PM 03/20/2016,Teleop Enabled,9,FALSE,0,NO ERROR,-0.000000,46.713224,0.000000,77.968734,TRUE,FALSE,TRUE,FALSE,FALSE,FALSE,Disabled,0.000000,0.000000,0.000000,TRUE,0.074203,-0.024292,0.000000,0.025955,0.079300,0.000000,-0.036000,-0.025000,-0.014000,-54.640000,-0.660000,2.750000,-134.107789,Hold,54.996826,51.000000,Hold,-143488.000000,143360.000000,LowGoal,1417.500000,-1454.545455,Speed,1395.000000,-1454.545455,Speed,Off,Off0.000000,0,,,,
01:15:10.768 PM 03/20/2016,Teleop Enabled,10,FALSE,0,NO ERROR,-0.000000,46.713224,0.000000,77.968734,TRUE,FALSE,TRUE,FALSE,FALSE,FALSE,Disabled,0.000000,0.000000,0.000000,TRUE,0.075073,-0.019684,0.000000,0.008377,0.089615,0.000000,-0.055000,0.038000,-0.007000,-54.630000,-0.700000,2.690000,-133.395210,Hold,54.996826,51.000000,Hold,-143488.000000,143360.000000,LowGoal,1417.500000,-1454.545455,Speed,1395.000000,-1454.545455,Speed,Off,Off0.000000,0,,,,
01:15:10.869 PM 03/20/2016,Teleop Enabled,11,FALSE,0,NO ERROR,-0.000000,46.713224,0.000000,77.968734,TRUE,FALSE,TRUE,FALSE,FALSE,FALSE,Disabled,0.000000,0.000000,0.000000,TRUE,0.075623,-0.016174,0.000000,0.014725,0.102509,0.000000,0.050000,-0.089000,-0.013000,-54.630000,-0.660000,2.690000,-132.646915,Hold,54.996826,51.000000,Hold,-143487.000000,143360.000000,LowGoal,1417.500000,-1454.545455,Speed,1387.500000,-1454.545455,Speed,Off,Off0.000000,0,,,,
01:15:10.969 PM 03/20/2016,Teleop Enabled,9,FALSE,0,NO ERROR,-0.000000,46.713224,0.000000,77.968734,TRUE,FALSE,TRUE,FALSE,FALSE,FALSE,Disabled,0.000000,0.000000,0.000000,TRUE,0.076401,-0.011978,0.000000,0.023102,0.065140,0.000000,-0.099000,0.113000,0.097000,-54.630000,-0.660000,2.690000,-131.915079,Hold,54.996826,51.000000,Hold,-143487.000000,143360.000000,LowGoal,1417.500000,-1454.545455,Speed,1395.000000,-1454.545455,Speed,Off,Off0.000000,0,,,,
01:15:11.069 PM 03/20/2016,Teleop Enabled,9,FALSE,0,NO ERROR,-0.000000,46.713224,0.000000,77.968734,TRUE,FALSE,TRUE,FALSE,FALSE,FALSE,Disabled,0.000000,0.000000,0.000000,TRUE,0.077362,-0.007324,0.000000,0.013748,0.073837,0.000000,0.005000,0.047000,-0.116000,-54.630000,-0.730000,2.720000,-131.175215,Hold,54.996826,51.000000,Hold,-143486.000000,143360.000000,LowGoal,1417.500000,-1454.545455,Speed,1402.500000,-1454.545455,Speed,Off,Off0.000000,0,,,,
01:15:11.169 PM 03/20/2016,Teleop Enabled,10,FALSE,0,NO ERROR,-0.000000,46.713224,0.000000,77.968734,TRUE,FALSE,TRUE,FALSE,FALSE,FALSE,Disabled,0.000000,0.000000,0.000000,TRUE,0.077759,-0.004211,0.000000,0.010605,0.070450,0.000000,-0.059000,-0.005000,0.137000,-54.620000,-0.740000,2.730000,-130.437870,Hold,54.996826,51.000000,Hold,-143486.000000,143360.000000,LowGoal,1417.500000,-1454.545455,Speed,1395.000000,-1454.545455,Speed,Off,Off0.000000,0,,,,
01:15:11.269 PM 03/20/2016,Teleop Enabled,9,FALSE,0,NO ERROR,-0.000000,46.713224,0.000000,77.968734,TRUE,FALSE,TRUE,FALSE,FALSE,FALSE,Disabled,0.000000,0.000000,0.000000,TRUE,0.079315,0.000702,0.000000,0.044312,0.084290,0.000000,-0.059000,-0.005000,0.137000,-54.630000,-0.710000,2.710000,-129.699614,Hold,54.996826,51.000000,Hold,-143486.000000,143360.000000,LowGoal,1410.000000,-1454.545455,Speed,1395.000000,-1454.545455,Speed,Off,Off0.000000,0,,,,
