Time,Robot Mode,Loop Time,Error Status,Error Code,Error Source,Left Motor Output,Left Motor Encoder,Right Motor Output,Right Motor Encoder,Is Level,Is Stalled,Ball Detector Photoeye,Vision Enabled,Vision Teleop Control,Vision Auto Control,Vision Current State,Vision X Output,Vision NavX Error,Vision NavX Target,NavX Connection Status,NavX Displacement X,NavX Displacement Y,NavX Displacement Z,NavX Velocity X,NavX Velocity Y,NavX Velocity Z,NavX Acceleration X,NavX Acceleration Y,NavX Acceleration Z,NavX Pitch,NavX Yaw,NavX Roll,Gyro Angle,Roller Arm State,Roller Arm Actual,Roller Arm Desired,Shooter Arm State,Shooter Arm Actual,Shooter Arm Desired,Shooter State,Actual RPM Left,Desired RPM Left,Control Mode Left,Actual RPM Right,Desired RPM Right,Control Mode Right,Ball Shooter Cylinder,Ball Halo Cylinder,Scaler Motor Output,Scaler Solenoid Fire,Auto To Run,Auto Current File,Auto File Status,Auto Current Command,Auto Trimmed Command,Shooter Amps Left,Shooter Amps Right
08:24:31.967 PM 03/31/2016,Teleop Enabled,11,TRUE,-44087,NetComm_CAN_Receive.vi:5470027<APPEND>  <b>Complete call chain:</b>      NetComm_CAN_Receive.vi:5470027      WPI_CAN_PDPReceive.vi      WPI_Power Get PDP Currents.vi      Periodic Tasks.vi      Robot Main.vi,-0.000000,0.000000,-0.000000,0.000000,TRUE,FALSE,FALSE,TRUE,FALSE,FALSE,Disabled,0.000000,0.000000,0.000000,TRUE,-5.408401,-4.326736,0.000000,0.000000,0.000000,0.000000,-0.001000,0.000000,0.011000,0.000000,-0.250000,2.570000,0.057205,ResetBack,-0.086670,-0.000049,ResetBack,-26068.000000,-0.250000,Suck,0.000000,1818.181818,Speed,0.000000,1818.181818,Speed,Off,On,0.000000,FALSE,0,,,,,0.000000,0.000000
08:24:32.069 PM 03/31/2016,Teleop Enabled,10,TRUE,-44087,NetComm_CAN_Receive.vi:5470027<APPEND>  <b>Complete call chain:</b>      NetComm_CAN_Receive.vi:5470027      WPI_CAN_PDPReceive.vi      WPI_Power Get PDP Currents.vi      Periodic Tasks.vi      Robot Main.vi,-0.000000,0.000000,-0.000000,0.000000,TRUE,FALSE,FALSE,TRUE,FALSE,FALSE,Disabled,0.000000,0.000000,0.000000,TRUE,-5.408569,-4.327774,0.000000,-0.011215,-0.043182,0.000000,-0.001000,0.000000,0.011000,0.000000,-0.240000,2.550000,0.051187,ResetBack,-0.842773,-0.000049,ResetBack,-26068.000000,-0.250000,Suck,-75.000000,1818.181818,Speed,-90.000000,1818.181818,Speed,Off,On,0.000000,FALSE,0,,,,,0.000000,0.000000
08:24:32.169 PM 03/31/2016,Teleop Enabled,10,TRUE,-44087,NetComm_CAN_Receive.vi:5470027<APPEND>  <b>Complete call chain:</b>      NetComm_CAN_Receive.vi:5470027      WPI_CAN_PDPReceive.vi      WPI_Power Get PDP Currents.vi      Periodic Tasks.vi      Robot Main.vi,-0.000000,0.000000,-0.000000,0.000000,TRUE,FALSE,FALSE,TRUE,FALSE,FALSE,Disabled,0.000000,0.000000,0.000000,TRUE,-5.408569,-4.327774,0.000000,-0.011215,-0.043182,0.000000,0.002000,0.048000,0.073000,0.000000,-0.240000,2.550000,0.061784,ResetBack,-0.842773,-0.000049,ResetBack,-26068.000000,-0.250000,Suck,-510.000000,1818.181818,Speed,-90.000000,1818.181818,Speed,Off,On,0.000000,FALSE,0,,,,,0.000000,0.000000
08:24:32.271 PM 03/31/2016,Teleop Enabled,10,TRUE,-44087,NetComm_CAN_Receive.vi:5470027<APPEND>  <b>Complete call chain:</b>      NetComm_CAN_Receive.vi:5470027      WPI_CAN_PDPReceive.vi      WPI_Power Get PDP Currents.vi      Periodic Tasks.vi      Robot Main.vi,-0.000000,0.000000,-0.000000,0.000000,TRUE,FALSE,FALSE,TRUE,FALSE,FALSE,Disabled,0.000000,0.000000,0.000000,TRUE,-5.412369,-4.329254,0.000000,-0.038330,-0.013977,0.000000,0.012000,-0.062000,0.004000,0.000000,-0.200000,2.520000,0.055002,Reset,-0.892822,-0.000049,ResetBack,-26068.000000,-0.250000,Suck,-975.000000,1818.181818,Speed,-1132.500000,1818.181818,Speed,Off,On,0.000000,FALSE,0,,,,,0.000000,0.000000
08:24:32.371 PM 03/31/2016,Teleop Enabled,11,TRUE,-44087,NetComm_CAN_Receive.vi:5470027<APPEND>  <b>Complete call chain:</b>      NetComm_CAN_Receive.vi:5470027      WPI_CAN_PDPReceive.vi      WPI_Power Get PDP Currents.vi      Periodic Tasks.vi      Robot Main.vi,-0.000000,0.000000,-0.000000,0.000000,TRUE,FALSE,FALSE,TRUE,FALSE,FALSE,Disabled,0.000000,0.000000,0.000000,TRUE,-5.415253,-4.329514,0.000000,-0.072662,0.011276,0.000000,0.089000,0.012000,0.008000,0.000000,-0.140000,2.650000,0.054107,Hold,-0.896240,0.000000,ResetBack,-26068.000000,-0.250000,Suck,-1387.500000,1818.181818,Speed,-1132.500000,1818.181818,Speed,Off,On,0.000000,FALSE,0,,,,,0.000000,0.000000
08:24:32.472 PM 03/31/2016,Teleop Enabled,11,TRUE,-44087,NetComm_CAN_Receive.vi:5470027<APPEND>  <b>Complete call chain:</b>      NetComm_CAN_Receive.vi:5470027      WPI_CAN_PDPReceive.vi      WPI_Power Get PDP Currents.vi      Periodic Tasks.vi      Robot Main.vi,-0.000000,0.000000,-0.000000,0.000000,TRUE,FALSE,FALSE,TRUE,FALSE,FALSE,Disabled,0.000000,0.000000,0.000000,TRUE,-5.417236,-4.328964,0.000000,-0.029724,0.000748,0.000000,0.048000,-0.076000,0.060000,0.000000,-0.150000,2.710000,0.052575,Hold,0.938965,0.000000,ResetBack,-26068.000000,-0.250000,Suck,-1710.000000,1818.181818,Speed,-1582.500000,1818.181818,Speed,Off,On,0.000000,FALSE,0,,,,,0.000000,0.000000
08:24:32.574 PM 03/31/2016,Teleop Enabled,9,TRUE,-44087,NetComm_CAN_Receive.vi:5470027<APPEND>  <b>Complete call chain:</b>      NetComm_CAN_Receive.vi:5470027      WPI_CAN_PDPReceive.vi      WPI_Power Get PDP Currents.vi      Periodic Tasks.vi      Robot Main.vi,-0.000000,0.000000,-0.000000,0.000000,TRUE,FALSE,FALSE,TRUE,FALSE,FALSE,Disabled,0.000000,0.000000,0.000000,TRUE,-5.418518,-4.329453,0.000000,-0.016724,-0.005142,0.000000,0.050000,-0.159000,-0.118000,0.000000,-0.140000,2.610000,0.044233,Hold,0.894531,0.000000,ResetBack,-26068.000000,-0.250000,Suck,-1807.500000,1818.181818,Speed,-1815.000000,1818.181818,Speed,Off,On,0.000000,FALSE,0,,,,,0.000000,0.000000
08:24:32.676 PM 03/31/2016,Teleop Enabled,9,TRUE,-44087,NetComm_CAN_Receive.vi:5470027<APPEND>  <b>Complete call chain:</b>      NetComm_CAN_Receive.vi:5470027      WPI_CAN_PDPReceive.vi      WPI_Power Get PDP Currents.vi      Periodic Tasks.vi      Robot Main.vi,-0.000000,0.000000,-0.000000,0.000000,TRUE,FALSE,FALSE,TRUE,FALSE,FALSE,Disabled,0.000000,0.000000,0.000000,TRUE,-5.419159,-4.331741,0.000000,-0.026123,-0.039795,0.000000,-0.101000,-0.051000,0.026000,0.000000,-0.190000,2.530000,0.035806,Hold,0.894531,0.000000,ResetBack,-26068.000000,-0.250000,Suck,-1762.500000,1818.181818,Speed,-1755.000000,1818.181818,Speed,Off,On,0.000000,FALSE,0,,,,,0.000000,0.000000
08:24:32.776 PM 03/31/2016,Teleop Enabled,11,TRUE,-44087,NetComm_CAN_Receive.vi:5470027<APPEND>  <b>Complete call chain:</b>      NetComm_CAN_Receive.vi:5470027      WPI_CAN_PDPReceive.vi      WPI_Power Get PDP Currents.vi      Periodic Tasks.vi      Robot Main.vi,-0.000000,0.000000,-0.000000,0.000000,TRUE,FALSE,FALSE,TRUE,FALSE,FALSE,Disabled,0.000000,0.000000,0.000000,TRUE,-5.421570,-4.335922,0.000000,0.004150,-0.066208,0.000000,-0.097000,-0.125000,-0.090000,0.000000,-0.230000,2.470000,0.033148,Hold,0.895020,0.000000,ResetBack,-26068.000000,-0.250000,Suck,-1717.500000,1818.181818,Speed,-1755.000000,1818.181818,Speed,Off,On,0.000000,FALSE,0,,,,,0.000000,0.000000
08:24:32.877 PM 03/31/2016,Teleop Enabled,11,TRUE,-44087,NetComm_CAN_Receive.vi:5470027<APPEND>  <b>Complete call chain:</b>      NetComm_CAN_Receive.vi:5470027      WPI_CAN_PDPReceive.vi      WPI_Power Get PDP Currents.vi      Periodic Tasks.vi      Robot Main.vi,-0.000000,0.000000,-0.000000,0.000000,TRUE,FALSE,FALSE,TRUE,FALSE,FALSE,Disabled,0.000000,0.000000,0.000000,TRUE,-5.422119,-4.340027,0.000000,-0.010818,-0.068451,0.000000,0.099000,-0.136000,0.044000,0.000000,-0.270000,2.430000,0.051225,Hold,0.895020,0.000000,ResetBack,-26068.000000,-0.250000,Suck,-1725.000000,1818.181818,Speed,-1732.500000,1818.181818,Speed,Off,On,0.000000,FALSE,0,,,,,0.000000,0.000000
08:24:32.978 PM 03/31/2016,Teleop Enabled,10,TRUE,-44087,NetComm_CAN_Receive.vi:5470027<APPEND>  <b>Complete call chain:</b>      NetComm_CAN_Receive.vi:5470027      WPI_CAN_PDPReceive.vi      WPI_Power Get PDP Currents.vi      Periodic Tasks.vi      Robot Main.vi,-0.000000,0.000000,-0.000000,0.000000,TRUE,FALSE,FALSE,TRUE,FALSE,FALSE,Disabled,0.000000,0.000000,0.000000,TRUE,-5.421509,-4.343658,0.000000,0.021790,-0.053909,0.000000,-0.034000,-0.166000,-0.132000,0.000000,-0.250000,2.410000,0.046333,Hold,0.895020,0.000000,ResetBack,-26068.000000,-0.250000,Suck,-1740.000000,1818.181818,Speed,-1755.000000,1818.181818,Speed,Off,On,0.000000,FALSE,0,,,,,0.000000,0.000000
08:24:33.080 PM 03/31/2016,Teleop Enabled,10,TRUE,-44003,<LOCATION>WPI_CameraIssue HTTP Request with Authentication.vi<CALLSTACK>WPI_CameraIssue HTTP Request with Authentication.vi< <WPI_CameraIssue Get.vi< <WPI_CameraSet Image Appearance Property.vi< <WPI_CameraSet Image Size.vi< <Vision Processing.vi< <Robot Main.vi,-0.000000,0.000000,-0.000000,0.000000,TRUE,FALSE,FALSE,TRUE,FALSE,FALSE,Disabled,0.000000,0.000000,0.000000,TRUE,-5.421021,-4.347595,0.000000,-0.000793,-0.064819,0.000000,-0.034000,-0.166000,-0.132000,0.000000,-0.320000,2.370000,0.043838,Hold,0.895020,0.000000,ResetBack,-26068.000000,-0.250000,Suck,-1747.500000,1818.181818,Speed,-1762.500000,1818.181818,Speed,Off,On,0.000000,FALSE,0,,,,,0.000000,0.000000
08:24:33.180 PM 03/31/2016,Teleop Enabled,11,TRUE,-44087,NetComm_CAN_Receive.vi:5470027<APPEND>  <b>Complete call chain:</b>      NetComm_CAN_Receive.vi:5470027      WPI_CAN_PDPReceive.vi      WPI_Power Get PDP Currents.vi      Periodic Tasks.vi      Robot Main.vi,-0.000000,0.000000,-0.000000,0.000000,TRUE,FALSE,FALSE,TRUE,FALSE,FALSE,Disabled,0.000000,0.000000,0.000000,TRUE,-5.420135,-4.351685,0.000000,0.013214,-0.047562,0.000000,0.066000,-0.173000,-0.061000,0.000000,-0.320000,2.390000,0.033871,Hold,0.895020,0.000000,Reset,-26068.000000,-0.250000,Suck,-1747.500000,1818.181818,Speed,-1762.500000,1818.181818,Speed,Off,On,0.000000,FALSE,0,,,,,0.000000,0.000000
08:24:33.282 PM 03/31/2016,Teleop Enabled,10,TRUE,-44087,NetComm_CAN_Receive.vi:5470027<APPEND>  <b>Complete call chain:</b>      NetComm_CAN_Receive.vi:5470027      WPI_CAN_PDPReceive.vi      WPI_Power Get PDP Currents.vi      Periodic Tasks.vi      Robot Main.vi,-0.000000,0.000000,-0.000000,0.000000,TRUE,FALSE,FALSE,TRUE,FALSE,FALSE,Disabled,0.000000,0.000000,0.000000,TRUE,-5.418411,-4.356842,0.000000,0.040695,-0.096008,0.000000,0.066000,-0.173000,-0.061000,0.000000,-0.320000,2.390000,0.040512,Hold,0.895020,0.000000,Hold,-26068.000000,2.000000,Suck,-1747.500000,1818.181818,Speed,-1762.500000,1818.181818,Speed,Off,On,0.000000,FALSE,0,,,,,0.000000,0.000000
08:24:33.383 PM 03/31/2016,Teleop Enabled,10,TRUE,-44087,NetComm_CAN_Receive.vi:5470027<APPEND>  <b>Complete call chain:</b>      NetComm_CAN_Receive.vi:5470027      WPI_CAN_PDPReceive.vi      WPI_Power Get PDP Currents.vi      Periodic Tasks.vi      Robot Main.vi,-0.000000,0.000000,-0.000000,0.000000,TRUE,FALSE,FALSE,TRUE,FALSE,FALSE,Disabled,0.000000,0.000000,0.000000,TRUE,-5.415451,-4.361542,0.000000,0.069778,-0.100220,0.000000,0.087000,0.017000,-0.043000,0.000000,-0.300000,2.350000,0.048444,Hold,0.895020,0.000000,Hold,0.000000,2.000000,Suck,-1732.500000,1818.181818,Speed,-1747.500000,1818.181818,Speed,Off,On,0.000000,FALSE,0,,,,,0.000000,0.000000
08:24:33.489 PM 03/31/2016,Teleop Enabled,12,TRUE,-44087,NetComm_CAN_Receive.vi:5470027<APPEND>  <b>Complete call chain:</b>      NetComm_CAN_Receive.vi:5470027      WPI_CAN_PDPReceive.vi      WPI_Power Get PDP Currents.vi      Periodic Tasks.vi      Robot Main.vi,-0.000000,0.000000,-0.000000,0.000000,TRUE,FALSE,FALSE,TRUE,FALSE,FALSE,Disabled,0.000000,0.000000,0.000000,TRUE,-5.413315,-4.365738,0.000000,0.042862,-0.102753,0.000000,-0.036000,-0.064000,0.041000,0.000000,-0.300000,2.350000,0.048227,Hold,0.895020,0.000000,Hold,0.000000,2.000000,Suck,-1732.500000,1818.181818,Speed,-1740.000000,1818.181818,Speed,Off,On,0.000000,FALSE,0,,,,,0.000000,0.000000
08:24:33.591 PM 03/31/2016,Teleop Enabled,10,TRUE,-44087,NetComm_CAN_Receive.vi:5470027<APPEND>  <b>Complete call chain:</b>      NetComm_CAN_Receive.vi:5470027      WPI_CAN_PDPReceive.vi      WPI_Power Get PDP Currents.vi      Periodic Tasks.vi      Robot Main.vi,-0.000000,0.000000,-0.000000,0.000000,TRUE,FALSE,FALSE,TRUE,FALSE,FALSE,Disabled,0.000000,0.000000,0.000000,TRUE,-5.413315,-4.365738,0.000000,0.042862,-0.102753,0.000000,-0.052000,0.029000,-0.104000,0.000000,-0.350000,2.320000,0.041996,Hold,0.895020,0.000000,Hold,0.000000,2.000000,Suck,-1740.000000,1818.181818,Speed,-1762.500000,1818.181818,Speed,Off,On,0.000000,FALSE,0,,,,,0.000000,0.000000
08:24:33.692 PM 03/31/2016,Teleop Enabled,11,TRUE,-44087,NetComm_CAN_Receive.vi:5470027<APPEND>  <b>Complete call chain:</b>      NetComm_CAN_Receive.vi:5470027      WPI_CAN_PDPReceive.vi      WPI_Power Get PDP Currents.vi      Periodic Tasks.vi      Robot Main.vi,-0.000000,0.000000,-0.000000,0.000000,TRUE,FALSE,FALSE,TRUE,FALSE,FALSE,Disabled,0.000000,0.000000,0.000000,TRUE,-5.408493,-4.376968,0.000000,0.053497,-0.103409,0.000000,0.160000,-0.098000,0.056000,0.000000,-0.330000,2.460000,0.036505,Hold,0.895020,0.000000,Hold,0.000000,2.000000,Suck,-1717.500000,1818.181818,Speed,-1755.000000,1818.181818,Speed,Off,On,0.000000,FALSE,0,,,,,0.000000,0.000000
08:24:33.793 PM 03/31/2016,Teleop Enabled,9,TRUE,-44087,NetComm_CAN_Receive.vi:5470027<APPEND>  <b>Complete call chain:</b>      NetComm_CAN_Receive.vi:5470027      WPI_CAN_PDPReceive.vi      WPI_Power Get PDP Currents.vi      Periodic Tasks.vi      Robot Main.vi,-0.000000,0.000000,-0.000000,0.000000,TRUE,FALSE,FALSE,TRUE,FALSE,FALSE,Disabled,0.000000,0.000000,0.000000,TRUE,-5.405197,-4.382187,0.000000,0.071915,-0.085632,0.000000,0.160000,-0.098000,0.056000,0.000000,-0.330000,2.460000,0.026976,Hold,0.895020,0.000000,Hold,0.000000,2.000000,Suck,-1717.500000,1818.181818,Speed,-1732.500000,1818.181818,Speed,Off,On,0.000000,FALSE,0,,,,,0.000000,0.000000
08:24:33.894 PM 03/31/2016,Teleop Enabled,9,TRUE,-44087,NetComm_CAN_Receive.vi:5470027<APPEND>  <b>Complete call chain:</b>      NetComm_CAN_Receive.vi:5470027      WPI_CAN_PDPReceive.vi      WPI_Power Get PDP Currents.vi      Periodic Tasks.vi      Robot Main.vi,-0.000000,0.000000,-0.000000,0.000000,TRUE,FALSE,FALSE,TRUE,FALSE,FALSE,Disabled,0.000000,0.000000,0.000000,TRUE,-5.399628,-4.387650,0.000000,0.106949,-0.091736,0.000000,0.115000,0.069000,0.035000,-0.010000,-0.150000,2.410000,0.025998,Hold,0.895020,0.000000,Hold,0.000000,2.000000,Suck,-1740.000000,1818.181818,Speed,-1725.000000,1818.181818,Speed,Off,On,0.000000,FALSE,0,,,,,0.000000,0.000000
08:24:33.994 PM 03/31/2016,Teleop Enabled,11,TRUE,-44087,NetComm_CAN_Receive.vi:5470027<APPEND>  <b>Complete call chain:</b>      NetComm_CAN_Receive.vi:5470027      WPI_CAN_PDPReceive.vi      WPI_Power Get PDP Currents.vi      Periodic Tasks.vi      Robot Main.vi,-0.000000,0.000000,-0.000000,0.000000,TRUE,FALSE,FALSE,TRUE,FALSE,FALSE,Disabled,0.000000,0.000000,0.000000,TRUE,-5.395813,-4.391083,0.000000,0.084274,-0.077332,0.000000,-0.072000,-0.007000,-0.029000,-0.010000,-0.190000,2.400000,0.025633,Hold,0.895020,0.000000,Hold,0.000000,2.000000,Suck,-1762.500000,1818.181818,Speed,-1747.500000,1818.181818,Speed,Off,On,0.000000,FALSE,0,,,,,0.000000,0.000000
08:24:34.096 PM 03/31/2016,Teleop Enabled,11,TRUE,-44087,NetComm_CAN_Receive.vi:5470027<APPEND>  <b>Complete call chain:</b>      NetComm_CAN_Receive.vi:5470027      WPI_CAN_PDPReceive.vi      WPI_Power Get PDP Currents.vi      Periodic Tasks.vi      Robot Main.vi,-0.000000,0.000000,-0.000000,0.000000,TRUE,FALSE,FALSE,TRUE,FALSE,FALSE,Disabled,0.000000,0.000000,0.000000,TRUE,-5.391418,-4.389847,0.000000,0.087219,0.045380,0.000000,-0.072000,-0.007000,-0.029000,-0.010000,-0.190000,2.400000,0.031823,Hold,0.895020,0.000000,Hold,0.000000,2.000000,Suck,-1755.000000,1818.181818,Speed,-1770.000000,1818.181818,Speed,Off,On,0.000000,FALSE,0,,,,,0.000000,0.000000
08:24:34.197 PM 03/31/2016,Teleop Enabled,11,TRUE,-44087,NetComm_CAN_Receive.vi:5470027<APPEND>  <b>Complete call chain:</b>      NetComm_CAN_Receive.vi:5470027      WPI_CAN_PDPReceive.vi      WPI_Power Get PDP Currents.vi      Periodic Tasks.vi      Robot Main.vi,-0.000000,0.000000,-0.000000,0.000000,TRUE,FALSE,FALSE,TRUE,FALSE,FALSE,Disabled,0.000000,0.000000,0.000000,TRUE,-5.387482,-4.387894,0.000000,0.081894,0.041443,0.000000,0.068000,0.004000,-0.028000,-0.010000,-0.220000,2.540000,0.037434,Hold,0.895020,0.000000,Hold,0.000000,2.000000,Suck,-1755.000000,1818.181818,Speed,-1770.000000,1818.181818,Speed,Off,On,0.000000,FALSE,0,,,,,0.000000,0.000000
08:24:34.300 PM 03/31/2016,Teleop Enabled,10,TRUE,-44087,NetComm_CAN_Receive.vi:5470027<APPEND>  <b>Complete call chain:</b>      NetComm_CAN_Receive.vi:5470027      WPI_CAN_PDPReceive.vi      WPI_Power Get PDP Currents.vi      Periodic Tasks.vi      Robot Main.vi,-0.000000,0.000000,-0.000000,0.000000,TRUE,FALSE,FALSE,TRUE,FALSE,FALSE,Disabled,0.000000,0.000000,0.000000,TRUE,-5.384293,-4.386292,0.000000,0.027664,0.015518,0.000000,-0.071000,-0.002000,0.016000,-0.010000,-0.300000,2.510000,0.029444,Hold,0.895020,0.000000,Hold,0.000000,2.000000,Suck,-1747.500000,1818.181818,Speed,-1770.000000,1818.181818,Speed,Off,On,0.000000,FALSE,0,,,,,0.000000,0.000000
08:24:34.401 PM 03/31/2016,Teleop Enabled,10,TRUE,-44087,NetComm_CAN_Receive.vi:5470027<APPEND>  <b>Complete call chain:</b>      NetComm_CAN_Receive.vi:5470027      WPI_CAN_PDPReceive.vi      WPI_Power Get PDP Currents.vi      Periodic Tasks.vi      Robot Main.vi,-0.000000,0.000000,-0.000000,0.000000,TRUE,FALSE,FALSE,TRUE,FALSE,FALSE,Disabled,0.000000,0.000000,0.000000,TRUE,-5.382935,-4.386398,0.000000,0.040070,0.001831,0.000000,0.040000,-0.069000,-0.043000,-0.010000,-0.290000,2.470000,0.036347,Hold,0.895020,0.000000,Hold,0.000000,2.000000,Suck,-1740.000000,1818.181818,Speed,-1762.500000,1818.181818,Speed,Off,On,0.000000,FALSE,0,,,,,0.000000,0.000000
08:24:34.503 PM 03/31/2016,Teleop Enabled,9,TRUE,-44087,NetComm_CAN_Receive.vi:5470027<APPEND>  <b>Complete call chain:</b>      NetComm_CAN_Receive.vi:5470027      WPI_CAN_PDPReceive.vi      WPI_Power Get PDP Currents.vi      Periodic Tasks.vi      Robot Main.vi,-0.000000,0.000000,-0.000000,0.000000,TRUE,FALSE,FALSE,TRUE,FALSE,FALSE,Disabled,0.000000,0.000000,0.000000,TRUE,-5.379166,-4.387115,0.000000,0.069946,0.007446,0.000000,0.026000,-0.125000,0.002000,-0.020000,-0.190000,2.560000,0.040794,Hold,0.895020,0.000000,Hold,0.000000,2.000000,Suck,-1717.500000,1818.181818,Speed,-1762.500000,1818.181818,Speed,Off,On,0.000000,FALSE,0,,,,,0.000000,0.000000
08:24:34.605 PM 03/31/2016,Teleop Enabled,10,TRUE,-44087,NetComm_CAN_Receive.vi:5470027<APPEND>  <b>Complete call chain:</b>      NetComm_CAN_Receive.vi:5470027      WPI_CAN_PDPReceive.vi      WPI_Power Get PDP Currents.vi      Periodic Tasks.vi      Robot Main.vi,-0.000000,0.000000,-0.000000,0.000000,TRUE,FALSE,FALSE,TRUE,FALSE,FALSE,Disabled,0.000000,0.000000,0.000000,TRUE,-5.376785,-4.386765,0.000000,0.046432,0.040970,0.000000,-0.018000,-0.094000,-0.017000,-0.020000,-0.240000,2.600000,0.035049,Hold,0.895020,0.000000,Hold,0.000000,2.000000,Suck,-1710.000000,1818.181818,Speed,-1755.000000,1818.181818,Speed,Off,On,0.000000,FALSE,0,,,,,0.000000,0.000000
08:24:34.707 PM 03/31/2016,Teleop Enabled,10,TRUE,-44087,NetComm_CAN_Receive.vi:5470027<APPEND>  <b>Complete call chain:</b>      NetComm_CAN_Receive.vi:5470027      WPI_CAN_PDPReceive.vi      WPI_Power Get PDP Currents.vi      Periodic Tasks.vi      Robot Main.vi,-0.000000,0.000000,-0.000000,0.000000,TRUE,FALSE,FALSE,TRUE,FALSE,FALSE,Disabled,0.000000,0.000000,0.000000,TRUE,-5.374176,-4.385620,0.000000,0.044128,0.039764,0.000000,-0.018000,-0.094000,-0.017000,-0.020000,-0.240000,2.600000,0.034439,Hold,0.895020,0.000000,Hold,0.000000,2.000000,Suck,-1732.500000,1818.181818,Speed,-1740.000000,1818.181818,Speed,Off,On,0.000000,FALSE,0,,,,,0.000000,0.000000
08:24:34.809 PM 03/31/2016,Teleop Enabled,10,TRUE,-44087,NetComm_CAN_Receive.vi:5470027<APPEND>  <b>Complete call chain:</b>      NetComm_CAN_Receive.vi:5470027      WPI_CAN_PDPReceive.vi      WPI_Power Get PDP Currents.vi      Periodic Tasks.vi      Robot Main.vi,-0.000000,0.000000,-0.000000,0.000000,TRUE,FALSE,FALSE,TRUE,FALSE,FALSE,Disabled,0.000000,0.000000,0.000000,TRUE,-5.371429,-4.383255,0.000000,0.029633,0.059891,0.000000,0.020000,-0.105000,0.057000,-0.020000,-0.260000,2.670000,0.044120,Hold,0.895020,0.000000,Hold,0.000000,2.000000,Suck,-1747.500000,1818.181818,Speed,-1755.000000,1818.181818,Speed,Off,On,0.000000,FALSE,0,,,,,0.000000,0.000000
08:24:34.909 PM 03/31/2016,Teleop Enabled,10,TRUE,-44087,NetComm_CAN_Receive.vi:5470027<APPEND>  <b>Complete call chain:</b>      NetComm_CAN_Receive.vi:5470027      WPI_CAN_PDPReceive.vi      WPI_Power Get PDP Currents.vi      Periodic Tasks.vi      Robot Main.vi,-0.000000,0.000000,-0.000000,0.000000,TRUE,FALSE,FALSE,TRUE,FALSE,FALSE,Disabled,0.000000,0.000000,0.000000,TRUE,-5.371368,-4.382095,0.000000,-0.014236,0.053848,0.000000,-0.124000,0.154000,0.039000,-0.010000,-0.340000,2.690000,0.045166,Hold,0.895020,0.000000,Hold,0.000000,2.000000,Suck,-1740.000000,1818.181818,Speed,-1762.500000,1818.181818,Speed,Off,On,0.000000,FALSE,0,,,,,0.000000,0.000000
08:24:35.010 PM 03/31/2016,Teleop Enabled,11,TRUE,-44087,NetComm_CAN_Receive.vi:5470027<APPEND>  <b>Complete call chain:</b>      NetComm_CAN_Receive.vi:5470027      WPI_CAN_PDPReceive.vi      WPI_Power Get PDP Currents.vi      Periodic Tasks.vi      Robot Main.vi,-0.000000,0.000000,-0.000000,0.000000,TRUE,FALSE,FALSE,TRUE,FALSE,FALSE,Disabled,0.000000,0.000000,0.000000,TRUE,-5.371994,-4.380310,0.000000,0.003296,0.050003,0.000000,-0.016000,-0.098000,-0.054000,-0.010000,-0.380000,2.650000,0.062310,Hold,0.895020,0.000000,Hold,0.000000,2.000000,Suck,-1732.500000,1818.181818,Speed,-1770.000000,1818.181818,Speed,Off,On,0.000000,FALSE,0,,,,,0.000000,0.000000
08:24:35.111 PM 03/31/2016,Teleop Enabled,9,TRUE,-44087,NetComm_CAN_Receive.vi:5470027<APPEND>  <b>Complete call chain:</b>      NetComm_CAN_Receive.vi:5470027      WPI_CAN_PDPReceive.vi      WPI_Power Get PDP Currents.vi      Periodic Tasks.vi      Robot Main.vi,-0.000000,0.000000,-0.000000,0.000000,TRUE,FALSE,FALSE,TRUE,FALSE,FALSE,Disabled,0.000000,0.000000,0.000000,TRUE,-5.371674,-4.378235,0.000000,-0.009842,0.048035,0.000000,-0.016000,-0.098000,-0.054000,-0.010000,-0.380000,2.650000,0.054706,Hold,0.895020,0.000000,Hold,0.000000,2.000000,Suck,-1725.000000,1818.181818,Speed,-1770.000000,1818.181818,Speed,Off,On,0.000000,FALSE,0,,,,,0.000000,0.000000
08:24:35.211 PM 03/31/2016,Teleop Enabled,11,TRUE,-44087,NetComm_CAN_Receive.vi:5470027<APPEND>  <b>Complete call chain:</b>      NetComm_CAN_Receive.vi:5470027      WPI_CAN_PDPReceive.vi      WPI_Power Get PDP Currents.vi      Periodic Tasks.vi      Robot Main.vi,-0.000000,0.000000,-0.000000,0.000000,TRUE,FALSE,FALSE,TRUE,FALSE,FALSE,Disabled,0.000000,0.000000,0.000000,TRUE,-5.372223,-4.376984,0.000000,-0.006409,0.059967,0.000000,0.153000,0.130000,0.118000,-0.010000,-0.380000,2.720000,0.056609,Hold,0.895020,0.000000,Hold,0.000000,2.000000,Suck,-1732.500000,1818.181818,Speed,-1770.000000,1818.181818,Speed,Off,On,0.000000,FALSE,0,,,,,0.000000,0.000000
08:24:35.311 PM 03/31/2016,Teleop Enabled,9,TRUE,-44087,NetComm_CAN_Receive.vi:5470027<APPEND>  <b>Complete call chain:</b>      NetComm_CAN_Receive.vi:5470027      WPI_CAN_PDPReceive.vi      WPI_Power Get PDP Currents.vi      Periodic Tasks.vi      Robot Main.vi,-0.000000,0.000000,-0.000000,0.000000,TRUE,FALSE,FALSE,TRUE,FALSE,FALSE,Disabled,0.000000,0.000000,0.000000,TRUE,-5.370941,-4.374695,0.000000,0.029343,0.028107,0.000000,0.153000,0.130000,0.118000,-0.010000,-0.380000,2.720000,0.071292,Hold,0.895020,0.000000,Hold,0.000000,2.000000,Suck,-1732.500000,1818.181818,Speed,-1762.500000,1818.181818,Speed,Off,On,0.000000,FALSE,0,,,,,0.000000,0.000000
08:24:35.412 PM 03/31/2016,Teleop Enabled,9,TRUE,-44087,NetComm_CAN_Receive.vi:5470027<APPEND>  <b>Complete call chain:</b>      NetComm_CAN_Receive.vi:5470027      WPI_CAN_PDPReceive.vi      WPI_Power Get PDP Currents.vi      Periodic Tasks.vi      Robot Main.vi,-0.000000,0.000000,-0.000000,0.000000,TRUE,FALSE,FALSE,TRUE,FALSE,FALSE,Disabled,0.000000,0.000000,0.000000,TRUE,-5.369598,-4.375122,0.000000,0.030746,-0.009872,0.000000,0.009000,0.040000,-0.022000,-0.010000,-0.370000,2.650000,0.054778,Hold,0.895020,0.000000,Hold,0.000000,2.000000,Suck,-1717.500000,1818.181818,Speed,-1770.000000,1818.181818,Speed,Off,On,0.000000,FALSE,0,,,,,0.000000,0.000000
08:24:35.514 PM 03/31/2016,Teleop Enabled,9,TRUE,-44087,NetComm_CAN_Receive.vi:5470027<APPEND>  <b>Complete call chain:</b>      NetComm_CAN_Receive.vi:5470027      WPI_CAN_PDPReceive.vi      WPI_Power Get PDP Currents.vi      Periodic Tasks.vi      Robot Main.vi,-0.000000,0.000000,-0.000000,0.000000,TRUE,FALSE,FALSE,TRUE,FALSE,FALSE,Disabled,0.000000,0.000000,0.000000,TRUE,-5.369720,-4.374329,0.000000,-0.029510,0.038162,0.000000,0.009000,0.040000,-0.022000,-0.010000,-0.370000,2.650000,0.049332,Hold,0.895020,0.000000,Hold,0.000000,2.000000,Suck,-1717.500000,1818.181818,Speed,-1770.000000,1818.181818,Speed,Off,On,0.000000,FALSE,0,,,,,0.000000,0.000000
08:24:35.615 PM 03/31/2016,Teleop Enabled,10,TRUE,-44087,NetComm_CAN_Receive.vi:5470027<APPEND>  <b>Complete call chain:</b>      NetComm_CAN_Receive.vi:5470027      WPI_CAN_PDPReceive.vi      WPI_Power Get PDP Currents.vi      Periodic Tasks.vi      Robot Main.vi,-0.000000,0.000000,-0.000000,0.000000,TRUE,FALSE,FALSE,TRUE,FALSE,FALSE,Disabled,0.000000,0.000000,0.000000,TRUE,-5.370819,-4.371582,0.000000,-0.015594,0.057968,0.000000,-0.056000,0.116000,0.097000,-0.010000,-0.360000,2.740000,0.041256,Hold,0.895020,0.000000,Hold,0.000000,2.000000,Suck,-1717.500000,1818.181818,Speed,-1770.000000,1818.181818,Speed,Off,On,0.000000,FALSE,0,,,,,0.000000,0.000000
08:24:35.719 PM 03/31/2016,Teleop Enabled,10,TRUE,-44087,NetComm_CAN_Receive.vi:5470027<APPEND>  <b>Complete call chain:</b>      NetComm_CAN_Receive.vi:5470027      WPI_CAN_PDPReceive.vi      WPI_Power Get PDP Currents.vi      Periodic Tasks.vi      Robot Main.vi,-0.000000,0.000000,-0.000000,0.000000,TRUE,FALSE,FALSE,TRUE,FALSE,FALSE,Disabled,0.000000,0.000000,0.000000,TRUE,-5.370377,-4.368317,0.000000,0.018539,0.054764,0.000000,0.032000,-0.048000,0.086000,-0.010000,-0.300000,2.720000,0.043855,Hold,0.895020,0.000000,Hold,0.000000,2.000000,Suck,-1732.500000,1818.181818,Speed,-1770.000000,1818.181818,Speed,Off,On,0.000000,FALSE,0,,,,,0.000000,0.000000
08:24:35.819 PM 03/31/2016,Teleop Enabled,10,TRUE,-44087,NetComm_CAN_Receive.vi:5470027<APPEND>  <b>Complete call chain:</b>      NetComm_CAN_Receive.vi:5470027      WPI_CAN_PDPReceive.vi      WPI_Power Get PDP Currents.vi      Periodic Tasks.vi      Robot Main.vi,-0.000000,0.000000,-0.000000,0.000000,TRUE,FALSE,FALSE,TRUE,FALSE,FALSE,Disabled,0.000000,0.000000,0.000000,TRUE,-5.369247,-4.364517,0.000000,0.035522,0.061249,0.000000,0.062000,-0.008000,0.060000,-0.020000,-0.250000,2.670000,0.059811,Hold,0.895020,0.000000,Hold,0.000000,2.000000,Suck,-1732.500000,1818.181818,Speed,-1762.500000,1818.181818,Speed,Off,On,0.000000,FALSE,0,,,,,0.000000,0.000000
08:24:35.920 PM 03/31/2016,Teleop Enabled,10,TRUE,-44087,NetComm_CAN_Receive.vi:5470027<APPEND>  <b>Complete call chain:</b>      NetComm_CAN_Receive.vi:5470027      WPI_CAN_PDPReceive.vi      WPI_Power Get PDP Currents.vi      Periodic Tasks.vi      Robot Main.vi,-0.000000,0.000000,-0.000000,0.000000,TRUE,FALSE,FALSE,TRUE,FALSE,FALSE,Disabled,0.000000,0.000000,0.000000,TRUE,-5.367966,-4.360519,0.000000,0.034180,0.062561,0.000000,-0.005000,0.112000,0.068000,-0.020000,-0.250000,2.720000,0.054885,Hold,0.895020,0.000000,Hold,0.000000,2.000000,Suck,-1740.000000,1818.181818,Speed,-1770.000000,1818.181818,Speed,Off,On,0.000000,FALSE,0,,,,,0.000000,0.000000
08:24:36.022 PM 03/31/2016,Teleop Enabled,10,TRUE,-44087,NetComm_CAN_Receive.vi:5470027<APPEND>  <b>Complete call chain:</b>      NetComm_CAN_Receive.vi:5470027      WPI_CAN_PDPReceive.vi      WPI_Power Get PDP Currents.vi      Periodic Tasks.vi      Robot Main.vi,-0.000000,0.000000,-0.000000,0.000000,TRUE,FALSE,FALSE,TRUE,FALSE,FALSE,Disabled,0.000000,0.000000,0.000000,TRUE,-5.364929,-4.356430,0.000000,0.060059,0.060028,0.000000,0.098000,0.116000,0.081000,-0.020000,-0.260000,2.660000,0.063983,Hold,0.895020,0.000000,Hold,0.000000,2.000000,Suck,-1740.000000,1818.181818,Speed,-1777.500000,1818.181818,Speed,Off,On,0.000000,FALSE,0,,,,,0.000000,0.000000
08:24:36.123 PM 03/31/2016,Teleop Enabled,7,TRUE,-44087,NetComm_CAN_Receive.vi:5470027<APPEND>  <b>Complete call chain:</b>      NetComm_CAN_Receive.vi:5470027      WPI_CAN_PDPReceive.vi      WPI_Power Get PDP Currents.vi      Periodic Tasks.vi      Robot Main.vi,-0.000000,0.000000,-0.000000,0.000000,TRUE,FALSE,FALSE,TRUE,FALSE,FALSE,Disabled,0.000000,0.000000,0.000000,TRUE,-5.362701,-4.352982,0.000000,0.030701,0.045410,0.000000,-0.072000,0.036000,0.003000,-0.020000,-0.250000,2.620000,0.071705,Hold,0.895020,0.000000,Hold,0.000000,2.000000,Suck,-1732.500000,1818.181818,Speed,-1755.000000,1818.181818,Speed,Off,On,0.000000,FALSE,0,,,,,0.000000,0.000000
08:24:36.223 PM 03/31/2016,Teleop Enabled,10,TRUE,-44087,NetComm_CAN_Receive.vi:5470027<APPEND>  <b>Complete call chain:</b>      NetComm_CAN_Receive.vi:5470027      WPI_CAN_PDPReceive.vi      WPI_Power Get PDP Currents.vi      Periodic Tasks.vi      Robot Main.vi,-0.000000,0.000000,-0.000000,0.000000,TRUE,FALSE,FALSE,TRUE,FALSE,FALSE,Disabled,0.000000,0.000000,0.000000,TRUE,-5.362701,-4.352982,0.000000,0.030701,0.045410,0.000000,-0.004000,0.185000,-0.051000,-0.010000,-0.360000,2.520000,0.088264,Hold,0.895020,0.000000,Hold,0.000000,2.000000,Suck,-1732.500000,1818.181818,Speed,-1740.000000,1818.181818,Speed,Off,On,0.000000,FALSE,0,,,,,0.000000,0.000000
08:24:36.324 PM 03/31/2016,Teleop Enabled,9,TRUE,-44087,NetComm_CAN_Receive.vi:5470027<APPEND>  <b>Complete call chain:</b>      NetComm_CAN_Receive.vi:5470027      WPI_CAN_PDPReceive.vi      WPI_Power Get PDP Currents.vi      Periodic Tasks.vi      Robot Main.vi,-0.000000,0.000000,-0.000000,0.000000,TRUE,FALSE,FALSE,TRUE,FALSE,FALSE,Disabled,0.000000,0.000000,0.000000,TRUE,-5.360870,-4.349319,0.000000,0.041931,0.038116,0.000000,0.016000,0.021000,0.104000,-0.010000,-0.410000,2.530000,0.108220,Hold,0.895020,0.000000,Hold,0.000000,2.000000,Suck,-1732.500000,1818.181818,Speed,-1740.000000,1818.181818,Speed,Off,On,0.000000,FALSE,0,,,,,0.000000,0.000000
08:24:36.424 PM 03/31/2016,Teleop Enabled,10,TRUE,-44087,NetComm_CAN_Receive.vi:5470027<APPEND>  <b>Complete call chain:</b>      NetComm_CAN_Receive.vi:5470027      WPI_CAN_PDPReceive.vi      WPI_Power Get PDP Currents.vi      Periodic Tasks.vi      Robot Main.vi,-0.000000,0.000000,-0.000000,0.000000,TRUE,FALSE,FALSE,TRUE,FALSE,FALSE,Disabled,0.000000,0.000000,0.000000,TRUE,-5.360809,-4.345001,0.000000,0.000519,0.018539,0.000000,-0.072000,0.020000,0.062000,-0.020000,-0.460000,2.510000,0.097493,Hold,0.895020,0.000000,Hold,0.000000,2.000000,Suck,-1732.500000,1818.181818,Speed,-1732.500000,1818.181818,Speed,Off,On,0.000000,FALSE,0,,,,,0.000000,0.000000
08:24:36.527 PM 03/31/2016,Teleop Enabled,9,TRUE,-44087,NetComm_CAN_Receive.vi:5470027<APPEND>  <b>Complete call chain:</b>      NetComm_CAN_Receive.vi:5470027      WPI_CAN_PDPReceive.vi      WPI_Power Get PDP Currents.vi      Periodic Tasks.vi      Robot Main.vi,-0.000000,0.000000,-0.000000,0.000000,TRUE,FALSE,FALSE,TRUE,FALSE,FALSE,Disabled,0.000000,0.000000,0.000000,TRUE,-5.360718,-4.343719,0.000000,0.012222,0.009903,0.000000,-0.032000,0.047000,0.088000,-0.010000,-0.430000,2.570000,0.110809,Hold,0.895020,0.000000,Hold,0.000000,2.000000,Suck,-1732.500000,1818.181818,Speed,-1740.000000,1818.181818,Speed,Off,On,0.000000,FALSE,0,,,,,0.000000,0.000000
08:24:36.629 PM 03/31/2016,Teleop Enabled,11,TRUE,-44087,NetComm_CAN_Receive.vi:5470027<APPEND>  <b>Complete call chain:</b>      NetComm_CAN_Receive.vi:5470027      WPI_CAN_PDPReceive.vi      WPI_Power Get PDP Currents.vi      Periodic Tasks.vi      Robot Main.vi,-0.000000,0.000000,-0.000000,0.000000,TRUE,FALSE,FALSE,TRUE,FALSE,FALSE,Disabled,0.000000,0.000000,0.000000,TRUE,-5.360916,-4.343399,0.000000,-0.019577,-0.013657,0.000000,0.047000,0.086000,0.046000,-0.010000,-0.430000,2.530000,0.112358,Hold,0.895020,0.000000,Hold,0.000000,2.000000,Suck,-1732.500000,1818.181818,Speed,-1762.500000,1818.181818,Speed,Off,On,0.000000,FALSE,0,,,,,0.000000,0.000000
08:24:36.730 PM 03/31/2016,Teleop Enabled,11,TRUE,-44087,NetComm_CAN_Receive.vi:5470027<APPEND>  <b>Complete call chain:</b>      NetComm_CAN_Receive.vi:5470027      WPI_CAN_PDPReceive.vi      WPI_Power Get PDP Currents.vi      Periodic Tasks.vi      Robot Main.vi,-0.000000,0.000000,-0.000000,0.000000,TRUE,FALSE,FALSE,TRUE,FALSE,FALSE,Disabled,0.000000,0.000000,0.000000,TRUE,-5.360916,-4.343399,0.000000,-0.019577,-0.013657,0.000000,-0.070000,0.189000,-0.005000,-0.010000,-0.460000,2.570000,0.122996,Hold,0.895020,0.000000,Hold,0.000000,2.000000,Suck,-1740.000000,1818.181818,Speed,-1755.000000,1818.181818,Speed,Off,On,0.000000,FALSE,0,,,,,0.000000,0.000000
08:24:36.830 PM 03/31/2016,Teleop Enabled,8,TRUE,-44087,NetComm_CAN_Receive.vi:5470027<APPEND>  <b>Complete call chain:</b>      NetComm_CAN_Receive.vi:5470027      WPI_CAN_PDPReceive.vi      WPI_Power Get PDP Currents.vi      Periodic Tasks.vi      Robot Main.vi,-0.000000,0.000000,-0.000000,0.000000,TRUE,FALSE,FALSE,TRUE,FALSE,FALSE,Disabled,0.000000,0.000000,0.000000,TRUE,-5.363754,-4.343307,0.000000,-0.073196,0.000061,0.000000,-0.117000,-0.035000,0.001000,-0.020000,-0.500000,2.580000,0.120407,Hold,0.895020,0.000000,Hold,0.000000,2.000000,Suck,-1747.500000,1818.181818,Speed,-1747.500000,1818.181818,Speed,Off,On,0.000000,FALSE,0,,,,,0.000000,0.000000
08:24:36.932 PM 03/31/2016,Teleop Enabled,7,TRUE,-44087,NetComm_CAN_Receive.vi:5470027<APPEND>  <b>Complete call chain:</b>      NetComm_CAN_Receive.vi:5470027      WPI_CAN_PDPReceive.vi      WPI_Power Get PDP Currents.vi      Periodic Tasks.vi      Robot Main.vi,-0.000000,0.000000,-0.000000,0.000000,TRUE,FALSE,FALSE,TRUE,FALSE,FALSE,Disabled,0.000000,0.000000,0.000000,TRUE,-5.368546,-4.344711,0.000000,-0.101501,-0.018387,0.000000,-0.083000,0.047000,0.012000,-0.020000,-0.580000,2.520000,0.121374,Hold,0.895020,0.000000,Hold,0.000000,2.000000,Suck,-1747.500000,1818.181818,Speed,-1747.500000,1818.181818,Speed,Off,On,0.000000,FALSE,0,,,,,0.000000,0.000000
08:24:37.034 PM 03/31/2016,Teleop Enabled,9,TRUE,-44087,NetComm_CAN_Receive.vi:5470027<APPEND>  <b>Complete call chain:</b>      NetComm_CAN_Receive.vi:5470027      WPI_CAN_PDPReceive.vi      WPI_Power Get PDP Currents.vi      Periodic Tasks.vi      Robot Main.vi,-0.000000,0.000000,-0.000000,0.000000,TRUE,FALSE,FALSE,TRUE,FALSE,FALSE,Disabled,0.000000,0.000000,0.000000,TRUE,-5.373718,-4.345306,0.000000,-0.097092,-0.005463,0.000000,-0.130000,0.095000,-0.045000,-0.020000,-0.550000,2.500000,0.116672,Hold,0.895020,0.000000,Hold,0.000000,2.000000,Suck,-1755.000000,1818.181818,Speed,-1762.500000,1818.181818,Speed,Off,On,0.000000,FALSE,0,,,,,0.000000,0.000000
08:24:37.134 PM 03/31/2016,Teleop Enabled,9,TRUE,-44087,NetComm_CAN_Receive.vi:5470027<APPEND>  <b>Complete call chain:</b>      NetComm_CAN_Receive.vi:5470027      WPI_CAN_PDPReceive.vi      WPI_Power Get PDP Currents.vi      Periodic Tasks.vi      Robot Main.vi,-0.000000,0.000000,-0.000000,0.000000,TRUE,FALSE,FALSE,TRUE,FALSE,FALSE,Disabled,0.000000,0.000000,0.000000,TRUE,-5.378998,-4.345673,0.000000,-0.104446,-0.015594,0.000000,0.095000,-0.249000,0.058000,-0.020000,-0.510000,2.390000,0.101469,Hold,0.895020,0.000000,Hold,0.000000,2.000000,Suck,-1755.000000,1818.181818,Speed,-1762.500000,1818.181818,Speed,Off,On,0.000000,FALSE,0,,,,,0.000000,0.000000
08:24:37.235 PM 03/31/2016,Teleop Enabled,9,TRUE,-44087,NetComm_CAN_Receive.vi:5470027<APPEND>  <b>Complete call chain:</b>      NetComm_CAN_Receive.vi:5470027      WPI_CAN_PDPReceive.vi      WPI_Power Get PDP Currents.vi      Periodic Tasks.vi      Robot Main.vi,-0.000000,0.000000,-0.000000,0.000000,TRUE,FALSE,FALSE,TRUE,FALSE,FALSE,Disabled,0.000000,0.000000,0.000000,TRUE,-5.384781,-4.347931,0.000000,-0.117264,-0.052902,0.000000,0.089000,-0.202000,-0.028000,-0.030000,-0.510000,2.440000,0.101469,Hold,0.895020,0.000000,Hold,0.000000,2.000000,Suck,-1747.500000,1818.181818,Speed,-1747.500000,1818.181818,Speed,Off,On,0.000000,FALSE,0,,,,,0.000000,0.000000
08:24:37.336 PM 03/31/2016,Teleop Enabled,10,TRUE,-44087,NetComm_CAN_Receive.vi:5470027<APPEND>  <b>Complete call chain:</b>      NetComm_CAN_Receive.vi:5470027      WPI_CAN_PDPReceive.vi      WPI_Power Get PDP Currents.vi      Periodic Tasks.vi      Robot Main.vi,-0.000000,0.000000,-0.000000,0.000000,TRUE,FALSE,FALSE,TRUE,FALSE,FALSE,Disabled,0.000000,0.000000,0.000000,TRUE,-5.393173,-4.352417,0.000000,-0.130768,-0.062546,0.000000,-0.060000,-0.114000,-0.026000,-0.030000,-0.510000,2.410000,0.104268,Hold,0.895020,0.000000,Hold,0.000000,2.000000,Suck,-1747.500000,1818.181818,Speed,-1740.000000,1818.181818,Speed,Off,On,0.000000,FALSE,0,,,,,0.000000,0.000000
08:24:37.439 PM 03/31/2016,Teleop Enabled,9,TRUE,-44087,NetComm_CAN_Receive.vi:5470027<APPEND>  <b>Complete call chain:</b>      NetComm_CAN_Receive.vi:5470027      WPI_CAN_PDPReceive.vi      WPI_Power Get PDP Currents.vi      Periodic Tasks.vi      Robot Main.vi,-0.000000,0.000000,-0.000000,0.000000,TRUE,FALSE,FALSE,TRUE,FALSE,FALSE,Disabled,0.000000,0.000000,0.000000,TRUE,-5.398331,-4.355682,0.000000,-0.128876,-0.060852,0.000000,-0.033000,-0.146000,-0.035000,-0.030000,-0.430000,2.380000,0.115532,Hold,0.895020,0.000000,Hold,0.000000,2.000000,Suck,-1747.500000,1818.181818,Speed,-1755.000000,1818.181818,Speed,Off,On,0.000000,FALSE,0,,,,,0.000000,0.000000
08:24:37.542 PM 03/31/2016,Teleop Enabled,13,TRUE,-44087,NetComm_CAN_Receive.vi:5470027<APPEND>  <b>Complete call chain:</b>      NetComm_CAN_Receive.vi:5470027      WPI_CAN_PDPReceive.vi      WPI_Power Get PDP Currents.vi      Periodic Tasks.vi      Robot Main.vi,-0.000000,0.000000,-0.000000,0.000000,TRUE,FALSE,FALSE,TRUE,FALSE,FALSE,Disabled,0.000000,0.000000,0.000000,TRUE,-5.404343,-4.359833,0.000000,-0.131531,-0.073669,0.000000,-0.072000,-0.043000,0.078000,-0.040000,-0.380000,2.410000,0.114792,Hold,0.895020,0.000000,Hold,0.000000,2.000000,Suck,-1747.500000,1818.181818,Speed,-1762.500000,1818.181818,Speed,Off,On,0.000000,FALSE,0,,,,,0.000000,0.000000
08:24:37.645 PM 03/31/2016,Teleop Enabled,10,TRUE,-44087,NetComm_CAN_Receive.vi:5470027<APPEND>  <b>Complete call chain:</b>      NetComm_CAN_Receive.vi:5470027      WPI_CAN_PDPReceive.vi      WPI_Power Get PDP Currents.vi      Periodic Tasks.vi      Robot Main.vi,-0.000000,0.000000,-0.000000,0.000000,TRUE,FALSE,FALSE,TRUE,FALSE,FALSE,Disabled,0.000000,0.000000,0.000000,TRUE,-5.410156,-4.363358,0.000000,-0.143951,-0.098740,0.000000,-0.014000,-0.029000,0.032000,-0.030000,-0.380000,2.510000,0.126965,Hold,0.895020,0.000000,Hold,0.000000,2.000000,Suck,-1762.500000,1818.181818,Speed,-1770.000000,1818.181818,Speed,Off,On,0.000000,FALSE,0,,,,,0.000000,0.000000
08:24:37.745 PM 03/31/2016,Teleop Enabled,10,TRUE,-44087,NetComm_CAN_Receive.vi:5470027<APPEND>  <b>Complete call chain:</b>      NetComm_CAN_Receive.vi:5470027      WPI_CAN_PDPReceive.vi      WPI_Power Get PDP Currents.vi      Periodic Tasks.vi      Robot Main.vi,-0.000000,0.000000,-0.000000,0.000000,TRUE,FALSE,FALSE,TRUE,FALSE,FALSE,Disabled,0.000000,0.000000,0.000000,TRUE,-5.419250,-4.370270,0.000000,-0.127121,-0.093384,0.000000,0.106000,-0.148000,0.027000,-0.040000,-0.380000,2.420000,0.129988,Hold,0.895020,0.000000,Hold,0.000000,2.000000,Suck,-1770.000000,1818.181818,Speed,-1777.500000,1818.181818,Speed,Off,On,0.000000,FALSE,0,,,,,0.000000,0.000000
08:24:37.847 PM 03/31/2016,Teleop Enabled,11,TRUE,-44087,NetComm_CAN_Receive.vi:5470027<APPEND>  <b>Complete call chain:</b>      NetComm_CAN_Receive.vi:5470027      WPI_CAN_PDPReceive.vi      WPI_Power Get PDP Currents.vi      Periodic Tasks.vi      Robot Main.vi,-0.000000,0.000000,-0.000000,0.000000,TRUE,FALSE,FALSE,TRUE,FALSE,FALSE,Disabled,0.000000,0.000000,0.000000,TRUE,-5.424286,-4.376404,0.000000,0.000000,-0.085083,0.000000,-0.019000,-0.082000,0.072000,-0.040000,-0.380000,2.410000,0.128363,Hold,0.895020,0.000000,Hold,0.000000,2.000000,Suck,-1755.000000,1818.181818,Speed,-1777.500000,1818.181818,Speed,Off,On,0.000000,FALSE,0,,,,,0.000000,0.000000
08:24:37.947 PM 03/31/2016,Teleop Enabled,9,TRUE,-44087,NetComm_CAN_Receive.vi:5470027<APPEND>  <b>Complete call chain:</b>      NetComm_CAN_Receive.vi:5470027      WPI_CAN_PDPReceive.vi      WPI_Power Get PDP Currents.vi      Periodic Tasks.vi      Robot Main.vi,-0.000000,0.000000,-0.000000,0.000000,TRUE,FALSE,FALSE,TRUE,FALSE,FALSE,Disabled,0.000000,0.000000,0.000000,TRUE,-5.423874,-4.381760,0.000000,0.019562,-0.103546,0.000000,-0.030000,-0.114000,-0.048000,-0.040000,-0.400000,2.420000,0.124593,Hold,0.895020,0.000000,Hold,0.000000,2.000000,Suck,-1740.000000,1818.181818,Speed,-1770.000000,1818.181818,Speed,Off,On,0.000000,FALSE,0,,,,,0.000000,0.000000
08:24:38.049 PM 03/31/2016,Teleop Enabled,10,TRUE,-44087,NetComm_CAN_Receive.vi:5470027<APPEND>  <b>Complete call chain:</b>      NetComm_CAN_Receive.vi:5470027      WPI_CAN_PDPReceive.vi      WPI_Power Get PDP Currents.vi      Periodic Tasks.vi      Robot Main.vi,-0.000000,0.000000,-0.000000,0.000000,TRUE,FALSE,FALSE,TRUE,FALSE,FALSE,Disabled,0.000000,0.000000,0.000000,TRUE,-5.421799,-4.387527,0.000000,0.051208,-0.086349,0.000000,0.013000,0.054000,-0.053000,-0.040000,-0.360000,2.450000,0.124201,Hold,0.895020,0.000000,Hold,0.000000,2.000000,Suck,-1740.000000,1818.181818,Speed,-1770.000000,1818.181818,Speed,Off,On,0.000000,FALSE,0,,,,,0.000000,0.000000
08:24:38.149 PM 03/31/2016,Teleop Enabled,9,TRUE,-44087,NetComm_CAN_Receive.vi:5470027<APPEND>  <b>Complete call chain:</b>      NetComm_CAN_Receive.vi:5470027      WPI_CAN_PDPReceive.vi      WPI_Power Get PDP Currents.vi      Periodic Tasks.vi      Robot Main.vi,-0.000000,0.000000,-0.000000,0.000000,TRUE,FALSE,FALSE,TRUE,FALSE,FALSE,Disabled,0.000000,0.000000,0.000000,TRUE,-5.418640,-4.391266,0.000000,0.071426,-0.079208,0.000000,0.064000,0.004000,0.033000,-0.040000,-0.390000,2.530000,0.122810,Hold,0.895020,58.000000,Hold,0.000000,143360.000000,Suck,-1740.000000,1818.181818,Speed,-1770.000000,1818.181818,Speed,Off,On,0.000000,FALSE,0,,,,,0.000000,0.000000
08:24:38.249 PM 03/31/2016,Teleop Enabled,9,TRUE,-44087,NetComm_CAN_Receive.vi:5470027<APPEND>  <b>Complete call chain:</b>      NetComm_CAN_Receive.vi:5470027      WPI_CAN_PDPReceive.vi      WPI_Power Get PDP Currents.vi      Periodic Tasks.vi      Robot Main.vi,-0.000000,0.000000,-0.000000,0.000000,TRUE,FALSE,FALSE,TRUE,FALSE,FALSE,Disabled,0.000000,0.000000,0.000000,TRUE,-5.413956,-4.395142,0.000000,0.071091,0.000000,0.000000,-0.013000,0.092000,0.045000,-0.040000,-0.460000,2.560000,0.120286,Hold,5.230225,58.000000,Hold,0.000000,143360.000000,Suck,-1732.500000,1818.181818,Speed,-1770.000000,1818.181818,Speed,Off,On,0.000000,FALSE,0,,,,,0.000000,0.000000
08:24:38.350 PM 03/31/2016,Teleop Enabled,10,TRUE,-44087,NetComm_CAN_Receive.vi:5470027<APPEND>  <b>Complete call chain:</b>      NetComm_CAN_Receive.vi:5470027      WPI_CAN_PDPReceive.vi      WPI_Power Get PDP Currents.vi      Periodic Tasks.vi      Robot Main.vi,-0.000000,0.000000,-0.000000,0.000000,TRUE,FALSE,FALSE,TRUE,FALSE,FALSE,Disabled,0.000000,0.000000,0.000000,TRUE,-5.410248,-4.394562,0.000000,0.056351,0.019806,0.000000,0.063000,-0.130000,-0.033000,-0.020000,-0.400000,2.610000,0.109349,Hold,5.230225,58.000000,Hold,0.000000,143360.000000,Suck,-1740.000000,1818.181818,Speed,-1770.000000,1818.181818,Speed,Off,On,0.000000,FALSE,0,,,,,0.000000,0.000000
08:24:38.452 PM 03/31/2016,Teleop Enabled,9,TRUE,-44087,NetComm_CAN_Receive.vi:5470027<APPEND>  <b>Complete call chain:</b>      NetComm_CAN_Receive.vi:5470027      WPI_CAN_PDPReceive.vi      WPI_Power Get PDP Currents.vi      Periodic Tasks.vi      Robot Main.vi,-0.000000,0.000000,-0.000000,0.032083,TRUE,FALSE,FALSE,TRUE,FALSE,FALSE,Disabled,0.000000,0.000000,0.000000,TRUE,-5.406616,-4.395142,0.000000,0.114594,-0.031784,0.000000,0.003000,0.199000,0.219000,-0.080000,-0.300000,2.560000,0.111711,Hold,15.402344,58.000000,Hold,0.000000,143360.000000,Suck,-1740.000000,1818.181818,Speed,-1770.000000,1818.181818,Speed,Off,On,0.000000,FALSE,0,,,,,0.000000,0.000000
08:24:38.553 PM 03/31/2016,Teleop Enabled,12,TRUE,-44087,NetComm_CAN_Receive.vi:5470027<APPEND>  <b>Complete call chain:</b>      NetComm_CAN_Receive.vi:5470027      WPI_CAN_PDPReceive.vi      WPI_Power Get PDP Currents.vi      Periodic Tasks.vi      Robot Main.vi,-0.000000,0.000000,-0.000000,0.044917,TRUE,FALSE,FALSE,TRUE,FALSE,FALSE,Disabled,0.000000,0.000000,0.000000,TRUE,-5.399063,-4.394669,0.000000,0.115677,-0.009171,0.000000,-0.035000,0.162000,0.157000,-0.090000,-0.260000,2.690000,0.063594,Hold,15.402344,58.000000,Hold,0.000000,143360.000000,Suck,-1732.500000,1818.181818,Speed,-1762.500000,1818.181818,Speed,Off,On,0.000000,FALSE,0,,,,,0.000000,0.000000
08:24:38.654 PM 03/31/2016,Teleop Enabled,11,TRUE,-44087,NetComm_CAN_Receive.vi:5470027<APPEND>  <b>Complete call chain:</b>      NetComm_CAN_Receive.vi:5470027      WPI_CAN_PDPReceive.vi      WPI_Power Get PDP Currents.vi      Periodic Tasks.vi      Robot Main.vi,-0.000000,0.000000,-0.000000,0.038500,TRUE,FALSE,FALSE,TRUE,FALSE,FALSE,Disabled,0.000000,0.000000,0.000000,TRUE,-5.395157,-4.394302,0.000000,0.099075,-0.008347,0.000000,-0.018000,0.029000,0.009000,-0.020000,-0.290000,2.640000,0.135427,Hold,21.032959,58.000000,Hold,0.000000,143360.000000,Suck,-1732.500000,1818.181818,Speed,-1762.500000,1818.181818,Speed,Off,On,0.000000,FALSE,0,,,,,0.000000,0.000000
08:24:38.755 PM 03/31/2016,Teleop Enabled,10,TRUE,-44087,NetComm_CAN_Receive.vi:5470027<APPEND>  <b>Complete call chain:</b>      NetComm_CAN_Receive.vi:5470027      WPI_CAN_PDPReceive.vi      WPI_Power Get PDP Currents.vi      Periodic Tasks.vi      Robot Main.vi,-0.000000,0.000000,-0.000000,0.032083,TRUE,FALSE,FALSE,TRUE,FALSE,FALSE,Disabled,0.000000,0.000000,0.000000,TRUE,-5.390747,-4.393723,0.000000,0.087875,0.006592,0.000000,-0.018000,0.029000,0.009000,-0.060000,-0.230000,2.620000,0.107721,Hold,28.997070,58.000000,Hold,0.000000,143360.000000,Suck,-1732.500000,1818.181818,Speed,-1762.500000,1818.181818,Speed,Off,On,0.000000,FALSE,0,,,,,0.000000,0.000000
08:24:38.855 PM 03/31/2016,Teleop Enabled,10,TRUE,-44087,NetComm_CAN_Receive.vi:5470027<APPEND>  <b>Complete call chain:</b>      NetComm_CAN_Receive.vi:5470027      WPI_CAN_PDPReceive.vi      WPI_Power Get PDP Currents.vi      Periodic Tasks.vi      Robot Main.vi,-0.000000,-0.006417,-0.000000,0.025667,TRUE,FALSE,FALSE,TRUE,FALSE,FALSE,Disabled,0.000000,0.000000,0.000000,TRUE,-5.386337,-4.393448,0.000000,0.056122,-0.023239,0.000000,0.024000,0.033000,-0.127000,-0.150000,-0.290000,2.620000,0.093548,Hold,39.677490,58.000000,Hold,0.000000,143360.000000,Suck,-1740.000000,1818.181818,Speed,-1755.000000,1818.181818,Speed,Off,On,0.000000,FALSE,0,,,,,0.000000,0.000000
08:24:38.957 PM 03/31/2016,Teleop Enabled,11,TRUE,-44087,NetComm_CAN_Receive.vi:5470027<APPEND>  <b>Complete call chain:</b>      NetComm_CAN_Receive.vi:5470027      WPI_CAN_PDPReceive.vi      WPI_Power Get PDP Currents.vi      Periodic Tasks.vi      Robot Main.vi,-0.000000,-0.012833,-0.000000,-0.044917,TRUE,FALSE,FALSE,TRUE,FALSE,FALSE,Disabled,0.000000,0.000000,0.000000,TRUE,-5.382614,-4.392822,0.000000,0.030670,0.016342,0.000000,0.015000,-0.043000,0.050000,-0.190000,-0.510000,2.520000,0.019461,Hold,51.743652,58.000000,Hold,0.000000,143360.000000,Suck,-1747.500000,1818.181818,Speed,-1755.000000,1818.181818,Speed,Off,On,0.000000,FALSE,0,,,,,0.000000,0.000000
08:24:39.057 PM 03/31/2016,Teleop Enabled,9,TRUE,-44087,NetComm_CAN_Receive.vi:5470027<APPEND>  <b>Complete call chain:</b>      NetComm_CAN_Receive.vi:5470027      WPI_CAN_PDPReceive.vi      WPI_Power Get PDP Currents.vi      Periodic Tasks.vi      Robot Main.vi,-0.000000,-0.134750,-0.000000,-0.089833,TRUE,FALSE,FALSE,TRUE,FALSE,FALSE,Disabled,0.000000,0.000000,0.000000,TRUE,-5.383087,-4.392365,0.000000,-0.045792,-0.014587,0.000000,-0.024000,0.241000,0.135000,-0.160000,-0.850000,2.490000,-0.004530,Hold,59.862793,58.000000,Hold,0.000000,143360.000000,Suck,-1747.500000,1818.181818,Speed,-1762.500000,1818.181818,Speed,Off,On,0.000000,FALSE,0,,,,,0.000000,0.000000
08:24:39.158 PM 03/31/2016,Teleop Enabled,11,TRUE,-44087,NetComm_CAN_Receive.vi:5470027<APPEND>  <b>Complete call chain:</b>      NetComm_CAN_Receive.vi:5470027      WPI_CAN_PDPReceive.vi      WPI_Power Get PDP Currents.vi      Periodic Tasks.vi      Robot Main.vi,-0.000000,-0.128333,-0.000000,-0.089833,TRUE,FALSE,FALSE,TRUE,FALSE,FALSE,Disabled,0.000000,0.000000,0.000000,TRUE,-5.385727,-4.391953,0.000000,-0.075333,-0.006882,0.000000,0.068000,0.047000,-0.016000,-0.170000,-0.690000,2.490000,-0.000127,Hold,63.578125,58.000000,Hold,0.000000,143360.000000,Suck,-1740.000000,1818.181818,Speed,-1762.500000,1818.181818,Speed,Off,On,0.000000,FALSE,0,,,,,0.000000,0.000000
08:24:39.259 PM 03/31/2016,Teleop Enabled,9,TRUE,-44087,NetComm_CAN_Receive.vi:5470027<APPEND>  <b>Complete call chain:</b>      NetComm_CAN_Receive.vi:5470027      WPI_CAN_PDPReceive.vi      WPI_Power Get PDP Currents.vi      Periodic Tasks.vi      Robot Main.vi,-0.000000,-0.128333,-0.000000,-0.025667,TRUE,FALSE,FALSE,TRUE,FALSE,FALSE,Disabled,0.000000,0.000000,0.000000,TRUE,-5.389114,-4.390991,0.000000,0.000000,0.003250,0.000000,-0.040000,0.175000,0.022000,-0.180000,-0.620000,2.450000,-0.024246,Hold,62.773438,58.000000,Hold,0.000000,143360.000000,Suck,-1732.500000,1818.181818,Speed,-1770.000000,1818.181818,Speed,Off,On,0.000000,FALSE,0,,,,,0.000000,0.000000
08:24:39.360 PM 03/31/2016,Teleop Enabled,10,TRUE,-44087,NetComm_CAN_Receive.vi:5470027<APPEND>  <b>Complete call chain:</b>      NetComm_CAN_Receive.vi:5470027      WPI_CAN_PDPReceive.vi      WPI_Power Get PDP Currents.vi      Periodic Tasks.vi      Robot Main.vi,-0.000000,-0.121916,-0.000000,0.006417,TRUE,FALSE,FALSE,TRUE,FALSE,FALSE,Disabled,0.000000,0.000000,0.000000,TRUE,-5.389557,-4.388550,0.000000,-0.019974,0.083282,0.000000,0.013000,-0.114000,-0.060000,-0.190000,-0.510000,2.470000,-0.053659,Hold,61.954590,58.000000,Hold,0.000000,143360.000000,Suck,-1740.000000,1818.181818,Speed,-1770.000000,1818.181818,Speed,Off,On,0.000000,FALSE,0,,,,,0.000000,0.000000
08:24:39.461 PM 03/31/2016,Teleop Enabled,10,TRUE,-44087,NetComm_CAN_Receive.vi:5470027<APPEND>  <b>Complete call chain:</b>      NetComm_CAN_Receive.vi:5470027      WPI_CAN_PDPReceive.vi      WPI_Power Get PDP Currents.vi      Periodic Tasks.vi      Robot Main.vi,-0.000000,-0.121916,-0.000000,0.006417,TRUE,FALSE,FALSE,TRUE,FALSE,FALSE,Disabled,0.000000,0.000000,0.000000,TRUE,-5.391449,-4.384171,0.000000,-0.056412,0.088272,0.000000,0.084000,-0.004000,-0.002000,-0.170000,-0.500000,2.490000,-0.043531,Hold,61.871826,58.000000,Hold,0.000000,143360.000000,Suck,-1747.500000,1818.181818,Speed,-1770.000000,1818.181818,Speed,Off,On,0.000000,FALSE,0,,,,,0.000000,0.000000
08:24:39.561 PM 03/31/2016,Teleop Enabled,9,TRUE,-44087,NetComm_CAN_Receive.vi:5470027<APPEND>  <b>Complete call chain:</b>      NetComm_CAN_Receive.vi:5470027      WPI_CAN_PDPReceive.vi      WPI_Power Get PDP Currents.vi      Periodic Tasks.vi      Robot Main.vi,-0.000000,-0.121916,-0.000000,0.006417,TRUE,FALSE,FALSE,TRUE,FALSE,FALSE,Disabled,0.000000,0.000000,0.000000,TRUE,-5.393478,-4.380585,0.000000,-0.056091,0.099014,0.000000,0.026000,-0.019000,-0.078000,-0.170000,-0.490000,2.490000,-0.026408,Hold,61.853760,58.000000,Hold,0.000000,143360.000000,Suck,-1740.000000,1818.181818,Speed,-1770.000000,1818.181818,Speed,Off,On,0.000000,FALSE,0,,,,,0.000000,0.000000
08:24:39.661 PM 03/31/2016,Teleop Enabled,10,TRUE,-44087,NetComm_CAN_Receive.vi:5470027<APPEND>  <b>Complete call chain:</b>      NetComm_CAN_Receive.vi:5470027      WPI_CAN_PDPReceive.vi      WPI_Power Get PDP Currents.vi      Periodic Tasks.vi      Robot Main.vi,-0.000000,-0.121916,-0.000000,0.006417,TRUE,FALSE,FALSE,TRUE,FALSE,FALSE,Disabled,0.000000,0.000000,0.000000,TRUE,-5.398178,-4.371735,0.000000,-0.083237,0.156860,0.000000,0.026000,-0.019000,-0.078000,-0.180000,-0.540000,2.460000,-0.038247,Hold,61.853516,58.000000,Hold,0.000000,143360.000000,Suck,-1732.500000,1818.181818,Speed,-1777.500000,1818.181818,Speed,Off,On,0.000000,FALSE,0,,,,,0.000000,0.000000
08:24:39.763 PM 03/31/2016,Teleop Enabled,10,TRUE,-44087,NetComm_CAN_Receive.vi:5470027<APPEND>  <b>Complete call chain:</b>      NetComm_CAN_Receive.vi:5470027      WPI_CAN_PDPReceive.vi      WPI_Power Get PDP Currents.vi      Periodic Tasks.vi      Robot Main.vi,-0.000000,-0.121916,-0.000000,0.006417,TRUE,FALSE,FALSE,TRUE,FALSE,FALSE,Disabled,0.000000,0.000000,0.000000,TRUE,-5.402771,-4.370102,0.000000,-0.082825,0.004288,0.000000,-0.090000,0.009000,0.055000,-0.170000,-0.620000,2.370000,-0.030732,Hold,61.849854,58.000000,Hold,0.000000,143360.000000,Suck,-1740.000000,1818.181818,Speed,-1755.000000,1818.181818,Speed,Off,On,0.000000,FALSE,0,,,,,0.000000,0.000000
08:24:39.863 PM 03/31/2016,Teleop Enabled,10,TRUE,-44087,NetComm_CAN_Receive.vi:5470027<APPEND>  <b>Complete call chain:</b>      NetComm_CAN_Receive.vi:5470027      WPI_CAN_PDPReceive.vi      WPI_Power Get PDP Currents.vi      Periodic Tasks.vi      Robot Main.vi,-0.000000,-0.121916,-0.000000,0.006417,TRUE,FALSE,FALSE,TRUE,FALSE,FALSE,Disabled,0.000000,0.000000,0.000000,TRUE,-5.407242,-4.368866,0.000000,-0.098114,0.047806,0.000000,0.007000,0.030000,-0.046000,-0.170000,-0.670000,2.300000,-0.027967,Hold,61.849854,58.000000,Hold,0.000000,143360.000000,Suck,-1740.000000,1818.181818,Speed,-1762.500000,1818.181818,Speed,Off,On,0.000000,FALSE,0,,,,,0.000000,0.000000
08:24:39.964 PM 03/31/2016,Teleop Enabled,9,TRUE,-44087,NetComm_CAN_Receive.vi:5470027<APPEND>  <b>Complete call chain:</b>      NetComm_CAN_Receive.vi:5470027      WPI_CAN_PDPReceive.vi      WPI_Power Get PDP Currents.vi      Periodic Tasks.vi      Robot Main.vi,-0.000000,-0.121916,-0.000000,0.006417,TRUE,FALSE,FALSE,TRUE,FALSE,FALSE,Disabled,0.000000,0.000000,0.000000,TRUE,-5.410904,-4.366089,0.000000,-0.081131,0.079224,0.000000,0.050000,0.010000,-0.003000,-0.170000,-0.650000,2.350000,-0.026659,Hold,61.849609,58.000000,Hold,0.000000,143360.000000,Suck,-1755.000000,1818.181818,Speed,-1770.000000,1818.181818,Speed,Off,On,0.000000,FALSE,0,,,,,0.000000,0.000000
08:24:40.065 PM 03/31/2016,Teleop Enabled,10,TRUE,-44087,NetComm_CAN_Receive.vi:5470027<APPEND>  <b>Complete call chain:</b>      NetComm_CAN_Receive.vi:5470027      WPI_CAN_PDPReceive.vi      WPI_Power Get PDP Currents.vi      Periodic Tasks.vi      Robot Main.vi,-0.000000,-0.121916,-0.000000,0.006417,TRUE,FALSE,FALSE,TRUE,FALSE,FALSE,Disabled,0.000000,0.000000,0.000000,TRUE,-5.414749,-4.366486,0.000000,-0.078705,-0.016403,0.000000,0.050000,0.010000,-0.003000,-0.170000,-0.640000,2.350000,-0.012407,Hold,61.849609,58.000000,Hold,0.000000,143360.000000,Suck,-1747.500000,1818.181818,Speed,-1762.500000,1818.181818,Speed,Off,On,0.000000,FALSE,0,,,,,0.000000,0.000000
08:24:40.167 PM 03/31/2016,Teleop Enabled,10,TRUE,-44087,NetComm_CAN_Receive.vi:5470027<APPEND>  <b>Complete call chain:</b>      NetComm_CAN_Receive.vi:5470027      WPI_CAN_PDPReceive.vi      WPI_Power Get PDP Currents.vi      Periodic Tasks.vi      Robot Main.vi,-0.000000,-0.121916,-0.000000,0.006417,TRUE,FALSE,FALSE,TRUE,FALSE,FALSE,Disabled,0.000000,0.000000,0.000000,TRUE,-5.419510,-4.368439,0.000000,-0.112976,-0.040573,0.000000,-0.073000,0.065000,-0.006000,-0.170000,-0.680000,2.220000,-0.000189,Hold,61.849365,58.000000,Hold,0.000000,143360.000000,Suck,-1732.500000,1818.181818,Speed,-1762.500000,1818.181818,Speed,Off,On,0.000000,FALSE,0,,,,,0.000000,0.000000
08:24:40.269 PM 03/31/2016,Teleop Enabled,10,TRUE,-44087,NetComm_CAN_Receive.vi:5470027<APPEND>  <b>Complete call chain:</b>      NetComm_CAN_Receive.vi:5470027      WPI_CAN_PDPReceive.vi      WPI_Power Get PDP Currents.vi      Periodic Tasks.vi      Robot Main.vi,-0.000000,-0.121916,-0.000000,0.006417,TRUE,FALSE,FALSE,TRUE,FALSE,FALSE,Disabled,0.000000,0.000000,0.000000,TRUE,-5.422791,-4.369461,0.000000,0.000000,-0.013596,0.000000,0.115000,0.032000,0.090000,-0.170000,-0.680000,2.240000,0.002214,Hold,61.849365,58.000000,Hold,0.000000,143360.000000,Suck,-1732.500000,1818.181818,Speed,-1747.500000,1818.181818,Speed,Off,On,0.000000,FALSE,0,,,,,0.000000,0.000000
08:24:40.369 PM 03/31/2016,Teleop Enabled,11,TRUE,-44087,NetComm_CAN_Receive.vi:5470027<APPEND>  <b>Complete call chain:</b>      NetComm_CAN_Receive.vi:5470027      WPI_CAN_PDPReceive.vi      WPI_Power Get PDP Currents.vi      Periodic Tasks.vi      Robot Main.vi,-0.000000,-0.121916,-0.000000,0.006417,TRUE,FALSE,FALSE,TRUE,FALSE,FALSE,Disabled,0.000000,0.000000,0.000000,TRUE,-5.421585,-4.369644,0.000000,0.036530,-0.015839,0.000000,0.043000,0.029000,0.055000,-0.170000,-0.690000,2.170000,0.006475,Hold,61.849365,58.000000,Hold,0.000000,143360.000000,Suck,-1740.000000,1818.181818,Speed,-1747.500000,1818.181818,Speed,Off,On,0.000000,FALSE,0,,,,,0.000000,0.000000
08:24:40.471 PM 03/31/2016,Teleop Enabled,9,TRUE,-44087,NetComm_CAN_Receive.vi:5470027<APPEND>  <b>Complete call chain:</b>      NetComm_CAN_Receive.vi:5470027      WPI_CAN_PDPReceive.vi      WPI_Power Get PDP Currents.vi      Periodic Tasks.vi      Robot Main.vi,-0.000000,-0.121916,-0.000000,0.006417,TRUE,FALSE,FALSE,TRUE,FALSE,FALSE,Disabled,0.000000,0.000000,0.000000,TRUE,-5.419708,-4.369843,0.000000,0.065353,-0.009109,0.000000,0.062000,0.072000,0.031000,-0.170000,-0.690000,2.150000,0.009921,Hold,61.849365,58.000000,Hold,0.000000,143360.000000,Suck,-1732.500000,1818.181818,Speed,-1755.000000,1818.181818,Speed,Off,On,0.000000,FALSE,0,,,,,0.000000,0.000000
08:24:40.571 PM 03/31/2016,Teleop Enabled,10,TRUE,-44087,NetComm_CAN_Receive.vi:5470027<APPEND>  <b>Complete call chain:</b>      NetComm_CAN_Receive.vi:5470027      WPI_CAN_PDPReceive.vi      WPI_Power Get PDP Currents.vi      Periodic Tasks.vi      Robot Main.vi,-0.000000,-0.121916,-0.000000,0.006417,TRUE,FALSE,FALSE,TRUE,FALSE,FALSE,Disabled,0.000000,0.000000,0.000000,TRUE,-5.411987,-4.369324,0.000000,0.126190,0.036728,0.000000,0.062000,0.072000,0.031000,-0.170000,-0.690000,2.150000,0.005326,Hold,61.849365,58.000000,Hold,0.000000,143360.000000,Suck,-1732.500000,1818.181818,Speed,-1747.500000,1818.181818,Speed,Off,On,0.000000,FALSE,0,,,,,0.000000,0.000000
08:24:40.674 PM 03/31/2016,Teleop Enabled,10,TRUE,-44087,NetComm_CAN_Receive.vi:5470027<APPEND>  <b>Complete call chain:</b>      NetComm_CAN_Receive.vi:5470027      WPI_CAN_PDPReceive.vi      WPI_Power Get PDP Currents.vi      Periodic Tasks.vi      Robot Main.vi,-0.000000,-0.121916,-0.000000,0.006417,TRUE,FALSE,FALSE,TRUE,FALSE,FALSE,Disabled,0.000000,0.000000,0.000000,TRUE,-5.409393,-4.368271,0.000000,0.000000,0.047852,0.000000,0.033000,-0.106000,-0.007000,-0.180000,-0.540000,2.370000,0.007240,Hold,61.849365,58.000000,Hold,0.000000,143360.000000,Suck,-1740.000000,1818.181818,Speed,-1747.500000,1818.181818,Speed,Off,On,0.000000,FALSE,0,,,,,0.000000,0.000000
08:24:40.777 PM 03/31/2016,Teleop Enabled,9,TRUE,-44087,NetComm_CAN_Receive.vi:5470027<APPEND>  <b>Complete call chain:</b>      NetComm_CAN_Receive.vi:5470027      WPI_CAN_PDPReceive.vi      WPI_Power Get PDP Currents.vi      Periodic Tasks.vi      Robot Main.vi,-0.000000,-0.121916,-0.000000,0.006417,TRUE,FALSE,FALSE,TRUE,FALSE,FALSE,Disabled,0.000000,0.000000,0.000000,TRUE,-5.407440,-4.366104,0.000000,0.061676,0.035538,0.000000,0.164000,-0.117000,0.039000,-0.180000,-0.460000,2.440000,0.000269,Hold,61.849121,58.000000,Hold,0.000000,143360.000000,Suck,-1740.000000,1818.181818,Speed,-1762.500000,1818.181818,Speed,Off,On,0.000000,FALSE,0,,,,,0.000000,0.000000
