Time,Robot Mode,Loop Time,Error Status,Error Code,Error Source,Left Motor Output,Left Motor Encoder,Right Motor Output,Right Motor Encoder,Is Level,Is Stalled,Ball Detector Photoeye,Vision Enabled,Vision Teleop Control,Vision Auto Control,Vision Current State,Vision X Output,Vision NavX Error,Vision NavX Target,NavX Connection Status,NavX Displacement X,NavX Displacement Y,NavX Displacement Z,NavX Velocity X,NavX Velocity Y,NavX Velocity Z,NavX Acceleration X,NavX Acceleration Y,NavX Acceleration Z,NavX Pitch,NavX Yaw,NavX Roll,Gyro Angle,Roller Arm State,Roller Arm Actual,Roller Arm Desired,Shooter Arm State,Shooter Arm Actual,Shooter Arm Desired,Shooter State,Actual RPM Left,Desired RPM Left,Control Mode Left,Actual RPM Right,Desired RPM Right,Control Mode Right,Ball Shooter Cylinder,Ball Halo Cylinder,Scaler Motor Output,Scaler Solenoid Fire,Auto To Run,Auto Current File,Auto File Status,Auto Current Command,Auto Trimmed Command,Shooter Amps Left,Shooter Amps Right
01:40:03.256 PM 04/02/2016,Teleop Enabled,9,TRUE,-44087,NetComm_CAN_Receive.vi:5470001<APPEND>  <b>Complete call chain:</b>      NetComm_CAN_Receive.vi:5470001      WPI_CAN_PDPReceive.vi      WPI_Power Get PDP Currents.vi      Periodic Tasks.vi      Robot Main.vi,-0.000000,-0.737915,-0.000000,-2.624411,TRUE,FALSE,FALSE,TRUE,FALSE,FALSE,Disabled,0.000000,0.000000,0.000000,TRUE,-0.036850,0.011322,0.000000,0.000000,0.000000,0.000000,0.002000,0.004000,0.006000,-3.330000,0.340000,0.190000,6.100967,ResetBack,-0.531982,-0.000049,ResetBack,122808.000000,-0.250000,Suck,0.000000,1818.181818,Speed,0.000000,1818.181818,Speed,Off,Off,0.000000,FALSE,10,,,,,0.000000,0.000000
01:40:03.357 PM 04/02/2016,Teleop Enabled,10,TRUE,-44087,NetComm_CAN_Receive.vi:5470001<APPEND>  <b>Complete call chain:</b>      NetComm_CAN_Receive.vi:5470001      WPI_CAN_PDPReceive.vi      WPI_Power Get PDP Currents.vi      Periodic Tasks.vi      Robot Main.vi,-0.000000,-0.737915,-0.000000,-2.624411,TRUE,FALSE,FALSE,TRUE,FALSE,FALSE,Disabled,0.000000,0.000000,0.000000,TRUE,-0.036636,0.011215,0.000000,0.015503,-0.009018,0.000000,0.007000,-0.100000,0.045000,-3.330000,0.330000,0.190000,6.115470,ResetBack,-1.379150,-0.000049,ResetBack,122808.000000,-0.250000,Suck,0.000000,1818.181818,Speed,0.000000,1818.181818,Speed,Off,Off,0.000000,FALSE,10,,,,,0.000000,0.000000
01:40:03.457 PM 04/02/2016,Teleop Enabled,10,TRUE,-44087,NetComm_CAN_Receive.vi:5470001<APPEND>  <b>Complete call chain:</b>      NetComm_CAN_Receive.vi:5470001      WPI_CAN_PDPReceive.vi      WPI_Power Get PDP Currents.vi      Periodic Tasks.vi      Robot Main.vi,-0.000000,-0.737915,-0.000000,-2.624411,TRUE,FALSE,FALSE,TRUE,FALSE,FALSE,Disabled,0.000000,0.000000,0.000000,TRUE,-0.035904,0.009369,0.000000,0.004013,-0.042206,0.000000,-0.022000,0.016000,0.012000,-3.330000,0.350000,0.140000,6.123137,ResetBack,-1.938965,-0.000049,ResetBack,127151.000000,-0.250000,Suck,-247.500000,1818.181818,Speed,-90.000000,1818.181818,Speed,Off,Off,0.000000,FALSE,10,,,,,0.000000,0.000000
01:40:03.557 PM 04/02/2016,Teleop Enabled,8,TRUE,-44087,NetComm_CAN_Receive.vi:5470001<APPEND>  <b>Complete call chain:</b>      NetComm_CAN_Receive.vi:5470001      WPI_CAN_PDPReceive.vi      WPI_Power Get PDP Currents.vi      Periodic Tasks.vi      Robot Main.vi,-0.000000,-0.737915,-0.000000,-2.624411,TRUE,FALSE,FALSE,TRUE,FALSE,FALSE,Disabled,0.000000,0.000000,0.000000,TRUE,-0.035583,0.008438,0.000000,0.012985,-0.012344,0.000000,0.030000,0.016000,0.022000,-3.330000,0.330000,0.140000,6.108331,ResetBack,-1.939697,-0.000049,ResetBack,132448.000000,-0.250000,Suck,-877.500000,1818.181818,Speed,-450.000000,1818.181818,Speed,Off,Off,0.000000,FALSE,10,,,,,0.000000,0.000000
01:40:03.658 PM 04/02/2016,Teleop Enabled,9,TRUE,-44087,NetComm_CAN_Receive.vi:5470001<APPEND>  <b>Complete call chain:</b>      NetComm_CAN_Receive.vi:5470001      WPI_CAN_PDPReceive.vi      WPI_Power Get PDP Currents.vi      Periodic Tasks.vi      Robot Main.vi,-0.000000,-0.737915,-0.000000,-2.624411,TRUE,FALSE,FALSE,TRUE,FALSE,FALSE,Disabled,0.000000,0.000000,0.000000,TRUE,-0.035141,0.009109,0.000000,-0.007751,0.006577,0.000000,-0.091000,-0.022000,-0.062000,-3.330000,0.340000,0.190000,6.107611,Reset,-1.941895,0.000000,ResetBack,137942.000000,-0.250000,Suck,-1387.500000,1818.181818,Speed,-1020.000000,1818.181818,Speed,Off,Off,0.000000,FALSE,10,,,,,0.000000,0.000000
01:40:03.760 PM 04/02/2016,Teleop Enabled,7,TRUE,-44087,NetComm_CAN_Receive.vi:5470001<APPEND>  <b>Complete call chain:</b>      NetComm_CAN_Receive.vi:5470001      WPI_CAN_PDPReceive.vi      WPI_Power Get PDP Currents.vi      Periodic Tasks.vi      Robot Main.vi,-0.000000,-0.737915,-0.000000,-2.624411,TRUE,FALSE,FALSE,TRUE,FALSE,FALSE,Disabled,0.000000,0.000000,0.000000,TRUE,-0.035889,0.009460,0.000000,0.010757,-0.012451,0.000000,0.230000,-0.131000,0.050000,-3.330000,0.390000,0.130000,6.103198,Hold,0.725830,0.000000,ResetBack,142284.000000,-0.250000,Suck,-1740.000000,1818.181818,Speed,-1657.500000,1818.181818,Speed,Off,Off,0.000000,FALSE,10,,,,,0.000000,0.000000
01:40:03.860 PM 04/02/2016,Teleop Enabled,11,TRUE,-44087,NetComm_CAN_Receive.vi:5470001<APPEND>  <b>Complete call chain:</b>      NetComm_CAN_Receive.vi:5470001      WPI_CAN_PDPReceive.vi      WPI_Power Get PDP Currents.vi      Periodic Tasks.vi      Robot Main.vi,-0.000000,-0.737915,-0.000000,-2.624411,TRUE,FALSE,FALSE,TRUE,FALSE,FALSE,Disabled,0.000000,0.000000,0.000000,TRUE,-0.031738,0.003983,0.000000,0.111465,-0.181000,0.000000,0.164000,-0.107000,0.008000,-3.340000,0.350000,0.120000,6.092815,Hold,0.871826,0.000000,ResetBack,142284.000000,-0.250000,Suck,-1815.000000,1818.181818,Speed,-2002.500000,1818.181818,Speed,Off,Off,0.000000,FALSE,10,,,,,0.000000,0.000000
01:40:03.960 PM 04/02/2016,Teleop Enabled,9,TRUE,-44087,NetComm_CAN_Receive.vi:5470001<APPEND>  <b>Complete call chain:</b>      NetComm_CAN_Receive.vi:5470001      WPI_CAN_PDPReceive.vi      WPI_Power Get PDP Currents.vi      Periodic Tasks.vi      Robot Main.vi,-0.000000,-0.737915,-0.000000,-2.624411,TRUE,FALSE,FALSE,TRUE,FALSE,FALSE,Disabled,0.000000,0.000000,0.000000,TRUE,-0.025284,-0.007156,0.000000,0.152023,-0.244080,0.000000,0.151000,-0.057000,-0.031000,-3.340000,0.370000,0.080000,6.094908,Hold,0.871582,0.000000,ResetBack,147157.000000,-0.250000,Suck,-1785.000000,1818.181818,Speed,-1815.000000,1818.181818,Speed,Off,Off,0.000000,FALSE,10,,,,,0.000000,0.000000
01:40:04.060 PM 04/02/2016,Teleop Enabled,10,TRUE,-44087,NetComm_CAN_Receive.vi:5470001<APPEND>  <b>Complete call chain:</b>      NetComm_CAN_Receive.vi:5470001      WPI_CAN_PDPReceive.vi      WPI_Power Get PDP Currents.vi      Periodic Tasks.vi      Robot Main.vi,-0.000000,-0.737915,-0.000000,-2.624411,TRUE,FALSE,FALSE,TRUE,FALSE,FALSE,Disabled,0.000000,0.000000,0.000000,TRUE,-0.016434,-0.020248,0.000000,0.170258,-0.278809,0.000000,0.022000,0.029000,-0.061000,-3.340000,0.320000,0.150000,6.111484,Hold,0.871582,0.000000,ResetBack,150162.000000,-0.250000,Suck,-1762.500000,1818.181818,Speed,-1695.000000,1818.181818,Speed,Off,Off,0.000000,FALSE,10,,,,,0.000000,0.000000
01:40:04.160 PM 04/02/2016,Teleop Enabled,10,TRUE,-44087,NetComm_CAN_Receive.vi:5470001<APPEND>  <b>Complete call chain:</b>      NetComm_CAN_Receive.vi:5470001      WPI_CAN_PDPReceive.vi      WPI_Power Get PDP Currents.vi      Periodic Tasks.vi      Robot Main.vi,-0.000000,-0.737915,-0.000000,-2.624411,TRUE,FALSE,FALSE,TRUE,FALSE,FALSE,Disabled,0.000000,0.000000,0.000000,TRUE,-0.007599,-0.033859,0.000000,0.184219,-0.275330,0.000000,-0.024000,0.016000,-0.100000,-3.330000,0.380000,0.110000,6.105983,Hold,0.871582,0.000000,ResetBack,151740.000000,-0.250000,Suck,-1755.000000,1818.181818,Speed,-1687.500000,1818.181818,Speed,Off,Off,0.000000,FALSE,10,,,,,0.000000,0.000000
01:40:04.261 PM 04/02/2016,Teleop Enabled,10,TRUE,-44087,NetComm_CAN_Receive.vi:5470001<APPEND>  <b>Complete call chain:</b>      NetComm_CAN_Receive.vi:5470001      WPI_CAN_PDPReceive.vi      WPI_Power Get PDP Currents.vi      Periodic Tasks.vi      Robot Main.vi,-0.000000,-0.737915,-0.000000,-2.624411,TRUE,FALSE,FALSE,TRUE,FALSE,FALSE,Disabled,0.000000,0.000000,0.000000,TRUE,-0.002533,-0.050812,0.000000,-0.003372,-0.300858,0.000000,0.082000,-0.019000,-0.041000,-3.340000,0.430000,0.000000,6.085789,Hold,0.871582,0.000000,ResetBack,151998.000000,-0.250000,Suck,-1762.500000,1818.181818,Speed,-1762.500000,1818.181818,Speed,Off,Off,0.000000,FALSE,10,,,,,0.000000,0.000000
01:40:04.363 PM 04/02/2016,Teleop Enabled,10,TRUE,-44087,NetComm_CAN_Receive.vi:5470001<APPEND>  <b>Complete call chain:</b>      NetComm_CAN_Receive.vi:5470001      WPI_CAN_PDPReceive.vi      WPI_Power Get PDP Currents.vi      Periodic Tasks.vi      Robot Main.vi,-0.000000,-0.737915,-0.000000,-2.624411,TRUE,FALSE,FALSE,TRUE,FALSE,FALSE,Disabled,0.000000,0.000000,0.000000,TRUE,-0.003418,-0.065567,0.000000,-0.032349,-0.298721,0.000000,-0.048000,0.028000,-0.049000,-3.340000,0.350000,0.100000,6.070542,Hold,0.871582,0.000000,ResetBack,152444.000000,-0.250000,Suck,-1770.000000,1818.181818,Speed,-1770.000000,1818.181818,Speed,Off,Off,0.000000,FALSE,10,,,,,0.000000,0.000000
01:40:04.464 PM 04/02/2016,Teleop Enabled,11,TRUE,-44087,NetComm_CAN_Receive.vi:5470001<APPEND>  <b>Complete call chain:</b>      NetComm_CAN_Receive.vi:5470001      WPI_CAN_PDPReceive.vi      WPI_Power Get PDP Currents.vi      Periodic Tasks.vi      Robot Main.vi,-0.000000,-0.737915,-0.000000,-2.624411,TRUE,FALSE,FALSE,TRUE,FALSE,FALSE,Disabled,0.000000,0.000000,0.000000,TRUE,-0.004944,-0.077240,0.000000,-0.047440,-0.295731,0.000000,0.067000,-0.011000,0.019000,-3.330000,0.330000,0.160000,6.080787,Hold,0.871582,0.000000,ResetBack,153020.000000,-0.250000,Suck,-1770.000000,1818.181818,Speed,-1732.500000,1818.181818,Speed,Off,Off,0.000000,FALSE,10,,,,,0.000000,0.000000
01:40:04.565 PM 04/02/2016,Teleop Enabled,11,TRUE,-44087,NetComm_CAN_Receive.vi:5470001<APPEND>  <b>Complete call chain:</b>      NetComm_CAN_Receive.vi:5470001      WPI_CAN_PDPReceive.vi      WPI_Power Get PDP Currents.vi      Periodic Tasks.vi      Robot Main.vi,-0.000000,-0.737915,-0.000000,-2.624411,TRUE,FALSE,FALSE,TRUE,FALSE,FALSE,Disabled,0.000000,0.000000,0.000000,TRUE,-0.007446,-0.095551,0.000000,-0.045944,-0.310272,0.000000,-0.010000,0.017000,-0.072000,-3.340000,0.370000,0.090000,6.067044,Hold,0.871582,0.000000,Reset,153020.000000,2.000000,Suck,-1770.000000,1818.181818,Speed,-1717.500000,1818.181818,Speed,Off,Off,0.000000,FALSE,10,,,,,0.000000,0.000000
01:40:04.665 PM 04/02/2016,Teleop Enabled,11,TRUE,-44087,NetComm_CAN_Receive.vi:5470001<APPEND>  <b>Complete call chain:</b>      NetComm_CAN_Receive.vi:5470001      WPI_CAN_PDPReceive.vi      WPI_Power Get PDP Currents.vi      Periodic Tasks.vi      Robot Main.vi,-0.000000,-0.737915,-0.000000,-2.624411,TRUE,FALSE,FALSE,TRUE,FALSE,FALSE,Disabled,0.000000,0.000000,0.000000,TRUE,-0.009232,-0.111069,0.000000,-0.036957,-0.310944,0.000000,0.063000,-0.039000,-0.002000,-3.330000,0.370000,0.070000,6.066631,Hold,0.871582,0.000000,Hold,0.000000,2.000000,Suck,-1762.500000,1818.181818,Speed,-1747.500000,1818.181818,Speed,Off,Off,0.000000,FALSE,10,,,,,0.000000,0.000000
01:40:04.765 PM 04/02/2016,Teleop Enabled,11,TRUE,-44087,NetComm_CAN_Receive.vi:5470001<APPEND>  <b>Complete call chain:</b>      NetComm_CAN_Receive.vi:5470001      WPI_CAN_PDPReceive.vi      WPI_Power Get PDP Currents.vi      Periodic Tasks.vi      Robot Main.vi,-0.000000,-0.737915,-0.000000,-2.624411,TRUE,FALSE,FALSE,TRUE,FALSE,FALSE,Disabled,0.000000,0.000000,0.000000,TRUE,-0.010910,-0.123688,0.000000,-0.036789,-0.316360,0.000000,0.060000,-0.067000,0.051000,-3.340000,0.340000,0.120000,6.054513,Hold,0.871582,0.000000,Hold,-180.000000,2.000000,Suck,-1770.000000,1818.181818,Speed,-1740.000000,1818.181818,Speed,Off,Off,0.000000,FALSE,10,,,,,0.000000,0.000000
01:40:04.866 PM 04/02/2016,Teleop Enabled,10,TRUE,-44087,NetComm_CAN_Receive.vi:5470001<APPEND>  <b>Complete call chain:</b>      NetComm_CAN_Receive.vi:5470001      WPI_CAN_PDPReceive.vi      WPI_Power Get PDP Currents.vi      Periodic Tasks.vi      Robot Main.vi,-0.000000,-0.737915,-0.000000,-2.624411,TRUE,FALSE,FALSE,TRUE,FALSE,FALSE,Disabled,0.000000,0.000000,0.000000,TRUE,-0.011917,-0.140274,0.000000,0.004395,0.000000,0.000000,-0.020000,0.001000,-0.032000,-3.340000,0.370000,0.100000,6.046795,Hold,0.871582,0.000000,Hold,-172.000000,2.000000,Suck,-1770.000000,1818.181818,Speed,-1717.500000,1818.181818,Speed,Off,Off,0.000000,FALSE,10,,,,,0.000000,0.000000
01:40:04.966 PM 04/02/2016,Teleop Enabled,9,TRUE,-44087,NetComm_CAN_Receive.vi:5470001<APPEND>  <b>Complete call chain:</b>      NetComm_CAN_Receive.vi:5470001      WPI_CAN_PDPReceive.vi      WPI_Power Get PDP Currents.vi      Periodic Tasks.vi      Robot Main.vi,-0.000000,-0.737915,-0.000000,-2.624411,TRUE,FALSE,FALSE,TRUE,FALSE,FALSE,Disabled,0.000000,0.000000,0.000000,TRUE,-0.011078,-0.140717,0.000000,0.012985,-0.012192,0.000000,-0.157000,-0.008000,-0.075000,-3.330000,0.440000,0.040000,6.060686,Hold,0.871582,0.000000,Hold,-172.000000,2.000000,Suck,-1762.500000,1818.181818,Speed,-1732.500000,1818.181818,Speed,Off,Off,0.000000,FALSE,10,,,,,0.000000,0.000000
01:40:05.066 PM 04/02/2016,Teleop Enabled,9,TRUE,-44087,NetComm_CAN_Receive.vi:5470001<APPEND>  <b>Complete call chain:</b>      NetComm_CAN_Receive.vi:5470001      WPI_CAN_PDPReceive.vi      WPI_Power Get PDP Currents.vi      Periodic Tasks.vi      Robot Main.vi,-0.000000,-0.737915,-0.000000,-2.624411,TRUE,FALSE,FALSE,TRUE,FALSE,FALSE,Disabled,0.000000,0.000000,0.000000,TRUE,-0.011185,-0.141129,0.000000,0.005493,-0.001938,0.000000,-0.104000,-0.018000,-0.037000,-3.330000,0.340000,0.110000,6.053659,Hold,0.871582,0.000000,Hold,-172.000000,2.000000,Suck,-1762.500000,1818.181818,Speed,-1732.500000,1818.181818,Speed,Off,Off,0.000000,FALSE,10,,,,,0.000000,0.000000
01:40:05.166 PM 04/02/2016,Teleop Enabled,10,TRUE,-44087,NetComm_CAN_Receive.vi:5470001<APPEND>  <b>Complete call chain:</b>      NetComm_CAN_Receive.vi:5470001      WPI_CAN_PDPReceive.vi      WPI_Power Get PDP Currents.vi      Periodic Tasks.vi      Robot Main.vi,-0.000000,-0.737915,-0.000000,-2.624411,TRUE,FALSE,FALSE,TRUE,FALSE,FALSE,Disabled,0.000000,0.000000,0.000000,TRUE,-0.011200,-0.141495,0.000000,0.000000,-0.014923,0.000000,-0.113000,0.061000,-0.039000,-3.330000,0.300000,0.150000,6.050496,Hold,0.871582,0.000000,Hold,-171.000000,2.000000,Suck,-1770.000000,1818.181818,Speed,-1732.500000,1818.181818,Speed,Off,Off,0.000000,FALSE,10,,,,,0.000000,0.000000
01:40:05.266 PM 04/02/2016,Teleop Enabled,10,TRUE,-44087,NetComm_CAN_Receive.vi:5470001<APPEND>  <b>Complete call chain:</b>      NetComm_CAN_Receive.vi:5470001      WPI_CAN_PDPReceive.vi      WPI_Power Get PDP Currents.vi      Periodic Tasks.vi      Robot Main.vi,-0.000000,-0.737915,-0.000000,-2.624411,TRUE,FALSE,FALSE,TRUE,FALSE,FALSE,Disabled,0.000000,0.000000,0.000000,TRUE,-0.011887,-0.142120,0.000000,-0.003555,-0.018265,0.000000,-0.063000,0.041000,0.009000,-3.330000,0.310000,0.190000,6.036508,Hold,0.871582,0.000000,Hold,-171.000000,2.000000,Suck,-1770.000000,1818.181818,Speed,-1747.500000,1818.181818,Speed,Off,Off,0.000000,FALSE,10,,,,,0.000000,0.000000
01:40:05.367 PM 04/02/2016,Teleop Enabled,11,TRUE,-44087,NetComm_CAN_Receive.vi:5470001<APPEND>  <b>Complete call chain:</b>      NetComm_CAN_Receive.vi:5470001      WPI_CAN_PDPReceive.vi      WPI_Power Get PDP Currents.vi      Periodic Tasks.vi      Robot Main.vi,-0.000000,-0.737915,-0.000000,-2.624411,TRUE,FALSE,FALSE,TRUE,FALSE,FALSE,Disabled,0.000000,0.000000,0.000000,TRUE,-0.012726,-0.142792,0.000000,-0.013199,-0.020065,0.000000,0.003000,0.048000,0.032000,-3.330000,0.360000,0.130000,6.035847,Hold,0.871582,0.000000,Hold,-171.000000,2.000000,Suck,-1777.500000,1818.181818,Speed,-1762.500000,1818.181818,Speed,Off,Off,0.000000,FALSE,10,,,,,0.000000,0.000000
01:40:05.468 PM 04/02/2016,Teleop Enabled,10,TRUE,-44087,NetComm_CAN_Receive.vi:5470001<APPEND>  <b>Complete call chain:</b>      NetComm_CAN_Receive.vi:5470001      WPI_CAN_PDPReceive.vi      WPI_Power Get PDP Currents.vi      Periodic Tasks.vi      Robot Main.vi,-0.000000,-0.737915,-0.000000,-2.624411,TRUE,FALSE,FALSE,TRUE,FALSE,FALSE,Disabled,0.000000,0.000000,0.000000,TRUE,-0.012726,-0.142792,0.000000,-0.013199,-0.020065,0.000000,0.003000,0.048000,0.032000,-3.330000,0.350000,0.090000,6.041180,Hold,0.871582,0.000000,Hold,-171.000000,2.000000,Suck,-1770.000000,1818.181818,Speed,-1762.500000,1818.181818,Speed,Off,Off,0.000000,FALSE,10,,,,,0.000000,0.000000
01:40:05.568 PM 04/02/2016,Teleop Enabled,10,TRUE,-44087,NetComm_CAN_Receive.vi:5470001<APPEND>  <b>Complete call chain:</b>      NetComm_CAN_Receive.vi:5470001      WPI_CAN_PDPReceive.vi      WPI_Power Get PDP Currents.vi      Periodic Tasks.vi      Robot Main.vi,-0.000000,-0.737915,-0.000000,-2.624411,TRUE,FALSE,FALSE,TRUE,FALSE,FALSE,Disabled,0.000000,0.000000,0.000000,TRUE,-0.014816,-0.144455,0.000000,-0.002808,-0.012833,0.000000,0.020000,-0.003000,-0.026000,-3.330000,0.360000,0.140000,6.034983,Hold,0.871582,0.000000,Hold,-171.000000,2.000000,Suck,-1770.000000,1818.181818,Speed,-1755.000000,1818.181818,Speed,Off,Off,0.000000,FALSE,10,,,,,0.000000,0.000000
01:40:05.668 PM 04/02/2016,Teleop Enabled,10,TRUE,-44087,NetComm_CAN_Receive.vi:5470001<APPEND>  <b>Complete call chain:</b>      NetComm_CAN_Receive.vi:5470001      WPI_CAN_PDPReceive.vi      WPI_Power Get PDP Currents.vi      Periodic Tasks.vi      Robot Main.vi,-0.000000,-0.737915,-0.000000,-2.624411,TRUE,FALSE,FALSE,TRUE,FALSE,FALSE,Disabled,0.000000,0.000000,0.000000,TRUE,-0.015488,-0.144775,0.000000,-0.007141,-0.009598,0.000000,-0.083000,-0.007000,-0.040000,-3.330000,0.310000,0.180000,6.032388,Hold,0.871582,0.000000,Hold,-171.000000,2.000000,Suck,-1770.000000,1818.181818,Speed,-1747.500000,1818.181818,Speed,Off,Off,0.000000,FALSE,10,,,,,0.000000,0.000000
01:40:05.768 PM 04/02/2016,Teleop Enabled,9,TRUE,-44087,NetComm_CAN_Receive.vi:5470001<APPEND>  <b>Complete call chain:</b>      NetComm_CAN_Receive.vi:5470001      WPI_CAN_PDPReceive.vi      WPI_Power Get PDP Currents.vi      Periodic Tasks.vi      Robot Main.vi,-0.000000,-0.737915,-0.000000,-2.624411,TRUE,FALSE,FALSE,TRUE,FALSE,FALSE,Disabled,0.000000,0.000000,0.000000,TRUE,-0.016739,-0.144623,0.000000,-0.028763,0.003647,0.000000,-0.020000,0.001000,0.056000,-3.330000,0.290000,0.190000,6.051828,Hold,0.871582,0.000000,Hold,-171.000000,2.000000,Suck,-1770.000000,1818.181818,Speed,-1747.500000,1818.181818,Speed,Off,Off,0.000000,FALSE,10,,,,,0.000000,0.000000
01:40:05.868 PM 04/02/2016,Teleop Enabled,10,TRUE,-44087,NetComm_CAN_Receive.vi:5470001<APPEND>  <b>Complete call chain:</b>      NetComm_CAN_Receive.vi:5470001      WPI_CAN_PDPReceive.vi      WPI_Power Get PDP Currents.vi      Periodic Tasks.vi      Robot Main.vi,-0.000000,-0.737915,-0.000000,-2.624411,TRUE,FALSE,FALSE,TRUE,FALSE,FALSE,Disabled,0.000000,0.000000,0.000000,TRUE,-0.016739,-0.144623,0.000000,0.022766,-0.013641,0.000000,-0.020000,0.001000,0.056000,-3.330000,0.350000,0.130000,6.061260,Hold,0.871582,0.000000,Hold,-171.000000,2.000000,Suck,-1770.000000,1818.181818,Speed,-1740.000000,1818.181818,Speed,Off,Off,0.000000,FALSE,10,,,,,0.000000,0.000000
01:40:05.968 PM 04/02/2016,Teleop Enabled,14,TRUE,-44087,NetComm_CAN_Receive.vi:5470001<APPEND>  <b>Complete call chain:</b>      NetComm_CAN_Receive.vi:5470001      WPI_CAN_PDPReceive.vi      WPI_Power Get PDP Currents.vi      Periodic Tasks.vi      Robot Main.vi,-0.000000,-0.737915,-0.000000,-2.624411,TRUE,FALSE,FALSE,TRUE,FALSE,FALSE,Disabled,0.000000,0.000000,0.000000,TRUE,-0.016174,-0.145706,0.000000,-0.001694,-0.030380,0.000000,0.018000,-0.023000,-0.058000,-3.330000,0.350000,0.190000,6.060792,Hold,0.871582,0.000000,Hold,-171.000000,2.000000,Suck,-1770.000000,1818.181818,Speed,-1747.500000,1818.181818,Speed,Off,Off,0.000000,FALSE,10,,,,,0.000000,0.000000
01:40:06.069 PM 04/02/2016,Teleop Enabled,7,TRUE,-44087,NetComm_CAN_Receive.vi:5470001<APPEND>  <b>Complete call chain:</b>      NetComm_CAN_Receive.vi:5470001      WPI_CAN_PDPReceive.vi      WPI_Power Get PDP Currents.vi      Periodic Tasks.vi      Robot Main.vi,-0.000000,-0.737915,-0.000000,-2.624411,TRUE,FALSE,FALSE,TRUE,FALSE,FALSE,Disabled,0.000000,0.000000,0.000000,TRUE,-0.016586,-0.146408,0.000000,-0.028625,-0.002029,0.000000,0.068000,0.039000,0.054000,-3.330000,0.310000,0.210000,6.056365,Hold,0.871582,0.000000,Hold,-171.000000,2.000000,Suck,-1770.000000,1818.181818,Speed,-1747.500000,1818.181818,Speed,Off,Off,0.000000,FALSE,10,,,,,0.000000,0.000000
01:40:06.171 PM 04/02/2016,Teleop Enabled,10,TRUE,-44087,NetComm_CAN_Receive.vi:5470001<APPEND>  <b>Complete call chain:</b>      NetComm_CAN_Receive.vi:5470001      WPI_CAN_PDPReceive.vi      WPI_Power Get PDP Currents.vi      Periodic Tasks.vi      Robot Main.vi,-0.000000,-0.737915,-0.000000,-2.624411,TRUE,FALSE,FALSE,TRUE,FALSE,FALSE,Disabled,0.000000,0.000000,0.000000,TRUE,-0.017044,-0.146317,0.000000,0.018311,-0.009064,0.000000,0.125000,0.014000,0.044000,-3.340000,0.290000,0.220000,6.054472,Hold,0.871582,0.000000,Hold,-171.000000,2.000000,Suck,-1777.500000,1818.181818,Speed,-1740.000000,1818.181818,Speed,Off,Off,0.000000,FALSE,10,,,,,0.000000,0.000000
01:40:06.272 PM 04/02/2016,Teleop Enabled,6,TRUE,-44087,NetComm_CAN_Receive.vi:5470001<APPEND>  <b>Complete call chain:</b>      NetComm_CAN_Receive.vi:5470001      WPI_CAN_PDPReceive.vi      WPI_Power Get PDP Currents.vi      Periodic Tasks.vi      Robot Main.vi,-0.000000,-0.737915,-0.000000,-2.624411,TRUE,FALSE,FALSE,TRUE,FALSE,FALSE,Disabled,0.000000,0.000000,0.000000,TRUE,-0.016647,-0.146500,0.000000,0.003494,0.000000,0.000000,0.097000,-0.061000,-0.052000,-3.340000,0.280000,0.210000,6.060396,Hold,0.871582,0.000000,Hold,-170.000000,2.000000,Suck,-1777.500000,1818.181818,Speed,-1740.000000,1818.181818,Speed,Off,Off,0.000000,FALSE,10,,,,,0.000000,0.000000
01:40:06.374 PM 04/02/2016,Teleop Enabled,9,TRUE,-44087,NetComm_CAN_Receive.vi:5470001<APPEND>  <b>Complete call chain:</b>      NetComm_CAN_Receive.vi:5470001      WPI_CAN_PDPReceive.vi      WPI_Power Get PDP Currents.vi      Periodic Tasks.vi      Robot Main.vi,-0.000000,-0.737915,-0.000000,-2.624411,TRUE,FALSE,FALSE,TRUE,FALSE,FALSE,Disabled,0.000000,0.000000,0.000000,TRUE,-0.017380,-0.146210,0.000000,-0.014343,-0.001236,0.000000,0.062000,-0.060000,-0.037000,-3.340000,0.250000,0.240000,6.066197,Hold,0.871582,0.000000,Hold,-170.000000,2.000000,Suck,-1770.000000,1818.181818,Speed,-1740.000000,1818.181818,Speed,Off,Off,0.000000,FALSE,10,,,,,0.000000,0.000000
01:40:06.475 PM 04/02/2016,Teleop Enabled,17,TRUE,-44087,NetComm_CAN_Receive.vi:5470001<APPEND>  <b>Complete call chain:</b>      NetComm_CAN_Receive.vi:5470001      WPI_CAN_PDPReceive.vi      WPI_Power Get PDP Currents.vi      Periodic Tasks.vi      Robot Main.vi,-0.000000,-0.737915,-0.000000,-2.624411,TRUE,FALSE,FALSE,TRUE,FALSE,FALSE,Disabled,0.000000,0.000000,0.000000,TRUE,-0.017380,-0.146210,0.000000,-0.014343,-0.001236,0.000000,0.062000,-0.060000,-0.037000,-3.340000,0.250000,0.240000,6.078026,Hold,0.871582,0.000000,Hold,-170.000000,2.000000,Suck,-1777.500000,1818.181818,Speed,-1740.000000,1818.181818,Speed,Off,Off,0.000000,FALSE,10,,,,,0.000000,0.000000
01:40:06.575 PM 04/02/2016,Teleop Enabled,9,TRUE,-44087,NetComm_CAN_Receive.vi:5470001<APPEND>  <b>Complete call chain:</b>      NetComm_CAN_Receive.vi:5470001      WPI_CAN_PDPReceive.vi      WPI_Power Get PDP Currents.vi      Periodic Tasks.vi      Robot Main.vi,-0.000000,-0.737915,-0.000000,-2.624411,TRUE,FALSE,FALSE,TRUE,FALSE,FALSE,Disabled,0.000000,0.000000,0.000000,TRUE,-0.019211,-0.145950,0.000000,-0.033966,0.009567,0.000000,-0.037000,0.003000,0.018000,-3.330000,0.280000,0.220000,6.081971,Hold,0.871582,0.000000,Hold,-170.000000,2.000000,Suck,-1770.000000,1818.181818,Speed,-1755.000000,1818.181818,Speed,Off,Off,0.000000,FALSE,10,,,,,0.000000,0.000000
01:40:06.678 PM 04/02/2016,Teleop Enabled,14,TRUE,-44087,NetComm_CAN_Receive.vi:5470001<APPEND>  <b>Complete call chain:</b>      NetComm_CAN_Receive.vi:5470001      WPI_CAN_PDPReceive.vi      WPI_Power Get PDP Currents.vi      Periodic Tasks.vi      Robot Main.vi,-0.000000,-0.737915,-0.000000,-2.624411,TRUE,FALSE,FALSE,TRUE,FALSE,FALSE,Disabled,0.000000,0.000000,0.000000,TRUE,-0.020325,-0.145630,0.000000,-0.035110,0.006454,0.000000,-0.037000,0.003000,0.018000,-3.340000,0.330000,0.160000,6.067133,Hold,0.871582,0.000000,Hold,-170.000000,2.000000,Suck,-1770.000000,1818.181818,Speed,-1762.500000,1818.181818,Speed,Off,Off,0.000000,FALSE,10,,,,,0.000000,0.000000
01:40:06.777 PM 04/02/2016,Teleop Enabled,12,TRUE,-44087,NetComm_CAN_Receive.vi:5470001<APPEND>  <b>Complete call chain:</b>      NetComm_CAN_Receive.vi:5470001      WPI_CAN_PDPReceive.vi      WPI_Power Get PDP Currents.vi      Periodic Tasks.vi      Robot Main.vi,-0.000000,-0.737915,-0.000000,-2.624411,TRUE,FALSE,FALSE,TRUE,FALSE,FALSE,Disabled,0.000000,0.000000,0.000000,TRUE,-0.022171,-0.145676,0.000000,-0.037994,0.009186,0.000000,0.060000,-0.023000,0.142000,-3.330000,0.330000,0.140000,6.057105,Hold,0.871582,0.000000,Hold,-170.000000,2.000000,Suck,-1777.500000,1818.181818,Speed,-1755.000000,1818.181818,Speed,Off,Off,0.000000,FALSE,10,,,,,0.000000,0.000000
01:40:06.877 PM 04/02/2016,Teleop Enabled,9,TRUE,-44087,NetComm_CAN_Receive.vi:5470001<APPEND>  <b>Complete call chain:</b>      NetComm_CAN_Receive.vi:5470001      WPI_CAN_PDPReceive.vi      WPI_Power Get PDP Currents.vi      Periodic Tasks.vi      Robot Main.vi,-0.000000,-0.737915,-0.000000,-2.624411,TRUE,FALSE,FALSE,TRUE,FALSE,FALSE,Disabled,0.000000,0.000000,0.000000,TRUE,-0.022766,-0.145203,0.000000,0.010010,0.000000,0.000000,0.047000,-0.063000,0.126000,-3.330000,0.260000,0.230000,6.043841,Hold,0.871582,0.000000,Hold,-170.000000,2.000000,Suck,-1777.500000,1818.181818,Speed,-1747.500000,1818.181818,Speed,Off,Off,0.000000,FALSE,10,,,,,0.000000,0.000000
01:40:06.978 PM 04/02/2016,Teleop Enabled,7,TRUE,-44087,NetComm_CAN_Receive.vi:5470001<APPEND>  <b>Complete call chain:</b>      NetComm_CAN_Receive.vi:5470001      WPI_CAN_PDPReceive.vi      WPI_Power Get PDP Currents.vi      Periodic Tasks.vi      Robot Main.vi,-0.000000,-0.737915,-0.000000,-2.624411,TRUE,FALSE,FALSE,TRUE,FALSE,FALSE,Disabled,0.000000,0.000000,0.000000,TRUE,-0.022659,-0.145554,0.000000,0.004181,-0.007645,0.000000,-0.004000,-0.007000,0.046000,-3.330000,0.260000,0.230000,6.052093,Hold,0.871582,0.000000,Hold,-169.000000,2.000000,Suck,-1777.500000,1818.181818,Speed,-1740.000000,1818.181818,Speed,Off,Off,0.000000,FALSE,10,,,,,0.000000,0.000000
01:40:07.079 PM 04/02/2016,Teleop Enabled,11,TRUE,-44087,NetComm_CAN_Receive.vi:5470001<APPEND>  <b>Complete call chain:</b>      NetComm_CAN_Receive.vi:5470001      WPI_CAN_PDPReceive.vi      WPI_Power Get PDP Currents.vi      Periodic Tasks.vi      Robot Main.vi,-0.000000,-0.737915,-0.000000,-2.624411,TRUE,FALSE,FALSE,TRUE,FALSE,FALSE,Disabled,0.000000,0.000000,0.000000,TRUE,-0.022690,-0.147034,0.000000,0.002502,-0.022842,0.000000,-0.015000,-0.057000,0.081000,-3.330000,0.330000,0.150000,6.071189,Hold,0.871582,0.000000,Hold,-169.000000,2.000000,Suck,-1777.500000,1818.181818,Speed,-1747.500000,1818.181818,Speed,Off,Off,0.000000,FALSE,10,,,,,0.000000,0.000000
01:40:07.179 PM 04/02/2016,Teleop Enabled,9,TRUE,-44087,NetComm_CAN_Receive.vi:5470001<APPEND>  <b>Complete call chain:</b>      NetComm_CAN_Receive.vi:5470001      WPI_CAN_PDPReceive.vi      WPI_Power Get PDP Currents.vi      Periodic Tasks.vi      Robot Main.vi,-0.000000,-0.737915,-0.000000,-2.624411,TRUE,FALSE,FALSE,TRUE,FALSE,FALSE,Disabled,0.000000,0.000000,0.000000,TRUE,-0.023438,-0.147415,0.000000,-0.019119,0.012634,0.000000,-0.060000,-0.040000,0.010000,-3.330000,0.330000,0.150000,6.061725,Hold,0.871582,0.000000,Hold,-169.000000,2.000000,Suck,-1770.000000,1818.181818,Speed,-1755.000000,1818.181818,Speed,Off,Off,0.000000,FALSE,10,,,,,0.000000,0.000000
01:40:07.285 PM 04/02/2016,Teleop Enabled,11,TRUE,-44087,NetComm_CAN_Receive.vi:5470001<APPEND>  <b>Complete call chain:</b>      NetComm_CAN_Receive.vi:5470001      WPI_CAN_PDPReceive.vi      WPI_Power Get PDP Currents.vi      Periodic Tasks.vi      Robot Main.vi,-0.000000,-0.737915,-0.000000,-2.624411,TRUE,FALSE,FALSE,TRUE,FALSE,FALSE,Disabled,0.000000,0.000000,0.000000,TRUE,-0.023438,-0.147415,0.000000,-0.019119,0.012634,0.000000,-0.072000,-0.004000,-0.060000,-3.340000,0.280000,0.210000,6.068448,Hold,0.871582,0.000000,Hold,-169.000000,2.000000,Suck,-1777.500000,1818.181818,Speed,-1755.000000,1818.181818,Speed,Off,Off,0.000000,FALSE,10,,,,,0.000000,0.000000
01:40:07.388 PM 04/02/2016,Teleop Enabled,12,TRUE,-44087,NetComm_CAN_Receive.vi:5470001<APPEND>  <b>Complete call chain:</b>      NetComm_CAN_Receive.vi:5470001      WPI_CAN_PDPReceive.vi      WPI_Power Get PDP Currents.vi      Periodic Tasks.vi      Robot Main.vi,-0.000000,-0.737915,-0.000000,-2.624411,TRUE,FALSE,FALSE,TRUE,FALSE,FALSE,Disabled,0.000000,0.000000,0.000000,TRUE,-0.025406,-0.145813,0.000000,0.000000,0.033249,0.000000,0.022000,-0.009000,0.018000,-3.340000,0.310000,0.220000,6.060827,Hold,0.871582,0.000000,Hold,-169.000000,2.000000,Suck,-1777.500000,1818.181818,Speed,-1747.500000,1818.181818,Speed,Off,Off,0.000000,FALSE,10,,,,,0.000000,0.000000
01:40:07.488 PM 04/02/2016,Teleop Enabled,11,TRUE,-44087,NetComm_CAN_Receive.vi:5470001<APPEND>  <b>Complete call chain:</b>      NetComm_CAN_Receive.vi:5470001      WPI_CAN_PDPReceive.vi      WPI_Power Get PDP Currents.vi      Periodic Tasks.vi      Robot Main.vi,-0.000000,-0.737915,-0.000000,-2.624411,TRUE,FALSE,FALSE,TRUE,FALSE,FALSE,Disabled,0.000000,0.000000,0.000000,TRUE,-0.025406,-0.145813,0.000000,0.000000,0.033249,0.000000,0.060000,-0.002000,0.218000,-3.330000,0.300000,0.170000,6.057353,Hold,0.871582,0.000000,Hold,-169.000000,2.000000,Suck,-1777.500000,1818.181818,Speed,-1747.500000,1818.181818,Speed,Off,Off,0.000000,FALSE,10,,,,,0.000000,0.000000
01:40:07.590 PM 04/02/2016,Teleop Enabled,11,TRUE,-44087,NetComm_CAN_Receive.vi:5470001<APPEND>  <b>Complete call chain:</b>      NetComm_CAN_Receive.vi:5470001      WPI_CAN_PDPReceive.vi      WPI_Power Get PDP Currents.vi      Periodic Tasks.vi      Robot Main.vi,-0.000000,-0.737915,-0.000000,-2.624411,TRUE,FALSE,FALSE,TRUE,FALSE,FALSE,Disabled,0.000000,0.000000,0.000000,TRUE,-0.024643,-0.143265,0.000000,0.003830,0.021042,0.000000,0.012000,-0.021000,0.091000,-3.330000,0.330000,0.140000,6.066228,Hold,0.871582,0.000000,Hold,-169.000000,2.000000,Suck,-1770.000000,1818.181818,Speed,-1747.500000,1818.181818,Speed,Off,Off,0.000000,FALSE,10,,,,,0.000000,0.000000
01:40:07.693 PM 04/02/2016,Teleop Enabled,11,TRUE,-44087,NetComm_CAN_Receive.vi:5470001<APPEND>  <b>Complete call chain:</b>      NetComm_CAN_Receive.vi:5470001      WPI_CAN_PDPReceive.vi      WPI_Power Get PDP Currents.vi      Periodic Tasks.vi      Robot Main.vi,-0.000000,-0.737915,-0.000000,-2.624411,TRUE,FALSE,FALSE,TRUE,FALSE,FALSE,Disabled,0.000000,0.000000,0.000000,TRUE,-0.024033,-0.142746,0.000000,0.006058,0.027313,0.000000,0.059000,0.013000,0.125000,-3.340000,0.290000,0.180000,6.066572,Hold,0.871582,0.000000,Hold,-169.000000,2.000000,Suck,-1770.000000,1818.181818,Speed,-1747.500000,1818.181818,Speed,Off,Off,0.000000,FALSE,10,,,,,0.000000,0.000000
01:40:07.796 PM 04/02/2016,Teleop Enabled,11,TRUE,-44087,NetComm_CAN_Receive.vi:5470001<APPEND>  <b>Complete call chain:</b>      NetComm_CAN_Receive.vi:5470001      WPI_CAN_PDPReceive.vi      WPI_Power Get PDP Currents.vi      Periodic Tasks.vi      Robot Main.vi,-0.000000,-0.737915,-0.000000,-2.624411,TRUE,FALSE,FALSE,TRUE,FALSE,FALSE,Disabled,0.000000,0.000000,0.000000,TRUE,-0.023392,-0.141602,0.000000,0.011093,0.019501,0.000000,0.027000,-0.034000,-0.016000,-3.340000,0.350000,0.130000,6.065126,Hold,0.871582,0.000000,Hold,-169.000000,2.000000,Suck,-1777.500000,1818.181818,Speed,-1755.000000,1818.181818,Speed,Off,Off,0.000000,FALSE,10,,,,,0.000000,0.000000
01:40:07.897 PM 04/02/2016,Teleop Enabled,13,TRUE,-44087,NetComm_CAN_Receive.vi:5470001<APPEND>  <b>Complete call chain:</b>      NetComm_CAN_Receive.vi:5470001      WPI_CAN_PDPReceive.vi      WPI_Power Get PDP Currents.vi      Periodic Tasks.vi      Robot Main.vi,-0.000000,-0.737915,-0.000000,-2.624411,TRUE,FALSE,FALSE,TRUE,FALSE,FALSE,Disabled,0.000000,0.000000,0.000000,TRUE,-0.023041,-0.140121,0.000000,-0.003052,0.031906,0.000000,0.027000,-0.034000,-0.016000,-3.340000,0.340000,0.150000,6.067423,Hold,0.871582,0.000000,Hold,-169.000000,2.000000,Suck,-1777.500000,1818.181818,Speed,-1747.500000,1818.181818,Speed,Off,Off,0.000000,FALSE,10,,,,,0.000000,0.000000
01:40:07.999 PM 04/02/2016,Teleop Enabled,8,TRUE,-44087,NetComm_CAN_Receive.vi:5470001<APPEND>  <b>Complete call chain:</b>      NetComm_CAN_Receive.vi:5470001      WPI_CAN_PDPReceive.vi      WPI_Power Get PDP Currents.vi      Periodic Tasks.vi      Robot Main.vi,-0.000000,-0.737915,-0.000000,-2.624411,TRUE,FALSE,FALSE,TRUE,FALSE,FALSE,Disabled,0.000000,0.000000,0.000000,TRUE,-0.024002,-0.138626,0.000000,-0.035141,0.026688,0.000000,-0.039000,-0.092000,-0.116000,-3.340000,0.310000,0.190000,6.064476,Hold,0.871582,0.000000,Hold,-169.000000,2.000000,Suck,-1777.500000,1818.181818,Speed,-1747.500000,1818.181818,Speed,Off,Off,0.000000,FALSE,10,,,,,0.000000,0.000000
01:40:08.102 PM 04/02/2016,Teleop Enabled,11,TRUE,-44087,NetComm_CAN_Receive.vi:5470001<APPEND>  <b>Complete call chain:</b>      NetComm_CAN_Receive.vi:5470001      WPI_CAN_PDPReceive.vi      WPI_Power Get PDP Currents.vi      Periodic Tasks.vi      Robot Main.vi,-0.000000,-0.737915,-0.000000,-2.624411,TRUE,FALSE,FALSE,TRUE,FALSE,FALSE,Disabled,0.000000,0.000000,0.000000,TRUE,-0.024841,-0.137405,0.000000,-0.032516,0.040604,0.000000,0.000000,-0.061000,-0.052000,-3.340000,0.290000,0.250000,6.071846,Hold,0.871582,0.000000,Hold,-169.000000,2.000000,Suck,-1777.500000,1818.181818,Speed,-1747.500000,1818.181818,Speed,Off,Off,0.000000,FALSE,10,,,,,0.000000,0.000000
01:40:08.201 PM 04/02/2016,Teleop Enabled,9,TRUE,-44087,NetComm_CAN_Receive.vi:5470001<APPEND>  <b>Complete call chain:</b>      NetComm_CAN_Receive.vi:5470001      WPI_CAN_PDPReceive.vi      WPI_Power Get PDP Currents.vi      Periodic Tasks.vi      Robot Main.vi,-0.000000,-0.737915,-0.000000,-2.624411,TRUE,FALSE,FALSE,TRUE,FALSE,FALSE,Disabled,0.000000,0.000000,0.000000,TRUE,-0.026398,-0.135941,0.000000,-0.035721,0.030350,0.000000,0.081000,-0.023000,0.116000,-3.340000,0.300000,0.190000,6.077392,Hold,0.871582,0.000000,Hold,-169.000000,2.000000,Suck,-1777.500000,1818.181818,Speed,-1755.000000,1818.181818,Speed,Off,Off,0.000000,FALSE,10,,,,,0.000000,0.000000
01:40:08.304 PM 04/02/2016,Teleop Enabled,10,TRUE,-44087,NetComm_CAN_Receive.vi:5470001<APPEND>  <b>Complete call chain:</b>      NetComm_CAN_Receive.vi:5470001      WPI_CAN_PDPReceive.vi      WPI_Power Get PDP Currents.vi      Periodic Tasks.vi      Robot Main.vi,-0.000000,-0.737915,-0.000000,-2.624411,TRUE,FALSE,FALSE,TRUE,FALSE,FALSE,Disabled,0.000000,0.000000,0.000000,TRUE,-0.027267,-0.134949,0.000000,-0.021378,0.026749,0.000000,0.029000,-0.042000,0.035000,-3.340000,0.350000,0.180000,6.080033,Hold,0.871582,0.000000,Hold,-169.000000,2.000000,Suck,-1777.500000,1818.181818,Speed,-1747.500000,1818.181818,Speed,Off,Off,0.000000,FALSE,10,,,,,0.000000,0.000000
01:40:08.404 PM 04/02/2016,Teleop Enabled,10,TRUE,-44087,NetComm_CAN_Receive.vi:5470001<APPEND>  <b>Complete call chain:</b>      NetComm_CAN_Receive.vi:5470001      WPI_CAN_PDPReceive.vi      WPI_Power Get PDP Currents.vi      Periodic Tasks.vi      Robot Main.vi,-0.000000,-0.737915,-0.000000,-2.624411,TRUE,FALSE,FALSE,TRUE,FALSE,FALSE,Disabled,0.000000,0.000000,0.000000,TRUE,-0.028793,-0.134003,0.000000,-0.023666,0.015213,0.000000,-0.056000,-0.009000,-0.038000,-3.340000,0.350000,0.180000,6.081238,Hold,0.871582,0.000000,Hold,-169.000000,2.000000,Suck,-1777.500000,1818.181818,Speed,-1747.500000,1818.181818,Speed,Off,Off,0.000000,FALSE,10,,,,,0.000000,0.000000
01:40:08.505 PM 04/02/2016,Teleop Enabled,10,TRUE,-44087,NetComm_CAN_Receive.vi:5470001<APPEND>  <b>Complete call chain:</b>      NetComm_CAN_Receive.vi:5470001      WPI_CAN_PDPReceive.vi      WPI_Power Get PDP Currents.vi      Periodic Tasks.vi      Robot Main.vi,-0.000000,-0.737915,-0.000000,-2.624411,TRUE,FALSE,FALSE,TRUE,FALSE,FALSE,Disabled,0.000000,0.000000,0.000000,TRUE,-0.031189,-0.132980,0.000000,-0.073303,0.036545,0.000000,-0.056000,-0.009000,-0.038000,-3.340000,0.340000,0.210000,6.071502,Hold,0.871582,0.000000,Hold,-169.000000,2.000000,Suck,-1777.500000,1818.181818,Speed,-1747.500000,1818.181818,Speed,Off,Off,0.000000,FALSE,10,,,,,0.000000,0.000000
01:40:08.606 PM 04/02/2016,Teleop Enabled,12,TRUE,-44087,NetComm_CAN_Receive.vi:5470001<APPEND>  <b>Complete call chain:</b>      NetComm_CAN_Receive.vi:5470001      WPI_CAN_PDPReceive.vi      WPI_Power Get PDP Currents.vi      Periodic Tasks.vi      Robot Main.vi,-0.000000,-0.737915,-0.000000,-2.624411,TRUE,FALSE,FALSE,TRUE,FALSE,FALSE,Disabled,0.000000,0.000000,0.000000,TRUE,-0.034866,-0.131073,0.000000,-0.071304,0.052597,0.000000,-0.030000,0.004000,-0.059000,-3.340000,0.290000,0.250000,6.068159,Hold,0.871582,0.000000,Hold,-169.000000,2.000000,Suck,-1777.500000,1818.181818,Speed,-1740.000000,1818.181818,Speed,Off,Off,0.000000,FALSE,10,,,,,0.000000,0.000000
01:40:08.706 PM 04/02/2016,Teleop Enabled,11,TRUE,-44087,NetComm_CAN_Receive.vi:5470001<APPEND>  <b>Complete call chain:</b>      NetComm_CAN_Receive.vi:5470001      WPI_CAN_PDPReceive.vi      WPI_Power Get PDP Currents.vi      Periodic Tasks.vi      Robot Main.vi,-0.000000,-0.737915,-0.000000,-2.624411,TRUE,FALSE,FALSE,TRUE,FALSE,FALSE,Disabled,0.000000,0.000000,0.000000,TRUE,-0.035156,-0.129913,0.000000,0.013321,0.021332,0.000000,-0.070000,0.041000,0.035000,-3.340000,0.290000,0.250000,6.068896,Hold,0.871582,0.000000,Hold,-169.000000,2.000000,Suck,-1777.500000,1818.181818,Speed,-1740.000000,1818.181818,Speed,Off,Off,0.000000,FALSE,10,,,,,0.000000,0.000000
01:40:08.807 PM 04/02/2016,Teleop Enabled,11,TRUE,-44087,NetComm_CAN_Receive.vi:5470001<APPEND>  <b>Complete call chain:</b>      NetComm_CAN_Receive.vi:5470001      WPI_CAN_PDPReceive.vi      WPI_Power Get PDP Currents.vi      Periodic Tasks.vi      Robot Main.vi,-0.000000,-0.737915,-0.000000,-2.624411,TRUE,FALSE,FALSE,TRUE,FALSE,FALSE,Disabled,0.000000,0.000000,0.000000,TRUE,-0.034988,-0.128403,0.000000,-0.001617,0.036621,0.000000,-0.070000,0.041000,0.035000,-3.340000,0.280000,0.270000,6.052654,Hold,0.871582,0.000000,Hold,-169.000000,2.000000,Suck,-1777.500000,1818.181818,Speed,-1747.500000,1818.181818,Speed,Off,Off,0.000000,FALSE,10,,,,,0.000000,0.000000
01:40:08.911 PM 04/02/2016,Teleop Enabled,10,TRUE,-44087,NetComm_CAN_Receive.vi:5470001<APPEND>  <b>Complete call chain:</b>      NetComm_CAN_Receive.vi:5470001      WPI_CAN_PDPReceive.vi      WPI_Power Get PDP Currents.vi      Periodic Tasks.vi      Robot Main.vi,-0.000000,-0.737915,-0.000000,-2.624411,TRUE,FALSE,FALSE,TRUE,FALSE,FALSE,Disabled,0.000000,0.000000,0.000000,TRUE,-0.036301,-0.127396,0.000000,-0.036530,0.014999,0.000000,-0.093000,-0.009000,0.036000,-3.330000,0.280000,0.290000,6.054362,Hold,0.871582,0.000000,Hold,-169.000000,2.000000,Suck,-1777.500000,1818.181818,Speed,-1740.000000,1818.181818,Speed,Off,Off,0.000000,FALSE,10,,,,,0.000000,0.000000
01:40:09.008 PM 04/02/2016,Teleop Enabled,11,TRUE,-44087,NetComm_CAN_Receive.vi:5470001<APPEND>  <b>Complete call chain:</b>      NetComm_CAN_Receive.vi:5470001      WPI_CAN_PDPReceive.vi      WPI_Power Get PDP Currents.vi      Periodic Tasks.vi      Robot Main.vi,-0.000000,-0.737915,-0.000000,-2.624411,TRUE,FALSE,FALSE,TRUE,FALSE,FALSE,Disabled,0.000000,0.000000,0.000000,TRUE,-0.038620,-0.126526,0.000000,-0.044815,0.026077,0.000000,-0.016000,0.000000,0.061000,-3.330000,0.240000,0.290000,6.077341,Hold,0.871582,0.000000,Hold,-169.000000,2.000000,Suck,-1777.500000,1818.181818,Speed,-1747.500000,1818.181818,Speed,Off,Off,0.000000,FALSE,10,,,,,0.000000,0.000000
01:40:09.109 PM 04/02/2016,Teleop Enabled,11,TRUE,-44087,NetComm_CAN_Receive.vi:5470001<APPEND>  <b>Complete call chain:</b>      NetComm_CAN_Receive.vi:5470001      WPI_CAN_PDPReceive.vi      WPI_Power Get PDP Currents.vi      Periodic Tasks.vi      Robot Main.vi,-0.000000,-0.737915,-0.000000,-2.624411,TRUE,FALSE,FALSE,TRUE,FALSE,FALSE,Disabled,0.000000,0.000000,0.000000,TRUE,-0.038712,-0.125015,0.000000,0.005493,0.023346,0.000000,0.009000,0.038000,0.071000,-3.330000,0.240000,0.310000,6.060617,Hold,0.871582,0.000000,Hold,-169.000000,2.000000,Suck,-1770.000000,1818.181818,Speed,-1770.000000,1818.181818,Speed,Off,Off,0.000000,FALSE,10,,,,,0.000000,0.000000
01:40:09.210 PM 04/02/2016,Teleop Enabled,10,TRUE,-44087,NetComm_CAN_Receive.vi:5470001<APPEND>  <b>Complete call chain:</b>      NetComm_CAN_Receive.vi:5470001      WPI_CAN_PDPReceive.vi      WPI_Power Get PDP Currents.vi      Periodic Tasks.vi      Robot Main.vi,-0.000000,-0.737915,-0.000000,-2.624411,TRUE,FALSE,FALSE,TRUE,FALSE,FALSE,Disabled,0.000000,0.000000,0.000000,TRUE,-0.038696,-0.125061,0.000000,0.010651,-0.014236,0.000000,-0.086000,0.000000,-0.043000,-3.330000,0.240000,0.310000,6.055690,Hold,0.871582,0.000000,Hold,-168.000000,2.000000,Suck,-1777.500000,1818.181818,Speed,-1777.500000,1818.181818,Speed,Off,Off,0.000000,FALSE,10,,,,,0.000000,0.000000
01:40:09.310 PM 04/02/2016,Teleop Enabled,11,TRUE,-44087,NetComm_CAN_Receive.vi:5470001<APPEND>  <b>Complete call chain:</b>      NetComm_CAN_Receive.vi:5470001      WPI_CAN_PDPReceive.vi      WPI_Power Get PDP Currents.vi      Periodic Tasks.vi      Robot Main.vi,-0.000000,-0.737915,-0.000000,-2.624411,TRUE,FALSE,FALSE,TRUE,FALSE,FALSE,Disabled,0.000000,0.000000,0.000000,TRUE,-0.037933,-0.125198,0.000000,0.025543,-0.012741,0.000000,-0.041000,0.104000,0.029000,-3.330000,0.250000,0.320000,6.053284,Hold,0.871582,0.000000,Hold,-168.000000,2.000000,Suck,-1777.500000,1818.181818,Speed,-1762.500000,1818.181818,Speed,Off,Off,0.000000,FALSE,10,,,,,0.000000,0.000000
01:40:09.411 PM 04/02/2016,Teleop Enabled,11,TRUE,-44087,NetComm_CAN_Receive.vi:5470001<APPEND>  <b>Complete call chain:</b>      NetComm_CAN_Receive.vi:5470001      WPI_CAN_PDPReceive.vi      WPI_Power Get PDP Currents.vi      Periodic Tasks.vi      Robot Main.vi,-0.000000,-0.737915,-0.000000,-2.624411,TRUE,FALSE,FALSE,TRUE,FALSE,FALSE,Disabled,0.000000,0.000000,0.000000,TRUE,-0.035934,-0.125336,0.000000,0.038773,-0.009125,0.000000,0.034000,0.103000,0.051000,-3.330000,0.280000,0.270000,6.055136,Hold,0.871582,0.000000,Hold,-168.000000,2.000000,Suck,-1777.500000,1818.181818,Speed,-1755.000000,1818.181818,Speed,Off,Off,0.000000,FALSE,10,,,,,0.000000,0.000000
01:40:09.511 PM 04/02/2016,Teleop Enabled,11,TRUE,-44087,NetComm_CAN_Receive.vi:5470001<APPEND>  <b>Complete call chain:</b>      NetComm_CAN_Receive.vi:5470001      WPI_CAN_PDPReceive.vi      WPI_Power Get PDP Currents.vi      Periodic Tasks.vi      Robot Main.vi,-0.000000,-0.737915,-0.000000,-2.624411,TRUE,FALSE,FALSE,TRUE,FALSE,FALSE,Disabled,0.000000,0.000000,0.000000,TRUE,-0.035934,-0.125336,0.000000,0.038773,-0.009125,0.000000,-0.016000,0.014000,-0.062000,-3.330000,0.280000,0.260000,6.069047,Hold,0.871582,0.000000,Hold,-168.000000,2.000000,Suck,-1770.000000,1818.181818,Speed,-1770.000000,1818.181818,Speed,Off,Off,0.000000,FALSE,10,,,,,0.000000,0.000000
01:40:09.616 PM 04/02/2016,Teleop Enabled,12,TRUE,-44087,NetComm_CAN_Receive.vi:5470001<APPEND>  <b>Complete call chain:</b>      NetComm_CAN_Receive.vi:5470001      WPI_CAN_PDPReceive.vi      WPI_Power Get PDP Currents.vi      Periodic Tasks.vi      Robot Main.vi,-0.000000,-0.737915,-0.000000,-2.624411,TRUE,FALSE,FALSE,TRUE,FALSE,FALSE,Disabled,0.000000,0.000000,0.000000,TRUE,-0.031982,-0.123917,0.000000,0.048431,0.016190,0.000000,-0.016000,-0.006000,0.052000,-3.330000,0.220000,0.280000,6.064352,Hold,0.871582,0.000000,Hold,-168.000000,2.000000,Suck,-1777.500000,1818.181818,Speed,-1770.000000,1818.181818,Speed,Off,Off,0.000000,FALSE,10,,,,,0.000000,0.000000
01:40:09.716 PM 04/02/2016,Teleop Enabled,10,TRUE,-44087,NetComm_CAN_Receive.vi:5470001<APPEND>  <b>Complete call chain:</b>      NetComm_CAN_Receive.vi:5470001      WPI_CAN_PDPReceive.vi      WPI_Power Get PDP Currents.vi      Periodic Tasks.vi      Robot Main.vi,-0.000000,-0.737915,-0.000000,-2.624411,TRUE,FALSE,FALSE,TRUE,FALSE,FALSE,Disabled,0.000000,0.000000,0.000000,TRUE,-0.029770,-0.122910,0.000000,0.000000,0.007843,0.000000,0.090000,-0.004000,0.003000,-3.330000,0.240000,0.340000,6.061791,Hold,0.871582,0.000000,Hold,-168.000000,2.000000,Suck,-1777.500000,1818.181818,Speed,-1755.000000,1818.181818,Speed,Off,Off,0.000000,FALSE,10,,,,,0.000000,0.000000
01:40:09.816 PM 04/02/2016,Teleop Enabled,11,TRUE,-44087,NetComm_CAN_Receive.vi:5470001<APPEND>  <b>Complete call chain:</b>      NetComm_CAN_Receive.vi:5470001      WPI_CAN_PDPReceive.vi      WPI_Power Get PDP Currents.vi      Periodic Tasks.vi      Robot Main.vi,-0.000000,-0.737915,-0.000000,-2.624411,TRUE,FALSE,FALSE,TRUE,FALSE,FALSE,Disabled,0.000000,0.000000,0.000000,TRUE,-0.029770,-0.122910,0.000000,0.000000,0.007843,0.000000,0.006000,-0.051000,-0.027000,-3.320000,0.260000,0.310000,6.065990,Hold,0.871582,0.000000,Hold,-168.000000,2.000000,Suck,-1770.000000,1818.181818,Speed,-1762.500000,1818.181818,Speed,Off,Off,0.000000,FALSE,10,,,,,0.000000,0.000000
01:40:09.917 PM 04/02/2016,Teleop Enabled,10,TRUE,-44087,NetComm_CAN_Receive.vi:5470001<APPEND>  <b>Complete call chain:</b>      NetComm_CAN_Receive.vi:5470001      WPI_CAN_PDPReceive.vi      WPI_Power Get PDP Currents.vi      Periodic Tasks.vi      Robot Main.vi,-0.000000,-0.737915,-0.000000,-2.624411,TRUE,FALSE,FALSE,TRUE,FALSE,FALSE,Disabled,0.000000,0.000000,0.000000,TRUE,-0.029861,-0.122772,0.000000,-0.004349,-0.011078,0.000000,0.067000,-0.018000,-0.018000,-3.330000,0.300000,0.270000,6.069347,Hold,0.871582,0.000000,Hold,-168.000000,2.000000,Suck,-1777.500000,1818.181818,Speed,-1770.000000,1818.181818,Speed,Off,Off,0.000000,FALSE,10,,,,,0.000000,0.000000
01:40:10.017 PM 04/02/2016,Teleop Enabled,10,TRUE,-44087,NetComm_CAN_Receive.vi:5470001<APPEND>  <b>Complete call chain:</b>      NetComm_CAN_Receive.vi:5470001      WPI_CAN_PDPReceive.vi      WPI_Power Get PDP Currents.vi      Periodic Tasks.vi      Robot Main.vi,-0.000000,-0.737915,-0.000000,-2.624411,TRUE,FALSE,FALSE,TRUE,FALSE,FALSE,Disabled,0.000000,0.000000,0.000000,TRUE,-0.029282,-0.123276,0.000000,0.009827,-0.008423,0.000000,0.065000,-0.009000,-0.023000,-3.330000,0.270000,0.280000,6.073210,Hold,0.871582,0.000000,Hold,-168.000000,2.000000,Suck,-1777.500000,1818.181818,Speed,-1770.000000,1818.181818,Speed,Off,Off,0.000000,FALSE,10,,,,,0.000000,0.000000
01:40:10.118 PM 04/02/2016,Teleop Enabled,9,TRUE,-44087,NetComm_CAN_Receive.vi:5470001<APPEND>  <b>Complete call chain:</b>      NetComm_CAN_Receive.vi:5470001      WPI_CAN_PDPReceive.vi      WPI_Power Get PDP Currents.vi      Periodic Tasks.vi      Robot Main.vi,-0.000000,-0.737915,-0.000000,-2.624411,TRUE,FALSE,FALSE,TRUE,FALSE,FALSE,Disabled,0.000000,0.000000,0.000000,TRUE,-0.028748,-0.123489,0.000000,0.001190,-0.001770,0.000000,0.016000,-0.097000,0.084000,-3.330000,0.270000,0.280000,6.083737,Hold,0.871582,0.000000,Hold,-168.000000,2.000000,Suck,-1777.500000,1818.181818,Speed,-1762.500000,1818.181818,Speed,Off,Off,0.000000,FALSE,10,,,,,0.000000,0.000000
01:40:10.220 PM 04/02/2016,Teleop Enabled,9,TRUE,-44087,NetComm_CAN_Receive.vi:5470001<APPEND>  <b>Complete call chain:</b>      NetComm_CAN_Receive.vi:5470001      WPI_CAN_PDPReceive.vi      WPI_Power Get PDP Currents.vi      Periodic Tasks.vi      Robot Main.vi,-0.000000,-0.737915,-0.000000,-2.624411,TRUE,FALSE,FALSE,TRUE,FALSE,FALSE,Disabled,0.000000,0.000000,0.000000,TRUE,-0.028687,-0.124420,0.000000,-0.001373,-0.016693,0.000000,-0.028000,-0.045000,0.038000,-3.330000,0.310000,0.220000,6.083737,Hold,0.871582,0.000000,Hold,-168.000000,2.000000,Suck,-1770.000000,1818.181818,Speed,-1762.500000,1818.181818,Speed,Off,Off,0.000000,FALSE,10,,,,,0.000000,0.000000
01:40:10.321 PM 04/02/2016,Teleop Enabled,9,TRUE,-44087,NetComm_CAN_Receive.vi:5470001<APPEND>  <b>Complete call chain:</b>      NetComm_CAN_Receive.vi:5470001      WPI_CAN_PDPReceive.vi      WPI_Power Get PDP Currents.vi      Periodic Tasks.vi      Robot Main.vi,-0.000000,-0.737915,-0.000000,-2.624411,TRUE,FALSE,FALSE,TRUE,FALSE,FALSE,Disabled,0.000000,0.000000,0.000000,TRUE,-0.029037,-0.125656,0.000000,-0.016022,-0.023422,0.000000,0.013000,0.001000,0.150000,-3.330000,0.290000,0.250000,6.084525,Hold,0.871582,0.000000,Hold,-168.000000,2.000000,Suck,-1777.500000,1818.181818,Speed,-1770.000000,1818.181818,Speed,Off,Off,0.000000,FALSE,10,,,,,0.000000,0.000000
01:40:10.421 PM 04/02/2016,Teleop Enabled,9,TRUE,-44087,NetComm_CAN_Receive.vi:5470001<APPEND>  <b>Complete call chain:</b>      NetComm_CAN_Receive.vi:5470001      WPI_CAN_PDPReceive.vi      WPI_Power Get PDP Currents.vi      Periodic Tasks.vi      Robot Main.vi,-0.000000,-0.737915,-0.000000,-2.624411,TRUE,FALSE,FALSE,TRUE,FALSE,FALSE,Disabled,0.000000,0.000000,0.000000,TRUE,-0.029343,-0.125000,0.000000,0.006165,0.022324,0.000000,-0.058000,-0.003000,-0.031000,-3.330000,0.290000,0.290000,6.078077,Hold,0.871582,0.000000,Hold,-168.000000,2.000000,Suck,-1777.500000,1818.181818,Speed,-1770.000000,1818.181818,Speed,Off,Off,0.000000,FALSE,10,,,,,0.000000,0.000000
01:40:10.522 PM 04/02/2016,Teleop Enabled,9,TRUE,-44087,NetComm_CAN_Receive.vi:5470001<APPEND>  <b>Complete call chain:</b>      NetComm_CAN_Receive.vi:5470001      WPI_CAN_PDPReceive.vi      WPI_Power Get PDP Currents.vi      Periodic Tasks.vi      Robot Main.vi,-0.000000,-0.737915,-0.000000,-2.624411,TRUE,FALSE,FALSE,TRUE,FALSE,FALSE,Disabled,0.000000,0.000000,0.000000,TRUE,-0.028961,-0.124619,0.000000,0.009155,0.005081,0.000000,-0.016000,-0.072000,0.094000,-3.330000,0.330000,0.250000,6.077299,Hold,0.871582,0.000000,Hold,-168.000000,2.000000,Suck,-1770.000000,1818.181818,Speed,-1770.000000,1818.181818,Speed,Off,Off,0.000000,FALSE,10,,,,,0.000000,0.000000
01:40:10.623 PM 04/02/2016,Teleop Enabled,11,TRUE,-44087,NetComm_CAN_Receive.vi:5470001<APPEND>  <b>Complete call chain:</b>      NetComm_CAN_Receive.vi:5470001      WPI_CAN_PDPReceive.vi      WPI_Power Get PDP Currents.vi      Periodic Tasks.vi      Robot Main.vi,-0.000000,-0.737915,-0.000000,-2.624411,TRUE,FALSE,FALSE,TRUE,FALSE,FALSE,Disabled,0.000000,0.000000,0.000000,TRUE,-0.028671,-0.125473,0.000000,-0.006927,-0.020325,0.000000,-0.033000,0.002000,0.071000,-3.330000,0.360000,0.170000,6.098023,Hold,0.871582,0.000000,Hold,-168.000000,2.000000,Suck,-1777.500000,1818.181818,Speed,-1755.000000,1818.181818,Speed,Off,Off,0.000000,FALSE,10,,,,,0.000000,0.000000
01:40:10.724 PM 04/02/2016,Teleop Enabled,10,TRUE,-44087,NetComm_CAN_Receive.vi:5470001<APPEND>  <b>Complete call chain:</b>      NetComm_CAN_Receive.vi:5470001      WPI_CAN_PDPReceive.vi      WPI_Power Get PDP Currents.vi      Periodic Tasks.vi      Robot Main.vi,-0.000000,-0.737915,-0.000000,-2.624411,TRUE,FALSE,FALSE,TRUE,FALSE,FALSE,Disabled,0.000000,0.000000,0.000000,TRUE,-0.029083,-0.125443,0.000000,-0.004089,0.012131,0.000000,0.024000,-0.015000,0.194000,-3.330000,0.330000,0.160000,6.080380,Hold,0.871582,0.000000,Hold,-168.000000,2.000000,Suck,-1777.500000,1818.181818,Speed,-1740.000000,1818.181818,Speed,Off,Off,0.000000,FALSE,10,,,,,0.000000,0.000000
01:40:10.825 PM 04/02/2016,Teleop Enabled,12,TRUE,-44087,NetComm_CAN_Receive.vi:5470001<APPEND>  <b>Complete call chain:</b>      NetComm_CAN_Receive.vi:5470001      WPI_CAN_PDPReceive.vi      WPI_Power Get PDP Currents.vi      Periodic Tasks.vi      Robot Main.vi,-0.000000,-0.737915,-0.000000,-2.624411,TRUE,FALSE,FALSE,TRUE,FALSE,FALSE,Disabled,0.000000,0.000000,0.000000,TRUE,-0.028946,-0.125275,0.000000,0.006989,0.005478,0.000000,0.060000,0.022000,0.036000,-3.320000,0.390000,0.120000,6.079069,Hold,0.871582,0.000000,Hold,-168.000000,2.000000,Suck,-1770.000000,1818.181818,Speed,-1755.000000,1818.181818,Speed,Off,Off,0.000000,FALSE,10,,,,,0.000000,0.000000
01:40:10.927 PM 04/02/2016,Teleop Enabled,11,TRUE,-44087,NetComm_CAN_Receive.vi:5470001<APPEND>  <b>Complete call chain:</b>      NetComm_CAN_Receive.vi:5470001      WPI_CAN_PDPReceive.vi      WPI_Power Get PDP Currents.vi      Periodic Tasks.vi      Robot Main.vi,-0.000000,-0.737915,-0.000000,-2.624411,TRUE,FALSE,FALSE,TRUE,FALSE,FALSE,Disabled,0.000000,0.000000,0.000000,TRUE,-0.029434,-0.124664,0.000000,0.000000,0.032303,0.000000,-0.052000,-0.110000,-0.022000,-3.320000,0.390000,0.160000,6.064486,Hold,0.871582,0.000000,Hold,-168.000000,2.000000,Suck,-1777.500000,1818.181818,Speed,-1755.000000,1818.181818,Speed,Off,Off,0.000000,FALSE,10,,,,,0.000000,0.000000
01:40:11.029 PM 04/02/2016,Teleop Enabled,10,TRUE,-44087,NetComm_CAN_Receive.vi:5470001<APPEND>  <b>Complete call chain:</b>      NetComm_CAN_Receive.vi:5470001      WPI_CAN_PDPReceive.vi      WPI_Power Get PDP Currents.vi      Periodic Tasks.vi      Robot Main.vi,-0.000000,-0.737915,-0.000000,-2.624411,TRUE,FALSE,FALSE,TRUE,FALSE,FALSE,Disabled,0.000000,0.000000,0.000000,TRUE,-0.029541,-0.124237,0.000000,0.011414,0.002762,0.000000,-0.074000,-0.021000,-0.035000,-3.330000,0.420000,0.110000,6.067306,Hold,0.871582,0.000000,Hold,-168.000000,2.000000,Suck,-1777.500000,1818.181818,Speed,-1762.500000,1818.181818,Speed,Off,Off,0.000000,FALSE,10,,,,,0.000000,0.000000
01:40:11.129 PM 04/02/2016,Teleop Enabled,10,TRUE,-44087,NetComm_CAN_Receive.vi:5470001<APPEND>  <b>Complete call chain:</b>      NetComm_CAN_Receive.vi:5470001      WPI_CAN_PDPReceive.vi      WPI_Power Get PDP Currents.vi      Periodic Tasks.vi      Robot Main.vi,-0.000000,-0.737915,-0.000000,-2.624411,TRUE,FALSE,FALSE,TRUE,FALSE,FALSE,Disabled,0.000000,0.000000,0.000000,TRUE,-0.029419,-0.123398,0.000000,-0.005524,0.034317,0.000000,0.001000,0.017000,0.033000,-3.330000,0.370000,0.160000,6.062434,Hold,0.871582,0.000000,Hold,-168.000000,2.000000,Suck,-1777.500000,1818.181818,Speed,-1747.500000,1818.181818,Speed,Off,Off,0.000000,FALSE,10,,,,,0.000000,0.000000
01:40:11.230 PM 04/02/2016,Teleop Enabled,11,TRUE,-44087,NetComm_CAN_Receive.vi:5470001<APPEND>  <b>Complete call chain:</b>      NetComm_CAN_Receive.vi:5470001      WPI_CAN_PDPReceive.vi      WPI_Power Get PDP Currents.vi      Periodic Tasks.vi      Robot Main.vi,-0.000000,-0.737915,-0.000000,-2.624411,TRUE,FALSE,FALSE,TRUE,FALSE,FALSE,Disabled,0.000000,0.000000,0.000000,TRUE,-0.030090,-0.123322,0.000000,-0.022766,-0.010544,0.000000,0.061000,-0.005000,-0.022000,-3.330000,0.400000,0.070000,6.076452,Hold,0.871582,0.000000,Hold,-168.000000,2.000000,Suck,-1777.500000,1818.181818,Speed,-1747.500000,1818.181818,Speed,Off,Off,0.000000,FALSE,10,,,,,0.000000,0.000000
01:40:11.329 PM 04/02/2016,Teleop Enabled,11,TRUE,-44087,NetComm_CAN_Receive.vi:5470001<APPEND>  <b>Complete call chain:</b>      NetComm_CAN_Receive.vi:5470001      WPI_CAN_PDPReceive.vi      WPI_Power Get PDP Currents.vi      Periodic Tasks.vi      Robot Main.vi,-0.000000,-0.737915,-0.000000,-2.624411,TRUE,FALSE,FALSE,TRUE,FALSE,FALSE,Disabled,0.000000,0.000000,0.000000,TRUE,-0.030762,-0.123535,0.000000,-0.021591,0.003647,0.000000,0.071000,0.019000,0.032000,-3.330000,0.380000,0.130000,6.090553,Hold,0.871582,0.000000,Hold,-168.000000,2.000000,Suck,-1777.500000,1818.181818,Speed,-1755.000000,1818.181818,Speed,Off,Off,0.000000,FALSE,10,,,,,0.000000,0.000000
01:40:11.429 PM 04/02/2016,Teleop Enabled,11,TRUE,-44087,NetComm_CAN_Receive.vi:5470001<APPEND>  <b>Complete call chain:</b>      NetComm_CAN_Receive.vi:5470001      WPI_CAN_PDPReceive.vi      WPI_Power Get PDP Currents.vi      Periodic Tasks.vi      Robot Main.vi,-0.000000,-0.737915,-0.000000,-2.624411,TRUE,FALSE,FALSE,TRUE,FALSE,FALSE,Disabled,0.000000,0.000000,0.000000,TRUE,-0.032104,-0.123154,0.000000,-0.030273,0.010559,0.000000,-0.007000,0.003000,-0.080000,-3.330000,0.380000,0.120000,6.073013,Hold,0.871582,0.000000,Hold,-168.000000,2.000000,Suck,-1777.500000,1818.181818,Speed,-1755.000000,1818.181818,Speed,Off,Off,0.000000,FALSE,10,,,,,0.000000,0.000000
01:40:11.530 PM 04/02/2016,Teleop Enabled,11,TRUE,-44087,NetComm_CAN_Receive.vi:5470001<APPEND>  <b>Complete call chain:</b>      NetComm_CAN_Receive.vi:5470001      WPI_CAN_PDPReceive.vi      WPI_Power Get PDP Currents.vi      Periodic Tasks.vi      Robot Main.vi,-0.000000,-0.737915,-0.000000,-2.624411,TRUE,FALSE,FALSE,TRUE,FALSE,FALSE,Disabled,0.000000,0.000000,0.000000,TRUE,-0.032135,-0.122864,0.000000,0.001251,0.000000,0.000000,-0.007000,0.027000,0.077000,-3.330000,0.400000,0.130000,6.082673,Hold,0.871582,0.000000,Hold,-168.000000,2.000000,Suck,-1777.500000,1818.181818,Speed,-1755.000000,1818.181818,Speed,Off,Off,0.000000,FALSE,10,,,,,0.000000,0.000000
01:40:11.631 PM 04/02/2016,Teleop Enabled,10,TRUE,-44087,NetComm_CAN_Receive.vi:5470001<APPEND>  <b>Complete call chain:</b>      NetComm_CAN_Receive.vi:5470001      WPI_CAN_PDPReceive.vi      WPI_Power Get PDP Currents.vi      Periodic Tasks.vi      Robot Main.vi,-0.000000,-0.737915,-0.000000,-2.624411,TRUE,FALSE,FALSE,TRUE,FALSE,FALSE,Disabled,0.000000,0.000000,0.000000,TRUE,-0.032059,-0.122833,0.000000,-0.005630,0.002548,0.000000,0.068000,0.005000,-0.025000,-3.330000,0.370000,0.140000,6.093765,Hold,0.871582,0.000000,Hold,-168.000000,2.000000,Suck,-1777.500000,1818.181818,Speed,-1747.500000,1818.181818,Speed,Off,Off,0.000000,FALSE,10,,,,,0.000000,0.000000
01:40:11.731 PM 04/02/2016,Teleop Enabled,11,TRUE,-44087,NetComm_CAN_Receive.vi:5470001<APPEND>  <b>Complete call chain:</b>      NetComm_CAN_Receive.vi:5470001      WPI_CAN_PDPReceive.vi      WPI_Power Get PDP Currents.vi      Periodic Tasks.vi      Robot Main.vi,-0.000000,-0.737915,-0.000000,-2.624411,TRUE,FALSE,FALSE,TRUE,FALSE,FALSE,Disabled,0.000000,0.000000,0.000000,TRUE,-0.031372,-0.122971,0.000000,0.016327,-0.011383,0.000000,0.056000,0.006000,-0.064000,-3.330000,0.420000,0.060000,6.089297,Hold,0.871582,0.000000,Hold,-168.000000,2.000000,Suck,-1777.500000,1818.181818,Speed,-1755.000000,1818.181818,Speed,Off,Off,0.000000,FALSE,10,,,,,0.000000,0.000000
01:40:11.831 PM 04/02/2016,Teleop Enabled,11,TRUE,-44087,NetComm_CAN_Receive.vi:5470001<APPEND>  <b>Complete call chain:</b>      NetComm_CAN_Receive.vi:5470001      WPI_CAN_PDPReceive.vi      WPI_Power Get PDP Currents.vi      Periodic Tasks.vi      Robot Main.vi,-0.000000,-0.737915,-0.000000,-2.624411,TRUE,FALSE,FALSE,TRUE,FALSE,FALSE,Disabled,0.000000,0.000000,0.000000,TRUE,-0.029877,-0.123901,0.000000,0.014984,-0.013870,0.000000,-0.008000,-0.072000,-0.034000,-3.330000,0.380000,0.120000,6.085816,Hold,0.871582,0.000000,Hold,-168.000000,2.000000,Suck,-1770.000000,1818.181818,Speed,-1762.500000,1818.181818,Speed,Off,Off,0.000000,FALSE,10,,,,,0.000000,0.000000
01:40:11.934 PM 04/02/2016,Teleop Enabled,10,TRUE,-44087,NetComm_CAN_Receive.vi:5470001<APPEND>  <b>Complete call chain:</b>      NetComm_CAN_Receive.vi:5470001      WPI_CAN_PDPReceive.vi      WPI_Power Get PDP Currents.vi      Periodic Tasks.vi      Robot Main.vi,-0.000000,-0.737915,-0.000000,-2.624411,TRUE,FALSE,FALSE,TRUE,FALSE,FALSE,Disabled,0.000000,0.000000,0.000000,TRUE,-0.029404,-0.125092,0.000000,0.008362,-0.024338,0.000000,-0.001000,-0.028000,-0.079000,-3.330000,0.350000,0.150000,6.099462,Hold,0.871582,0.000000,Hold,-168.000000,2.000000,Suck,-1777.500000,1818.181818,Speed,-1747.500000,1818.181818,Speed,Off,Off,0.000000,FALSE,10,,,,,0.000000,0.000000
01:40:12.034 PM 04/02/2016,Teleop Enabled,10,TRUE,-44087,NetComm_CAN_Receive.vi:5470001<APPEND>  <b>Complete call chain:</b>      NetComm_CAN_Receive.vi:5470001      WPI_CAN_PDPReceive.vi      WPI_Power Get PDP Currents.vi      Periodic Tasks.vi      Robot Main.vi,-0.000000,-0.737915,-0.000000,-2.624411,TRUE,FALSE,FALSE,TRUE,FALSE,FALSE,Disabled,0.000000,0.000000,0.000000,TRUE,-0.028519,-0.126892,0.000000,0.009659,-0.023544,0.000000,0.068000,-0.014000,0.061000,-3.330000,0.360000,0.160000,6.091644,Hold,0.871582,0.000000,Hold,-168.000000,2.000000,Suck,-1770.000000,1818.181818,Speed,-1747.500000,1818.181818,Speed,Off,Off,0.000000,FALSE,10,,,,,0.000000,0.000000
