Time,Robot Mode,Loop Time,Error Status,Error Code,Error Source,Left Motor Output,Left Motor Encoder,Right Motor Output,Right Motor Encoder,Is Level,Is Stalled,Ball Detector Photoeye,Vision Enabled,Vision Teleop Control,Vision Auto Control,Vision Current State,Vision X Output,Vision NavX Error,Vision NavX Target,NavX Connection Status,NavX Displacement X,NavX Displacement Y,NavX Displacement Z,NavX Velocity X,NavX Velocity Y,NavX Velocity Z,NavX Acceleration X,NavX Acceleration Y,NavX Acceleration Z,NavX Pitch,NavX Yaw,NavX Roll,Gyro Angle,Roller Arm State,Roller Arm Actual,Roller Arm Desired,Shooter Arm State,Shooter Arm Actual,Shooter Arm Desired,Shooter State,Actual RPM Left,Desired RPM Left,Control Mode Left,Actual RPM Right,Desired RPM Right,Control Mode Right,Ball Shooter Cylinder,Ball Halo Cylinder,Scaler Motor Output,Scaler Solenoid Fire,Auto To Run,Auto Current File,Auto File Status,Auto Current Command,Auto Trimmed Command,Shooter Amps Left,Shooter Amps Right
09:10:00.041 PM 03/30/2016,Teleop Enabled,10,TRUE,-44087,NetComm_CAN_Receive.vi:5470001<APPEND>  <b>Complete call chain:</b>      NetComm_CAN_Receive.vi:5470001      WPI_CAN_PDPReceive.vi      WPI_Power Get PDP Currents.vi      Periodic Tasks.vi      Robot Main.vi,-0.000000,0.000000,0.000000,-0.038500,TRUE,FALSE,TRUE,TRUE,FALSE,FALSE,Disabled,0.000000,0.000000,0.000000,TRUE,0.984436,-2.308273,0.000000,0.000000,0.000000,0.000000,0.000000,0.000000,0.012000,-0.010000,-0.220000,2.540000,-0.001177,ResetBack,1.527832,-0.000049,ResetBack,-32713.000000,-0.250000,Empty,0.000000,0.000000,Speed,0.000000,0.000000,Speed,Off,Off,0.000000,FALSE,0,,,,,0.000000,0.000000
09:10:00.141 PM 03/30/2016,Teleop Enabled,9,TRUE,-44087,NetComm_CAN_Receive.vi:5470001<APPEND>  <b>Complete call chain:</b>      NetComm_CAN_Receive.vi:5470001      WPI_CAN_PDPReceive.vi      WPI_Power Get PDP Currents.vi      Periodic Tasks.vi      Robot Main.vi,-0.000000,0.000000,0.000000,-0.038500,TRUE,FALSE,TRUE,TRUE,FALSE,FALSE,Disabled,0.000000,0.000000,0.000000,TRUE,0.984512,-2.308304,0.000000,0.005341,-0.003967,0.000000,-0.007000,-0.034000,0.007000,-0.010000,-0.230000,2.570000,0.022225,ResetBack,0.078613,-0.000049,ResetBack,-29483.000000,-0.250000,Empty,0.000000,0.000000,Speed,30.000000,0.000000,Speed,Off,Off,0.000000,FALSE,0,,,,,0.000000,0.000000
09:10:00.241 PM 03/30/2016,Teleop Enabled,10,TRUE,-44087,NetComm_CAN_Receive.vi:5470001<APPEND>  <b>Complete call chain:</b>      NetComm_CAN_Receive.vi:5470001      WPI_CAN_PDPReceive.vi      WPI_Power Get PDP Currents.vi      Periodic Tasks.vi      Robot Main.vi,-0.000000,-0.012833,0.000000,-0.102666,TRUE,FALSE,TRUE,TRUE,FALSE,FALSE,Disabled,0.000000,0.000000,0.000000,TRUE,0.984604,-2.309219,0.000000,0.000000,-0.026794,0.000000,0.025000,-0.028000,0.008000,0.040000,-0.140000,2.570000,0.109201,ResetBack,-0.029785,-0.000049,ResetBack,-22309.000000,-0.250000,Empty,0.000000,0.000000,Speed,15.000000,0.000000,Speed,Off,Off,0.000000,FALSE,0,,,,,0.000000,0.000000
09:10:00.342 PM 03/30/2016,Teleop Enabled,9,TRUE,-44087,NetComm_CAN_Receive.vi:5470001<APPEND>  <b>Complete call chain:</b>      NetComm_CAN_Receive.vi:5470001      WPI_CAN_PDPReceive.vi      WPI_Power Get PDP Currents.vi      Periodic Tasks.vi      Robot Main.vi,-0.000000,-0.038500,0.000000,-0.192500,TRUE,FALSE,TRUE,TRUE,FALSE,FALSE,Disabled,0.000000,0.000000,0.000000,TRUE,0.985382,-2.310730,0.000000,0.013321,-0.030045,0.000000,-0.026000,-0.013000,-0.003000,0.110000,-0.120000,2.550000,0.178972,ResetBack,-0.042236,-0.000049,ResetBack,-22309.000000,-0.250000,Empty,0.000000,0.000000,Speed,0.000000,0.000000,Speed,Off,Off,0.000000,FALSE,0,,,,,0.000000,0.000000
09:10:00.444 PM 03/30/2016,Teleop Enabled,9,TRUE,-44087,NetComm_CAN_Receive.vi:5470001<APPEND>  <b>Complete call chain:</b>      NetComm_CAN_Receive.vi:5470001      WPI_CAN_PDPReceive.vi      WPI_Power Get PDP Currents.vi      Periodic Tasks.vi      Robot Main.vi,-0.000000,-0.051333,0.000000,-0.192500,TRUE,FALSE,TRUE,TRUE,FALSE,FALSE,Disabled,0.000000,0.000000,0.000000,TRUE,0.985153,-2.310989,0.000000,-0.007690,-0.003906,0.000000,0.047000,-0.006000,0.028000,-0.030000,-0.250000,2.540000,-0.007821,Reset,-0.042236,0.000000,ResetBack,-15290.000000,-0.250000,Empty,0.000000,0.000000,Speed,0.000000,0.000000,Speed,Off,Off,0.000000,FALSE,0,,,,,0.000000,0.000000
09:10:00.545 PM 03/30/2016,Teleop Enabled,9,TRUE,-44087,NetComm_CAN_Receive.vi:5470001<APPEND>  <b>Complete call chain:</b>      NetComm_CAN_Receive.vi:5470001      WPI_CAN_PDPReceive.vi      WPI_Power Get PDP Currents.vi      Periodic Tasks.vi      Robot Main.vi,-0.000000,-0.044917,0.000000,-0.192500,TRUE,FALSE,TRUE,TRUE,FALSE,FALSE,Disabled,0.000000,0.000000,0.000000,TRUE,0.985062,-2.311615,0.000000,0.000000,-0.017258,0.000000,-0.016000,-0.014000,-0.060000,0.000000,-0.260000,2.530000,0.051015,Hold,1.027344,0.000000,ResetBack,-9761.000000,-0.250000,Empty,0.000000,0.000000,Speed,0.000000,0.000000,Speed,Off,Off,0.000000,FALSE,0,,,,,0.000000,0.000000
09:10:00.644 PM 03/30/2016,Teleop Enabled,10,TRUE,-44087,NetComm_CAN_Receive.vi:5470001<APPEND>  <b>Complete call chain:</b>      NetComm_CAN_Receive.vi:5470001      WPI_CAN_PDPReceive.vi      WPI_Power Get PDP Currents.vi      Periodic Tasks.vi      Robot Main.vi,-0.000000,-0.038500,0.000000,-0.192500,TRUE,FALSE,TRUE,TRUE,FALSE,FALSE,Disabled,0.000000,0.000000,0.000000,TRUE,0.985245,-2.311935,0.000000,0.004318,0.002609,0.000000,0.012000,-0.004000,-0.035000,0.020000,-0.240000,2.540000,0.062641,Hold,1.009277,0.000000,ResetBack,-6351.000000,-0.250000,Empty,0.000000,0.000000,Speed,0.000000,0.000000,Speed,Off,Off,0.000000,FALSE,0,,,,,0.000000,0.000000
09:10:00.745 PM 03/30/2016,Teleop Enabled,12,TRUE,-44087,NetComm_CAN_Receive.vi:5470001<APPEND>  <b>Complete call chain:</b>      NetComm_CAN_Receive.vi:5470001      WPI_CAN_PDPReceive.vi      WPI_Power Get PDP Currents.vi      Periodic Tasks.vi      Robot Main.vi,-0.000000,-0.038500,0.000000,-0.192500,TRUE,FALSE,TRUE,TRUE,FALSE,FALSE,Disabled,0.000000,0.000000,0.000000,TRUE,0.985413,-2.311722,0.000000,0.000000,0.004120,0.000000,0.011000,0.003000,0.019000,0.000000,-0.250000,2.560000,0.043810,Hold,0.938721,0.000000,ResetBack,-4045.000000,-0.250000,Suck,0.000000,2400.000000,Speed,0.000000,2400.000000,Speed,Off,Off,0.000000,FALSE,0,,,,,0.000000,0.000000
09:10:00.845 PM 03/30/2016,Teleop Enabled,10,TRUE,-44087,NetComm_CAN_Receive.vi:5470001<APPEND>  <b>Complete call chain:</b>      NetComm_CAN_Receive.vi:5470001      WPI_CAN_PDPReceive.vi      WPI_Power Get PDP Currents.vi      Periodic Tasks.vi      Robot Main.vi,-0.000000,-0.038500,0.000000,-0.192500,TRUE,FALSE,TRUE,TRUE,FALSE,FALSE,Disabled,0.000000,0.000000,0.000000,TRUE,0.985413,-2.311844,0.000000,0.000000,0.000000,0.000000,0.053000,-0.026000,0.032000,0.000000,-0.220000,2.540000,0.034942,Hold,0.938721,0.000000,ResetBack,-3374.000000,-0.250000,Hold,-52.500000,0.000000,Speed,-37.500000,0.000000,Speed,Off,Off,0.000000,FALSE,0,,,,,0.000000,0.000000
09:10:00.947 PM 03/30/2016,Teleop Enabled,12,TRUE,-44087,NetComm_CAN_Receive.vi:5470001<APPEND>  <b>Complete call chain:</b>      NetComm_CAN_Receive.vi:5470001      WPI_CAN_PDPReceive.vi      WPI_Power Get PDP Currents.vi      Periodic Tasks.vi      Robot Main.vi,-0.000000,-0.038500,0.000000,-0.192500,TRUE,FALSE,TRUE,TRUE,FALSE,FALSE,Disabled,0.000000,0.000000,0.000000,TRUE,0.985901,-2.312027,0.000000,0.000000,-0.010406,0.000000,-0.122000,-0.011000,-0.029000,0.000000,-0.230000,2.540000,0.031892,Hold,0.938965,0.000000,ResetBack,-3253.000000,-0.250000,Hold,-667.500000,0.000000,Speed,-690.000000,0.000000,Speed,Off,Off,0.000000,FALSE,0,,,,,0.000000,0.000000
09:10:01.048 PM 03/30/2016,Teleop Enabled,9,TRUE,-44087,NetComm_CAN_Receive.vi:5470001<APPEND>  <b>Complete call chain:</b>      NetComm_CAN_Receive.vi:5470001      WPI_CAN_PDPReceive.vi      WPI_Power Get PDP Currents.vi      Periodic Tasks.vi      Robot Main.vi,-0.000000,-0.038500,0.000000,-0.192500,TRUE,FALSE,TRUE,TRUE,FALSE,FALSE,Disabled,0.000000,0.000000,0.000000,TRUE,0.984756,-2.312256,0.000000,-0.017624,-0.010651,0.000000,-0.012000,0.040000,0.049000,0.000000,-0.270000,2.520000,0.029665,Hold,0.938965,0.000000,ResetBack,-3253.000000,-0.250000,Hold,-630.000000,0.000000,Speed,-825.000000,0.000000,Speed,Off,Off,0.000000,FALSE,0,,,,,0.000000,0.000000
09:10:01.148 PM 03/30/2016,Teleop Enabled,11,TRUE,-44087,NetComm_CAN_Receive.vi:5470001<APPEND>  <b>Complete call chain:</b>      NetComm_CAN_Receive.vi:5470001      WPI_CAN_PDPReceive.vi      WPI_Power Get PDP Currents.vi      Periodic Tasks.vi      Robot Main.vi,-0.000000,-0.038500,0.000000,-0.192500,TRUE,FALSE,TRUE,TRUE,FALSE,FALSE,Disabled,0.000000,0.000000,0.000000,TRUE,0.984695,-2.312210,0.000000,-0.005783,0.005783,0.000000,0.031000,-0.020000,-0.018000,0.000000,-0.260000,2.530000,0.023843,Hold,0.938965,0.000000,ResetBack,-2464.000000,-0.250000,Hold,-172.500000,0.000000,Speed,-667.500000,0.000000,Speed,Off,Off,0.000000,FALSE,0,,,,,0.000000,0.000000
09:10:01.249 PM 03/30/2016,Teleop Enabled,11,TRUE,-44003,<LOCATION>WPI_CameraIssue HTTP Request with Authentication.vi<CALLSTACK>WPI_CameraIssue HTTP Request with Authentication.vi< <WPI_CameraIssue Get.vi< <WPI_CameraSet Image Appearance Property.vi< <WPI_CameraSet Image Size.vi< <Vision Processing.vi< <Robot Main.vi,-0.000000,-0.038500,0.000000,-0.192500,TRUE,FALSE,TRUE,TRUE,FALSE,FALSE,Disabled,0.000000,0.000000,0.000000,TRUE,0.983871,-2.312057,0.000000,-0.021378,0.010712,0.000000,0.002000,0.017000,0.071000,0.000000,-0.260000,2.530000,0.011254,Hold,0.938965,0.000000,ResetBack,-2415.000000,-0.250000,Hold,0.000000,0.000000,Speed,-510.000000,0.000000,Speed,Off,Off,0.000000,FALSE,0,,,,,0.000000,0.000000
09:10:01.350 PM 03/30/2016,Teleop Enabled,10,TRUE,-44087,NetComm_CAN_Receive.vi:5470001<APPEND>  <b>Complete call chain:</b>      NetComm_CAN_Receive.vi:5470001      WPI_CAN_PDPReceive.vi      WPI_Power Get PDP Currents.vi      Periodic Tasks.vi      Robot Main.vi,-0.000000,-0.038500,0.000000,-0.192500,TRUE,FALSE,TRUE,TRUE,FALSE,FALSE,Disabled,0.000000,0.000000,0.000000,TRUE,0.982849,-2.311508,0.000000,0.000000,0.000000,0.000000,0.009000,-0.007000,0.016000,0.000000,-0.270000,2.540000,0.003057,Hold,0.938965,0.000000,Reset,-2415.000000,2.000000,Hold,0.000000,0.000000,Speed,-375.000000,0.000000,Speed,Off,Off,0.000000,FALSE,0,,,,,0.000000,0.000000
09:10:01.451 PM 03/30/2016,Teleop Enabled,11,TRUE,-44087,NetComm_CAN_Receive.vi:5470001<APPEND>  <b>Complete call chain:</b>      NetComm_CAN_Receive.vi:5470001      WPI_CAN_PDPReceive.vi      WPI_Power Get PDP Currents.vi      Periodic Tasks.vi      Robot Main.vi,-0.000000,-0.038500,0.000000,-0.192500,TRUE,FALSE,TRUE,TRUE,FALSE,FALSE,Disabled,0.000000,0.000000,0.000000,TRUE,0.982925,-2.311508,0.000000,0.004623,0.000000,0.000000,0.007000,0.017000,0.000000,0.000000,-0.270000,2.550000,-0.003425,Hold,0.938965,0.000000,Hold,-167.000000,2.000000,Hold,0.000000,0.000000,Speed,-240.000000,0.000000,Speed,Off,Off,0.000000,FALSE,0,,,,,0.000000,0.000000
09:10:01.551 PM 03/30/2016,Teleop Enabled,11,TRUE,-44087,NetComm_CAN_Receive.vi:5470001<APPEND>  <b>Complete call chain:</b>      NetComm_CAN_Receive.vi:5470001      WPI_CAN_PDPReceive.vi      WPI_Power Get PDP Currents.vi      Periodic Tasks.vi      Robot Main.vi,-0.000000,-0.038500,0.000000,-0.192500,TRUE,FALSE,TRUE,TRUE,FALSE,FALSE,Disabled,0.000000,0.000000,0.000000,TRUE,0.982971,-2.311340,0.000000,0.000000,0.000000,0.000000,0.007000,0.010000,0.012000,0.000000,-0.270000,2.530000,-0.018005,Hold,0.938965,0.000000,Hold,-167.000000,2.000000,Hold,0.000000,0.000000,Speed,-120.000000,0.000000,Speed,Off,Off,0.000000,FALSE,0,,,,,0.000000,0.000000
09:10:01.652 PM 03/30/2016,Teleop Enabled,9,TRUE,-44087,NetComm_CAN_Receive.vi:5470001<APPEND>  <b>Complete call chain:</b>      NetComm_CAN_Receive.vi:5470001      WPI_CAN_PDPReceive.vi      WPI_Power Get PDP Currents.vi      Periodic Tasks.vi      Robot Main.vi,-0.000000,-0.038500,0.000000,-0.192500,TRUE,FALSE,TRUE,TRUE,FALSE,FALSE,Disabled,0.000000,0.000000,0.000000,TRUE,0.982971,-2.311340,0.000000,0.000000,0.000000,0.000000,-0.002000,0.006000,0.015000,0.000000,-0.270000,2.540000,-0.014941,Hold,0.938965,0.000000,Hold,-167.000000,2.000000,Hold,0.000000,0.000000,Speed,-30.000000,0.000000,Speed,Off,Off,0.000000,FALSE,0,,,,,0.000000,0.000000
09:10:01.754 PM 03/30/2016,Teleop Enabled,12,TRUE,-44087,NetComm_CAN_Receive.vi:5470001<APPEND>  <b>Complete call chain:</b>      NetComm_CAN_Receive.vi:5470001      WPI_CAN_PDPReceive.vi      WPI_Power Get PDP Currents.vi      Periodic Tasks.vi      Robot Main.vi,-0.000000,-0.038500,0.000000,-0.192500,TRUE,FALSE,TRUE,TRUE,FALSE,FALSE,Disabled,0.000000,0.000000,0.000000,TRUE,0.982971,-2.311340,0.000000,0.000000,0.000000,0.000000,0.002000,0.005000,0.011000,0.000000,-0.260000,2.550000,-0.036126,Hold,0.938965,0.000000,Hold,-167.000000,2.000000,Hold,0.000000,0.000000,Speed,0.000000,0.000000,Speed,Off,Off,0.000000,FALSE,0,,,,,0.000000,0.000000
09:10:01.854 PM 03/30/2016,Teleop Enabled,17,TRUE,-44087,NetComm_CAN_Receive.vi:5470001<APPEND>  <b>Complete call chain:</b>      NetComm_CAN_Receive.vi:5470001      WPI_CAN_PDPReceive.vi      WPI_Power Get PDP Currents.vi      Periodic Tasks.vi      Robot Main.vi,-0.000000,-0.038500,0.000000,-0.192500,TRUE,FALSE,TRUE,TRUE,FALSE,FALSE,Disabled,0.000000,0.000000,0.000000,TRUE,0.982971,-2.311340,0.000000,0.000000,0.000000,0.000000,-0.003000,0.000000,0.005000,0.000000,-0.260000,2.540000,-0.028597,Hold,0.938965,0.000000,Hold,-167.000000,2.000000,Hold,0.000000,0.000000,Speed,0.000000,0.000000,Speed,Off,Off,0.000000,FALSE,0,,,,,0.000000,0.000000
09:10:01.957 PM 03/30/2016,Teleop Enabled,10,TRUE,-44087,NetComm_CAN_Receive.vi:5470001<APPEND>  <b>Complete call chain:</b>      NetComm_CAN_Receive.vi:5470001      WPI_CAN_PDPReceive.vi      WPI_Power Get PDP Currents.vi      Periodic Tasks.vi      Robot Main.vi,-0.000000,-0.038500,0.000000,-0.192500,TRUE,FALSE,TRUE,TRUE,FALSE,FALSE,Disabled,0.000000,0.000000,0.000000,TRUE,0.982971,-2.311340,0.000000,0.000000,0.000000,0.000000,-0.002000,-0.001000,0.009000,0.000000,-0.260000,2.540000,-0.044319,Hold,0.938965,0.000000,Hold,-167.000000,2.000000,Hold,0.000000,0.000000,Speed,0.000000,0.000000,Speed,Off,Off,0.000000,FALSE,0,,,,,0.000000,0.000000
09:10:02.057 PM 03/30/2016,Teleop Enabled,9,TRUE,-44087,NetComm_CAN_Receive.vi:5470001<APPEND>  <b>Complete call chain:</b>      NetComm_CAN_Receive.vi:5470001      WPI_CAN_PDPReceive.vi      WPI_Power Get PDP Currents.vi      Periodic Tasks.vi      Robot Main.vi,-0.000000,-0.038500,0.000000,-0.192500,TRUE,FALSE,TRUE,TRUE,FALSE,FALSE,Disabled,0.000000,0.000000,0.000000,TRUE,0.982971,-2.311340,0.000000,0.000000,0.000000,0.000000,-0.002000,-0.001000,0.010000,-0.010000,-0.260000,2.540000,-0.069450,Hold,0.938965,0.000000,Hold,-167.000000,2.000000,LowGoal,0.000000,-2181.818182,Speed,0.000000,-2181.818182,Speed,Off,Off,0.000000,FALSE,0,,,,,0.000000,0.000000
09:10:02.160 PM 03/30/2016,Teleop Enabled,13,TRUE,-44087,NetComm_CAN_Receive.vi:5470001<APPEND>  <b>Complete call chain:</b>      NetComm_CAN_Receive.vi:5470001      WPI_CAN_PDPReceive.vi      WPI_Power Get PDP Currents.vi      Periodic Tasks.vi      Robot Main.vi,-0.000000,-0.038500,0.000000,-0.192500,TRUE,FALSE,TRUE,TRUE,FALSE,FALSE,Disabled,0.000000,0.000000,0.000000,TRUE,0.982971,-2.311340,0.000000,0.000000,0.000000,0.000000,0.040000,0.000000,0.032000,-0.010000,-0.260000,2.540000,-0.076600,Hold,0.938965,0.000000,Hold,-167.000000,2.000000,LowGoal,90.000000,-2181.818182,Speed,0.000000,-2181.818182,Speed,Off,Off,0.000000,FALSE,0,,,,,0.000000,0.000000
09:10:02.260 PM 03/30/2016,Teleop Enabled,10,TRUE,-44087,NetComm_CAN_Receive.vi:5470001<APPEND>  <b>Complete call chain:</b>      NetComm_CAN_Receive.vi:5470001      WPI_CAN_PDPReceive.vi      WPI_Power Get PDP Currents.vi      Periodic Tasks.vi      Robot Main.vi,-0.000000,-0.038500,0.000000,-0.192500,TRUE,FALSE,TRUE,TRUE,FALSE,FALSE,Disabled,0.000000,0.000000,0.000000,TRUE,0.983246,-2.311264,0.000000,-0.003021,0.007111,0.000000,-0.110000,0.062000,0.022000,-0.010000,-0.230000,2.530000,-0.088904,Hold,0.938965,0.000000,Hold,-167.000000,2.000000,LowGoal,622.500000,-2181.818182,Speed,990.000000,-2181.818182,Speed,Off,Off,0.000000,FALSE,0,,,,,0.000000,0.000000
09:10:02.362 PM 03/30/2016,Teleop Enabled,11,TRUE,-44087,NetComm_CAN_Receive.vi:5470001<APPEND>  <b>Complete call chain:</b>      NetComm_CAN_Receive.vi:5470001      WPI_CAN_PDPReceive.vi      WPI_Power Get PDP Currents.vi      Periodic Tasks.vi      Robot Main.vi,-0.000000,-0.038500,0.000000,-0.192500,TRUE,FALSE,TRUE,TRUE,FALSE,FALSE,Disabled,0.000000,0.000000,0.000000,TRUE,0.982697,-2.310410,0.000000,0.003036,0.030746,0.000000,0.043000,0.065000,0.000000,0.000000,-0.280000,2.620000,-0.104451,Hold,0.938965,0.000000,Hold,-167.000000,2.000000,LowGoal,1387.500000,-2181.818182,Speed,1672.500000,-2181.818182,Speed,Off,Off,0.000000,FALSE,0,,,,,0.000000,0.000000
09:10:02.469 PM 03/30/2016,Teleop Enabled,12,TRUE,-44087,NetComm_CAN_Receive.vi:5470001<APPEND>  <b>Complete call chain:</b>      NetComm_CAN_Receive.vi:5470001      WPI_CAN_PDPReceive.vi      WPI_Power Get PDP Currents.vi      Periodic Tasks.vi      Robot Main.vi,-0.000000,-0.038500,0.000000,-0.192500,TRUE,FALSE,TRUE,TRUE,FALSE,FALSE,Disabled,0.000000,0.000000,0.000000,TRUE,0.981735,-2.307526,0.000000,-0.046448,0.090988,0.000000,0.017000,0.031000,0.009000,-0.010000,-0.300000,2.680000,-0.108310,Hold,0.938965,0.000000,Hold,-167.000000,2.000000,LowGoal,2002.500000,-2181.818182,Speed,2310.000000,-2181.818182,Speed,Off,Off,0.000000,FALSE,0,,,,,0.000000,0.000000
09:10:02.573 PM 03/30/2016,Teleop Enabled,16,TRUE,-44087,NetComm_CAN_Receive.vi:5470001<APPEND>  <b>Complete call chain:</b>      NetComm_CAN_Receive.vi:5470001      WPI_CAN_PDPReceive.vi      WPI_Power Get PDP Currents.vi      Periodic Tasks.vi      Robot Main.vi,-0.000000,-0.038500,0.000000,-0.192500,TRUE,FALSE,TRUE,TRUE,FALSE,FALSE,Disabled,0.000000,0.000000,0.000000,TRUE,0.978012,-2.298126,0.000000,-0.074524,0.287781,0.000000,-0.014000,0.095000,-0.117000,-0.010000,-0.280000,2.630000,-0.120011,Hold,0.938965,0.000000,Hold,-167.000000,2.000000,LowGoal,2287.500000,-2181.818182,Speed,2325.000000,-2181.818182,Speed,Off,Off,0.000000,FALSE,0,,,,,0.000000,0.000000
09:10:02.673 PM 03/30/2016,Teleop Enabled,11,TRUE,-44087,NetComm_CAN_Receive.vi:5470001<APPEND>  <b>Complete call chain:</b>      NetComm_CAN_Receive.vi:5470001      WPI_CAN_PDPReceive.vi      WPI_Power Get PDP Currents.vi      Periodic Tasks.vi      Robot Main.vi,-0.000000,-0.038500,0.000000,-0.192500,TRUE,FALSE,TRUE,TRUE,FALSE,FALSE,Disabled,0.000000,0.000000,0.000000,TRUE,0.974396,-2.280670,0.000000,0.000000,0.368698,0.000000,0.006000,-0.051000,-0.096000,-0.010000,-0.210000,2.620000,-0.103545,Hold,0.938965,0.000000,Hold,-167.000000,2.000000,LowGoal,2077.500000,-2181.818182,Speed,2137.500000,-2181.818182,Speed,Off,Off,0.000000,FALSE,0,,,,,0.000000,0.000000
09:10:02.773 PM 03/30/2016,Teleop Enabled,11,TRUE,-44087,NetComm_CAN_Receive.vi:5470001<APPEND>  <b>Complete call chain:</b>      NetComm_CAN_Receive.vi:5470001      WPI_CAN_PDPReceive.vi      WPI_Power Get PDP Currents.vi      Periodic Tasks.vi      Robot Main.vi,-0.000000,-0.038500,0.000000,-0.192500,TRUE,FALSE,TRUE,TRUE,FALSE,FALSE,Disabled,0.000000,0.000000,0.000000,TRUE,0.973801,-2.262589,0.000000,-0.016571,0.000000,0.000000,0.036000,0.003000,0.101000,-0.010000,-0.220000,2.590000,-0.104909,Hold,0.938965,0.000000,Hold,-167.000000,2.000000,LowGoal,1987.500000,-2181.818182,Speed,2145.000000,-2181.818182,Speed,Off,Off,0.000000,FALSE,0,,,,,0.000000,0.000000
09:10:02.874 PM 03/30/2016,Teleop Enabled,11,TRUE,-44087,NetComm_CAN_Receive.vi:5470001<APPEND>  <b>Complete call chain:</b>      NetComm_CAN_Receive.vi:5470001      WPI_CAN_PDPReceive.vi      WPI_Power Get PDP Currents.vi      Periodic Tasks.vi      Robot Main.vi,-0.000000,-0.038500,0.000000,-0.192500,TRUE,FALSE,TRUE,TRUE,FALSE,FALSE,Disabled,0.000000,0.000000,0.000000,TRUE,0.974564,-2.263153,0.000000,0.037766,-0.049347,0.000000,0.021000,-0.104000,0.008000,-0.010000,-0.220000,2.700000,-0.119880,Hold,0.938965,0.000000,Hold,-167.000000,2.000000,LowGoal,2130.000000,-2181.818182,Speed,2145.000000,-2181.818182,Speed,Off,Off,0.000000,FALSE,0,,,,,0.000000,0.000000
09:10:02.975 PM 03/30/2016,Teleop Enabled,11,TRUE,-44087,NetComm_CAN_Receive.vi:5470001<APPEND>  <b>Complete call chain:</b>      NetComm_CAN_Receive.vi:5470001      WPI_CAN_PDPReceive.vi      WPI_Power Get PDP Currents.vi      Periodic Tasks.vi      Robot Main.vi,-0.000000,-0.038500,0.000000,-0.192500,TRUE,FALSE,TRUE,TRUE,FALSE,FALSE,Disabled,0.000000,0.000000,0.000000,TRUE,0.977325,-2.267105,0.000000,0.088547,-0.130035,0.000000,0.120000,-0.131000,-0.008000,-0.010000,-0.270000,2.730000,-0.120910,Hold,0.938965,0.000000,Hold,-167.000000,2.000000,LowGoal,2145.000000,-2181.818182,Speed,2197.500000,-2181.818182,Speed,Off,Off,0.000000,FALSE,0,,,,,0.000000,0.000000
09:10:03.076 PM 03/30/2016,Teleop Enabled,11,TRUE,-44087,NetComm_CAN_Receive.vi:5470001<APPEND>  <b>Complete call chain:</b>      NetComm_CAN_Receive.vi:5470001      WPI_CAN_PDPReceive.vi      WPI_Power Get PDP Currents.vi      Periodic Tasks.vi      Robot Main.vi,-0.000000,-0.038500,0.000000,-0.192500,TRUE,FALSE,TRUE,TRUE,FALSE,FALSE,Disabled,0.000000,0.000000,0.000000,TRUE,0.984772,-2.279877,0.000000,0.134109,-0.267944,0.000000,-0.045000,-0.077000,-0.025000,-0.010000,-0.230000,2.710000,-0.127268,Hold,0.938965,0.000000,Hold,-167.000000,2.000000,LowGoal,2062.500000,-2181.818182,Speed,2182.500000,-2181.818182,Speed,Off,Off,0.000000,FALSE,0,,,,,0.000000,0.000000
09:10:03.180 PM 03/30/2016,Teleop Enabled,12,TRUE,-44087,NetComm_CAN_Receive.vi:5470001<APPEND>  <b>Complete call chain:</b>      NetComm_CAN_Receive.vi:5470001      WPI_CAN_PDPReceive.vi      WPI_Power Get PDP Currents.vi      Periodic Tasks.vi      Robot Main.vi,-0.000000,-0.038500,0.000000,-0.192500,TRUE,FALSE,TRUE,TRUE,FALSE,FALSE,Disabled,0.000000,0.000000,0.000000,TRUE,0.990311,-2.285217,0.000000,0.086502,0.019073,0.000000,-0.036000,0.082000,0.044000,-0.010000,-0.260000,2.640000,-0.137348,Hold,0.938965,0.000000,Hold,-167.000000,2.000000,LowGoal,2062.500000,-2181.818182,Speed,2182.500000,-2181.818182,Speed,Off,Off,0.000000,FALSE,0,,,,,0.000000,0.000000
09:10:03.285 PM 03/30/2016,Teleop Enabled,10,TRUE,-44087,NetComm_CAN_Receive.vi:5470001<APPEND>  <b>Complete call chain:</b>      NetComm_CAN_Receive.vi:5470001      WPI_CAN_PDPReceive.vi      WPI_Power Get PDP Currents.vi      Periodic Tasks.vi      Robot Main.vi,-0.000000,-0.038500,0.000000,-0.192500,TRUE,FALSE,TRUE,TRUE,FALSE,FALSE,Disabled,0.000000,0.000000,0.000000,TRUE,0.994720,-2.284698,0.000000,0.084061,-0.016052,0.000000,0.009000,-0.087000,-0.082000,-0.020000,-0.180000,2.510000,-0.144828,Hold,0.938965,0.000000,Hold,-167.000000,2.000000,LowGoal,2122.500000,-2181.818182,Speed,2190.000000,-2181.818182,Speed,Off,Off,0.000000,FALSE,0,,,,,0.000000,0.000000
09:10:03.386 PM 03/30/2016,Teleop Enabled,9,TRUE,-44087,NetComm_CAN_Receive.vi:5470001<APPEND>  <b>Complete call chain:</b>      NetComm_CAN_Receive.vi:5470001      WPI_CAN_PDPReceive.vi      WPI_Power Get PDP Currents.vi      Periodic Tasks.vi      Robot Main.vi,-0.000000,-0.038500,0.000000,-0.192500,TRUE,FALSE,TRUE,TRUE,FALSE,FALSE,Disabled,0.000000,0.000000,0.000000,TRUE,0.996811,-2.289658,0.000000,0.015213,-0.168716,0.000000,0.017000,-0.245000,0.078000,-0.020000,-0.150000,2.440000,-0.145641,Hold,0.938965,0.000000,Hold,-167.000000,2.000000,LowGoal,2122.500000,-2181.818182,Speed,2190.000000,-2181.818182,Speed,Off,Off,0.000000,FALSE,0,,,,,0.000000,0.000000
09:10:03.493 PM 03/30/2016,Teleop Enabled,16,TRUE,-44087,NetComm_CAN_Receive.vi:5470001<APPEND>  <b>Complete call chain:</b>      NetComm_CAN_Receive.vi:5470001      WPI_CAN_PDPReceive.vi      WPI_Power Get PDP Currents.vi      Periodic Tasks.vi      Robot Main.vi,-0.000000,-0.038500,0.000000,-0.192500,TRUE,FALSE,TRUE,TRUE,FALSE,FALSE,Disabled,0.000000,0.000000,0.000000,TRUE,0.998016,-2.305847,0.000000,0.039871,-0.441635,0.000000,0.107000,-0.279000,0.110000,-0.020000,-0.100000,2.420000,-0.137644,Hold,0.938965,0.000000,Hold,-167.000000,2.000000,LowGoal,2085.000000,-2181.818182,Speed,2197.500000,-2181.818182,Speed,Off,Off,0.000000,FALSE,0,,,,,0.000000,0.000000
09:10:03.592 PM 03/30/2016,Teleop Enabled,9,TRUE,-44087,NetComm_CAN_Receive.vi:5470001<APPEND>  <b>Complete call chain:</b>      NetComm_CAN_Receive.vi:5470001      WPI_CAN_PDPReceive.vi      WPI_Power Get PDP Currents.vi      Periodic Tasks.vi      Robot Main.vi,-0.000000,-0.038500,0.000000,-0.192500,TRUE,FALSE,TRUE,TRUE,FALSE,FALSE,Disabled,0.000000,0.000000,0.000000,TRUE,1.002731,-2.336304,0.000000,0.133636,-0.712631,0.000000,-0.098000,-0.125000,-0.077000,-0.020000,-0.100000,2.430000,-0.138408,Hold,0.938965,0.000000,Hold,-167.000000,2.000000,LowGoal,2085.000000,-2181.818182,Speed,2182.500000,-2181.818182,Speed,Off,Off,0.000000,FALSE,0,,,,,0.000000,0.000000
09:10:03.695 PM 03/30/2016,Teleop Enabled,9,TRUE,-44087,NetComm_CAN_Receive.vi:5470001<APPEND>  <b>Complete call chain:</b>      NetComm_CAN_Receive.vi:5470001      WPI_CAN_PDPReceive.vi      WPI_Power Get PDP Currents.vi      Periodic Tasks.vi      Robot Main.vi,-0.000000,-0.038500,0.000000,-0.192500,TRUE,FALSE,TRUE,TRUE,FALSE,FALSE,Disabled,0.000000,0.000000,0.000000,TRUE,1.007599,-2.374985,0.000000,0.000000,-0.801361,0.000000,0.010000,-0.084000,0.049000,-0.020000,-0.170000,2.530000,-0.147641,Hold,0.938965,0.000000,Hold,-167.000000,2.000000,LowGoal,2107.500000,-2181.818182,Speed,2182.500000,-2181.818182,Speed,Off,Off,0.000000,FALSE,0,,,,,0.000000,0.000000
09:10:03.797 PM 03/30/2016,Teleop Enabled,9,TRUE,-44087,NetComm_CAN_Receive.vi:5470001<APPEND>  <b>Complete call chain:</b>      NetComm_CAN_Receive.vi:5470001      WPI_CAN_PDPReceive.vi      WPI_Power Get PDP Currents.vi      Periodic Tasks.vi      Robot Main.vi,-0.000000,-0.038500,0.000000,-0.192500,TRUE,FALSE,TRUE,TRUE,FALSE,FALSE,Disabled,0.000000,0.000000,0.000000,TRUE,1.008072,-2.415573,0.000000,0.024460,-0.795654,0.000000,0.061000,-0.003000,0.016000,-0.010000,-0.270000,2.690000,-0.139943,Hold,0.938965,0.000000,Hold,-167.000000,2.000000,LowGoal,2107.500000,-2181.818182,Speed,2190.000000,-2181.818182,Speed,Off,Off,0.000000,FALSE,0,,,,,0.000000,0.000000
09:10:03.897 PM 03/30/2016,Teleop Enabled,10,TRUE,-44087,NetComm_CAN_Receive.vi:5470001<APPEND>  <b>Complete call chain:</b>      NetComm_CAN_Receive.vi:5470001      WPI_CAN_PDPReceive.vi      WPI_Power Get PDP Currents.vi      Periodic Tasks.vi      Robot Main.vi,-0.000000,-0.038500,0.000000,-0.192500,TRUE,FALSE,TRUE,TRUE,FALSE,FALSE,Disabled,0.000000,0.000000,0.000000,TRUE,1.011032,-2.455902,0.000000,0.073196,-0.835434,0.000000,-0.142000,-0.098000,0.052000,-0.020000,-0.290000,2.770000,-0.119157,Hold,0.938965,0.000000,Hold,-167.000000,2.000000,LowGoal,2100.000000,-2181.818182,Speed,2190.000000,-2181.818182,Speed,Off,Off,0.000000,FALSE,0,,,,,0.000000,0.000000
09:10:04.001 PM 03/30/2016,Teleop Enabled,13,TRUE,-44087,NetComm_CAN_Receive.vi:5470001<APPEND>  <b>Complete call chain:</b>      NetComm_CAN_Receive.vi:5470001      WPI_CAN_PDPReceive.vi      WPI_Power Get PDP Currents.vi      Periodic Tasks.vi      Robot Main.vi,-0.000000,-0.038500,0.000000,-0.192500,TRUE,FALSE,TRUE,TRUE,FALSE,FALSE,Disabled,0.000000,0.000000,0.000000,TRUE,1.013321,-2.502472,0.000000,0.049484,-1.024048,0.000000,0.028000,-0.249000,0.103000,-0.010000,-0.360000,2.910000,-0.127595,Hold,0.938965,0.000000,Hold,-167.000000,2.000000,LowGoal,2100.000000,-2181.818182,Speed,2182.500000,-2181.818182,Speed,Off,Off,0.000000,FALSE,0,,,,,0.000000,0.000000
09:10:04.104 PM 03/30/2016,Teleop Enabled,9,TRUE,-44087,NetComm_CAN_Receive.vi:5470001<APPEND>  <b>Complete call chain:</b>      NetComm_CAN_Receive.vi:5470001      WPI_CAN_PDPReceive.vi      WPI_Power Get PDP Currents.vi      Periodic Tasks.vi      Robot Main.vi,-0.000000,-0.038500,0.000000,-0.192500,FALSE,FALSE,TRUE,TRUE,FALSE,FALSE,Disabled,0.000000,0.000000,0.000000,TRUE,1.019028,-2.575928,0.000000,0.145630,-1.363510,0.000000,0.199000,-0.242000,-0.007000,-0.010000,-0.390000,3.000000,-0.141627,Hold,0.938965,0.000000,Hold,-167.000000,2.000000,LowGoal,2092.500000,-2181.818182,Speed,2182.500000,-2181.818182,Speed,Off,Off,0.000000,FALSE,0,,,,,0.000000,0.000000
09:10:04.207 PM 03/30/2016,Teleop Enabled,11,TRUE,-44087,NetComm_CAN_Receive.vi:5470001<APPEND>  <b>Complete call chain:</b>      NetComm_CAN_Receive.vi:5470001      WPI_CAN_PDPReceive.vi      WPI_Power Get PDP Currents.vi      Periodic Tasks.vi      Robot Main.vi,-0.000000,-0.038500,0.000000,-0.192500,TRUE,FALSE,TRUE,TRUE,FALSE,FALSE,Disabled,0.000000,0.000000,0.000000,TRUE,1.030228,-2.650101,0.000000,0.249969,-1.536514,0.000000,-0.044000,-0.095000,0.014000,-0.010000,-0.390000,2.950000,-0.133014,Hold,0.938965,0.000000,Hold,-167.000000,2.000000,LowGoal,2092.500000,-2181.818182,Speed,2182.500000,-2181.818182,Speed,Off,Off,0.000000,FALSE,0,,,,,0.000000,0.000000
09:10:04.308 PM 03/30/2016,Teleop Enabled,10,TRUE,-44087,NetComm_CAN_Receive.vi:5470001<APPEND>  <b>Complete call chain:</b>      NetComm_CAN_Receive.vi:5470001      WPI_CAN_PDPReceive.vi      WPI_Power Get PDP Currents.vi      Periodic Tasks.vi      Robot Main.vi,-0.000000,-0.038500,0.000000,-0.192500,TRUE,FALSE,TRUE,TRUE,FALSE,FALSE,Disabled,0.000000,0.000000,0.000000,TRUE,1.043640,-2.728653,0.000000,0.314865,-1.584290,0.000000,0.075000,0.005000,0.057000,0.000000,-0.410000,2.830000,-0.146044,Hold,0.938965,0.000000,Hold,-167.000000,2.000000,LowGoal,2092.500000,-2181.818182,Speed,2182.500000,-2181.818182,Speed,Off,Off,0.000000,FALSE,0,,,,,0.000000,0.000000
09:10:04.411 PM 03/30/2016,Teleop Enabled,11,TRUE,-44087,NetComm_CAN_Receive.vi:5470001<APPEND>  <b>Complete call chain:</b>      NetComm_CAN_Receive.vi:5470001      WPI_CAN_PDPReceive.vi      WPI_Power Get PDP Currents.vi      Periodic Tasks.vi      Robot Main.vi,-0.000000,-0.038500,0.000000,-0.192500,TRUE,FALSE,TRUE,TRUE,FALSE,FALSE,Disabled,0.000000,0.000000,0.000000,TRUE,1.062042,-2.729904,0.000000,0.385162,-0.065308,0.000000,0.031000,-0.097000,-0.028000,-0.010000,-0.360000,2.760000,-0.155036,Hold,0.938965,0.000000,Hold,-167.000000,2.000000,LowGoal,2107.500000,-2181.818182,Speed,2182.500000,-2181.818182,Speed,Off,Off,0.000000,FALSE,0,,,,,0.000000,0.000000
09:10:04.513 PM 03/30/2016,Teleop Enabled,14,TRUE,-44087,NetComm_CAN_Receive.vi:5470001<APPEND>  <b>Complete call chain:</b>      NetComm_CAN_Receive.vi:5470001      WPI_CAN_PDPReceive.vi      WPI_Power Get PDP Currents.vi      Periodic Tasks.vi      Robot Main.vi,-0.000000,-0.038500,0.000000,-0.192500,TRUE,FALSE,TRUE,TRUE,FALSE,FALSE,Disabled,0.000000,0.000000,0.000000,TRUE,1.082565,-2.738937,0.000000,0.442383,-0.296188,0.000000,0.073000,-0.384000,0.085000,-0.010000,-0.350000,2.770000,-0.171033,Hold,0.938965,0.000000,Hold,-167.000000,2.000000,LowGoal,2100.000000,-2181.818182,Speed,2182.500000,-2181.818182,Speed,Off,Off,0.000000,FALSE,0,,,,,0.000000,0.000000
09:10:04.615 PM 03/30/2016,Teleop Enabled,9,TRUE,-44087,NetComm_CAN_Receive.vi:5470001<APPEND>  <b>Complete call chain:</b>      NetComm_CAN_Receive.vi:5470001      WPI_CAN_PDPReceive.vi      WPI_Power Get PDP Currents.vi      Periodic Tasks.vi      Robot Main.vi,-0.000000,-0.038500,0.000000,-0.192500,TRUE,FALSE,TRUE,TRUE,FALSE,FALSE,Disabled,0.000000,0.000000,0.000000,TRUE,1.107346,-2.764618,0.000000,0.525558,-0.652771,0.000000,0.175000,-0.313000,0.015000,-0.010000,-0.370000,2.750000,-0.181223,Hold,0.938965,0.000000,Hold,-167.000000,2.000000,LowGoal,2077.500000,-2181.818182,Speed,2175.000000,-2181.818182,Speed,Off,Off,0.000000,FALSE,0,,,,,0.000000,0.000000
09:10:04.716 PM 03/30/2016,Teleop Enabled,9,TRUE,-44087,NetComm_CAN_Receive.vi:5470001<APPEND>  <b>Complete call chain:</b>      NetComm_CAN_Receive.vi:5470001      WPI_CAN_PDPReceive.vi      WPI_Power Get PDP Currents.vi      Periodic Tasks.vi      Robot Main.vi,-0.000000,-0.038500,0.000000,-0.192500,TRUE,FALSE,TRUE,TRUE,FALSE,FALSE,Disabled,0.000000,0.000000,0.000000,TRUE,1.137909,-2.805847,0.000000,0.653946,-0.905991,0.000000,0.037000,-0.049000,0.029000,-0.010000,-0.350000,2.680000,-0.197093,Hold,0.938965,0.000000,Hold,-167.000000,2.000000,LowGoal,2100.000000,-2181.818182,Speed,2182.500000,-2181.818182,Speed,Off,Off,0.000000,FALSE,0,,,,,0.000000,0.000000
09:10:04.818 PM 03/30/2016,Teleop Enabled,11,TRUE,-44087,NetComm_CAN_Receive.vi:5470001<APPEND>  <b>Complete call chain:</b>      NetComm_CAN_Receive.vi:5470001      WPI_CAN_PDPReceive.vi      WPI_Power Get PDP Currents.vi      Periodic Tasks.vi      Robot Main.vi,-0.000000,-0.038500,0.000000,-0.192500,TRUE,FALSE,TRUE,TRUE,FALSE,FALSE,Disabled,0.000000,0.000000,0.000000,TRUE,1.171097,-2.852173,0.000000,0.670807,-0.925568,0.000000,0.091000,-0.011000,0.058000,-0.010000,-0.330000,2.550000,-0.207318,Hold,0.938965,0.000000,Hold,-167.000000,2.000000,LowGoal,2107.500000,-2181.818182,Speed,2182.500000,-2181.818182,Speed,Off,Off,0.000000,FALSE,0,,,,,0.000000,0.000000
09:10:04.921 PM 03/30/2016,Teleop Enabled,10,TRUE,-44087,NetComm_CAN_Receive.vi:5470001<APPEND>  <b>Complete call chain:</b>      NetComm_CAN_Receive.vi:5470001      WPI_CAN_PDPReceive.vi      WPI_Power Get PDP Currents.vi      Periodic Tasks.vi      Robot Main.vi,-0.000000,-0.038500,0.000000,-0.192500,TRUE,FALSE,TRUE,TRUE,FALSE,FALSE,Disabled,0.000000,0.000000,0.000000,TRUE,1.206665,-2.861572,0.000000,0.730087,-0.010025,0.000000,-0.023000,-0.088000,-0.105000,-0.010000,-0.300000,2.450000,-0.218279,Hold,0.938965,0.000000,Hold,-167.000000,2.000000,LowGoal,2100.000000,-2181.818182,Speed,2190.000000,-2181.818182,Speed,Off,Off,0.000000,FALSE,0,,,,,0.000000,0.000000
09:10:05.023 PM 03/30/2016,Teleop Enabled,10,TRUE,-44087,NetComm_CAN_Receive.vi:5470001<APPEND>  <b>Complete call chain:</b>      NetComm_CAN_Receive.vi:5470001      WPI_CAN_PDPReceive.vi      WPI_Power Get PDP Currents.vi      Periodic Tasks.vi      Robot Main.vi,-0.000000,-0.038500,0.000000,-0.192500,TRUE,FALSE,TRUE,TRUE,FALSE,FALSE,Disabled,0.000000,0.000000,0.000000,TRUE,1.235458,-2.867599,0.000000,0.010620,-0.202728,0.000000,0.096000,-0.324000,0.087000,-0.010000,-0.280000,2.370000,-0.206980,Hold,0.938965,0.000000,Hold,-167.000000,2.000000,LowGoal,2092.500000,-2181.818182,Speed,2182.500000,-2181.818182,Speed,Off,Off,0.000000,FALSE,0,,,,,0.000000,0.000000
09:10:05.134 PM 03/30/2016,Teleop Enabled,10,TRUE,-44087,NetComm_CAN_Receive.vi:5470001<APPEND>  <b>Complete call chain:</b>      NetComm_CAN_Receive.vi:5470001      WPI_CAN_PDPReceive.vi      WPI_Power Get PDP Currents.vi      Periodic Tasks.vi      Robot Main.vi,-0.000000,-0.038500,0.000000,-0.192500,TRUE,FALSE,TRUE,TRUE,FALSE,FALSE,Disabled,0.000000,0.000000,0.000000,TRUE,1.237961,-2.887695,0.000000,0.079300,-0.526932,0.000000,0.075000,-0.226000,0.057000,-0.020000,-0.240000,2.350000,-0.202467,Hold,0.938965,0.000000,Hold,-167.000000,2.000000,LowGoal,2085.000000,-2181.818182,Speed,2175.000000,-2181.818182,Speed,Off,Off,0.000000,FALSE,0,,,,,0.000000,0.000000
09:10:05.236 PM 03/30/2016,Teleop Enabled,15,TRUE,-44087,NetComm_CAN_Receive.vi:5470001<APPEND>  <b>Complete call chain:</b>      NetComm_CAN_Receive.vi:5470001      WPI_CAN_PDPReceive.vi      WPI_Power Get PDP Currents.vi      Periodic Tasks.vi      Robot Main.vi,-0.000000,-0.038500,0.000000,-0.192500,TRUE,FALSE,TRUE,TRUE,FALSE,FALSE,Disabled,0.000000,0.000000,0.000000,TRUE,1.245834,-2.920670,0.000000,0.217026,-0.720154,0.000000,0.065000,-0.028000,-0.047000,-0.020000,-0.200000,2.250000,-0.233047,Hold,0.938965,0.000000,Hold,-167.000000,2.000000,LowGoal,2092.500000,-2181.818182,Speed,2175.000000,-2181.818182,Speed,Off,Off,0.000000,FALSE,0,,,,,0.000000,0.000000
09:10:05.337 PM 03/30/2016,Teleop Enabled,5,TRUE,-44087,NetComm_CAN_Receive.vi:5470001<APPEND>  <b>Complete call chain:</b>      NetComm_CAN_Receive.vi:5470001      WPI_CAN_PDPReceive.vi      WPI_Power Get PDP Currents.vi      Periodic Tasks.vi      Robot Main.vi,-0.000000,-0.038500,0.000000,-0.192500,TRUE,FALSE,TRUE,TRUE,FALSE,FALSE,Disabled,0.000000,0.000000,0.000000,TRUE,1.259064,-2.957199,0.000000,0.298447,-0.719849,0.000000,0.126000,0.067000,0.072000,-0.020000,-0.160000,2.090000,-0.246198,Hold,0.938965,0.000000,Hold,-167.000000,2.000000,LowGoal,2107.500000,-2181.818182,Speed,2175.000000,-2181.818182,Speed,Off,Off,0.000000,FALSE,0,,,,,0.000000,0.000000
09:10:05.438 PM 03/30/2016,Teleop Enabled,9,TRUE,-44087,NetComm_CAN_Receive.vi:5470001<APPEND>  <b>Complete call chain:</b>      NetComm_CAN_Receive.vi:5470001      WPI_CAN_PDPReceive.vi      WPI_Power Get PDP Currents.vi      Periodic Tasks.vi      Robot Main.vi,-0.000000,-0.038500,0.000000,-0.192500,TRUE,FALSE,TRUE,TRUE,FALSE,FALSE,Disabled,0.000000,0.000000,0.000000,TRUE,1.277252,-2.991501,0.000000,0.404297,-0.686157,0.000000,-0.055000,-0.073000,-0.007000,-0.020000,-0.100000,2.020000,-0.246456,Hold,0.938965,0.000000,Hold,-167.000000,2.000000,LowGoal,2100.000000,-2181.818182,Speed,2182.500000,-2181.818182,Speed,Off,Off,0.000000,FALSE,0,,,,,0.000000,0.000000
09:10:05.539 PM 03/30/2016,Teleop Enabled,4,TRUE,-44087,NetComm_CAN_Receive.vi:5470001<APPEND>  <b>Complete call chain:</b>      NetComm_CAN_Receive.vi:5470001      WPI_CAN_PDPReceive.vi      WPI_Power Get PDP Currents.vi      Periodic Tasks.vi      Robot Main.vi,-0.000000,-0.038500,0.000000,-0.192500,TRUE,FALSE,TRUE,TRUE,FALSE,FALSE,Disabled,0.000000,0.000000,0.000000,TRUE,1.297989,-3.027939,0.000000,0.421814,-0.780930,0.000000,-0.019000,-0.201000,0.040000,-0.010000,-0.150000,2.050000,-0.257083,Hold,0.938965,0.000000,Hold,-167.000000,2.000000,LowGoal,2092.500000,-2181.818182,Speed,2182.500000,-2181.818182,Speed,Off,Off,0.000000,FALSE,0,,,,,0.000000,0.000000
09:10:05.640 PM 03/30/2016,Teleop Enabled,11,TRUE,-44087,NetComm_CAN_Receive.vi:5470001<APPEND>  <b>Complete call chain:</b>      NetComm_CAN_Receive.vi:5470001      WPI_CAN_PDPReceive.vi      WPI_Power Get PDP Currents.vi      Periodic Tasks.vi      Robot Main.vi,-0.000000,-0.038500,0.000000,-0.192500,TRUE,FALSE,TRUE,TRUE,FALSE,FALSE,Disabled,0.000000,0.000000,0.000000,TRUE,1.325089,-3.085190,0.000000,0.490784,-1.106964,0.000000,0.146000,-0.327000,0.041000,-0.010000,-0.190000,2.140000,-0.264598,Hold,0.938965,0.000000,Hold,-167.000000,2.000000,LowGoal,2092.500000,-2181.818182,Speed,2175.000000,-2181.818182,Speed,Off,Off,0.000000,FALSE,0,,,,,0.000000,0.000000
09:10:05.741 PM 03/30/2016,Teleop Enabled,9,TRUE,-44087,NetComm_CAN_Receive.vi:5470001<APPEND>  <b>Complete call chain:</b>      NetComm_CAN_Receive.vi:5470001      WPI_CAN_PDPReceive.vi      WPI_Power Get PDP Currents.vi      Periodic Tasks.vi      Robot Main.vi,-0.000000,-0.038500,0.000000,-0.192500,TRUE,FALSE,TRUE,TRUE,FALSE,FALSE,Disabled,0.000000,0.000000,0.000000,TRUE,1.347610,-3.135010,0.000000,0.611862,-1.321793,0.000000,0.068000,-0.183000,0.022000,-0.010000,-0.150000,2.060000,-0.279670,Hold,0.938965,0.000000,Hold,-167.000000,2.000000,LowGoal,2092.500000,-2181.818182,Speed,2175.000000,-2181.818182,Speed,Off,Off,0.000000,FALSE,0,,,,,0.000000,0.000000
09:10:05.842 PM 03/30/2016,Teleop Enabled,10,TRUE,-44087,NetComm_CAN_Receive.vi:5470001<APPEND>  <b>Complete call chain:</b>      NetComm_CAN_Receive.vi:5470001      WPI_CAN_PDPReceive.vi      WPI_Power Get PDP Currents.vi      Periodic Tasks.vi      Robot Main.vi,-0.000000,-0.038500,0.000000,-0.192500,TRUE,FALSE,TRUE,TRUE,FALSE,FALSE,Disabled,0.000000,0.000000,0.000000,TRUE,1.387360,-3.218857,0.000000,0.681290,-1.410889,0.000000,-0.006000,-0.015000,0.000000,-0.010000,-0.140000,1.940000,-0.291932,Hold,0.938965,0.000000,Hold,-167.000000,2.000000,LowGoal,2092.500000,-2181.818182,Speed,2182.500000,-2181.818182,Speed,Off,Off,0.000000,FALSE,0,,,,,0.000000,0.000000
09:10:05.943 PM 03/30/2016,Teleop Enabled,10,TRUE,-44087,NetComm_CAN_Receive.vi:5470001<APPEND>  <b>Complete call chain:</b>      NetComm_CAN_Receive.vi:5470001      WPI_CAN_PDPReceive.vi      WPI_Power Get PDP Currents.vi      Periodic Tasks.vi      Robot Main.vi,-0.000000,-0.038500,0.000000,-0.192500,TRUE,FALSE,TRUE,TRUE,FALSE,FALSE,Disabled,0.000000,0.000000,0.000000,TRUE,1.424530,-3.288239,0.000000,0.771942,-1.383057,0.000000,0.004000,-0.042000,-0.057000,-0.020000,-0.100000,1.940000,-0.289402,Hold,0.938965,0.000000,Hold,-167.000000,2.000000,LowGoal,2100.000000,-2181.818182,Speed,2182.500000,-2181.818182,Speed,Off,Off,0.000000,FALSE,0,,,,,0.000000,0.000000
09:10:06.044 PM 03/30/2016,Teleop Enabled,11,TRUE,-44087,NetComm_CAN_Receive.vi:5470001<APPEND>  <b>Complete call chain:</b>      NetComm_CAN_Receive.vi:5470001      WPI_CAN_PDPReceive.vi      WPI_Power Get PDP Currents.vi      Periodic Tasks.vi      Robot Main.vi,-0.000000,-0.038500,0.000000,-0.192500,TRUE,FALSE,TRUE,TRUE,FALSE,FALSE,Disabled,0.000000,0.000000,0.000000,TRUE,1.462067,-3.359894,0.000000,0.751144,-1.499405,0.000000,0.153000,-0.348000,0.084000,-0.020000,-0.120000,1.990000,-0.308918,Hold,0.938965,0.000000,Hold,-167.000000,2.000000,LowGoal,2092.500000,-2181.818182,Speed,2182.500000,-2181.818182,Speed,Off,Off,0.000000,FALSE,0,,,,,0.000000,0.000000
09:10:06.145 PM 03/30/2016,Teleop Enabled,11,TRUE,-44087,NetComm_CAN_Receive.vi:5470001<APPEND>  <b>Complete call chain:</b>      NetComm_CAN_Receive.vi:5470001      WPI_CAN_PDPReceive.vi      WPI_Power Get PDP Currents.vi      Periodic Tasks.vi      Robot Main.vi,-0.000000,-0.038500,0.000000,-0.192500,TRUE,FALSE,TRUE,TRUE,FALSE,FALSE,Disabled,0.000000,0.000000,0.000000,TRUE,1.500763,-3.443573,0.000000,0.786942,-1.791809,0.000000,0.179000,-0.264000,-0.007000,-0.020000,-0.140000,2.000000,-0.331009,Hold,0.938965,0.000000,Hold,-167.000000,2.000000,LowGoal,2092.500000,-2181.818182,Speed,2175.000000,-2181.818182,Speed,Off,Off,0.000000,FALSE,0,,,,,0.000000,0.000000
09:10:06.245 PM 03/30/2016,Teleop Enabled,9,TRUE,-44087,NetComm_CAN_Receive.vi:5470001<APPEND>  <b>Complete call chain:</b>      NetComm_CAN_Receive.vi:5470001      WPI_CAN_PDPReceive.vi      WPI_Power Get PDP Currents.vi      Periodic Tasks.vi      Robot Main.vi,-0.000000,-0.038500,0.000000,-0.192500,TRUE,FALSE,TRUE,TRUE,FALSE,FALSE,Disabled,0.000000,0.000000,0.000000,TRUE,1.553528,-3.560532,0.000000,0.958344,-2.020782,0.000000,-0.022000,0.036000,0.043000,-0.020000,-0.130000,1.960000,-0.335470,Hold,0.938965,0.000000,Hold,-167.000000,2.000000,LowGoal,2092.500000,-2181.818182,Speed,2167.500000,-2181.818182,Speed,Off,Off,0.000000,FALSE,0,,,,,0.000000,0.000000
09:10:06.345 PM 03/30/2016,Teleop Enabled,8,TRUE,-44087,NetComm_CAN_Receive.vi:5470001<APPEND>  <b>Complete call chain:</b>      NetComm_CAN_Receive.vi:5470001      WPI_CAN_PDPReceive.vi      WPI_Power Get PDP Currents.vi      Periodic Tasks.vi      Robot Main.vi,-0.000000,-0.038500,0.000000,-0.192500,TRUE,FALSE,TRUE,TRUE,FALSE,FALSE,Disabled,0.000000,0.000000,0.000000,TRUE,1.602615,-3.620911,0.000000,1.002258,0.000000,0.000000,0.132000,0.056000,0.063000,-0.010000,-0.200000,2.040000,-0.346187,Hold,0.938965,0.000000,Hold,-167.000000,2.000000,LowGoal,2100.000000,-2181.818182,Speed,2167.500000,-2181.818182,Speed,Off,Off,0.000000,FALSE,0,,,,,0.000000,0.000000
09:10:06.445 PM 03/30/2016,Teleop Enabled,10,TRUE,-44087,NetComm_CAN_Receive.vi:5470001<APPEND>  <b>Complete call chain:</b>      NetComm_CAN_Receive.vi:5470001      WPI_CAN_PDPReceive.vi      WPI_Power Get PDP Currents.vi      Periodic Tasks.vi      Robot Main.vi,-0.000000,-0.038500,0.000000,-0.192500,TRUE,FALSE,TRUE,TRUE,FALSE,FALSE,Disabled,0.000000,0.000000,0.000000,TRUE,1.655884,-3.620041,0.000000,1.097794,0.020233,0.000000,-0.035000,-0.038000,-0.079000,-0.010000,-0.210000,2.070000,-0.361293,Hold,0.938965,0.000000,Hold,-167.000000,2.000000,LowGoal,2107.500000,-2181.818182,Speed,2182.500000,-2181.818182,Speed,Off,Off,0.000000,FALSE,0,,,,,0.000000,0.000000
09:10:06.546 PM 03/30/2016,Teleop Enabled,10,TRUE,-44087,NetComm_CAN_Receive.vi:5470001<APPEND>  <b>Complete call chain:</b>      NetComm_CAN_Receive.vi:5470001      WPI_CAN_PDPReceive.vi      WPI_Power Get PDP Currents.vi      Periodic Tasks.vi      Robot Main.vi,-0.000000,-0.038500,0.000000,-0.192500,TRUE,FALSE,TRUE,TRUE,FALSE,FALSE,Disabled,0.000000,0.000000,0.000000,TRUE,1.710464,-3.621323,0.000000,1.082870,-0.073639,0.000000,0.039000,-0.259000,-0.016000,-0.010000,-0.260000,2.160000,-0.372034,Hold,0.938965,0.000000,Hold,-167.000000,2.000000,LowGoal,2100.000000,-2181.818182,Speed,2182.500000,-2181.818182,Speed,Off,Off,0.000000,FALSE,0,,,,,0.000000,0.000000
09:10:06.646 PM 03/30/2016,Teleop Enabled,10,TRUE,-44087,NetComm_CAN_Receive.vi:5470001<APPEND>  <b>Complete call chain:</b>      NetComm_CAN_Receive.vi:5470001      WPI_CAN_PDPReceive.vi      WPI_Power Get PDP Currents.vi      Periodic Tasks.vi      Robot Main.vi,-0.000000,-0.038500,0.000000,-0.192500,TRUE,FALSE,TRUE,TRUE,FALSE,FALSE,Disabled,0.000000,0.000000,0.000000,TRUE,1.766281,-3.633240,0.000000,1.154709,-0.356918,0.000000,0.171000,-0.207000,0.189000,-0.010000,-0.270000,2.230000,-0.379291,Hold,0.938965,0.000000,Hold,-167.000000,2.000000,LowGoal,2092.500000,-2181.818182,Speed,2175.000000,-2181.818182,Speed,Off,Off,0.000000,FALSE,0,,,,,0.000000,0.000000
09:10:06.745 PM 03/30/2016,Teleop Enabled,9,TRUE,-44087,NetComm_CAN_Receive.vi:5470001<APPEND>  <b>Complete call chain:</b>      NetComm_CAN_Receive.vi:5470001      WPI_CAN_PDPReceive.vi      WPI_Power Get PDP Currents.vi      Periodic Tasks.vi      Robot Main.vi,-0.000000,-0.038500,0.000000,-0.192500,TRUE,FALSE,TRUE,TRUE,FALSE,FALSE,Disabled,0.000000,0.000000,0.000000,TRUE,1.827301,-3.657974,0.000000,1.262924,-0.585327,0.000000,0.000000,-0.115000,-0.118000,-0.010000,-0.300000,2.320000,-0.382182,Hold,0.938965,0.000000,Hold,-167.000000,2.000000,LowGoal,2092.500000,-2181.818182,Speed,2167.500000,-2181.818182,Speed,Off,Off,0.000000,FALSE,0,,,,,0.000000,0.000000
09:10:06.845 PM 03/30/2016,Teleop Enabled,10,TRUE,-44087,NetComm_CAN_Receive.vi:5470001<APPEND>  <b>Complete call chain:</b>      NetComm_CAN_Receive.vi:5470001      WPI_CAN_PDPReceive.vi      WPI_Power Get PDP Currents.vi      Periodic Tasks.vi      Robot Main.vi,-0.000000,-0.038500,0.000000,-0.192500,TRUE,FALSE,TRUE,TRUE,FALSE,FALSE,Disabled,0.000000,0.000000,0.000000,TRUE,1.840454,-3.689987,0.000000,0.013443,-0.648254,0.000000,0.079000,0.065000,-0.037000,0.000000,-0.340000,2.420000,-0.390792,Hold,0.938965,0.000000,Hold,-167.000000,2.000000,LowGoal,2092.500000,-2181.818182,Speed,2175.000000,-2181.818182,Speed,Off,Off,0.000000,FALSE,0,,,,,0.000000,0.000000
09:10:06.947 PM 03/30/2016,Teleop Enabled,11,TRUE,-44087,NetComm_CAN_Receive.vi:5470001<APPEND>  <b>Complete call chain:</b>      NetComm_CAN_Receive.vi:5470001      WPI_CAN_PDPReceive.vi      WPI_Power Get PDP Currents.vi      Periodic Tasks.vi      Robot Main.vi,-0.000000,-0.038500,0.000000,-0.192500,TRUE,FALSE,TRUE,TRUE,FALSE,FALSE,Disabled,0.000000,0.000000,0.000000,TRUE,1.842987,-3.720840,0.000000,0.082748,-0.599426,0.000000,0.078000,-0.053000,0.028000,0.000000,-0.420000,2.560000,-0.390706,Hold,0.938965,0.000000,Hold,-167.000000,2.000000,LowGoal,2100.000000,-2181.818182,Speed,2182.500000,-2181.818182,Speed,Off,Off,0.000000,FALSE,0,,,,,0.000000,0.000000
09:10:07.049 PM 03/30/2016,Teleop Enabled,11,TRUE,-44087,NetComm_CAN_Receive.vi:5470001<APPEND>  <b>Complete call chain:</b>      NetComm_CAN_Receive.vi:5470001      WPI_CAN_PDPReceive.vi      WPI_Power Get PDP Currents.vi      Periodic Tasks.vi      Robot Main.vi,-0.000000,-0.038500,0.000000,-0.192500,TRUE,FALSE,TRUE,TRUE,FALSE,FALSE,Disabled,0.000000,0.000000,0.000000,TRUE,1.848648,-3.752625,0.000000,0.114944,-0.672943,0.000000,-0.113000,-0.117000,0.001000,0.000000,-0.420000,2.650000,-0.383126,Hold,0.938965,0.000000,Hold,-167.000000,2.000000,LowGoal,2107.500000,-2181.818182,Speed,2182.500000,-2181.818182,Speed,Off,Off,0.000000,FALSE,0,,,,,0.000000,0.000000
09:10:07.150 PM 03/30/2016,Teleop Enabled,10,TRUE,-44087,NetComm_CAN_Receive.vi:5470001<APPEND>  <b>Complete call chain:</b>      NetComm_CAN_Receive.vi:5470001      WPI_CAN_PDPReceive.vi      WPI_Power Get PDP Currents.vi      Periodic Tasks.vi      Robot Main.vi,-0.000000,-0.038500,0.000000,-0.192500,TRUE,FALSE,TRUE,TRUE,FALSE,FALSE,Disabled,0.000000,0.000000,0.000000,TRUE,1.855270,-3.800858,0.000000,0.141434,-0.942657,0.000000,0.082000,-0.267000,0.006000,0.000000,-0.450000,2.800000,-0.376544,Hold,0.938965,0.000000,Hold,-167.000000,2.000000,LowGoal,2100.000000,-2181.818182,Speed,2175.000000,-2181.818182,Speed,Off,Off,0.000000,FALSE,0,,,,,0.000000,0.000000
09:10:07.251 PM 03/30/2016,Teleop Enabled,9,TRUE,-44087,NetComm_CAN_Receive.vi:5470001<APPEND>  <b>Complete call chain:</b>      NetComm_CAN_Receive.vi:5470001      WPI_CAN_PDPReceive.vi      WPI_Power Get PDP Currents.vi      Periodic Tasks.vi      Robot Main.vi,-0.000000,-0.038500,0.000000,-0.192500,TRUE,FALSE,TRUE,TRUE,FALSE,FALSE,Disabled,0.000000,0.000000,0.000000,TRUE,1.864914,-3.856110,0.000000,0.233795,-1.204956,0.000000,0.039000,-0.154000,-0.187000,0.000000,-0.480000,2.840000,-0.377514,Hold,0.938965,0.000000,Hold,-167.000000,2.000000,LowGoal,2092.500000,-2181.818182,Speed,2175.000000,-2181.818182,Speed,Off,Off,0.000000,FALSE,0,,,,,0.000000,0.000000
09:10:07.351 PM 03/30/2016,Teleop Enabled,11,TRUE,-44087,NetComm_CAN_Receive.vi:5470001<APPEND>  <b>Complete call chain:</b>      NetComm_CAN_Receive.vi:5470001      WPI_CAN_PDPReceive.vi      WPI_Power Get PDP Currents.vi      Periodic Tasks.vi      Robot Main.vi,-0.000000,-0.038500,0.000000,-0.192500,TRUE,FALSE,TRUE,TRUE,FALSE,FALSE,Disabled,0.000000,0.000000,0.000000,TRUE,1.877609,-3.920319,0.000000,0.257767,-1.314926,0.000000,-0.030000,-0.026000,-0.034000,0.000000,-0.500000,2.930000,-0.372392,Hold,0.938965,0.000000,Hold,-167.000000,2.000000,LowGoal,2092.500000,-2181.818182,Speed,2182.500000,-2181.818182,Speed,Off,Off,0.000000,FALSE,0,,,,,0.000000,0.000000
09:10:07.452 PM 03/30/2016,Teleop Enabled,10,TRUE,-44087,NetComm_CAN_Receive.vi:5470001<APPEND>  <b>Complete call chain:</b>      NetComm_CAN_Receive.vi:5470001      WPI_CAN_PDPReceive.vi      WPI_Power Get PDP Currents.vi      Periodic Tasks.vi      Robot Main.vi,-0.000000,-0.038500,0.000000,-0.192500,TRUE,FALSE,TRUE,TRUE,FALSE,FALSE,Disabled,0.000000,0.000000,0.000000,TRUE,1.890503,-3.985123,0.000000,0.282089,-1.275406,0.000000,0.100000,0.047000,0.032000,0.000000,-0.590000,2.980000,-0.376502,Hold,0.938965,0.000000,Hold,-167.000000,2.000000,LowGoal,2107.500000,-2181.818182,Speed,2175.000000,-2181.818182,Speed,Off,Off,0.000000,FALSE,0,,,,,0.000000,0.000000
09:10:07.552 PM 03/30/2016,Teleop Enabled,11,TRUE,-44087,NetComm_CAN_Receive.vi:5470001<APPEND>  <b>Complete call chain:</b>      NetComm_CAN_Receive.vi:5470001      WPI_CAN_PDPReceive.vi      WPI_Power Get PDP Currents.vi      Periodic Tasks.vi      Robot Main.vi,-0.000000,-0.038500,0.000000,-0.192500,FALSE,FALSE,TRUE,TRUE,FALSE,FALSE,Disabled,0.000000,0.000000,0.000000,TRUE,1.905899,-4.049774,0.000000,0.300705,-1.329346,0.000000,-0.103000,-0.141000,-0.076000,0.000000,-0.590000,3.030000,-0.376141,Hold,0.938965,0.000000,Hold,-167.000000,2.000000,LowGoal,2115.000000,-2181.818182,Speed,2175.000000,-2181.818182,Speed,Off,Off,0.000000,FALSE,0,,,,,0.000000,0.000000
09:10:07.652 PM 03/30/2016,Teleop Enabled,10,TRUE,-44087,NetComm_CAN_Receive.vi:5470001<APPEND>  <b>Complete call chain:</b>      NetComm_CAN_Receive.vi:5470001      WPI_CAN_PDPReceive.vi      WPI_Power Get PDP Currents.vi      Periodic Tasks.vi      Robot Main.vi,-0.000000,-0.038500,0.000000,-0.192500,FALSE,FALSE,TRUE,TRUE,FALSE,FALSE,Disabled,0.000000,0.000000,0.000000,TRUE,1.918350,-4.120834,0.000000,0.230392,-1.501678,0.000000,0.111000,-0.381000,0.026000,0.000000,-0.630000,3.120000,-0.372013,Hold,0.938965,0.000000,HighGoal,-167.000000,69632.000000,HighGoal,2100.000000,-3272.727273,Speed,2182.500000,-3272.727273,Speed,Off,Off,0.000000,FALSE,0,,,,,0.000000,0.000000
09:10:07.752 PM 03/30/2016,Teleop Enabled,10,TRUE,-44087,NetComm_CAN_Receive.vi:5470001<APPEND>  <b>Complete call chain:</b>      NetComm_CAN_Receive.vi:5470001      WPI_CAN_PDPReceive.vi      WPI_Power Get PDP Currents.vi      Periodic Tasks.vi      Robot Main.vi,-0.000000,-0.038500,0.000000,-0.192500,TRUE,FALSE,TRUE,TRUE,FALSE,FALSE,Disabled,0.000000,0.000000,0.000000,TRUE,1.931976,-4.205368,0.000000,0.278809,-1.790207,0.000000,-0.073000,-0.099000,-0.085000,0.010000,-0.540000,2.960000,-0.365266,Hold,0.938965,0.000000,Hold,-4996.000000,69632.000000,HighGoal,2055.000000,-3272.727273,Speed,2137.500000,-3272.727273,Speed,Off,Off,0.000000,FALSE,0,,,,,0.000000,0.000000
09:10:07.852 PM 03/30/2016,Teleop Enabled,11,TRUE,-44087,NetComm_CAN_Receive.vi:5470001<APPEND>  <b>Complete call chain:</b>      NetComm_CAN_Receive.vi:5470001      WPI_CAN_PDPReceive.vi      WPI_Power Get PDP Currents.vi      Periodic Tasks.vi      Robot Main.vi,-0.000000,-0.044917,0.000000,-0.192500,TRUE,FALSE,TRUE,TRUE,FALSE,FALSE,Disabled,0.000000,0.000000,0.000000,TRUE,1.944626,-4.293839,0.000000,0.255127,-1.753067,0.000000,0.116000,-0.071000,-0.002000,-0.020000,-0.550000,2.940000,-0.398390,Hold,0.938965,0.000000,HighGoal,-15638.000000,69632.000000,HighGoal,2257.500000,-3272.727273,Speed,2362.500000,-3272.727273,Speed,Off,Off,0.000000,FALSE,0,,,,,0.000000,0.000000
09:10:07.953 PM 03/30/2016,Teleop Enabled,9,TRUE,-44087,NetComm_CAN_Receive.vi:5470001<APPEND>  <b>Complete call chain:</b>      NetComm_CAN_Receive.vi:5470001      WPI_CAN_PDPReceive.vi      WPI_Power Get PDP Currents.vi      Periodic Tasks.vi      Robot Main.vi,-0.000000,-0.044917,0.000000,-0.192500,TRUE,FALSE,TRUE,TRUE,FALSE,FALSE,Disabled,0.000000,0.000000,0.000000,TRUE,1.958145,-4.329285,0.000000,0.267426,-0.007034,0.000000,-0.112000,0.090000,-0.037000,0.000000,-0.520000,2.960000,-0.400683,Hold,0.938965,0.000000,Hold,-25792.000000,69632.000000,HighGoal,2700.000000,-3272.727273,Speed,2865.000000,-3272.727273,Speed,Off,Off,0.000000,FALSE,0,,,,,0.000000,0.000000
09:10:08.054 PM 03/30/2016,Teleop Enabled,10,TRUE,-44087,NetComm_CAN_Receive.vi:5470001<APPEND>  <b>Complete call chain:</b>      NetComm_CAN_Receive.vi:5470001      WPI_CAN_PDPReceive.vi      WPI_Power Get PDP Currents.vi      Periodic Tasks.vi      Robot Main.vi,-0.000000,-0.012833,0.000000,-0.186083,TRUE,FALSE,TRUE,TRUE,FALSE,FALSE,Disabled,0.000000,0.000000,0.000000,TRUE,1.971283,-4.330811,0.000000,0.290024,-0.061569,0.000000,0.169000,-0.030000,0.128000,0.100000,-0.420000,2.870000,-0.298638,Hold,0.938965,0.000000,HighGoal,-25792.000000,69632.000000,HighGoal,3105.000000,-3272.727273,Speed,3270.000000,-3272.727273,Speed,Off,Off,0.000000,FALSE,0,,,,,0.000000,0.000000
09:10:08.153 PM 03/30/2016,Teleop Enabled,9,TRUE,-44087,NetComm_CAN_Receive.vi:5470001<APPEND>  <b>Complete call chain:</b>      NetComm_CAN_Receive.vi:5470001      WPI_CAN_PDPReceive.vi      WPI_Power Get PDP Currents.vi      Periodic Tasks.vi      Robot Main.vi,-0.000000,-0.025667,0.000000,-0.186083,TRUE,FALSE,TRUE,TRUE,FALSE,FALSE,Disabled,0.000000,0.000000,0.000000,TRUE,1.987961,-4.334671,0.000000,0.359177,-0.077118,0.000000,-0.031000,0.099000,0.096000,0.100000,-0.470000,2.820000,-0.303651,Hold,0.938965,0.000000,Hold,-35337.000000,69632.000000,HighGoal,3262.500000,-3272.727273,Speed,3390.000000,-3272.727273,Speed,Off,Off,0.000000,FALSE,0,,,,,0.000000,0.000000
09:10:08.253 PM 03/30/2016,Teleop Enabled,10,TRUE,-44087,NetComm_CAN_Receive.vi:5470001<APPEND>  <b>Complete call chain:</b>      NetComm_CAN_Receive.vi:5470001      WPI_CAN_PDPReceive.vi      WPI_Power Get PDP Currents.vi      Periodic Tasks.vi      Robot Main.vi,-0.000000,-0.025667,0.000000,-0.186083,TRUE,FALSE,TRUE,TRUE,FALSE,FALSE,Disabled,0.000000,0.000000,0.000000,TRUE,2.007050,-4.338333,0.000000,0.386383,-0.076492,0.000000,0.045000,-0.105000,-0.006000,0.000000,-0.470000,2.790000,-0.396975,Hold,0.938965,0.000000,HighGoal,-46568.000000,69632.000000,HighGoal,3225.000000,-3272.727273,Speed,3285.000000,-3272.727273,Speed,Off,Off,0.000000,FALSE,0,,,,,0.000000,0.000000
09:10:08.354 PM 03/30/2016,Teleop Enabled,11,TRUE,-44087,NetComm_CAN_Receive.vi:5470001<APPEND>  <b>Complete call chain:</b>      NetComm_CAN_Receive.vi:5470001      WPI_CAN_PDPReceive.vi      WPI_Power Get PDP Currents.vi      Periodic Tasks.vi      Robot Main.vi,-0.000000,-0.025667,0.000000,-0.186083,TRUE,FALSE,TRUE,TRUE,FALSE,FALSE,Disabled,0.000000,0.000000,0.000000,TRUE,2.026428,-4.342850,0.000000,0.399200,-0.097595,0.000000,-0.124000,0.016000,0.130000,0.050000,-0.610000,2.800000,-0.357021,Hold,0.938965,0.000000,Hold,-58020.000000,69632.000000,HighGoal,3165.000000,-3272.727273,Speed,3247.500000,-3272.727273,Speed,Off,Off,0.000000,FALSE,0,,,,,0.000000,0.000000
09:10:08.455 PM 03/30/2016,Teleop Enabled,11,TRUE,-44087,NetComm_CAN_Receive.vi:5470001<APPEND>  <b>Complete call chain:</b>      NetComm_CAN_Receive.vi:5470001      WPI_CAN_PDPReceive.vi      WPI_Power Get PDP Currents.vi      Periodic Tasks.vi      Robot Main.vi,-0.000000,-0.154000,0.000000,-0.192500,TRUE,FALSE,TRUE,TRUE,FALSE,FALSE,Disabled,0.000000,0.000000,0.000000,TRUE,2.051941,-4.346954,0.000000,0.455139,-0.038467,0.000000,0.156000,0.135000,-0.068000,-0.040000,-0.560000,2.750000,-0.454452,Hold,0.938965,0.000000,Hold,-70865.000000,69632.000000,HighGoal,3187.500000,-3272.727273,Speed,3285.000000,-3272.727273,Speed,Off,Off,0.000000,FALSE,0,,,,,0.000000,0.000000
09:10:08.555 PM 03/30/2016,Teleop Enabled,9,TRUE,-44087,NetComm_CAN_Receive.vi:5470001<APPEND>  <b>Complete call chain:</b>      NetComm_CAN_Receive.vi:5470001      WPI_CAN_PDPReceive.vi      WPI_Power Get PDP Currents.vi      Periodic Tasks.vi      Robot Main.vi,-0.000000,-0.327249,0.000000,-0.365749,TRUE,FALSE,TRUE,TRUE,FALSE,FALSE,Disabled,0.000000,0.000000,0.000000,TRUE,2.071045,-4.347565,0.000000,0.487747,-0.011932,0.000000,-0.145000,-0.103000,0.006000,-0.040000,-0.420000,2.730000,-0.473183,Hold,0.938965,0.000000,Hold,-69871.000000,69632.000000,HighGoal,3225.000000,-3272.727273,Speed,3300.000000,-3272.727273,Speed,Off,Off,0.000000,FALSE,0,,,,,0.000000,0.000000
09:10:08.656 PM 03/30/2016,Teleop Enabled,11,TRUE,-44087,NetComm_CAN_Receive.vi:5470001<APPEND>  <b>Complete call chain:</b>      NetComm_CAN_Receive.vi:5470001      WPI_CAN_PDPReceive.vi      WPI_Power Get PDP Currents.vi      Periodic Tasks.vi      Robot Main.vi,-0.000000,-0.301583,0.000000,-0.359332,TRUE,FALSE,TRUE,TRUE,FALSE,FALSE,Disabled,0.000000,0.000000,0.000000,TRUE,2.093613,-4.349030,0.000000,0.436249,-0.029388,0.000000,0.075000,-0.011000,0.065000,0.030000,-0.770000,2.710000,-0.417748,Hold,0.938965,0.000000,Hold,-69655.000000,69632.000000,HighGoal,3225.000000,-3272.727273,Speed,3292.500000,-3272.727273,Speed,Off,Off,0.000000,FALSE,0,,,,,0.000000,0.000000
09:10:08.756 PM 03/30/2016,Teleop Enabled,10,TRUE,-44087,NetComm_CAN_Receive.vi:5470001<APPEND>  <b>Complete call chain:</b>      NetComm_CAN_Receive.vi:5470001      WPI_CAN_PDPReceive.vi      WPI_Power Get PDP Currents.vi      Periodic Tasks.vi      Robot Main.vi,-0.000000,-0.282333,0.000000,-0.307999,TRUE,FALSE,TRUE,TRUE,FALSE,FALSE,Disabled,0.000000,0.000000,0.000000,TRUE,2.106949,-4.348984,0.000000,0.022919,0.007462,0.000000,0.062000,0.064000,0.091000,-0.080000,-0.760000,2.590000,-0.513874,Hold,0.938965,0.000000,Hold,-69655.000000,69632.000000,HighGoal,3195.000000,-3272.727273,Speed,3300.000000,-3272.727273,Speed,Off,Off,0.000000,FALSE,0,,,,,0.000000,0.000000
09:10:08.857 PM 03/30/2016,Teleop Enabled,10,TRUE,-44087,NetComm_CAN_Receive.vi:5470001<APPEND>  <b>Complete call chain:</b>      NetComm_CAN_Receive.vi:5470001      WPI_CAN_PDPReceive.vi      WPI_Power Get PDP Currents.vi      Periodic Tasks.vi      Robot Main.vi,-0.000000,-0.275916,0.000000,-0.307999,TRUE,FALSE,TRUE,TRUE,FALSE,FALSE,Disabled,0.000000,0.000000,0.000000,TRUE,2.108261,-4.349045,0.000000,0.016357,-0.011246,0.000000,-0.108000,-0.111000,0.063000,0.000000,-0.590000,2.640000,-0.454287,Hold,0.938965,0.000000,Hold,-69699.000000,69632.000000,HighGoal,3202.500000,-3272.727273,Speed,3300.000000,-3272.727273,Speed,Off,Off,0.000000,FALSE,0,,,,,0.000000,0.000000
