Time,Robot Mode,Loop Time,Error Status,Error Code,Error Source,Left Motor Output,Left Motor Encoder,Right Motor Output,Right Motor Encoder,Is Level,Is Stalled,Ball Detector Photoeye,Vision Enabled,Vision Teleop Control,Vision Auto Control,Vision Current State,Vision X Output,Vision NavX Error,Vision NavX Target,NavX Connection Status,NavX Displacement X,NavX Displacement Y,NavX Displacement Z,NavX Velocity X,NavX Velocity Y,NavX Velocity Z,NavX Acceleration X,NavX Acceleration Y,NavX Acceleration Z,NavX Pitch,NavX Yaw,NavX Roll,Gyro Angle,Roller Arm State,Roller Arm Actual,Roller Arm Desired,Shooter Arm State,Shooter Arm Actual,Shooter Arm Desired,Shooter State,Actual RPM Left,Desired RPM Left,Control Mode Left,Actual RPM Right,Desired RPM Right,Control Mode Right,Ball Shooter Cylinder,Ball Halo Cylinder,Scaler Motor Output,Scaler Solenoid Fire,Auto To Run,Auto Current File,Auto File Status,Auto Current Command,Auto Trimmed Command,Shooter Amps Left,Shooter Amps Right
08:29:10.620 PM 03/31/2016,Teleop Enabled,12,TRUE,-44003,<LOCATION>WPI_CameraIssue HTTP Request with Authentication.vi<CALLSTACK>WPI_CameraIssue HTTP Request with Authentication.vi< <WPI_CameraIssue Get.vi< <WPI_CameraSet Image Appearance Property.vi< <WPI_CameraSet Image Size.vi< <Vision Processing.vi< <Robot Main.vi,-0.000000,0.000000,-0.000000,0.000000,TRUE,FALSE,FALSE,TRUE,FALSE,FALSE,Disabled,0.000000,0.000000,0.000000,TRUE,-4.829712,-4.693115,0.000000,0.000000,0.000000,0.000000,0.000000,0.000000,0.010000,-0.050000,-0.270000,2.520000,-0.117185,ResetBack,1.067871,-0.000049,ResetBack,-8166.000000,-0.250000,Suck,0.000000,1818.181818,Speed,0.000000,1818.181818,Speed,Off,On,0.000000,FALSE,0,,,,,0.000000,0.000000
08:29:10.719 PM 03/31/2016,Teleop Enabled,9,TRUE,-44087,NetComm_CAN_Receive.vi:5470027<APPEND>  <b>Complete call chain:</b>      NetComm_CAN_Receive.vi:5470027      WPI_CAN_PDPReceive.vi      WPI_Power Get PDP Currents.vi      Periodic Tasks.vi      Robot Main.vi,-0.000000,0.000000,-0.000000,0.000000,TRUE,FALSE,FALSE,TRUE,FALSE,FALSE,Disabled,0.000000,0.000000,0.000000,TRUE,-4.829803,-4.692490,0.000000,-0.005341,0.029083,0.000000,0.000000,0.000000,0.010000,-0.050000,-0.270000,2.520000,-0.111343,ResetBack,0.494873,-0.000049,ResetBack,-8166.000000,-0.250000,Suck,-195.000000,1818.181818,Speed,-172.500000,1818.181818,Speed,Off,On,0.000000,FALSE,0,,,,,0.000000,0.000000
08:29:10.822 PM 03/31/2016,Teleop Enabled,13,TRUE,-44087,NetComm_CAN_Receive.vi:5470027<APPEND>  <b>Complete call chain:</b>      NetComm_CAN_Receive.vi:5470027      WPI_CAN_PDPReceive.vi      WPI_Power Get PDP Currents.vi      Periodic Tasks.vi      Robot Main.vi,-0.000000,0.000000,-0.000000,0.000000,TRUE,FALSE,FALSE,TRUE,FALSE,FALSE,Disabled,0.000000,0.000000,0.000000,TRUE,-4.829544,-4.692490,0.000000,0.028519,0.000000,0.000000,-0.062000,-0.081000,-0.036000,-0.060000,-0.200000,2.460000,-0.116317,ResetBack,0.494873,-0.000049,ResetBack,-5796.000000,-0.250000,Suck,-697.500000,1818.181818,Speed,-682.500000,1818.181818,Speed,Off,On,0.000000,FALSE,0,,,,,0.000000,0.000000
08:29:10.922 PM 03/31/2016,Teleop Enabled,11,TRUE,-44087,NetComm_CAN_Receive.vi:5470027<APPEND>  <b>Complete call chain:</b>      NetComm_CAN_Receive.vi:5470027      WPI_CAN_PDPReceive.vi      WPI_Power Get PDP Currents.vi      Periodic Tasks.vi      Robot Main.vi,-0.000000,0.000000,-0.000000,0.000000,TRUE,FALSE,FALSE,TRUE,FALSE,FALSE,Disabled,0.000000,0.000000,0.000000,TRUE,-4.828262,-4.693512,0.000000,-0.006760,-0.029541,0.000000,0.105000,0.001000,-0.015000,-0.060000,-0.170000,2.490000,-0.142491,Reset,0.475098,-0.000049,ResetBack,-3725.000000,-0.250000,Suck,-1140.000000,1818.181818,Speed,-1185.000000,1818.181818,Speed,Off,On,0.000000,FALSE,0,,,,,0.000000,0.000000
08:29:11.024 PM 03/31/2016,Teleop Enabled,9,TRUE,-44087,NetComm_CAN_Receive.vi:5470027<APPEND>  <b>Complete call chain:</b>      NetComm_CAN_Receive.vi:5470027      WPI_CAN_PDPReceive.vi      WPI_Power Get PDP Currents.vi      Periodic Tasks.vi      Robot Main.vi,-0.000000,0.000000,-0.000000,0.000000,TRUE,FALSE,FALSE,TRUE,FALSE,FALSE,Disabled,0.000000,0.000000,0.000000,TRUE,-4.828262,-4.693970,0.000000,-0.006744,-0.009750,0.000000,0.102000,-0.028000,0.102000,-0.060000,-0.100000,2.510000,-0.148701,Hold,0.612305,0.000000,ResetBack,-3123.000000,-0.250000,Suck,-1522.500000,1818.181818,Speed,-1635.000000,1818.181818,Speed,Off,On,0.000000,FALSE,0,,,,,0.000000,0.000000
08:29:11.125 PM 03/31/2016,Teleop Enabled,9,TRUE,-44087,NetComm_CAN_Receive.vi:5470027<APPEND>  <b>Complete call chain:</b>      NetComm_CAN_Receive.vi:5470027      WPI_CAN_PDPReceive.vi      WPI_Power Get PDP Currents.vi      Periodic Tasks.vi      Robot Main.vi,-0.000000,0.000000,-0.000000,0.000000,TRUE,FALSE,FALSE,TRUE,FALSE,FALSE,Disabled,0.000000,0.000000,0.000000,TRUE,-4.828079,-4.695847,0.000000,0.005524,-0.057556,0.000000,0.051000,-0.099000,0.011000,-0.060000,-0.120000,2.480000,-0.138005,Hold,0.612305,0.000000,ResetBack,-2496.000000,-0.250000,Suck,-1522.500000,1818.181818,Speed,-1830.000000,1818.181818,Speed,Off,On,0.000000,FALSE,0,,,,,0.000000,0.000000
08:29:11.225 PM 03/31/2016,Teleop Enabled,8,TRUE,-44087,NetComm_CAN_Receive.vi:5470027<APPEND>  <b>Complete call chain:</b>      NetComm_CAN_Receive.vi:5470027      WPI_CAN_PDPReceive.vi      WPI_Power Get PDP Currents.vi      Periodic Tasks.vi      Robot Main.vi,-0.000000,0.000000,-0.000000,0.000000,TRUE,FALSE,FALSE,TRUE,FALSE,FALSE,Disabled,0.000000,0.000000,0.000000,TRUE,-4.827957,-4.700943,0.000000,0.012085,-0.084091,0.000000,0.066000,-0.008000,0.030000,-0.060000,-0.140000,2.450000,-0.149889,Hold,0.889648,0.000000,ResetBack,-2496.000000,-0.250000,Suck,-1822.500000,1818.181818,Speed,-1815.000000,1818.181818,Speed,Off,On,0.000000,FALSE,0,,,,,0.000000,0.000000
08:29:11.329 PM 03/31/2016,Teleop Enabled,13,TRUE,-44087,NetComm_CAN_Receive.vi:5470027<APPEND>  <b>Complete call chain:</b>      NetComm_CAN_Receive.vi:5470027      WPI_CAN_PDPReceive.vi      WPI_Power Get PDP Currents.vi      Periodic Tasks.vi      Robot Main.vi,-0.000000,0.000000,-0.000000,0.000000,TRUE,FALSE,FALSE,TRUE,FALSE,FALSE,Disabled,0.000000,0.000000,0.000000,TRUE,-4.826630,-4.704956,0.000000,0.033066,-0.103607,0.000000,-0.068000,0.006000,-0.032000,-0.070000,-0.100000,2.440000,-0.144109,Hold,0.889160,0.000000,ResetBack,-1210.000000,-0.250000,Suck,-1785.000000,1818.181818,Speed,-1770.000000,1818.181818,Speed,Off,On,0.000000,FALSE,0,,,,,0.000000,0.000000
08:29:11.429 PM 03/31/2016,Teleop Enabled,8,TRUE,-44087,NetComm_CAN_Receive.vi:5470027<APPEND>  <b>Complete call chain:</b>      NetComm_CAN_Receive.vi:5470027      WPI_CAN_PDPReceive.vi      WPI_Power Get PDP Currents.vi      Periodic Tasks.vi      Robot Main.vi,-0.000000,0.000000,-0.000000,0.000000,TRUE,FALSE,FALSE,TRUE,FALSE,FALSE,Disabled,0.000000,0.000000,0.000000,TRUE,-4.825638,-4.709305,0.000000,0.019547,-0.078018,0.000000,-0.126000,0.063000,0.066000,-0.070000,-0.150000,2.420000,-0.158392,Hold,0.889160,0.000000,ResetBack,-1210.000000,-0.250000,Suck,-1747.500000,1818.181818,Speed,-1755.000000,1818.181818,Speed,Off,On,0.000000,FALSE,0,,,,,0.000000,0.000000
08:29:11.530 PM 03/31/2016,Teleop Enabled,10,TRUE,-44087,NetComm_CAN_Receive.vi:5470027<APPEND>  <b>Complete call chain:</b>      NetComm_CAN_Receive.vi:5470027      WPI_CAN_PDPReceive.vi      WPI_Power Get PDP Currents.vi      Periodic Tasks.vi      Robot Main.vi,-0.000000,0.000000,-0.000000,0.000000,TRUE,FALSE,FALSE,TRUE,FALSE,FALSE,Disabled,0.000000,0.000000,0.000000,TRUE,-4.825455,-4.712845,0.000000,0.002197,-0.072266,0.000000,0.005000,-0.014000,0.042000,-0.070000,-0.200000,2.440000,-0.157779,Hold,0.889160,0.000000,ResetBack,-1210.000000,-0.250000,Suck,-1732.500000,1818.181818,Speed,-1755.000000,1818.181818,Speed,Off,On,0.000000,FALSE,0,,,,,0.000000,0.000000
08:29:11.633 PM 03/31/2016,Teleop Enabled,10,TRUE,-44087,NetComm_CAN_Receive.vi:5470027<APPEND>  <b>Complete call chain:</b>      NetComm_CAN_Receive.vi:5470027      WPI_CAN_PDPReceive.vi      WPI_Power Get PDP Currents.vi      Periodic Tasks.vi      Robot Main.vi,-0.000000,0.000000,-0.000000,0.000000,TRUE,FALSE,FALSE,TRUE,FALSE,FALSE,Disabled,0.000000,0.000000,0.000000,TRUE,-4.826309,-4.711960,0.000000,-0.014328,0.023132,0.000000,0.005000,-0.014000,0.042000,-0.070000,-0.190000,2.500000,-0.155759,Hold,0.889160,0.000000,ResetBack,-34.000000,-0.250000,Suck,-1732.500000,1818.181818,Speed,-1770.000000,1818.181818,Speed,Off,On,0.000000,FALSE,0,,,,,0.000000,0.000000
08:29:11.733 PM 03/31/2016,Teleop Enabled,9,TRUE,-44087,NetComm_CAN_Receive.vi:5470027<APPEND>  <b>Complete call chain:</b>      NetComm_CAN_Receive.vi:5470027      WPI_CAN_PDPReceive.vi      WPI_Power Get PDP Currents.vi      Periodic Tasks.vi      Robot Main.vi,-0.000000,0.000000,-0.000000,0.000000,TRUE,FALSE,FALSE,TRUE,FALSE,FALSE,Disabled,0.000000,0.000000,0.000000,TRUE,-4.827469,-4.710373,0.000000,-0.040039,0.047256,0.000000,0.028000,-0.091000,0.046000,-0.070000,-0.160000,2.500000,-0.159845,Hold,0.889160,0.000000,ResetBack,-27.000000,-0.250000,Suck,-1725.000000,1818.181818,Speed,-1762.500000,1818.181818,Speed,Off,On,0.000000,FALSE,0,,,,,0.000000,0.000000
08:29:11.832 PM 03/31/2016,Teleop Enabled,12,TRUE,-44087,NetComm_CAN_Receive.vi:5470027<APPEND>  <b>Complete call chain:</b>      NetComm_CAN_Receive.vi:5470027      WPI_CAN_PDPReceive.vi      WPI_Power Get PDP Currents.vi      Periodic Tasks.vi      Robot Main.vi,-0.000000,0.000000,-0.000000,0.000000,TRUE,FALSE,FALSE,TRUE,FALSE,FALSE,Disabled,0.000000,0.000000,0.000000,TRUE,-4.831070,-4.706009,0.000000,-0.068863,0.103561,0.000000,-0.009000,0.045000,0.004000,-0.070000,-0.150000,2.460000,-0.166276,Hold,0.889160,0.000000,Reset,-27.000000,2.000000,Suck,-1732.500000,1818.181818,Speed,-1762.500000,1818.181818,Speed,Off,On,0.000000,FALSE,0,,,,,0.000000,0.000000
08:29:11.937 PM 03/31/2016,Teleop Enabled,13,TRUE,-44087,NetComm_CAN_Receive.vi:5470027<APPEND>  <b>Complete call chain:</b>      NetComm_CAN_Receive.vi:5470027      WPI_CAN_PDPReceive.vi      WPI_Power Get PDP Currents.vi      Periodic Tasks.vi      Robot Main.vi,-0.000000,0.000000,-0.000000,0.000000,TRUE,FALSE,FALSE,TRUE,FALSE,FALSE,Disabled,0.000000,0.000000,0.000000,TRUE,-4.833588,-4.701584,0.000000,-0.069275,0.118210,0.000000,0.051000,0.066000,0.068000,-0.070000,-0.130000,2.450000,-0.174348,Hold,0.889160,0.000000,Hold,-23.000000,2.000000,Suck,-1740.000000,1818.181818,Speed,-1755.000000,1818.181818,Speed,Off,On,0.000000,FALSE,0,,,,,0.000000,0.000000
08:29:12.036 PM 03/31/2016,Teleop Enabled,10,TRUE,-44087,NetComm_CAN_Receive.vi:5470027<APPEND>  <b>Complete call chain:</b>      NetComm_CAN_Receive.vi:5470027      WPI_CAN_PDPReceive.vi      WPI_Power Get PDP Currents.vi      Periodic Tasks.vi      Robot Main.vi,-0.000000,0.000000,-0.000000,0.000000,TRUE,FALSE,FALSE,TRUE,FALSE,FALSE,Disabled,0.000000,0.000000,0.000000,TRUE,-4.835999,-4.695023,0.000000,-0.043457,0.138428,0.000000,0.077000,0.003000,-0.056000,-0.060000,-0.100000,2.440000,-0.180287,Hold,0.889160,0.000000,Hold,-161.000000,2.000000,Suck,-1740.000000,1818.181818,Speed,-1755.000000,1818.181818,Speed,Off,On,0.000000,FALSE,0,,,,,0.000000,0.000000
08:29:12.139 PM 03/31/2016,Teleop Enabled,8,TRUE,-44087,NetComm_CAN_Receive.vi:5470027<APPEND>  <b>Complete call chain:</b>      NetComm_CAN_Receive.vi:5470027      WPI_CAN_PDPReceive.vi      WPI_Power Get PDP Currents.vi      Periodic Tasks.vi      Robot Main.vi,-0.000000,0.000000,-0.000000,0.000000,TRUE,FALSE,FALSE,TRUE,FALSE,FALSE,Disabled,0.000000,0.000000,0.000000,TRUE,-4.837494,-4.694519,0.000000,-0.059204,0.021118,0.000000,0.001000,-0.036000,0.013000,-0.060000,-0.150000,2.430000,-0.179423,Hold,0.889160,0.000000,Hold,-161.000000,2.000000,Suck,-1717.500000,1818.181818,Speed,-1762.500000,1818.181818,Speed,Off,On,0.000000,FALSE,0,,,,,0.000000,0.000000
08:29:12.242 PM 03/31/2016,Teleop Enabled,10,TRUE,-44087,NetComm_CAN_Receive.vi:5470027<APPEND>  <b>Complete call chain:</b>      NetComm_CAN_Receive.vi:5470027      WPI_CAN_PDPReceive.vi      WPI_Power Get PDP Currents.vi      Periodic Tasks.vi      Robot Main.vi,-0.000000,0.000000,-0.000000,0.000000,TRUE,FALSE,FALSE,TRUE,FALSE,FALSE,Disabled,0.000000,0.000000,0.000000,TRUE,-4.839874,-4.693970,0.000000,-0.061478,0.023010,0.000000,-0.010000,0.020000,0.025000,-0.060000,-0.280000,2.410000,-0.194047,Hold,0.889160,0.000000,Hold,-161.000000,2.000000,Suck,-1725.000000,1818.181818,Speed,-1762.500000,1818.181818,Speed,Off,On,0.000000,FALSE,0,,,,,0.000000,0.000000
08:29:12.342 PM 03/31/2016,Teleop Enabled,9,TRUE,-44087,NetComm_CAN_Receive.vi:5470027<APPEND>  <b>Complete call chain:</b>      NetComm_CAN_Receive.vi:5470027      WPI_CAN_PDPReceive.vi      WPI_Power Get PDP Currents.vi      Periodic Tasks.vi      Robot Main.vi,-0.000000,0.000000,-0.000000,0.000000,TRUE,FALSE,FALSE,TRUE,FALSE,FALSE,Disabled,0.000000,0.000000,0.000000,TRUE,-4.843079,-4.691620,0.000000,-0.034393,0.040817,0.000000,-0.009000,0.015000,0.003000,-0.060000,-0.290000,2.470000,-0.201400,Hold,0.889160,0.000000,Hold,-161.000000,2.000000,Suck,-1725.000000,1818.181818,Speed,-1747.500000,1818.181818,Speed,Off,On,0.000000,FALSE,0,,,,,0.000000,0.000000
08:29:12.444 PM 03/31/2016,Teleop Enabled,10,TRUE,-44087,NetComm_CAN_Receive.vi:5470027<APPEND>  <b>Complete call chain:</b>      NetComm_CAN_Receive.vi:5470027      WPI_CAN_PDPReceive.vi      WPI_Power Get PDP Currents.vi      Periodic Tasks.vi      Robot Main.vi,-0.000000,0.000000,-0.000000,0.000000,TRUE,FALSE,FALSE,TRUE,FALSE,FALSE,Disabled,0.000000,0.000000,0.000000,TRUE,-4.843704,-4.688782,0.000000,-0.002502,0.059448,0.000000,0.021000,-0.091000,-0.011000,-0.060000,-0.220000,2.460000,-0.198260,Hold,0.889160,0.000000,Hold,-161.000000,2.000000,Suck,-1725.000000,1818.181818,Speed,-1747.500000,1818.181818,Speed,Off,On,0.000000,FALSE,0,,,,,0.000000,0.000000
08:29:12.544 PM 03/31/2016,Teleop Enabled,13,TRUE,-44087,NetComm_CAN_Receive.vi:5470027<APPEND>  <b>Complete call chain:</b>      NetComm_CAN_Receive.vi:5470027      WPI_CAN_PDPReceive.vi      WPI_Power Get PDP Currents.vi      Periodic Tasks.vi      Robot Main.vi,-0.000000,0.000000,-0.000000,0.000000,TRUE,FALSE,FALSE,TRUE,FALSE,FALSE,Disabled,0.000000,0.000000,0.000000,TRUE,-4.844376,-4.686874,0.000000,-0.009964,0.012558,0.000000,0.021000,-0.091000,-0.011000,-0.060000,-0.210000,2.350000,-0.200498,Hold,0.889160,0.000000,Hold,-161.000000,2.000000,Suck,-1725.000000,1818.181818,Speed,-1747.500000,1818.181818,Speed,Off,On,0.000000,FALSE,0,,,,,0.000000,0.000000
08:29:12.648 PM 03/31/2016,Teleop Enabled,11,TRUE,-44087,NetComm_CAN_Receive.vi:5470027<APPEND>  <b>Complete call chain:</b>      NetComm_CAN_Receive.vi:5470027      WPI_CAN_PDPReceive.vi      WPI_Power Get PDP Currents.vi      Periodic Tasks.vi      Robot Main.vi,-0.000000,0.000000,-0.000000,0.000000,TRUE,FALSE,FALSE,TRUE,FALSE,FALSE,Disabled,0.000000,0.000000,0.000000,TRUE,-4.844849,-4.685501,0.000000,0.003723,0.039246,0.000000,-0.004000,-0.070000,-0.089000,-0.060000,-0.190000,2.360000,-0.211518,Hold,0.889160,0.000000,Hold,-161.000000,2.000000,Suck,-1747.500000,1818.181818,Speed,-1747.500000,1818.181818,Speed,Off,On,0.000000,FALSE,0,,,,,0.000000,0.000000
08:29:12.748 PM 03/31/2016,Teleop Enabled,11,TRUE,-44087,NetComm_CAN_Receive.vi:5470027<APPEND>  <b>Complete call chain:</b>      NetComm_CAN_Receive.vi:5470027      WPI_CAN_PDPReceive.vi      WPI_Power Get PDP Currents.vi      Periodic Tasks.vi      Robot Main.vi,-0.000000,0.000000,-0.000000,0.000000,TRUE,FALSE,FALSE,TRUE,FALSE,FALSE,Disabled,0.000000,0.000000,0.000000,TRUE,-4.845032,-4.685074,0.000000,-0.009354,-0.013733,0.000000,0.033000,0.003000,-0.015000,-0.060000,-0.200000,2.330000,-0.205782,Hold,0.889160,0.000000,Hold,-161.000000,2.000000,Suck,-1740.000000,1818.181818,Speed,-1740.000000,1818.181818,Speed,Off,On,0.000000,FALSE,0,,,,,0.000000,0.000000
08:29:12.848 PM 03/31/2016,Teleop Enabled,8,TRUE,-44087,NetComm_CAN_Receive.vi:5470027<APPEND>  <b>Complete call chain:</b>      NetComm_CAN_Receive.vi:5470027      WPI_CAN_PDPReceive.vi      WPI_Power Get PDP Currents.vi      Periodic Tasks.vi      Robot Main.vi,-0.000000,0.000000,-0.000000,0.000000,TRUE,FALSE,FALSE,TRUE,FALSE,FALSE,Disabled,0.000000,0.000000,0.000000,TRUE,-4.845551,-4.685364,0.000000,-0.015305,-0.026093,0.000000,-0.050000,-0.012000,0.036000,-0.060000,-0.230000,2.310000,-0.210120,Hold,0.889160,0.000000,Hold,-161.000000,2.000000,Suck,-1732.500000,1818.181818,Speed,-1740.000000,1818.181818,Speed,Off,On,0.000000,FALSE,0,,,,,0.000000,0.000000
08:29:12.948 PM 03/31/2016,Teleop Enabled,12,TRUE,-44087,NetComm_CAN_Receive.vi:5470027<APPEND>  <b>Complete call chain:</b>      NetComm_CAN_Receive.vi:5470027      WPI_CAN_PDPReceive.vi      WPI_Power Get PDP Currents.vi      Periodic Tasks.vi      Robot Main.vi,-0.000000,0.000000,-0.000000,0.000000,TRUE,FALSE,FALSE,TRUE,FALSE,FALSE,Disabled,0.000000,0.000000,0.000000,TRUE,-4.847412,-4.687363,0.000000,-0.052063,-0.049469,0.000000,-0.082000,0.054000,0.086000,-0.050000,-0.310000,2.220000,-0.213735,Hold,0.889160,0.000000,Hold,-161.000000,2.000000,Suck,-1732.500000,1818.181818,Speed,-1755.000000,1818.181818,Speed,Off,On,0.000000,FALSE,0,,,,,0.000000,0.000000
08:29:13.048 PM 03/31/2016,Teleop Enabled,9,TRUE,-44087,NetComm_CAN_Receive.vi:5470027<APPEND>  <b>Complete call chain:</b>      NetComm_CAN_Receive.vi:5470027      WPI_CAN_PDPReceive.vi      WPI_Power Get PDP Currents.vi      Periodic Tasks.vi      Robot Main.vi,-0.000000,0.000000,-0.000000,0.000000,TRUE,FALSE,FALSE,TRUE,FALSE,FALSE,Disabled,0.000000,0.000000,0.000000,TRUE,-4.850128,-4.690903,0.000000,0.000000,-0.037415,0.000000,-0.082000,0.054000,0.086000,-0.050000,-0.300000,2.310000,-0.200116,Hold,0.889160,0.000000,Hold,-161.000000,2.000000,Suck,-1725.000000,1818.181818,Speed,-1762.500000,1818.181818,Speed,Off,On,0.000000,FALSE,0,,,,,0.000000,0.000000
08:29:13.151 PM 03/31/2016,Teleop Enabled,13,TRUE,-44087,NetComm_CAN_Receive.vi:5470027<APPEND>  <b>Complete call chain:</b>      NetComm_CAN_Receive.vi:5470027      WPI_CAN_PDPReceive.vi      WPI_Power Get PDP Currents.vi      Periodic Tasks.vi      Robot Main.vi,-0.000000,0.000000,-0.000000,0.000000,TRUE,FALSE,FALSE,TRUE,FALSE,FALSE,Disabled,0.000000,0.000000,0.000000,TRUE,-4.850708,-4.692413,0.000000,-0.026840,-0.026291,0.000000,0.001000,0.053000,0.104000,-0.050000,-0.340000,2.320000,-0.205555,Hold,0.889160,0.000000,Hold,-161.000000,2.000000,Suck,-1732.500000,1818.181818,Speed,-1755.000000,1818.181818,Speed,Off,On,0.000000,FALSE,0,,,,,0.000000,0.000000
08:29:13.251 PM 03/31/2016,Teleop Enabled,10,TRUE,-44087,NetComm_CAN_Receive.vi:5470027<APPEND>  <b>Complete call chain:</b>      NetComm_CAN_Receive.vi:5470027      WPI_CAN_PDPReceive.vi      WPI_Power Get PDP Currents.vi      Periodic Tasks.vi      Robot Main.vi,-0.000000,0.000000,-0.000000,0.000000,TRUE,FALSE,FALSE,TRUE,FALSE,FALSE,Disabled,0.000000,0.000000,0.000000,TRUE,-4.852188,-4.692261,0.000000,-0.063553,0.016525,0.000000,-0.014000,0.026000,-0.027000,-0.060000,-0.230000,2.420000,-0.216754,Hold,0.889160,0.000000,Hold,-161.000000,2.000000,Suck,-1740.000000,1818.181818,Speed,-1747.500000,1818.181818,Speed,Off,On,0.000000,FALSE,0,,,,,0.000000,0.000000
08:29:13.352 PM 03/31/2016,Teleop Enabled,10,TRUE,-44087,NetComm_CAN_Receive.vi:5470027<APPEND>  <b>Complete call chain:</b>      NetComm_CAN_Receive.vi:5470027      WPI_CAN_PDPReceive.vi      WPI_Power Get PDP Currents.vi      Periodic Tasks.vi      Robot Main.vi,-0.000000,0.000000,-0.000000,0.000000,TRUE,FALSE,FALSE,TRUE,FALSE,FALSE,Disabled,0.000000,0.000000,0.000000,TRUE,-4.855392,-4.690796,0.000000,-0.059937,0.032974,0.000000,-0.033000,0.008000,-0.062000,-0.060000,-0.220000,2.480000,-0.217380,Hold,0.889160,0.000000,Hold,-161.000000,2.000000,Suck,-1717.500000,1818.181818,Speed,-1755.000000,1818.181818,Speed,Off,On,0.000000,FALSE,0,,,,,0.000000,0.000000
08:29:13.452 PM 03/31/2016,Teleop Enabled,11,TRUE,-44087,NetComm_CAN_Receive.vi:5470027<APPEND>  <b>Complete call chain:</b>      NetComm_CAN_Receive.vi:5470027      WPI_CAN_PDPReceive.vi      WPI_Power Get PDP Currents.vi      Periodic Tasks.vi      Robot Main.vi,-0.000000,0.000000,-0.000000,0.000000,TRUE,FALSE,FALSE,TRUE,FALSE,FALSE,Disabled,0.000000,0.000000,0.000000,TRUE,-4.860107,-4.689713,0.000000,-0.072922,0.005020,0.000000,-0.063000,0.072000,0.077000,-0.060000,-0.240000,2.440000,-0.205920,Hold,0.889160,0.000000,Hold,-161.000000,2.000000,Suck,-1717.500000,1818.181818,Speed,-1762.500000,1818.181818,Speed,Off,On,0.000000,FALSE,0,,,,,0.000000,0.000000
08:29:13.552 PM 03/31/2016,Teleop Enabled,9,TRUE,-44087,NetComm_CAN_Receive.vi:5470027<APPEND>  <b>Complete call chain:</b>      NetComm_CAN_Receive.vi:5470027      WPI_CAN_PDPReceive.vi      WPI_Power Get PDP Currents.vi      Periodic Tasks.vi      Robot Main.vi,-0.000000,0.000000,-0.000000,0.000000,TRUE,FALSE,FALSE,TRUE,FALSE,FALSE,Disabled,0.000000,0.000000,0.000000,TRUE,-4.862976,-4.690155,0.000000,-0.070068,-0.026978,0.000000,-0.166000,-0.023000,0.088000,-0.060000,-0.310000,2.420000,-0.205442,Hold,0.889160,0.000000,Hold,-161.000000,2.000000,Suck,-1747.500000,1818.181818,Speed,-1755.000000,1818.181818,Speed,Off,On,0.000000,FALSE,0,,,,,0.000000,0.000000
08:29:13.654 PM 03/31/2016,Teleop Enabled,11,TRUE,-44087,NetComm_CAN_Receive.vi:5470027<APPEND>  <b>Complete call chain:</b>      NetComm_CAN_Receive.vi:5470027      WPI_CAN_PDPReceive.vi      WPI_Power Get PDP Currents.vi      Periodic Tasks.vi      Robot Main.vi,-0.000000,0.000000,-0.000000,0.000000,TRUE,FALSE,FALSE,TRUE,FALSE,FALSE,Disabled,0.000000,0.000000,0.000000,TRUE,-4.869568,-4.694168,0.000000,-0.118668,-0.081970,0.000000,-0.166000,-0.023000,0.088000,-0.060000,-0.340000,2.380000,-0.222420,Hold,0.889160,0.000000,Hold,-161.000000,2.000000,Suck,-1732.500000,1818.181818,Speed,-1755.000000,1818.181818,Speed,Off,On,0.000000,FALSE,0,,,,,0.000000,0.000000
08:29:13.754 PM 03/31/2016,Teleop Enabled,10,TRUE,-44087,NetComm_CAN_Receive.vi:5470027<APPEND>  <b>Complete call chain:</b>      NetComm_CAN_Receive.vi:5470027      WPI_CAN_PDPReceive.vi      WPI_Power Get PDP Currents.vi      Periodic Tasks.vi      Robot Main.vi,-0.000000,0.000000,-0.000000,0.000000,TRUE,FALSE,FALSE,TRUE,FALSE,FALSE,Disabled,0.000000,0.000000,0.000000,TRUE,-4.873199,-4.698380,0.000000,-0.073013,-0.111450,0.000000,0.066000,-0.087000,-0.006000,-0.060000,-0.280000,2.420000,-0.208829,Hold,0.889160,0.000000,Hold,-161.000000,2.000000,Suck,-1725.000000,1818.181818,Speed,-1762.500000,1818.181818,Speed,Off,On,0.000000,FALSE,0,,,,,0.000000,0.000000
08:29:13.855 PM 03/31/2016,Teleop Enabled,10,TRUE,-44087,NetComm_CAN_Receive.vi:5470027<APPEND>  <b>Complete call chain:</b>      NetComm_CAN_Receive.vi:5470027      WPI_CAN_PDPReceive.vi      WPI_Power Get PDP Currents.vi      Periodic Tasks.vi      Robot Main.vi,-0.000000,0.000000,-0.000000,0.000000,TRUE,FALSE,FALSE,TRUE,FALSE,FALSE,Disabled,0.000000,0.000000,0.000000,TRUE,-4.876938,-4.701752,0.000000,-0.078918,-0.002991,0.000000,-0.083000,-0.049000,-0.030000,-0.060000,-0.250000,2.530000,-0.209328,Hold,0.889160,0.000000,Hold,-161.000000,2.000000,Suck,-1725.000000,1818.181818,Speed,-1762.500000,1818.181818,Speed,Off,On,0.000000,FALSE,0,,,,,0.000000,0.000000
08:29:13.954 PM 03/31/2016,Teleop Enabled,10,TRUE,-44087,NetComm_CAN_Receive.vi:5470027<APPEND>  <b>Complete call chain:</b>      NetComm_CAN_Receive.vi:5470027      WPI_CAN_PDPReceive.vi      WPI_Power Get PDP Currents.vi      Periodic Tasks.vi      Robot Main.vi,-0.000000,0.000000,-0.000000,0.000000,TRUE,FALSE,FALSE,TRUE,FALSE,FALSE,Disabled,0.000000,0.000000,0.000000,TRUE,-4.881256,-4.703415,0.000000,-0.072952,-0.053345,0.000000,-0.066000,-0.024000,0.000000,-0.060000,-0.230000,2.480000,-0.203290,Hold,0.889160,0.000000,Hold,-161.000000,2.000000,Suck,-1732.500000,1818.181818,Speed,-1755.000000,1818.181818,Speed,Off,On,0.000000,FALSE,0,,,,,0.000000,0.000000
08:29:14.055 PM 03/31/2016,Teleop Enabled,11,TRUE,-44087,NetComm_CAN_Receive.vi:5470027<APPEND>  <b>Complete call chain:</b>      NetComm_CAN_Receive.vi:5470027      WPI_CAN_PDPReceive.vi      WPI_Power Get PDP Currents.vi      Periodic Tasks.vi      Robot Main.vi,-0.000000,0.000000,-0.000000,0.000000,TRUE,FALSE,FALSE,TRUE,FALSE,FALSE,Disabled,0.000000,0.000000,0.000000,TRUE,-4.885086,-4.706116,0.000000,-0.082245,-0.053345,0.000000,-0.053000,0.013000,-0.025000,-0.060000,-0.290000,2.450000,-0.205669,Hold,0.889160,0.000000,Hold,-161.000000,2.000000,Suck,-1732.500000,1818.181818,Speed,-1755.000000,1818.181818,Speed,Off,On,0.000000,FALSE,0,,,,,0.000000,0.000000
08:29:14.155 PM 03/31/2016,Teleop Enabled,9,TRUE,-44087,NetComm_CAN_Receive.vi:5470027<APPEND>  <b>Complete call chain:</b>      NetComm_CAN_Receive.vi:5470027      WPI_CAN_PDPReceive.vi      WPI_Power Get PDP Currents.vi      Periodic Tasks.vi      Robot Main.vi,-0.000000,0.000000,-0.000000,0.000000,TRUE,FALSE,FALSE,TRUE,FALSE,FALSE,Disabled,0.000000,0.000000,0.000000,TRUE,-4.889847,-4.705765,0.000000,-0.085281,-0.004181,0.000000,0.091000,-0.004000,0.036000,-0.060000,-0.290000,2.470000,-0.199531,Hold,0.889160,0.000000,Hold,-161.000000,2.000000,Suck,-1747.500000,1818.181818,Speed,-1755.000000,1818.181818,Speed,Off,On,0.000000,FALSE,0,,,,,0.000000,0.000000
08:29:14.255 PM 03/31/2016,Teleop Enabled,11,TRUE,-44087,NetComm_CAN_Receive.vi:5470027<APPEND>  <b>Complete call chain:</b>      NetComm_CAN_Receive.vi:5470027      WPI_CAN_PDPReceive.vi      WPI_Power Get PDP Currents.vi      Periodic Tasks.vi      Robot Main.vi,-0.000000,0.000000,-0.000000,0.000000,TRUE,FALSE,FALSE,TRUE,FALSE,FALSE,Disabled,0.000000,0.000000,0.000000,TRUE,-4.894669,-4.706390,0.000000,-0.076843,-0.029831,0.000000,0.099000,-0.018000,-0.014000,-0.060000,-0.290000,2.490000,-0.191664,Hold,0.889160,0.000000,Hold,-161.000000,2.000000,Suck,-1732.500000,1818.181818,Speed,-1762.500000,1818.181818,Speed,Off,On,0.000000,FALSE,0,,,,,0.000000,0.000000
08:29:14.354 PM 03/31/2016,Teleop Enabled,9,TRUE,-44087,NetComm_CAN_Receive.vi:5470027<APPEND>  <b>Complete call chain:</b>      NetComm_CAN_Receive.vi:5470027      WPI_CAN_PDPReceive.vi      WPI_Power Get PDP Currents.vi      Periodic Tasks.vi      Robot Main.vi,-0.000000,0.000000,-0.000000,0.000000,TRUE,FALSE,FALSE,TRUE,FALSE,FALSE,Disabled,0.000000,0.000000,0.000000,TRUE,-4.897507,-4.706467,0.000000,-0.062454,-0.007172,0.000000,0.030000,-0.069000,0.000000,-0.060000,-0.340000,2.480000,-0.196456,Hold,0.889160,0.000000,Hold,-161.000000,2.000000,Suck,-1710.000000,1818.181818,Speed,-1762.500000,1818.181818,Speed,Off,On,0.000000,FALSE,0,,,,,0.000000,0.000000
08:29:14.455 PM 03/31/2016,Teleop Enabled,9,TRUE,-44087,NetComm_CAN_Receive.vi:5470027<APPEND>  <b>Complete call chain:</b>      NetComm_CAN_Receive.vi:5470027      WPI_CAN_PDPReceive.vi      WPI_Power Get PDP Currents.vi      Periodic Tasks.vi      Robot Main.vi,-0.000000,0.000000,-0.000000,0.000000,TRUE,FALSE,FALSE,TRUE,FALSE,FALSE,Disabled,0.000000,0.000000,0.000000,TRUE,-4.900497,-4.707275,0.000000,-0.037933,-0.028183,0.000000,0.030000,-0.069000,0.000000,-0.060000,-0.240000,2.510000,-0.195413,Hold,0.889160,0.000000,Hold,-161.000000,2.000000,Suck,-1717.500000,1818.181818,Speed,-1755.000000,1818.181818,Speed,Off,On,0.000000,FALSE,0,,,,,0.000000,0.000000
08:29:14.557 PM 03/31/2016,Teleop Enabled,6,TRUE,-44087,NetComm_CAN_Receive.vi:5470027<APPEND>  <b>Complete call chain:</b>      NetComm_CAN_Receive.vi:5470027      WPI_CAN_PDPReceive.vi      WPI_Power Get PDP Currents.vi      Periodic Tasks.vi      Robot Main.vi,-0.000000,0.000000,-0.000000,0.000000,TRUE,FALSE,FALSE,TRUE,FALSE,FALSE,Disabled,0.000000,0.000000,0.000000,TRUE,-4.900497,-4.707275,0.000000,-0.037933,-0.028183,0.000000,0.004000,0.015000,0.048000,-0.060000,-0.240000,2.510000,-0.201930,Hold,0.889160,0.000000,Hold,-161.000000,2.000000,Suck,-1732.500000,1818.181818,Speed,-1755.000000,1818.181818,Speed,Off,On,0.000000,FALSE,0,,,,,0.000000,0.000000
08:29:14.657 PM 03/31/2016,Teleop Enabled,9,TRUE,-44087,NetComm_CAN_Receive.vi:5470027<APPEND>  <b>Complete call chain:</b>      NetComm_CAN_Receive.vi:5470027      WPI_CAN_PDPReceive.vi      WPI_Power Get PDP Currents.vi      Periodic Tasks.vi      Robot Main.vi,-0.000000,0.000000,-0.000000,0.000000,TRUE,FALSE,FALSE,TRUE,FALSE,FALSE,Disabled,0.000000,0.000000,0.000000,TRUE,-4.901245,-4.707489,0.000000,-0.000885,-0.004898,0.000000,-0.106000,0.059000,-0.019000,-0.070000,-0.120000,2.600000,-0.211197,Hold,0.889160,0.000000,Hold,-161.000000,2.000000,Suck,-1710.000000,1818.181818,Speed,-1740.000000,1818.181818,Speed,Off,On,0.000000,FALSE,0,,,,,0.000000,0.000000
08:29:14.757 PM 03/31/2016,Teleop Enabled,9,TRUE,-44087,NetComm_CAN_Receive.vi:5470027<APPEND>  <b>Complete call chain:</b>      NetComm_CAN_Receive.vi:5470027      WPI_CAN_PDPReceive.vi      WPI_Power Get PDP Currents.vi      Periodic Tasks.vi      Robot Main.vi,-0.000000,0.000000,-0.000000,0.000000,TRUE,FALSE,FALSE,TRUE,FALSE,FALSE,Disabled,0.000000,0.000000,0.000000,TRUE,-4.901901,-4.711487,0.000000,-0.026001,-0.078827,0.000000,0.134000,-0.089000,0.094000,-0.070000,-0.170000,2.600000,-0.211197,Hold,0.889160,0.000000,Hold,-161.000000,2.000000,Suck,-1725.000000,1818.181818,Speed,-1740.000000,1818.181818,Speed,Off,On,0.000000,FALSE,0,,,,,0.000000,0.000000
08:29:14.857 PM 03/31/2016,Teleop Enabled,9,TRUE,-44087,NetComm_CAN_Receive.vi:5470027<APPEND>  <b>Complete call chain:</b>      NetComm_CAN_Receive.vi:5470027      WPI_CAN_PDPReceive.vi      WPI_Power Get PDP Currents.vi      Periodic Tasks.vi      Robot Main.vi,-0.000000,0.000000,-0.000000,0.000000,TRUE,FALSE,FALSE,TRUE,FALSE,FALSE,Disabled,0.000000,0.000000,0.000000,TRUE,-4.902847,-4.715134,0.000000,-0.020050,-0.084686,0.000000,-0.037000,-0.062000,-0.028000,-0.070000,-0.140000,2.630000,-0.218575,Hold,0.889160,0.000000,Hold,-161.000000,2.000000,Suck,-1725.000000,1818.181818,Speed,-1740.000000,1818.181818,Speed,Off,On,0.000000,FALSE,0,,,,,0.000000,0.000000
08:29:14.957 PM 03/31/2016,Teleop Enabled,7,TRUE,-44087,NetComm_CAN_Receive.vi:5470027<APPEND>  <b>Complete call chain:</b>      NetComm_CAN_Receive.vi:5470027      WPI_CAN_PDPReceive.vi      WPI_Power Get PDP Currents.vi      Periodic Tasks.vi      Robot Main.vi,-0.000000,0.000000,-0.000000,0.000000,TRUE,FALSE,FALSE,TRUE,FALSE,FALSE,Disabled,0.000000,0.000000,0.000000,TRUE,-4.903549,-4.719147,0.000000,-0.004562,-0.105423,0.000000,-0.017000,-0.034000,-0.020000,-0.070000,-0.110000,2.610000,-0.215473,Hold,0.889160,0.000000,Hold,-161.000000,2.000000,Suck,-1747.500000,1818.181818,Speed,-1755.000000,1818.181818,Speed,Off,On,0.000000,FALSE,0,,,,,0.000000,0.000000
08:29:15.059 PM 03/31/2016,Teleop Enabled,9,TRUE,-44087,NetComm_CAN_Receive.vi:5470027<APPEND>  <b>Complete call chain:</b>      NetComm_CAN_Receive.vi:5470027      WPI_CAN_PDPReceive.vi      WPI_Power Get PDP Currents.vi      Periodic Tasks.vi      Robot Main.vi,-0.000000,0.000000,-0.000000,0.000000,TRUE,FALSE,FALSE,TRUE,FALSE,FALSE,Disabled,0.000000,0.000000,0.000000,TRUE,-4.903397,-4.722290,0.000000,0.027618,0.000000,0.000000,-0.078000,0.049000,0.000000,-0.070000,-0.080000,2.630000,-0.215738,Hold,0.889160,0.000000,Hold,-161.000000,2.000000,Suck,-1740.000000,1818.181818,Speed,-1762.500000,1818.181818,Speed,Off,On,0.000000,FALSE,0,,,,,0.000000,0.000000
08:29:15.160 PM 03/31/2016,Teleop Enabled,9,TRUE,-44087,NetComm_CAN_Receive.vi:5470027<APPEND>  <b>Complete call chain:</b>      NetComm_CAN_Receive.vi:5470027      WPI_CAN_PDPReceive.vi      WPI_Power Get PDP Currents.vi      Periodic Tasks.vi      Robot Main.vi,-0.000000,0.000000,-0.000000,0.000000,TRUE,FALSE,FALSE,TRUE,FALSE,FALSE,Disabled,0.000000,0.000000,0.000000,TRUE,-4.902100,-4.721786,0.000000,0.021759,0.011765,0.000000,0.137000,-0.026000,0.077000,-0.070000,-0.050000,2.750000,-0.221986,Hold,0.889160,0.000000,Hold,-161.000000,2.000000,Suck,-1732.500000,1818.181818,Speed,-1762.500000,1818.181818,Speed,Off,On,0.000000,FALSE,0,,,,,0.000000,0.000000
08:29:15.260 PM 03/31/2016,Teleop Enabled,10,TRUE,-44087,NetComm_CAN_Receive.vi:5470027<APPEND>  <b>Complete call chain:</b>      NetComm_CAN_Receive.vi:5470027      WPI_CAN_PDPReceive.vi      WPI_Power Get PDP Currents.vi      Periodic Tasks.vi      Robot Main.vi,-0.000000,0.000000,-0.000000,0.000000,TRUE,FALSE,FALSE,TRUE,FALSE,FALSE,Disabled,0.000000,0.000000,0.000000,TRUE,-4.898514,-4.720261,0.000000,0.078033,0.024445,0.000000,-0.003000,-0.043000,0.064000,-0.070000,-0.010000,2.750000,-0.217002,Hold,0.889160,0.000000,Hold,-161.000000,2.000000,Suck,-1747.500000,1818.181818,Speed,-1762.500000,1818.181818,Speed,Off,On,0.000000,FALSE,0,,,,,0.000000,0.000000
08:29:15.360 PM 03/31/2016,Teleop Enabled,9,TRUE,-44087,NetComm_CAN_Receive.vi:5470027<APPEND>  <b>Complete call chain:</b>      NetComm_CAN_Receive.vi:5470027      WPI_CAN_PDPReceive.vi      WPI_Power Get PDP Currents.vi      Periodic Tasks.vi      Robot Main.vi,-0.000000,0.000000,-0.000000,0.000000,TRUE,FALSE,FALSE,TRUE,FALSE,FALSE,Disabled,0.000000,0.000000,0.000000,TRUE,-4.895218,-4.719666,0.000000,0.064133,0.004913,0.000000,-0.068000,-0.075000,0.035000,-0.070000,0.000000,2.740000,-0.218059,Hold,0.889160,0.000000,Hold,-161.000000,2.000000,Suck,-1762.500000,1818.181818,Speed,-1770.000000,1818.181818,Speed,Off,On,0.000000,FALSE,0,,,,,0.000000,0.000000
08:29:15.461 PM 03/31/2016,Teleop Enabled,9,TRUE,-44087,NetComm_CAN_Receive.vi:5470027<APPEND>  <b>Complete call chain:</b>      NetComm_CAN_Receive.vi:5470027      WPI_CAN_PDPReceive.vi      WPI_Power Get PDP Currents.vi      Periodic Tasks.vi      Robot Main.vi,-0.000000,0.000000,-0.000000,0.000000,TRUE,FALSE,FALSE,TRUE,FALSE,FALSE,Disabled,0.000000,0.000000,0.000000,TRUE,-4.892059,-4.719696,0.000000,0.051483,0.006577,0.000000,-0.128000,0.078000,-0.111000,-0.070000,-0.030000,2.710000,-0.222861,Hold,0.889160,0.000000,Hold,-161.000000,2.000000,Suck,-1747.500000,1818.181818,Speed,-1762.500000,1818.181818,Speed,Off,On,0.000000,FALSE,0,,,,,0.000000,0.000000
08:29:15.562 PM 03/31/2016,Teleop Enabled,11,TRUE,-44087,NetComm_CAN_Receive.vi:5470027<APPEND>  <b>Complete call chain:</b>      NetComm_CAN_Receive.vi:5470027      WPI_CAN_PDPReceive.vi      WPI_Power Get PDP Currents.vi      Periodic Tasks.vi      Robot Main.vi,-0.000000,0.000000,-0.000000,0.000000,TRUE,FALSE,FALSE,TRUE,FALSE,FALSE,Disabled,0.000000,0.000000,0.000000,TRUE,-4.890030,-4.718689,0.000000,0.056870,0.023590,0.000000,-0.090000,-0.022000,0.074000,-0.070000,-0.050000,2.720000,-0.243323,Hold,0.889160,51.000000,Hold,-161.000000,2.000000,Suck,-1732.500000,1818.181818,Speed,-1755.000000,1818.181818,Speed,Off,On,0.000000,FALSE,0,,,,,0.000000,0.000000
08:29:15.663 PM 03/31/2016,Teleop Enabled,10,TRUE,-44087,NetComm_CAN_Receive.vi:5470027<APPEND>  <b>Complete call chain:</b>      NetComm_CAN_Receive.vi:5470027      WPI_CAN_PDPReceive.vi      WPI_Power Get PDP Currents.vi      Periodic Tasks.vi      Robot Main.vi,-0.000000,0.000000,-0.000000,0.000000,TRUE,FALSE,FALSE,TRUE,FALSE,FALSE,Disabled,0.000000,0.000000,0.000000,TRUE,-4.887436,-4.716980,0.000000,0.048859,0.019196,0.000000,0.026000,0.030000,0.094000,-0.060000,-0.110000,2.780000,-0.245816,Hold,4.580566,51.000000,Hold,-161.000000,143360.000000,Suck,-1717.500000,1818.181818,Speed,-1747.500000,1818.181818,Speed,Off,On,0.000000,FALSE,0,,,,,0.000000,0.000000
08:29:15.764 PM 03/31/2016,Teleop Enabled,11,TRUE,-44087,NetComm_CAN_Receive.vi:5470027<APPEND>  <b>Complete call chain:</b>      NetComm_CAN_Receive.vi:5470027      WPI_CAN_PDPReceive.vi      WPI_Power Get PDP Currents.vi      Periodic Tasks.vi      Robot Main.vi,-0.000000,0.006417,-0.000000,0.000000,TRUE,FALSE,FALSE,TRUE,FALSE,FALSE,Disabled,0.000000,0.000000,0.000000,TRUE,-4.885498,-4.716370,0.000000,0.031754,-0.005402,0.000000,0.011000,0.037000,0.025000,-0.060000,-0.080000,2.790000,-0.239402,Hold,8.691406,51.000000,Hold,-161.000000,143360.000000,Suck,-1725.000000,1818.181818,Speed,-1747.500000,1818.181818,Speed,Off,On,0.000000,FALSE,0,,,,,0.000000,0.000000
08:29:15.864 PM 03/31/2016,Teleop Enabled,10,TRUE,-44087,NetComm_CAN_Receive.vi:5470027<APPEND>  <b>Complete call chain:</b>      NetComm_CAN_Receive.vi:5470027      WPI_CAN_PDPReceive.vi      WPI_Power Get PDP Currents.vi      Periodic Tasks.vi      Robot Main.vi,-0.000000,0.006417,-0.000000,0.025667,TRUE,FALSE,FALSE,TRUE,FALSE,FALSE,Disabled,0.000000,0.000000,0.000000,TRUE,-4.885498,-4.717026,0.000000,-0.011566,-0.030106,0.000000,0.111000,-0.044000,0.063000,-0.110000,0.030000,2.780000,-0.269869,Hold,14.337158,51.000000,Hold,-10100.000000,143360.000000,Suck,-1717.500000,1818.181818,Speed,-1762.500000,1818.181818,Speed,Off,On,0.000000,FALSE,0,,,,,0.000000,0.000000
08:29:15.966 PM 03/31/2016,Teleop Enabled,9,TRUE,-44087,NetComm_CAN_Receive.vi:5470027<APPEND>  <b>Complete call chain:</b>      NetComm_CAN_Receive.vi:5470027      WPI_CAN_PDPReceive.vi      WPI_Power Get PDP Currents.vi      Periodic Tasks.vi      Robot Main.vi,-0.000000,0.006417,-0.000000,0.044917,TRUE,FALSE,FALSE,TRUE,FALSE,FALSE,Disabled,0.000000,0.000000,0.000000,TRUE,-4.885223,-4.717651,0.000000,-0.007111,-0.031464,0.000000,-0.060000,0.012000,-0.039000,-0.100000,-0.040000,2.700000,-0.283818,Hold,14.337158,51.000000,Hold,-21522.000000,143360.000000,Suck,-1725.000000,1818.181818,Speed,-1770.000000,1818.181818,Speed,Off,On,0.000000,FALSE,0,,,,,0.000000,0.000000
08:29:16.070 PM 03/31/2016,Teleop Enabled,14,TRUE,-44087,NetComm_CAN_Receive.vi:5470027<APPEND>  <b>Complete call chain:</b>      NetComm_CAN_Receive.vi:5470027      WPI_CAN_PDPReceive.vi      WPI_Power Get PDP Currents.vi      Periodic Tasks.vi      Robot Main.vi,-0.000000,0.006417,-0.000000,0.044917,TRUE,FALSE,FALSE,TRUE,FALSE,FALSE,Disabled,0.000000,0.000000,0.000000,TRUE,-4.887115,-4.721069,0.000000,-0.059402,-0.084106,0.000000,0.010000,-0.003000,-0.044000,-0.060000,0.050000,2.750000,-0.251004,Hold,27.311768,51.000000,Hold,-31641.000000,143360.000000,Suck,-1740.000000,1818.181818,Speed,-1762.500000,1818.181818,Speed,Off,On,0.000000,FALSE,0,,,,,0.000000,0.000000
08:29:16.171 PM 03/31/2016,Teleop Enabled,10,TRUE,-44087,NetComm_CAN_Receive.vi:5470027<APPEND>  <b>Complete call chain:</b>      NetComm_CAN_Receive.vi:5470027      WPI_CAN_PDPReceive.vi      WPI_Power Get PDP Currents.vi      Periodic Tasks.vi      Robot Main.vi,-0.000000,0.006417,-0.000000,0.083416,TRUE,FALSE,FALSE,TRUE,FALSE,FALSE,Disabled,0.000000,0.000000,0.000000,TRUE,-4.889191,-4.726227,0.000000,-0.022186,-0.120865,0.000000,-0.005000,0.072000,0.062000,-0.140000,0.000000,2.740000,-0.314250,Hold,35.854736,51.000000,Hold,-42169.000000,143360.000000,Suck,-1740.000000,1818.181818,Speed,-1755.000000,1818.181818,Speed,Off,On,0.000000,FALSE,0,,,,,0.000000,0.000000
08:29:16.272 PM 03/31/2016,Teleop Enabled,9,TRUE,-44087,NetComm_CAN_Receive.vi:5470027<APPEND>  <b>Complete call chain:</b>      NetComm_CAN_Receive.vi:5470027      WPI_CAN_PDPReceive.vi      WPI_Power Get PDP Currents.vi      Periodic Tasks.vi      Robot Main.vi,-0.000000,0.006417,-0.000000,0.077000,TRUE,FALSE,FALSE,TRUE,FALSE,FALSE,Disabled,0.000000,0.000000,0.000000,TRUE,-4.889587,-4.732086,0.000000,-0.008209,-0.127762,0.000000,-0.075000,-0.004000,-0.030000,-0.130000,0.120000,2.820000,-0.318753,Hold,45.753906,51.000000,Hold,-53430.000000,143360.000000,Suck,-1732.500000,1818.181818,Speed,-1755.000000,1818.181818,Speed,Off,On,0.000000,FALSE,0,,,,,0.000000,0.000000
08:29:16.377 PM 03/31/2016,Teleop Enabled,9,TRUE,-44087,NetComm_CAN_Receive.vi:5470027<APPEND>  <b>Complete call chain:</b>      NetComm_CAN_Receive.vi:5470027      WPI_CAN_PDPReceive.vi      WPI_Power Get PDP Currents.vi      Periodic Tasks.vi      Robot Main.vi,-0.000000,0.006417,-0.000000,0.064167,TRUE,FALSE,FALSE,TRUE,FALSE,FALSE,Disabled,0.000000,0.000000,0.000000,TRUE,-4.891983,-4.733856,0.000000,-0.073624,-0.019745,0.000000,-0.022000,0.025000,-0.090000,-0.130000,-0.460000,2.770000,-0.345041,Hold,45.753906,51.000000,Hold,-65779.000000,143360.000000,Suck,-1725.000000,1818.181818,Speed,-1755.000000,1818.181818,Speed,Off,On,0.000000,FALSE,0,,,,,0.000000,0.000000
08:29:16.477 PM 03/31/2016,Teleop Enabled,7,TRUE,-44087,NetComm_CAN_Receive.vi:5470027<APPEND>  <b>Complete call chain:</b>      NetComm_CAN_Receive.vi:5470027      WPI_CAN_PDPReceive.vi      WPI_Power Get PDP Currents.vi      Periodic Tasks.vi      Robot Main.vi,-0.000000,-0.019250,-0.000000,-0.025667,TRUE,FALSE,FALSE,TRUE,FALSE,FALSE,Disabled,0.000000,0.000000,0.000000,TRUE,-4.895844,-4.734299,0.000000,-0.072601,0.001205,0.000000,-0.003000,-0.059000,0.093000,-0.050000,-0.930000,2.800000,-0.356694,Hold,56.721436,51.000000,Hold,-65779.000000,143360.000000,Suck,-1717.500000,1818.181818,Speed,-1755.000000,1818.181818,Speed,Off,On,0.000000,FALSE,0,,,,,0.000000,0.000000
08:29:16.579 PM 03/31/2016,Teleop Enabled,12,TRUE,-44087,NetComm_CAN_Receive.vi:5470027<APPEND>  <b>Complete call chain:</b>      NetComm_CAN_Receive.vi:5470027      WPI_CAN_PDPReceive.vi      WPI_Power Get PDP Currents.vi      Periodic Tasks.vi      Robot Main.vi,-0.000000,-0.044917,-0.000000,-0.089833,TRUE,FALSE,FALSE,TRUE,FALSE,FALSE,Disabled,0.000000,0.000000,0.000000,TRUE,-4.900436,-4.734238,0.000000,-0.103439,0.006439,0.000000,-0.008000,-0.056000,0.106000,0.030000,-0.840000,2.640000,-0.172462,Hold,55.883545,51.000000,Hold,-80678.000000,143360.000000,Suck,-1725.000000,1818.181818,Speed,-1755.000000,1818.181818,Speed,Off,On,0.000000,FALSE,0,,,,,0.000000,0.000000
08:29:16.679 PM 03/31/2016,Teleop Enabled,11,TRUE,-44087,NetComm_CAN_Receive.vi:5470027<APPEND>  <b>Complete call chain:</b>      NetComm_CAN_Receive.vi:5470027      WPI_CAN_PDPReceive.vi      WPI_Power Get PDP Currents.vi      Periodic Tasks.vi      Robot Main.vi,-0.000000,-0.044917,-0.000000,0.032083,TRUE,FALSE,FALSE,TRUE,FALSE,FALSE,Disabled,0.000000,0.000000,0.000000,TRUE,-4.905029,-4.734314,0.000000,-0.109741,-0.003876,0.000000,0.000000,0.067000,-0.176000,-0.050000,-0.760000,2.680000,-0.244649,Hold,55.283691,51.000000,Hold,-94429.000000,143360.000000,Suck,-1740.000000,1818.181818,Speed,-1755.000000,1818.181818,Speed,Off,On,0.000000,FALSE,0,,,,,0.000000,0.000000
08:29:16.780 PM 03/31/2016,Teleop Enabled,10,TRUE,-44087,NetComm_CAN_Receive.vi:5470027<APPEND>  <b>Complete call chain:</b>      NetComm_CAN_Receive.vi:5470027      WPI_CAN_PDPReceive.vi      WPI_Power Get PDP Currents.vi      Periodic Tasks.vi      Robot Main.vi,-0.000000,-0.044917,-0.000000,0.064167,TRUE,FALSE,FALSE,TRUE,FALSE,FALSE,Disabled,0.000000,0.000000,0.000000,TRUE,-4.908859,-4.734024,0.000000,-0.057739,0.009308,0.000000,-0.050000,0.108000,0.110000,-0.160000,-0.500000,2.710000,-0.372867,Hold,55.267578,51.000000,Hold,-108542.000000,143360.000000,Suck,-1755.000000,1818.181818,Speed,-1762.500000,1818.181818,Speed,Off,On,0.000000,FALSE,0,,,,,0.000000,0.000000
08:29:16.880 PM 03/31/2016,Teleop Enabled,7,TRUE,-44087,NetComm_CAN_Receive.vi:5470027<APPEND>  <b>Complete call chain:</b>      NetComm_CAN_Receive.vi:5470027      WPI_CAN_PDPReceive.vi      WPI_Power Get PDP Currents.vi      Periodic Tasks.vi      Robot Main.vi,-0.000000,-0.044917,-0.000000,0.057750,TRUE,FALSE,FALSE,TRUE,FALSE,FALSE,Disabled,0.000000,0.000000,0.000000,TRUE,-4.911636,-4.733078,0.000000,-0.061081,0.009171,0.000000,0.004000,0.001000,-0.230000,-0.130000,-0.550000,2.710000,-0.348859,Hold,55.267578,51.000000,Hold,-108542.000000,143360.000000,Suck,-1740.000000,1818.181818,Speed,-1762.500000,1818.181818,Speed,Off,On,0.000000,FALSE,0,,,,,0.000000,0.000000
08:29:16.983 PM 03/31/2016,Teleop Enabled,10,TRUE,-44087,NetComm_CAN_Receive.vi:5470027<APPEND>  <b>Complete call chain:</b>      NetComm_CAN_Receive.vi:5470027      WPI_CAN_PDPReceive.vi      WPI_Power Get PDP Currents.vi      Periodic Tasks.vi      Robot Main.vi,-0.000000,-0.044917,-0.000000,0.012833,TRUE,FALSE,FALSE,TRUE,FALSE,FALSE,Disabled,0.000000,0.000000,0.000000,TRUE,-4.915771,-4.731964,0.000000,-0.063553,0.002853,0.000000,0.063000,-0.121000,-0.121000,-0.070000,-0.650000,2.740000,-0.287633,Hold,55.264893,51.000000,Hold,-138649.000000,143360.000000,Suck,-1732.500000,1818.181818,Speed,-1762.500000,1818.181818,Speed,Off,On,0.000000,FALSE,0,,,,,0.000000,0.000000
08:29:17.083 PM 03/31/2016,Teleop Enabled,9,TRUE,-44087,NetComm_CAN_Receive.vi:5470027<APPEND>  <b>Complete call chain:</b>      NetComm_CAN_Receive.vi:5470027      WPI_CAN_PDPReceive.vi      WPI_Power Get PDP Currents.vi      Periodic Tasks.vi      Robot Main.vi,-0.000000,-0.044917,-0.000000,0.000000,TRUE,FALSE,FALSE,TRUE,FALSE,FALSE,Disabled,0.000000,0.000000,0.000000,TRUE,-4.919067,-4.733078,0.000000,-0.063934,-0.052017,0.000000,-0.057000,0.140000,0.162000,-0.050000,-0.700000,2.750000,-0.290273,Hold,55.260986,51.000000,Hold,-138649.000000,143360.000000,Suck,-1725.000000,1818.181818,Speed,-1755.000000,1818.181818,Speed,Off,On,0.000000,FALSE,0,,,,,0.000000,0.000000
08:29:17.184 PM 03/31/2016,Teleop Enabled,11,TRUE,-44087,NetComm_CAN_Receive.vi:5470027<APPEND>  <b>Complete call chain:</b>      NetComm_CAN_Receive.vi:5470027      WPI_CAN_PDPReceive.vi      WPI_Power Get PDP Currents.vi      Periodic Tasks.vi      Robot Main.vi,-0.000000,-0.044917,-0.000000,-0.006417,TRUE,FALSE,FALSE,TRUE,FALSE,FALSE,Disabled,0.000000,0.000000,0.000000,TRUE,-4.921173,-4.729492,0.000000,0.000290,0.127258,0.000000,0.077000,-0.121000,0.152000,-0.070000,-0.830000,2.810000,-0.321962,Hold,55.260742,51.000000,Hold,-138649.000000,143360.000000,Suck,-1710.000000,1818.181818,Speed,-1740.000000,1818.181818,Speed,Off,On,0.000000,FALSE,0,,,,,0.000000,0.000000
08:29:17.285 PM 03/31/2016,Teleop Enabled,10,TRUE,-44087,NetComm_CAN_Receive.vi:5470027<APPEND>  <b>Complete call chain:</b>      NetComm_CAN_Receive.vi:5470027      WPI_CAN_PDPReceive.vi      WPI_Power Get PDP Currents.vi      Periodic Tasks.vi      Robot Main.vi,-0.000000,-0.044917,-0.000000,0.019250,TRUE,FALSE,FALSE,TRUE,FALSE,FALSE,Disabled,0.000000,0.000000,0.000000,TRUE,-4.921402,-4.723862,0.000000,0.006866,0.059448,0.000000,0.077000,-0.121000,0.152000,-0.110000,-0.930000,2.790000,-0.335143,Hold,55.260498,51.000000,Hold,-143299.000000,143360.000000,Suck,-1717.500000,1818.181818,Speed,-1747.500000,1818.181818,Speed,Off,On,0.000000,FALSE,0,,,,,0.000000,0.000000
08:29:17.385 PM 03/31/2016,Teleop Enabled,11,TRUE,-44087,NetComm_CAN_Receive.vi:5470027<APPEND>  <b>Complete call chain:</b>      NetComm_CAN_Receive.vi:5470027      WPI_CAN_PDPReceive.vi      WPI_Power Get PDP Currents.vi      Periodic Tasks.vi      Robot Main.vi,-0.000000,-0.044917,-0.000000,0.032083,TRUE,FALSE,FALSE,TRUE,FALSE,FALSE,Disabled,0.000000,0.000000,0.000000,TRUE,-4.921478,-4.722092,0.000000,-0.007294,0.073242,0.000000,-0.074000,0.146000,0.094000,-0.140000,-0.880000,2.830000,-0.402239,Hold,55.258545,51.000000,Hold,-143474.000000,143360.000000,Suck,-1740.000000,1818.181818,Speed,-1762.500000,1818.181818,Speed,Off,On,0.000000,FALSE,0,,,,,0.000000,0.000000
08:29:17.485 PM 03/31/2016,Teleop Enabled,11,TRUE,-44087,NetComm_CAN_Receive.vi:5470027<APPEND>  <b>Complete call chain:</b>      NetComm_CAN_Receive.vi:5470027      WPI_CAN_PDPReceive.vi      WPI_Power Get PDP Currents.vi      Periodic Tasks.vi      Robot Main.vi,-0.000000,-0.044917,-0.000000,0.025667,TRUE,FALSE,FALSE,TRUE,FALSE,FALSE,Disabled,0.000000,0.000000,0.000000,TRUE,-4.921326,-4.717865,0.000000,0.015854,0.116135,0.000000,-0.260000,0.046000,0.011000,-0.080000,-0.750000,2.860000,-0.356831,Hold,55.251709,58.000000,Hold,-143497.000000,143360.000000,Suck,-1762.500000,1818.181818,Speed,-1755.000000,1818.181818,Speed,Off,On,0.000000,FALSE,0,,,,,0.000000,0.000000
08:29:17.585 PM 03/31/2016,Teleop Enabled,11,TRUE,-44087,NetComm_CAN_Receive.vi:5470027<APPEND>  <b>Complete call chain:</b>      NetComm_CAN_Receive.vi:5470027      WPI_CAN_PDPReceive.vi      WPI_Power Get PDP Currents.vi      Periodic Tasks.vi      Robot Main.vi,-0.000000,-0.044917,-0.000000,0.019250,TRUE,FALSE,FALSE,TRUE,FALSE,FALSE,Disabled,0.000000,0.000000,0.000000,TRUE,-4.922424,-4.709290,0.000000,-0.013397,0.145218,0.000000,-0.065000,-0.028000,-0.057000,-0.110000,-0.830000,2.890000,-0.387329,Hold,56.965820,58.000000,Hold,-143495.000000,143360.000000,Suck,-1762.500000,1818.181818,Speed,-1762.500000,1818.181818,Speed,Off,On,0.000000,FALSE,0,,,,,0.000000,0.000000
08:29:17.685 PM 03/31/2016,Teleop Enabled,10,TRUE,-44087,NetComm_CAN_Receive.vi:5470027<APPEND>  <b>Complete call chain:</b>      NetComm_CAN_Receive.vi:5470027      WPI_CAN_PDPReceive.vi      WPI_Power Get PDP Currents.vi      Periodic Tasks.vi      Robot Main.vi,-0.000000,-0.044917,-0.000000,0.012833,TRUE,FALSE,FALSE,TRUE,FALSE,FALSE,Disabled,0.000000,0.000000,0.000000,TRUE,-4.924271,-4.702332,0.000000,-0.042526,0.119141,0.000000,-0.062000,0.000000,0.087000,-0.160000,-0.910000,2.880000,-0.430581,Hold,61.762207,58.000000,Hold,-143493.000000,143360.000000,Suck,-1755.000000,1818.181818,Speed,-1762.500000,1818.181818,Speed,Off,On,0.000000,FALSE,0,,,,,0.000000,0.000000
08:29:17.786 PM 03/31/2016,Teleop Enabled,10,TRUE,-44087,NetComm_CAN_Receive.vi:5470027<APPEND>  <b>Complete call chain:</b>      NetComm_CAN_Receive.vi:5470027      WPI_CAN_PDPReceive.vi      WPI_Power Get PDP Currents.vi      Periodic Tasks.vi      Robot Main.vi,-0.000000,-0.044917,-0.000000,0.051333,TRUE,FALSE,FALSE,TRUE,FALSE,FALSE,Disabled,0.000000,0.000000,0.000000,TRUE,-4.927444,-4.697113,0.000000,-0.070236,0.106262,0.000000,-0.030000,0.096000,0.053000,-0.140000,-1.110000,2.790000,-0.390975,Hold,63.330078,58.000000,Hold,-143489.000000,143360.000000,Suck,-1725.000000,1818.181818,Speed,-1770.000000,1818.181818,Speed,Off,On,0.000000,FALSE,0,,,,,0.000000,0.000000
08:29:17.885 PM 03/31/2016,Teleop Enabled,9,TRUE,-44087,NetComm_CAN_Receive.vi:5470027<APPEND>  <b>Complete call chain:</b>      NetComm_CAN_Receive.vi:5470027      WPI_CAN_PDPReceive.vi      WPI_Power Get PDP Currents.vi      Periodic Tasks.vi      Robot Main.vi,-0.000000,-0.044917,-0.000000,0.012833,TRUE,FALSE,FALSE,TRUE,FALSE,FALSE,Disabled,0.000000,0.000000,0.000000,TRUE,-4.932465,-4.690613,0.000000,-0.122330,0.125854,0.000000,-0.024000,0.006000,-0.144000,-0.100000,-0.750000,2.820000,-0.385525,Hold,62.737793,58.000000,Hold,-143489.000000,143360.000000,Suck,-1725.000000,1818.181818,Speed,-1747.500000,1818.181818,Speed,Off,On,0.000000,FALSE,0,,,,,0.000000,0.000000
08:29:17.985 PM 03/31/2016,Teleop Enabled,8,TRUE,-44087,NetComm_CAN_Receive.vi:5470027<APPEND>  <b>Complete call chain:</b>      NetComm_CAN_Receive.vi:5470027      WPI_CAN_PDPReceive.vi      WPI_Power Get PDP Currents.vi      Periodic Tasks.vi      Robot Main.vi,-0.000000,-0.044917,-0.000000,0.012833,TRUE,FALSE,FALSE,TRUE,FALSE,FALSE,Disabled,0.000000,0.000000,0.000000,TRUE,-4.938477,-4.685013,0.000000,-0.118286,0.107193,0.000000,-0.030000,0.093000,0.037000,-0.110000,-0.700000,2.710000,-0.339622,Hold,61.997803,58.000000,Hold,-143489.000000,143360.000000,Suck,-1710.000000,1818.181818,Speed,-1755.000000,1818.181818,Speed,Off,On,0.000000,FALSE,0,,,,,0.000000,0.000000
08:29:18.085 PM 03/31/2016,Teleop Enabled,11,TRUE,-44087,NetComm_CAN_Receive.vi:5470027<APPEND>  <b>Complete call chain:</b>      NetComm_CAN_Receive.vi:5470027      WPI_CAN_PDPReceive.vi      WPI_Power Get PDP Currents.vi      Periodic Tasks.vi      Robot Main.vi,-0.000000,-0.044917,-0.000000,0.012833,TRUE,FALSE,FALSE,TRUE,FALSE,FALSE,Disabled,0.000000,0.000000,0.000000,TRUE,-4.945038,-4.678680,0.000000,-0.114716,0.000000,0.000000,-0.006000,0.004000,-0.081000,-0.120000,-0.850000,2.760000,-0.361183,Hold,61.971680,58.000000,Hold,-143476.000000,143360.000000,Suck,-1717.500000,1818.181818,Speed,-1747.500000,1818.181818,Speed,Off,On,0.000000,FALSE,0,,,,,0.000000,0.000000
08:29:18.185 PM 03/31/2016,Teleop Enabled,10,TRUE,-44087,NetComm_CAN_Receive.vi:5470027<APPEND>  <b>Complete call chain:</b>      NetComm_CAN_Receive.vi:5470027      WPI_CAN_PDPReceive.vi      WPI_Power Get PDP Currents.vi      Periodic Tasks.vi      Robot Main.vi,-0.000000,-0.044917,-0.000000,0.006417,TRUE,FALSE,FALSE,TRUE,FALSE,FALSE,Disabled,0.000000,0.000000,0.000000,TRUE,-4.951035,-4.679214,0.000000,-0.133835,-0.013092,0.000000,-0.090000,0.004000,-0.071000,-0.090000,-0.890000,2.800000,-0.326565,Hold,61.971680,58.000000,Hold,-143476.000000,143360.000000,Suck,-1732.500000,1818.181818,Speed,-1755.000000,1818.181818,Speed,Off,On,0.000000,FALSE,0,,,,,0.000000,0.000000
08:29:18.284 PM 03/31/2016,Teleop Enabled,10,TRUE,-44087,NetComm_CAN_Receive.vi:5470027<APPEND>  <b>Complete call chain:</b>      NetComm_CAN_Receive.vi:5470027      WPI_CAN_PDPReceive.vi      WPI_Power Get PDP Currents.vi      Periodic Tasks.vi      Robot Main.vi,-0.000000,-0.044917,-0.000000,0.006417,TRUE,FALSE,FALSE,TRUE,FALSE,FALSE,Disabled,0.000000,0.000000,0.000000,TRUE,-4.958862,-4.680710,0.000000,-0.161606,-0.036484,0.000000,-0.111000,0.020000,-0.054000,-0.140000,-1.130000,2.870000,-0.380441,Hold,61.957031,58.000000,Hold,-143476.000000,143360.000000,Suck,-1732.500000,1818.181818,Speed,-1762.500000,1818.181818,Speed,Off,On,0.000000,FALSE,0,,,,,0.000000,0.000000
08:29:18.386 PM 03/31/2016,Teleop Enabled,10,TRUE,-44087,NetComm_CAN_Receive.vi:5470027<APPEND>  <b>Complete call chain:</b>      NetComm_CAN_Receive.vi:5470027      WPI_CAN_PDPReceive.vi      WPI_Power Get PDP Currents.vi      Periodic Tasks.vi      Robot Main.vi,-0.000000,-0.044917,-0.000000,0.006417,TRUE,FALSE,FALSE,TRUE,FALSE,FALSE,Disabled,0.000000,0.000000,0.000000,TRUE,-4.958862,-4.680710,0.000000,-0.161606,-0.036484,0.000000,-0.111000,0.020000,-0.054000,-0.100000,-1.140000,2.870000,-0.369476,Hold,61.957031,58.000000,Hold,-143476.000000,143360.000000,Suck,-1740.000000,1818.181818,Speed,-1755.000000,1818.181818,Speed,Off,On,0.000000,FALSE,0,,,,,0.000000,0.000000
08:29:18.488 PM 03/31/2016,Teleop Enabled,12,TRUE,-44087,NetComm_CAN_Receive.vi:5470027<APPEND>  <b>Complete call chain:</b>      NetComm_CAN_Receive.vi:5470027      WPI_CAN_PDPReceive.vi      WPI_Power Get PDP Currents.vi      Periodic Tasks.vi      Robot Main.vi,-0.000000,-0.044917,-0.000000,0.006417,TRUE,FALSE,FALSE,TRUE,FALSE,FALSE,Disabled,0.000000,0.000000,0.000000,TRUE,-4.977814,-4.686234,0.000000,-0.170822,-0.092789,0.000000,0.150000,-0.125000,-0.008000,-0.110000,-1.220000,2.850000,-0.372182,Hold,61.944336,58.000000,Hold,-143476.000000,143360.000000,Suck,-1740.000000,1818.181818,Speed,-1755.000000,1818.181818,Speed,Off,On,0.000000,FALSE,0,,,,,0.000000,0.000000
08:29:18.590 PM 03/31/2016,Teleop Enabled,11,TRUE,-44087,NetComm_CAN_Receive.vi:5470027<APPEND>  <b>Complete call chain:</b>      NetComm_CAN_Receive.vi:5470027      WPI_CAN_PDPReceive.vi      WPI_Power Get PDP Currents.vi      Periodic Tasks.vi      Robot Main.vi,-0.000000,-0.044917,-0.000000,0.006417,TRUE,FALSE,FALSE,TRUE,FALSE,FALSE,Disabled,0.000000,0.000000,0.000000,TRUE,-4.986221,-4.692184,0.000000,-0.161804,-0.142120,0.000000,0.150000,-0.125000,-0.008000,-0.110000,-1.220000,2.850000,-0.375845,Hold,61.943115,58.000000,Hold,-143476.000000,143360.000000,Suck,-1740.000000,1818.181818,Speed,-1762.500000,1818.181818,Speed,Off,On,0.000000,FALSE,0,,,,,0.000000,0.000000
08:29:18.691 PM 03/31/2016,Teleop Enabled,10,TRUE,-44087,NetComm_CAN_Receive.vi:5470027<APPEND>  <b>Complete call chain:</b>      NetComm_CAN_Receive.vi:5470027      WPI_CAN_PDPReceive.vi      WPI_Power Get PDP Currents.vi      Periodic Tasks.vi      Robot Main.vi,-0.000000,-0.044917,-0.000000,0.006417,TRUE,FALSE,FALSE,TRUE,FALSE,FALSE,Disabled,0.000000,0.000000,0.000000,TRUE,-4.994186,-4.701950,0.000000,-0.170166,-0.214630,0.000000,0.065000,-0.022000,-0.083000,-0.120000,-1.010000,2.780000,-0.381102,Hold,61.940430,58.000000,Hold,-143476.000000,143360.000000,Suck,-1740.000000,1818.181818,Speed,-1762.500000,1818.181818,Speed,Off,On,0.000000,FALSE,0,,,,,0.000000,0.000000
08:29:18.791 PM 03/31/2016,Teleop Enabled,10,TRUE,-44087,NetComm_CAN_Receive.vi:5470027<APPEND>  <b>Complete call chain:</b>      NetComm_CAN_Receive.vi:5470027      WPI_CAN_PDPReceive.vi      WPI_Power Get PDP Currents.vi      Periodic Tasks.vi      Robot Main.vi,-0.000000,-0.044917,-0.000000,0.006417,TRUE,FALSE,FALSE,TRUE,FALSE,FALSE,Disabled,0.000000,0.000000,0.000000,TRUE,-5.002899,-4.712921,0.000000,-0.188522,-0.223373,0.000000,0.012000,-0.011000,-0.056000,-0.120000,-1.060000,2.830000,-0.384351,Hold,61.938965,58.000000,Hold,-143476.000000,143360.000000,Suck,-1732.500000,1818.181818,Speed,-1762.500000,1818.181818,Speed,Off,On,0.000000,FALSE,0,,,,,0.000000,0.000000
08:29:18.892 PM 03/31/2016,Teleop Enabled,9,TRUE,-44087,NetComm_CAN_Receive.vi:5470027<APPEND>  <b>Complete call chain:</b>      NetComm_CAN_Receive.vi:5470027      WPI_CAN_PDPReceive.vi      WPI_Power Get PDP Currents.vi      Periodic Tasks.vi      Robot Main.vi,-0.000000,-0.044917,-0.000000,0.006417,TRUE,FALSE,FALSE,TRUE,FALSE,FALSE,Disabled,0.000000,0.000000,0.000000,TRUE,-5.006653,-4.712830,0.000000,0.006836,-0.008530,0.000000,-0.193000,0.020000,0.086000,-0.120000,-1.000000,2.770000,-0.381064,Hold,61.935303,0.000000,Hold,-143476.000000,8192.000000,Suck,-1732.500000,1818.181818,Speed,-1770.000000,1818.181818,Speed,Off,On,0.000000,FALSE,0,,,,,0.000000,0.000000
08:29:18.993 PM 03/31/2016,Teleop Enabled,10,TRUE,-44087,NetComm_CAN_Receive.vi:5470027<APPEND>  <b>Complete call chain:</b>      NetComm_CAN_Receive.vi:5470027      WPI_CAN_PDPReceive.vi      WPI_Power Get PDP Currents.vi      Periodic Tasks.vi      Robot Main.vi,-0.000000,-0.044917,-0.000000,0.070583,TRUE,FALSE,FALSE,TRUE,FALSE,FALSE,Disabled,0.000000,0.000000,0.000000,TRUE,-5.006058,-4.713776,0.000000,0.021378,-0.020248,0.000000,0.001000,0.044000,-0.208000,-0.150000,-1.690000,2.680000,-0.397819,Hold,57.056885,0.000000,Hold,-141903.000000,8192.000000,Suck,-1740.000000,1818.181818,Speed,-1762.500000,1818.181818,Speed,Off,On,0.000000,FALSE,0,,,,,0.000000,0.000000
08:29:19.094 PM 03/31/2016,Teleop Enabled,9,TRUE,-44087,NetComm_CAN_Receive.vi:5470027<APPEND>  <b>Complete call chain:</b>      NetComm_CAN_Receive.vi:5470027      WPI_CAN_PDPReceive.vi      WPI_Power Get PDP Currents.vi      Periodic Tasks.vi      Robot Main.vi,-0.000000,-0.109083,-0.000000,-0.083416,TRUE,FALSE,FALSE,TRUE,FALSE,FALSE,Disabled,0.000000,0.000000,0.000000,TRUE,-5.003601,-4.715912,0.000000,0.063751,-0.041458,0.000000,-0.070000,0.075000,0.097000,-0.220000,-0.760000,2.770000,-0.487979,Hold,44.171875,0.000000,Hold,-136920.000000,8192.000000,Suck,-1717.500000,1818.181818,Speed,-1732.500000,1818.181818,Speed,Off,On,0.000000,FALSE,0,,,,,0.000000,0.000000
08:29:19.195 PM 03/31/2016,Teleop Enabled,11,TRUE,-44087,NetComm_CAN_Receive.vi:5470027<APPEND>  <b>Complete call chain:</b>      NetComm_CAN_Receive.vi:5470027      WPI_CAN_PDPReceive.vi      WPI_Power Get PDP Currents.vi      Periodic Tasks.vi      Robot Main.vi,-0.000000,-0.179666,-0.000000,-0.256666,TRUE,FALSE,FALSE,TRUE,FALSE,FALSE,Disabled,0.000000,0.000000,0.000000,TRUE,-5.001801,-4.716522,0.000000,0.049530,-0.019562,0.000000,0.046000,-0.050000,0.072000,0.060000,-0.840000,2.710000,-0.213848,Hold,27.248291,0.000000,Hold,-130683.000000,8192.000000,Suck,-1702.500000,1818.181818,Speed,-1732.500000,1818.181818,Speed,Off,On,0.000000,FALSE,0,,,,,0.000000,0.000000
08:29:19.296 PM 03/31/2016,Teleop Enabled,10,TRUE,-44087,NetComm_CAN_Receive.vi:5470027<APPEND>  <b>Complete call chain:</b>      NetComm_CAN_Receive.vi:5470027      WPI_CAN_PDPReceive.vi      WPI_Power Get PDP Currents.vi      Periodic Tasks.vi      Robot Main.vi,-0.000000,-0.192500,-0.000000,-0.282333,TRUE,FALSE,FALSE,TRUE,FALSE,FALSE,Disabled,0.000000,0.000000,0.000000,TRUE,-4.999619,-4.719131,0.000000,0.010147,-0.053925,0.000000,-0.059000,0.102000,0.067000,0.120000,-0.610000,2.640000,-0.144274,Hold,13.537598,0.000000,Hold,-130683.000000,8192.000000,Suck,-1710.000000,1818.181818,Speed,-1755.000000,1818.181818,Speed,Off,On,0.000000,FALSE,0,,,,,0.000000,0.000000
08:29:19.397 PM 03/31/2016,Teleop Enabled,11,TRUE,-44087,NetComm_CAN_Receive.vi:5470027<APPEND>  <b>Complete call chain:</b>      NetComm_CAN_Receive.vi:5470027      WPI_CAN_PDPReceive.vi      WPI_Power Get PDP Currents.vi      Periodic Tasks.vi      Robot Main.vi,-0.000000,-0.032083,-0.000000,-0.109083,TRUE,FALSE,FALSE,TRUE,FALSE,FALSE,Disabled,0.000000,0.000000,0.000000,TRUE,-5.005798,-4.718201,0.000000,-0.226715,-0.223984,0.000000,-0.059000,0.102000,0.067000,0.120000,-0.610000,2.640000,0.039231,Hold,2.740234,0.000000,Hold,-123929.000000,8192.000000,Suck,-1732.500000,1818.181818,Speed,-1762.500000,1818.181818,Speed,Off,On,0.000000,FALSE,0,,,,,0.000000,0.000000
