Time,Robot Mode,Loop Time,Error Status,Error Code,Error Source,Left Motor Output,Left Motor Encoder,Right Motor Output,Right Motor Encoder,Is Level,Is Stalled,Ball Detector Photoeye,Vision Enabled,Vision Teleop Control,Vision Auto Control,Vision Current State,Vision X Output,Vision NavX Error,Vision NavX Target,NavX Connection Status,NavX Displacement X,NavX Displacement Y,NavX Displacement Z,NavX Velocity X,NavX Velocity Y,NavX Velocity Z,NavX Acceleration X,NavX Acceleration Y,NavX Acceleration Z,NavX Pitch,NavX Yaw,NavX Roll,Gyro Angle,Roller Arm State,Roller Arm Actual,Roller Arm Desired,Shooter Arm State,Shooter Arm Actual,Shooter Arm Desired,Shooter State,Actual RPM Left,Desired RPM Left,Control Mode Left,Actual RPM Right,Desired RPM Right,Control Mode Right,Ball Shooter Cylinder,Ball Halo Cylinder,Scaler Motor Output,Scaler Solenoid Fire,Auto To Run,Auto Current File,Auto File Status,Auto Current Command,Auto Trimmed Command,Shooter Amps Left,Shooter Amps Right
12:39:05.021 PM 04/09/2016,Teleop Enabled,11,TRUE,-44003,<LOCATION>WPI_CameraIssue HTTP Request with Authentication.vi<CALLSTACK>WPI_CameraIssue HTTP Request with Authentication.vi< <WPI_CameraIssue Get.vi< <WPI_CameraSet Image Appearance Property.vi< <WPI_CameraSet Image Size.vi< <Vision Processing.vi< <Robot Main.vi,-0.000000,0.000000,-0.000000,0.000000,TRUE,FALSE,TRUE,FALSE,FALSE,FALSE,Disabled,0.000000,0.000000,0.000000,TRUE,0.000000,0.000000,0.000000,0.000000,0.000000,0.000000,0.015000,0.003000,0.023000,2.410000,-0.200000,-0.150000,0.220517,ResetBack,-0.541992,-0.000049,ResetBack,0.000000,-0.250000,LowGoal,0.000000,-2181.818182,Speed,0.000000,-2181.818182,Speed,Off,Off,0.000000,FALSE,0,,,,,0.000000,0.000000
12:39:05.122 PM 04/09/2016,Teleop Enabled,10,FALSE,0,NO ERROR,-0.000000,-0.307999,-0.000000,0.000000,TRUE,FALSE,TRUE,FALSE,FALSE,FALSE,Disabled,0.000000,0.000000,0.000000,TRUE,0.000824,0.000031,0.000000,0.034592,0.006973,0.000000,0.115000,-0.046000,0.023000,2.340000,-0.230000,-0.090000,0.200529,ResetBack,-1.169189,-0.000049,ResetBack,3072.000000,-0.250000,LowGoal,105.000000,-2181.818182,Speed,60.000000,-2181.818182,Speed,Off,Off,0.000000,FALSE,0,,,,,0.000000,0.000000
12:39:05.221 PM 04/09/2016,Teleop Enabled,10,FALSE,0,NO ERROR,-0.000000,-0.288749,-0.000000,-0.032083,TRUE,FALSE,TRUE,FALSE,FALSE,FALSE,Disabled,0.000000,0.000000,0.000000,TRUE,0.002960,0.000259,0.000000,0.033981,0.007996,0.000000,0.070000,-0.094000,-0.012000,2.370000,-0.200000,-0.110000,0.199069,ResetBack,-1.169434,-0.000049,ResetBack,4291.000000,-0.250000,LowGoal,735.000000,-2181.818182,Speed,150.000000,-2181.818182,Speed,Off,Off,0.000000,FALSE,0,,,,,0.000000,0.000000
12:39:05.321 PM 04/09/2016,Teleop Enabled,12,FALSE,0,NO ERROR,-0.000000,-0.288749,-0.000000,-0.032083,TRUE,FALSE,TRUE,FALSE,FALSE,FALSE,Disabled,0.000000,0.000000,0.000000,TRUE,0.004257,-0.000397,0.000000,0.016830,0.008438,0.000000,0.015000,-0.056000,0.034000,2.380000,-0.230000,-0.190000,0.172255,Reset,-1.169434,0.000000,ResetBack,4291.000000,-0.250000,LowGoal,1237.500000,-2181.818182,Speed,495.000000,-2181.818182,Speed,Off,Off,0.000000,FALSE,0,,,,,0.000000,0.000000
12:39:05.421 PM 04/09/2016,Teleop Enabled,10,FALSE,0,NO ERROR,-0.000000,-0.288749,-0.000000,-0.032083,TRUE,FALSE,TRUE,FALSE,FALSE,FALSE,Disabled,0.000000,0.000000,0.000000,TRUE,0.006104,-0.000870,0.000000,0.036865,-0.010345,0.000000,-0.005000,0.099000,-0.099000,2.360000,-0.230000,-0.160000,0.181702,Hold,1.126953,0.000000,ResetBack,5285.000000,-0.250000,LowGoal,1770.000000,-2181.818182,Speed,1680.000000,-2181.818182,Speed,Off,Off,0.000000,FALSE,0,,,,,0.000000,0.000000
12:39:05.522 PM 04/09/2016,Teleop Enabled,10,FALSE,0,NO ERROR,-0.000000,-0.288749,-0.000000,-0.032083,TRUE,FALSE,TRUE,FALSE,FALSE,FALSE,Disabled,0.000000,0.000000,0.000000,TRUE,0.007278,0.002151,0.000000,0.020508,0.111298,0.000000,0.026000,0.070000,-0.069000,2.370000,-0.210000,-0.230000,0.191251,Hold,0.928223,0.000000,ResetBack,5696.000000,-0.250000,LowGoal,2167.500000,-2181.818182,Speed,1995.000000,-2181.818182,Speed,Off,Off,0.000000,FALSE,0,,,,,0.000000,0.000000
12:39:05.621 PM 04/09/2016,Teleop Enabled,10,FALSE,0,NO ERROR,-0.000000,-0.288749,-0.000000,-0.032083,TRUE,FALSE,TRUE,FALSE,FALSE,FALSE,Disabled,0.000000,0.000000,0.000000,TRUE,0.008163,0.010132,0.000000,-0.002960,0.191345,0.000000,-0.077000,0.072000,-0.130000,2.420000,-0.220000,-0.170000,0.193585,Hold,0.928223,0.000000,ResetBack,6168.000000,-0.250000,LowGoal,2250.000000,-2181.818182,Speed,2197.500000,-2181.818182,Speed,Off,Off,0.000000,FALSE,0,,,,,0.000000,0.000000
12:39:05.722 PM 04/09/2016,Teleop Enabled,10,FALSE,0,NO ERROR,-0.000000,-0.288749,-0.000000,-0.032083,TRUE,FALSE,TRUE,FALSE,FALSE,FALSE,Disabled,0.000000,0.000000,0.000000,TRUE,0.006638,0.021774,0.000000,-0.039978,0.265930,0.000000,-0.029000,0.072000,-0.154000,2.450000,-0.220000,-0.230000,0.193358,Hold,0.928223,0.000000,ResetBack,6634.000000,-0.250000,LowGoal,2182.500000,-2181.818182,Speed,2152.500000,-2181.818182,Speed,Off,Off,0.000000,FALSE,0,,,,,0.000000,0.000000
12:39:05.822 PM 04/09/2016,Teleop Enabled,11,FALSE,0,NO ERROR,-0.000000,-0.288749,-0.000000,-0.032083,TRUE,FALSE,TRUE,FALSE,FALSE,FALSE,Disabled,0.000000,0.000000,0.000000,TRUE,0.003128,0.037140,0.000000,-0.102997,0.331207,0.000000,-0.039000,0.073000,-0.169000,2.470000,-0.220000,-0.300000,0.207373,Hold,0.928223,0.000000,ResetBack,7236.000000,-0.250000,LowGoal,2152.500000,-2181.818182,Speed,2092.500000,-2181.818182,Speed,Off,Off,0.000000,FALSE,0,,,,,0.000000,0.000000
12:39:05.922 PM 04/09/2016,Teleop Enabled,9,FALSE,0,NO ERROR,-0.000000,-0.288749,-0.000000,-0.032083,TRUE,FALSE,TRUE,FALSE,FALSE,FALSE,Disabled,0.000000,0.000000,0.000000,TRUE,-0.004623,0.058151,0.000000,-0.133560,0.345886,0.000000,-0.039000,0.073000,-0.169000,2.470000,-0.220000,-0.280000,0.201379,Hold,0.928223,0.000000,ResetBack,7236.000000,-0.250000,LowGoal,2160.000000,-2181.818182,Speed,2092.500000,-2181.818182,Speed,Off,Off,0.000000,FALSE,0,,,,,0.000000,0.000000
12:39:06.022 PM 04/09/2016,Teleop Enabled,8,FALSE,0,NO ERROR,-0.000000,-0.288749,-0.000000,-0.032083,TRUE,FALSE,TRUE,FALSE,FALSE,FALSE,Disabled,0.000000,0.000000,0.000000,TRUE,-0.008530,0.071198,0.000000,-0.066803,0.309509,0.000000,0.037000,-0.012000,-0.031000,2.370000,-0.230000,-0.080000,0.184945,Hold,0.928223,0.000000,ResetBack,7591.000000,-0.250000,LowGoal,2167.500000,-2181.818182,Speed,2115.000000,-2181.818182,Speed,Off,Off,0.000000,FALSE,0,,,,,0.000000,0.000000
12:39:06.123 PM 04/09/2016,Teleop Enabled,10,FALSE,0,NO ERROR,-0.000000,-0.288749,-0.000000,-0.032083,TRUE,FALSE,TRUE,FALSE,FALSE,FALSE,Disabled,0.000000,0.000000,0.000000,TRUE,-0.007248,0.086594,0.000000,0.078964,0.219116,0.000000,0.154000,-0.060000,0.036000,2.370000,-0.230000,-0.080000,0.195489,Hold,0.928223,0.000000,ResetBack,7637.000000,-0.250000,LowGoal,2167.500000,-2181.818182,Speed,2115.000000,-2181.818182,Speed,Off,Off,0.000000,FALSE,0,,,,,0.000000,0.000000
12:39:06.225 PM 04/09/2016,Teleop Enabled,11,FALSE,0,NO ERROR,-0.000000,-0.288749,-0.000000,-0.032083,TRUE,FALSE,TRUE,FALSE,FALSE,FALSE,Disabled,0.000000,0.000000,0.000000,TRUE,-0.001740,0.092834,0.000000,0.108551,0.000000,0.000000,0.105000,-0.038000,0.023000,2.290000,-0.230000,0.020000,0.184958,Hold,0.928223,0.000000,Reset,7700.000000,2.000000,LowGoal,2160.000000,-2181.818182,Speed,2107.500000,-2181.818182,Speed,Off,Off,0.000000,FALSE,0,,,,,0.000000,0.000000
12:39:06.325 PM 04/09/2016,Teleop Enabled,9,FALSE,0,NO ERROR,-0.000000,-0.288749,-0.000000,-0.032083,TRUE,FALSE,TRUE,FALSE,FALSE,FALSE,Disabled,0.000000,0.000000,0.000000,TRUE,0.002670,0.094574,0.000000,0.070953,0.081665,0.000000,-0.024000,0.006000,-0.078000,2.350000,-0.240000,-0.020000,0.193727,Hold,0.928223,0.000000,Hold,-120.000000,2.000000,LowGoal,2160.000000,-2181.818182,Speed,2100.000000,-2181.818182,Speed,Off,Off,0.000000,FALSE,0,,,,,0.000000,0.000000
12:39:06.426 PM 04/09/2016,Teleop Enabled,10,FALSE,0,NO ERROR,-0.000000,-0.288749,-0.000000,-0.032083,TRUE,FALSE,TRUE,FALSE,FALSE,FALSE,Disabled,0.000000,0.000000,0.000000,TRUE,0.003143,0.104782,0.000000,-0.030670,0.302032,0.000000,-0.100000,0.186000,-0.028000,2.400000,-0.230000,0.000000,0.183695,Hold,0.928223,0.000000,Hold,-120.000000,2.000000,LowGoal,2152.500000,-2181.818182,Speed,2107.500000,-2181.818182,Speed,Off,Off,0.000000,FALSE,0,,,,,0.000000,0.000000
12:39:06.525 PM 04/09/2016,Teleop Enabled,10,FALSE,0,NO ERROR,-0.000000,-0.288749,-0.000000,-0.032083,TRUE,FALSE,TRUE,FALSE,FALSE,FALSE,Disabled,0.000000,0.000000,0.000000,TRUE,-0.000259,0.124893,0.000000,-0.076523,0.457077,0.000000,-0.094000,0.176000,-0.104000,2.390000,-0.230000,-0.020000,0.180679,Hold,0.928223,0.000000,Hold,-120.000000,2.000000,LowGoal,2137.500000,-2181.818182,Speed,2115.000000,-2181.818182,Speed,Off,Off,0.000000,FALSE,0,,,,,0.000000,0.000000
12:39:06.626 PM 04/09/2016,Teleop Enabled,10,FALSE,0,NO ERROR,-0.000000,-0.288749,-0.000000,-0.032083,TRUE,FALSE,TRUE,FALSE,FALSE,FALSE,Disabled,0.000000,0.000000,0.000000,TRUE,-0.000259,0.124893,0.000000,-0.076523,0.457077,0.000000,0.020000,0.129000,-0.041000,2.360000,-0.230000,-0.090000,0.176858,Hold,0.928223,0.000000,Hold,-120.000000,2.000000,LowGoal,2137.500000,-2181.818182,Speed,2115.000000,-2181.818182,Speed,Off,Off,0.000000,FALSE,0,,,,,0.000000,0.000000
12:39:06.726 PM 04/09/2016,Teleop Enabled,10,FALSE,0,NO ERROR,-0.000000,-0.288749,-0.000000,-0.032083,TRUE,FALSE,TRUE,FALSE,FALSE,FALSE,Disabled,0.000000,0.000000,0.000000,TRUE,-0.003296,0.188858,0.000000,-0.007950,0.716568,0.000000,-0.063000,0.073000,0.105000,2.420000,-0.230000,-0.150000,0.188229,Hold,0.928223,0.000000,Hold,-120.000000,2.000000,LowGoal,2137.500000,-2181.818182,Speed,2115.000000,-2181.818182,Speed,Off,Off,0.000000,FALSE,0,,,,,0.000000,0.000000
12:39:06.826 PM 04/09/2016,Teleop Enabled,10,FALSE,0,NO ERROR,-0.000000,-0.288749,-0.000000,-0.032083,TRUE,FALSE,TRUE,FALSE,FALSE,FALSE,Disabled,0.000000,0.000000,0.000000,TRUE,-0.003296,0.188858,0.000000,-0.007950,0.716568,0.000000,-0.018000,0.065000,0.143000,2.370000,-0.240000,-0.070000,0.197778,Hold,0.928223,0.000000,Hold,-120.000000,2.000000,LowGoal,2137.500000,-2181.818182,Speed,2107.500000,-2181.818182,Speed,Off,Off,0.000000,FALSE,0,,,,,0.000000,0.000000
12:39:06.926 PM 04/09/2016,Teleop Enabled,10,FALSE,0,NO ERROR,-0.000000,-0.288749,-0.000000,-0.032083,TRUE,FALSE,TRUE,FALSE,FALSE,FALSE,Disabled,0.000000,0.000000,0.000000,TRUE,-0.004807,0.226807,0.000000,-0.066376,0.787216,0.000000,-0.179000,0.104000,0.055000,2.370000,-0.240000,-0.070000,0.199902,Hold,0.928223,0.000000,Hold,-120.000000,2.000000,LowGoal,2145.000000,-2181.818182,Speed,2107.500000,-2181.818182,Speed,Off,Off,0.000000,FALSE,0,,,,,0.000000,0.000000
12:39:07.027 PM 04/09/2016,Teleop Enabled,10,FALSE,0,NO ERROR,-0.000000,-0.288749,-0.000000,-0.032083,TRUE,FALSE,TRUE,FALSE,FALSE,FALSE,Disabled,0.000000,0.000000,0.000000,TRUE,-0.013992,0.312378,0.000000,-0.004868,0.864136,0.000000,0.181000,-0.015000,0.086000,2.450000,-0.230000,-0.240000,0.211587,Hold,0.928223,0.000000,Hold,-120.000000,2.000000,LowGoal,2145.000000,-2181.818182,Speed,2107.500000,-2181.818182,Speed,Off,Off,0.000000,FALSE,0,,,,,0.000000,0.000000
12:39:07.128 PM 04/09/2016,Teleop Enabled,11,FALSE,0,NO ERROR,-0.000000,-0.288749,-0.000000,-0.032083,TRUE,FALSE,TRUE,FALSE,FALSE,FALSE,Disabled,0.000000,0.000000,0.000000,TRUE,-0.013992,0.312378,0.000000,-0.004868,0.864136,0.000000,0.157000,-0.078000,-0.046000,2.410000,-0.230000,-0.100000,0.214093,Hold,0.928223,0.000000,Hold,-120.000000,2.000000,LowGoal,2137.500000,-2181.818182,Speed,2122.500000,-2181.818182,Speed,Off,Off,0.000000,FALSE,0,,,,,0.000000,0.000000
12:39:07.229 PM 04/09/2016,Teleop Enabled,10,FALSE,0,NO ERROR,-0.000000,-0.288749,-0.000000,-0.032083,TRUE,FALSE,TRUE,FALSE,FALSE,FALSE,Disabled,0.000000,0.000000,0.000000,TRUE,-0.010498,0.362015,0.000000,0.053696,0.805267,0.000000,-0.084000,-0.032000,-0.079000,2.410000,-0.240000,-0.070000,0.206244,Hold,0.928223,0.000000,Hold,-120.000000,2.000000,LowGoal,2137.500000,-2181.818182,Speed,2115.000000,-2181.818182,Speed,Off,Off,0.000000,FALSE,0,,,,,0.000000,0.000000
12:39:07.329 PM 04/09/2016,Teleop Enabled,9,FALSE,0,NO ERROR,-0.000000,-0.288749,-0.000000,-0.032083,TRUE,FALSE,TRUE,FALSE,FALSE,FALSE,Disabled,0.000000,0.000000,0.000000,TRUE,-0.010147,0.401672,0.000000,-0.016678,0.784164,0.000000,-0.014000,-0.033000,-0.127000,2.410000,-0.240000,-0.100000,0.206244,Hold,0.928223,0.000000,Hold,-120.000000,2.000000,LowGoal,2145.000000,-2181.818182,Speed,2107.500000,-2181.818182,Speed,Off,Off,0.000000,FALSE,0,,,,,0.000000,0.000000
12:39:07.431 PM 04/09/2016,Teleop Enabled,9,FALSE,0,NO ERROR,-0.000000,-0.288749,-0.000000,-0.032083,TRUE,FALSE,TRUE,FALSE,FALSE,FALSE,Disabled,0.000000,0.000000,0.000000,TRUE,-0.010452,0.424820,0.000000,-0.001999,0.000000,0.000000,0.015000,-0.004000,0.003000,2.410000,-0.240000,-0.080000,0.188342,Hold,0.928223,0.000000,Hold,-120.000000,2.000000,LowGoal,2137.500000,-2181.818182,Speed,2107.500000,-2181.818182,Speed,Off,Off,0.000000,FALSE,0,,,,,0.000000,0.000000
12:39:07.530 PM 04/09/2016,Teleop Enabled,11,FALSE,0,NO ERROR,-0.000000,-0.288749,-0.000000,-0.032083,TRUE,FALSE,TRUE,FALSE,FALSE,FALSE,Disabled,0.000000,0.000000,0.000000,TRUE,-0.010315,0.422470,0.000000,0.000000,-0.091141,0.000000,0.011000,-0.151000,0.036000,2.440000,-0.240000,-0.080000,0.166196,Hold,0.928223,0.000000,Hold,-120.000000,2.000000,LowGoal,2137.500000,-2181.818182,Speed,2107.500000,-2181.818182,Speed,Off,Off,0.000000,FALSE,0,,,,,0.000000,0.000000
12:39:07.632 PM 04/09/2016,Teleop Enabled,10,FALSE,0,NO ERROR,-0.000000,-0.288749,-0.000000,-0.032083,TRUE,FALSE,TRUE,FALSE,FALSE,FALSE,Disabled,0.000000,0.000000,0.000000,TRUE,-0.010742,0.414398,0.000000,-0.012009,-0.221542,0.000000,0.035000,-0.231000,0.123000,2.410000,-0.240000,-0.030000,0.176913,Hold,0.928223,0.000000,Hold,-120.000000,2.000000,LowGoal,2137.500000,-2181.818182,Speed,2115.000000,-2181.818182,Speed,Off,Off,0.000000,FALSE,0,,,,,0.000000,0.000000
12:39:07.732 PM 04/09/2016,Teleop Enabled,9,FALSE,0,NO ERROR,-0.000000,-0.288749,-0.000000,-0.032083,TRUE,FALSE,TRUE,FALSE,FALSE,FALSE,Disabled,0.000000,0.000000,0.000000,TRUE,-0.009827,0.396057,0.000000,0.048615,-0.463058,0.000000,0.077000,-0.211000,0.264000,2.360000,-0.240000,0.000000,0.179254,Hold,0.928223,0.000000,Hold,-120.000000,2.000000,LowGoal,2145.000000,-2181.818182,Speed,2122.500000,-2181.818182,Speed,Off,Off,0.000000,FALSE,0,,,,,0.000000,0.000000
12:39:07.834 PM 04/09/2016,Teleop Enabled,9,FALSE,0,NO ERROR,-0.000000,-0.288749,-0.000000,-0.032083,TRUE,FALSE,TRUE,FALSE,FALSE,FALSE,Disabled,0.000000,0.000000,0.000000,TRUE,-0.004303,0.359467,0.000000,0.114914,-0.716385,0.000000,0.071000,-0.218000,0.241000,2.410000,-0.240000,-0.100000,0.170176,Hold,0.928223,0.000000,Hold,-120.000000,2.000000,LowGoal,2160.000000,-2181.818182,Speed,2115.000000,-2181.818182,Speed,Off,Off,0.000000,FALSE,0,,,,,0.000000,0.000000
12:39:07.934 PM 04/09/2016,Teleop Enabled,9,FALSE,0,NO ERROR,-0.000000,-0.288749,-0.000000,-0.032083,TRUE,FALSE,TRUE,FALSE,FALSE,FALSE,Disabled,0.000000,0.000000,0.000000,TRUE,0.002960,0.317413,0.000000,0.167343,-0.914841,0.000000,0.091000,-0.119000,0.156000,2.480000,-0.240000,-0.110000,0.160430,Hold,0.928223,0.000000,Hold,-120.000000,2.000000,LowGoal,2160.000000,-2181.818182,Speed,2115.000000,-2181.818182,Speed,Off,Off,0.000000,FALSE,0,,,,,0.000000,0.000000
12:39:08.034 PM 04/09/2016,Teleop Enabled,9,FALSE,0,NO ERROR,-0.000000,-0.288749,-0.000000,-0.032083,TRUE,FALSE,TRUE,FALSE,FALSE,FALSE,Disabled,0.000000,0.000000,0.000000,TRUE,0.006592,0.268250,0.000000,-0.001343,-1.021622,0.000000,-0.031000,-0.056000,0.098000,2.450000,-0.240000,-0.020000,0.167277,Hold,0.928223,0.000000,Hold,-120.000000,2.000000,LowGoal,2145.000000,-2181.818182,Speed,2122.500000,-2181.818182,Speed,Off,Off,0.000000,FALSE,0,,,,,0.000000,0.000000
12:39:08.135 PM 04/09/2016,Teleop Enabled,10,FALSE,0,NO ERROR,-0.000000,-0.288749,-0.000000,-0.032083,TRUE,FALSE,TRUE,FALSE,FALSE,FALSE,Disabled,0.000000,0.000000,0.000000,TRUE,0.007065,0.217209,0.000000,0.028809,-1.002655,0.000000,0.111000,0.089000,-0.123000,2.340000,-0.240000,-0.080000,0.159542,Hold,0.928223,0.000000,Hold,-120.000000,2.000000,LowGoal,2145.000000,-2181.818182,Speed,2122.500000,-2181.818182,Speed,Off,Off,0.000000,FALSE,0,,,,,0.000000,0.000000
12:39:08.236 PM 04/09/2016,Teleop Enabled,9,FALSE,0,NO ERROR,-0.000000,-0.288749,-0.000000,-0.032083,TRUE,FALSE,TRUE,FALSE,FALSE,FALSE,Disabled,0.000000,0.000000,0.000000,TRUE,0.011703,0.170151,0.000000,0.138565,-0.884460,0.000000,0.123000,0.184000,-0.224000,2.370000,-0.230000,-0.160000,0.158891,Hold,0.928223,0.000000,Hold,-120.000000,2.000000,LowGoal,2167.500000,-2181.818182,Speed,2122.500000,-2181.818182,Speed,Off,Off,0.000000,FALSE,0,,,,,0.000000,0.000000
12:39:08.336 PM 04/09/2016,Teleop Enabled,11,FALSE,0,NO ERROR,-0.000000,-0.288749,-0.000000,-0.032083,TRUE,FALSE,TRUE,FALSE,FALSE,FALSE,Disabled,0.000000,0.000000,0.000000,TRUE,0.020935,0.131668,0.000000,0.204941,-0.683365,0.000000,0.062000,0.261000,-0.122000,2.430000,-0.230000,-0.230000,0.150092,Hold,0.928223,0.000000,Hold,-120.000000,2.000000,LowGoal,2167.500000,-2181.818182,Speed,2115.000000,-2181.818182,Speed,Off,Off,0.000000,FALSE,0,,,,,0.000000,0.000000
12:39:08.437 PM 04/09/2016,Teleop Enabled,11,FALSE,0,NO ERROR,-0.000000,-0.288749,-0.000000,-0.032083,TRUE,FALSE,TRUE,FALSE,FALSE,FALSE,Disabled,0.000000,0.000000,0.000000,TRUE,0.027649,0.104431,0.000000,-0.006653,-0.460999,0.000000,-0.072000,0.208000,-0.262000,2.400000,-0.240000,-0.120000,0.172806,Hold,0.928223,0.000000,Hold,-120.000000,2.000000,LowGoal,2137.500000,-2181.818182,Speed,2115.000000,-2181.818182,Speed,Off,Off,0.000000,FALSE,0,,,,,0.000000,0.000000
12:39:08.538 PM 04/09/2016,Teleop Enabled,10,FALSE,0,NO ERROR,-0.000000,-0.288749,-0.000000,-0.032083,TRUE,FALSE,TRUE,FALSE,FALSE,FALSE,Disabled,0.000000,0.000000,0.000000,TRUE,0.023529,0.088409,0.000000,-0.142136,-0.222122,0.000000,-0.119000,0.264000,-0.334000,2.340000,-0.240000,-0.160000,0.178844,Hold,0.928223,0.000000,Hold,-120.000000,2.000000,LowGoal,2137.500000,-2181.818182,Speed,2115.000000,-2181.818182,Speed,Off,Off,0.000000,FALSE,0,,,,,0.000000,0.000000
12:39:08.638 PM 04/09/2016,Teleop Enabled,11,FALSE,0,NO ERROR,-0.000000,-0.288749,-0.000000,-0.032083,TRUE,FALSE,TRUE,FALSE,FALSE,FALSE,Disabled,0.000000,0.000000,0.000000,TRUE,0.012619,0.085068,0.000000,-0.257919,0.039047,0.000000,-0.038000,0.319000,-0.129000,2.250000,-0.240000,-0.130000,0.172482,Hold,0.928223,0.000000,Hold,-120.000000,2.000000,LowGoal,2145.000000,-2181.818182,Speed,2115.000000,-2181.818182,Speed,Off,Off,0.000000,FALSE,0,,,,,0.000000,0.000000
12:39:08.738 PM 04/09/2016,Teleop Enabled,11,FALSE,0,NO ERROR,-0.000000,-0.288749,-0.000000,-0.032083,TRUE,FALSE,TRUE,FALSE,FALSE,FALSE,Disabled,0.000000,0.000000,0.000000,TRUE,-0.000687,0.096085,0.000000,-0.266724,0.345413,0.000000,-0.034000,0.287000,-0.085000,2.270000,-0.240000,-0.070000,0.173484,Hold,0.928223,0.000000,Hold,-120.000000,2.000000,LowGoal,2152.500000,-2181.818182,Speed,2130.000000,-2181.818182,Speed,Off,Off,0.000000,FALSE,0,,,,,0.000000,0.000000
12:39:08.838 PM 04/09/2016,Teleop Enabled,11,FALSE,0,NO ERROR,-0.000000,-0.288749,-0.000000,-0.032083,TRUE,FALSE,TRUE,FALSE,FALSE,FALSE,Disabled,0.000000,0.000000,0.000000,TRUE,-0.014572,0.121338,0.000000,-0.293533,0.598511,0.000000,-0.058000,0.099000,-0.057000,2.370000,-0.240000,-0.140000,0.174999,Hold,0.928223,0.000000,Hold,-120.000000,2.000000,LowGoal,2152.500000,-2181.818182,Speed,2122.500000,-2181.818182,Speed,Off,Off,0.000000,FALSE,0,,,,,0.000000,0.000000
12:39:08.938 PM 04/09/2016,Teleop Enabled,11,FALSE,0,NO ERROR,-0.000000,-0.288749,-0.000000,-0.032083,TRUE,FALSE,TRUE,FALSE,FALSE,FALSE,Disabled,0.000000,0.000000,0.000000,TRUE,-0.030731,0.154831,0.000000,-0.351898,0.713898,0.000000,-0.101000,0.066000,0.122000,2.410000,-0.240000,-0.220000,0.174600,Hold,0.928223,0.000000,Hold,-120.000000,2.000000,LowGoal,2152.500000,-2181.818182,Speed,2115.000000,-2181.818182,Speed,Off,Off,0.000000,FALSE,0,,,,,0.000000,0.000000
12:39:09.038 PM 04/09/2016,Teleop Enabled,11,FALSE,0,NO ERROR,-0.000000,-0.288749,-0.000000,-0.032083,TRUE,FALSE,TRUE,FALSE,FALSE,FALSE,Disabled,0.000000,0.000000,0.000000,TRUE,-0.051407,0.191406,0.000000,-0.456543,0.717850,0.000000,-0.087000,-0.152000,0.306000,2.370000,-0.240000,-0.180000,0.175154,Hold,0.928223,0.000000,Hold,-120.000000,2.000000,LowGoal,2152.500000,-2181.818182,Speed,2115.000000,-2181.818182,Speed,Off,Off,0.000000,FALSE,0,,,,,0.000000,0.000000
12:39:09.138 PM 04/09/2016,Teleop Enabled,10,FALSE,0,NO ERROR,-0.000000,-0.288749,-0.000000,-0.032083,TRUE,FALSE,TRUE,FALSE,FALSE,FALSE,Disabled,0.000000,0.000000,0.000000,TRUE,-0.076447,0.221725,0.000000,-0.528198,0.503174,0.000000,0.034000,-0.310000,0.365000,2.390000,-0.250000,-0.110000,0.176634,Hold,0.928223,0.000000,Hold,-120.000000,2.000000,LowGoal,2152.500000,-2181.818182,Speed,2122.500000,-2181.818182,Speed,Off,Off,0.000000,FALSE,0,,,,,0.000000,0.000000
12:39:09.239 PM 04/09/2016,Teleop Enabled,10,FALSE,0,NO ERROR,-0.000000,-0.288749,-0.000000,-0.032083,TRUE,FALSE,TRUE,FALSE,FALSE,FALSE,Disabled,0.000000,0.000000,0.000000,TRUE,-0.086960,0.236343,0.000000,0.000000,0.139053,0.000000,0.069000,-0.426000,0.490000,2.450000,-0.250000,-0.190000,0.193172,Hold,0.928223,0.000000,Hold,-120.000000,2.000000,LowGoal,2152.500000,-2181.818182,Speed,2130.000000,-2181.818182,Speed,Off,Off,0.000000,FALSE,0,,,,,0.000000,0.000000
12:39:09.339 PM 04/09/2016,Teleop Enabled,11,FALSE,0,NO ERROR,-0.000000,-0.288749,-0.000000,-0.032083,TRUE,FALSE,TRUE,FALSE,FALSE,FALSE,Disabled,0.000000,0.000000,0.000000,TRUE,-0.084732,0.230865,0.000000,0.078186,-0.282135,0.000000,0.140000,-0.536000,0.339000,2.480000,-0.250000,-0.140000,0.180156,Hold,0.928223,0.000000,Hold,-120.000000,2.000000,LowGoal,2152.500000,-2181.818182,Speed,2122.500000,-2181.818182,Speed,Off,Off,0.000000,FALSE,0,,,,,0.000000,0.000000
12:39:09.438 PM 04/09/2016,Teleop Enabled,11,FALSE,0,NO ERROR,-0.000000,-0.288749,-0.000000,-0.032083,TRUE,FALSE,TRUE,FALSE,FALSE,FALSE,Disabled,0.000000,0.000000,0.000000,TRUE,-0.074783,0.193344,0.000000,0.226166,-0.863098,0.000000,0.145000,-0.479000,0.204000,2.440000,-0.260000,-0.080000,0.173773,Hold,0.928223,0.000000,Hold,-120.000000,2.000000,LowGoal,2152.500000,-2181.818182,Speed,2122.500000,-2181.818182,Speed,Off,Off,0.000000,FALSE,0,,,,,0.000000,0.000000
12:39:09.539 PM 04/09/2016,Teleop Enabled,11,FALSE,0,NO ERROR,-0.000000,-0.288749,-0.000000,-0.032083,TRUE,FALSE,TRUE,FALSE,FALSE,FALSE,Disabled,0.000000,0.000000,0.000000,TRUE,-0.063507,0.150299,0.000000,0.315598,-1.191238,0.000000,0.065000,-0.315000,0.129000,2.440000,-0.260000,-0.070000,0.168720,Hold,0.928223,0.000000,Hold,-120.000000,2.000000,LowGoal,2167.500000,-2181.818182,Speed,2122.500000,-2181.818182,Speed,Off,Off,0.000000,FALSE,0,,,,,0.000000,0.000000
12:39:09.638 PM 04/09/2016,Teleop Enabled,11,FALSE,0,NO ERROR,-0.000000,-0.288749,-0.000000,-0.032083,TRUE,FALSE,TRUE,FALSE,FALSE,FALSE,Disabled,0.000000,0.000000,0.000000,TRUE,-0.040787,0.065979,0.000000,0.431091,-1.548340,0.000000,0.104000,-0.282000,0.064000,2.460000,-0.250000,-0.110000,0.174634,Hold,0.928223,0.000000,Hold,-120.000000,2.000000,LowGoal,2175.000000,-2181.818182,Speed,2122.500000,-2181.818182,Speed,Off,Off,0.000000,FALSE,0,,,,,0.000000,0.000000
12:39:09.739 PM 04/09/2016,Teleop Enabled,11,FALSE,0,NO ERROR,-0.000000,-0.288749,-0.000000,-0.032083,TRUE,FALSE,TRUE,FALSE,FALSE,FALSE,Disabled,0.000000,0.000000,0.000000,TRUE,-0.016174,-0.018967,0.000000,0.538666,-1.791229,0.000000,0.163000,-0.238000,-0.035000,2.530000,-0.250000,-0.180000,0.156220,Hold,0.928223,0.000000,Hold,-120.000000,2.000000,LowGoal,2167.500000,-2181.818182,Speed,2130.000000,-2181.818182,Speed,Off,Off,0.000000,FALSE,0,,,,,0.000000,0.000000
12:39:09.838 PM 04/09/2016,Teleop Enabled,11,FALSE,0,NO ERROR,-0.000000,-0.288749,-0.000000,-0.032083,TRUE,FALSE,TRUE,FALSE,FALSE,FALSE,Disabled,0.000000,0.000000,0.000000,TRUE,0.014908,-0.114868,0.000000,0.683670,-1.999420,0.000000,0.185000,-0.196000,-0.048000,2.550000,-0.240000,-0.220000,0.157587,Hold,0.928223,0.000000,Hold,-120.000000,2.000000,LowGoal,2160.000000,-2181.818182,Speed,2122.500000,-2181.818182,Speed,Off,Off,0.000000,FALSE,0,,,,,0.000000,0.000000
12:39:09.939 PM 04/09/2016,Teleop Enabled,11,FALSE,0,NO ERROR,-0.000000,-0.288749,-0.000000,-0.032083,TRUE,FALSE,TRUE,FALSE,FALSE,FALSE,Disabled,0.000000,0.000000,0.000000,TRUE,0.054428,-0.220200,0.000000,0.858032,-2.163651,0.000000,0.177000,-0.108000,0.035000,2.490000,-0.250000,-0.160000,0.131840,Hold,0.928223,0.000000,Hold,-120.000000,2.000000,LowGoal,2145.000000,-2181.818182,Speed,2115.000000,-2181.818182,Speed,Off,Off,0.000000,FALSE,0,,,,,0.000000,0.000000
12:39:10.039 PM 04/09/2016,Teleop Enabled,11,FALSE,0,NO ERROR,-0.000000,-0.288749,-0.000000,-0.032083,TRUE,FALSE,TRUE,FALSE,FALSE,FALSE,Disabled,0.000000,0.000000,0.000000,TRUE,0.101608,-0.330856,0.000000,0.983322,-2.238663,0.000000,0.038000,-0.007000,-0.178000,2.400000,-0.250000,-0.040000,0.131268,Hold,0.928223,0.000000,Hold,-120.000000,2.000000,LowGoal,2152.500000,-2181.818182,Speed,2122.500000,-2181.818182,Speed,Off,Off,0.000000,FALSE,0,,,,,0.000000,0.000000
12:39:10.139 PM 04/09/2016,Teleop Enabled,11,FALSE,0,NO ERROR,-0.000000,-0.288749,-0.000000,-0.032083,TRUE,FALSE,TRUE,FALSE,FALSE,FALSE,Disabled,0.000000,0.000000,0.000000,TRUE,0.151367,-0.375519,0.000000,0.987579,0.019562,0.000000,-0.070000,0.074000,-0.167000,2.480000,-0.250000,-0.110000,0.132917,Hold,0.928223,0.000000,HighGoal,-120.000000,77824.000000,HighGoal,2152.500000,-3272.727273,Speed,2130.000000,-3272.727273,Speed,Off,Off,0.000000,FALSE,0,,,,,0.000000,0.000000
12:39:10.240 PM 04/09/2016,Teleop Enabled,11,FALSE,0,NO ERROR,-0.000000,-0.288749,-0.000000,-0.032083,TRUE,FALSE,TRUE,FALSE,FALSE,FALSE,Disabled,0.000000,0.000000,0.000000,TRUE,0.198990,-0.371552,0.000000,0.933044,0.133240,0.000000,-0.013000,0.297000,-0.326000,2.480000,-0.250000,-0.190000,0.125213,Hold,0.928223,0.000000,Hold,-2549.000000,77824.000000,HighGoal,2190.000000,-3272.727273,Speed,2100.000000,-3272.727273,Speed,Off,Off,0.000000,FALSE,0,,,,,0.000000,0.000000
12:39:10.339 PM 04/09/2016,Teleop Enabled,11,FALSE,0,NO ERROR,-0.000000,-0.288749,-0.000000,-0.032083,TRUE,FALSE,TRUE,FALSE,FALSE,FALSE,Disabled,0.000000,0.000000,0.000000,TRUE,0.254974,-0.356689,0.000000,0.943390,0.267197,0.000000,-0.092000,0.138000,-0.065000,2.470000,-0.250000,-0.170000,0.155122,Hold,0.928223,0.000000,Hold,-16970.000000,77824.000000,HighGoal,2505.000000,-3272.727273,Speed,2257.500000,-3272.727273,Speed,Off,Off,0.000000,FALSE,0,,,,,0.000000,0.000000
12:39:10.439 PM 04/09/2016,Teleop Enabled,10,FALSE,0,NO ERROR,-0.000000,-0.230999,-0.000000,0.032083,TRUE,FALSE,TRUE,FALSE,FALSE,FALSE,Disabled,0.000000,0.000000,0.000000,TRUE,0.300766,-0.343948,0.000000,0.909012,0.227448,0.000000,-0.099000,0.148000,0.173000,2.450000,-0.260000,-0.280000,0.125867,Hold,0.928223,0.000000,Hold,-29605.000000,77824.000000,HighGoal,2775.000000,-3272.727273,Speed,2572.500000,-3272.727273,Speed,Off,Off,0.000000,FALSE,0,,,,,0.000000,0.000000
12:39:10.539 PM 04/09/2016,Teleop Enabled,11,FALSE,0,NO ERROR,-0.000000,-0.211750,-0.000000,0.032083,TRUE,FALSE,TRUE,FALSE,FALSE,FALSE,Disabled,0.000000,0.000000,0.000000,TRUE,0.346420,-0.332947,0.000000,0.918228,0.205231,0.000000,0.153000,0.024000,-0.018000,2.440000,-0.270000,-0.200000,0.106361,Hold,0.928223,0.000000,Hold,-42248.000000,77824.000000,HighGoal,3105.000000,-3272.727273,Speed,2857.500000,-3272.727273,Speed,Off,Off,0.000000,FALSE,0,,,,,0.000000,0.000000
12:39:10.639 PM 04/09/2016,Teleop Enabled,11,FALSE,0,NO ERROR,-0.000000,-0.211750,-0.000000,-0.006417,TRUE,FALSE,TRUE,FALSE,FALSE,FALSE,Disabled,0.000000,0.000000,0.000000,TRUE,0.395004,-0.323502,0.000000,1.000214,0.180115,0.000000,0.020000,-0.010000,-0.002000,2.430000,-0.240000,-0.290000,0.149359,Hold,0.928223,0.000000,Hold,-42248.000000,77824.000000,HighGoal,3255.000000,-3272.727273,Speed,3105.000000,-3272.727273,Speed,Off,Off,0.000000,FALSE,0,,,,,0.000000,0.000000
12:39:10.739 PM 04/09/2016,Teleop Enabled,11,FALSE,0,NO ERROR,-0.000000,-0.211750,-0.000000,-0.006417,TRUE,FALSE,TRUE,FALSE,FALSE,FALSE,Disabled,0.000000,0.000000,0.000000,TRUE,0.446869,-0.315002,0.000000,1.074631,0.160278,0.000000,-0.044000,0.066000,-0.165000,2.380000,-0.250000,-0.330000,0.143441,Hold,0.928223,0.000000,Hold,-57279.000000,77824.000000,HighGoal,3262.500000,-3272.727273,Speed,3247.500000,-3272.727273,Speed,Off,Off,0.000000,FALSE,0,,,,,0.000000,0.000000
12:39:10.839 PM 04/09/2016,Teleop Enabled,11,FALSE,0,NO ERROR,-0.000000,-0.282333,-0.000000,-0.102666,TRUE,FALSE,TRUE,FALSE,FALSE,FALSE,Disabled,0.000000,0.000000,0.000000,TRUE,0.501633,-0.306046,0.000000,1.091446,0.191559,0.000000,0.088000,-0.135000,0.074000,2.390000,-0.240000,-0.290000,0.165790,Hold,0.928223,0.000000,Hold,-74487.000000,77824.000000,HighGoal,3232.500000,-3272.727273,Speed,3270.000000,-3272.727273,Speed,Off,Off,0.000000,FALSE,0,,,,,0.000000,0.000000
12:39:10.939 PM 04/09/2016,Teleop Enabled,10,FALSE,0,NO ERROR,-0.000000,-0.314416,-0.000000,-0.128333,TRUE,FALSE,TRUE,FALSE,FALSE,FALSE,Disabled,0.000000,0.000000,0.000000,TRUE,0.556702,-0.296890,0.000000,1.093750,0.178253,0.000000,-0.270000,0.141000,0.107000,2.400000,-0.220000,-0.280000,0.176287,Hold,0.928223,0.000000,Hold,-78004.000000,77824.000000,HighGoal,3247.500000,-3272.727273,Speed,3232.500000,-3272.727273,Speed,Off,Off,0.000000,FALSE,0,,,,,0.000000,0.000000
12:39:11.039 PM 04/09/2016,Teleop Enabled,11,FALSE,0,NO ERROR,-0.000000,-0.224583,-0.000000,0.012833,TRUE,FALSE,TRUE,FALSE,FALSE,FALSE,Disabled,0.000000,0.000000,0.000000,TRUE,0.607666,-0.287933,0.000000,1.009674,0.173233,0.000000,0.090000,-0.059000,0.010000,2.360000,-0.270000,-0.560000,0.110733,Hold,0.928223,0.000000,Hold,-77900.000000,77824.000000,HighGoal,3277.500000,-3272.727273,Speed,3210.000000,-3272.727273,Speed,Off,Off,0.000000,FALSE,0,,,,,0.000000,0.000000
12:39:11.139 PM 04/09/2016,Teleop Enabled,11,FALSE,0,NO ERROR,-0.000000,-0.198916,-0.000000,0.025667,TRUE,FALSE,TRUE,FALSE,FALSE,FALSE,Disabled,0.000000,0.000000,0.000000,TRUE,0.671371,-0.277954,0.000000,1.124329,0.163391,0.000000,0.053000,0.174000,0.049000,2.350000,-0.260000,-0.410000,0.135179,Hold,0.928223,0.000000,Hold,-77897.000000,77824.000000,HighGoal,3277.500000,-3272.727273,Speed,3240.000000,-3272.727273,Speed,Off,Off,0.000000,FALSE,0,,,,,0.000000,0.000000
12:39:11.240 PM 04/09/2016,Teleop Enabled,10,FALSE,0,NO ERROR,-0.000000,-0.218166,-0.000000,-0.057750,TRUE,FALSE,TRUE,FALSE,FALSE,FALSE,Disabled,0.000000,0.000000,0.000000,TRUE,0.717346,-0.271072,0.000000,1.148926,0.159973,0.000000,0.000000,-0.170000,-0.017000,2.360000,-0.240000,-0.360000,0.172958,Hold,0.928223,0.000000,Hold,-77897.000000,77824.000000,HighGoal,3270.000000,-3272.727273,Speed,3255.000000,-3272.727273,Speed,Off,Off,0.000000,FALSE,0,,,,,0.000000,0.000000
12:39:11.340 PM 04/09/2016,Teleop Enabled,11,FALSE,0,NO ERROR,-0.000000,-0.211750,-0.000000,-0.038500,TRUE,FALSE,TRUE,FALSE,FALSE,FALSE,Disabled,0.000000,0.000000,0.000000,TRUE,0.786758,-0.263672,0.000000,1.169724,0.117035,0.000000,-0.038000,-0.201000,-0.051000,2.420000,-0.280000,-0.350000,0.140518,Hold,0.928223,0.000000,Hold,-77897.000000,77824.000000,HighGoal,3262.500000,-3272.727273,Speed,3240.000000,-3272.727273,Speed,Off,Off,0.000000,FALSE,0,,,,,0.000000,0.000000
12:39:11.439 PM 04/09/2016,Teleop Enabled,11,FALSE,0,NO ERROR,-0.000000,-0.224583,-0.000000,-0.064167,TRUE,FALSE,TRUE,FALSE,FALSE,FALSE,Disabled,0.000000,0.000000,0.000000,TRUE,0.844757,-0.258209,0.000000,1.151016,0.102463,0.000000,-0.089000,0.119000,0.040000,2.370000,-0.230000,-0.350000,0.204588,Hold,0.928223,0.000000,Hold,-77897.000000,77824.000000,HighGoal,3262.500000,-3272.727273,Speed,3232.500000,-3272.727273,Speed,Off,Off,0.000000,FALSE,0,,,,,0.000000,0.000000
12:39:11.539 PM 04/09/2016,Teleop Enabled,10,FALSE,0,NO ERROR,-0.000000,-0.218166,-0.000000,-0.032083,TRUE,FALSE,TRUE,FALSE,FALSE,FALSE,Disabled,0.000000,0.000000,0.000000,TRUE,0.900589,-0.253540,0.000000,1.110138,0.096878,0.000000,0.042000,0.252000,0.090000,2.360000,-0.280000,-0.370000,0.166375,Hold,0.928223,0.000000,Hold,-77897.000000,77824.000000,HighGoal,3270.000000,-3272.727273,Speed,3232.500000,-3272.727273,Speed,Off,Off,0.000000,FALSE,0,,,,,0.000000,0.000000
12:39:11.640 PM 04/09/2016,Teleop Enabled,10,FALSE,0,NO ERROR,-0.000000,-0.218166,-0.000000,-0.044917,TRUE,FALSE,TRUE,FALSE,FALSE,FALSE,Disabled,0.000000,0.000000,0.000000,TRUE,0.957474,-0.248123,0.000000,1.143433,0.115082,0.000000,0.051000,0.200000,-0.005000,2.400000,-0.250000,-0.340000,0.188642,Hold,0.928223,0.000000,Hold,-77897.000000,77824.000000,HighGoal,3277.500000,-3272.727273,Speed,3247.500000,-3272.727273,Speed,Off,Off,0.000000,FALSE,0,,,,,0.000000,0.000000
12:39:11.741 PM 04/09/2016,Teleop Enabled,11,FALSE,0,NO ERROR,-0.000000,-0.218166,-0.000000,-0.044917,TRUE,FALSE,TRUE,FALSE,FALSE,FALSE,Disabled,0.000000,0.000000,0.000000,TRUE,1.015900,-0.243408,0.000000,1.188156,0.084305,0.000000,0.112000,0.201000,0.031000,2.410000,-0.260000,-0.330000,0.188993,Hold,0.928223,0.000000,Hold,-77897.000000,77824.000000,HighGoal,3270.000000,-3272.727273,Speed,3255.000000,-3272.727273,Speed,Off,Off,0.000000,FALSE,0,,,,,0.000000,0.000000
12:39:11.841 PM 04/09/2016,Teleop Enabled,11,FALSE,0,NO ERROR,-0.000000,-0.218166,-0.000000,-0.044917,TRUE,FALSE,TRUE,FALSE,FALSE,FALSE,Disabled,0.000000,0.000000,0.000000,TRUE,1.088364,-0.238754,0.000000,1.205811,0.064697,0.000000,0.112000,0.201000,0.031000,2.460000,-0.260000,-0.300000,0.217594,Hold,0.928223,0.000000,Hold,-77897.000000,77824.000000,HighGoal,3270.000000,-3272.727273,Speed,3255.000000,-3272.727273,Speed,Off,Off,0.000000,FALSE,0,,,,,0.000000,0.000000
12:39:11.942 PM 04/09/2016,Teleop Enabled,10,FALSE,0,NO ERROR,-0.000000,-0.218166,-0.000000,-0.044917,TRUE,FALSE,TRUE,FALSE,FALSE,FALSE,Disabled,0.000000,0.000000,0.000000,TRUE,1.136597,-0.237289,0.000000,1.206146,0.032059,0.000000,0.023000,0.063000,-0.109000,2.460000,-0.260000,-0.290000,0.233760,Hold,0.928223,0.000000,Hold,-77897.000000,77824.000000,HighGoal,3277.500000,-3272.727273,Speed,3255.000000,-3272.727273,Speed,Off,Off,0.000000,FALSE,0,,,,,0.000000,0.000000
12:39:12.043 PM 04/09/2016,Teleop Enabled,11,FALSE,0,NO ERROR,-0.000000,-0.218166,-0.000000,-0.044917,TRUE,FALSE,TRUE,FALSE,FALSE,FALSE,Disabled,0.000000,0.000000,0.000000,TRUE,1.196732,-0.235886,0.000000,1.208496,0.019104,0.000000,-0.180000,-0.209000,0.044000,2.390000,-0.260000,-0.280000,0.238693,Hold,0.928223,0.000000,Hold,-77897.000000,77824.000000,HighGoal,3262.500000,-3272.727273,Speed,3240.000000,-3272.727273,Speed,Off,Off,0.000000,FALSE,0,,,,,0.000000,0.000000
12:39:12.142 PM 04/09/2016,Teleop Enabled,11,FALSE,0,NO ERROR,-0.000000,-0.218166,-0.000000,-0.044917,TRUE,FALSE,TRUE,FALSE,FALSE,FALSE,Disabled,0.000000,0.000000,0.000000,TRUE,1.257111,-0.235519,0.000000,1.221985,-0.003448,0.000000,0.044000,0.243000,0.083000,2.390000,-0.260000,-0.280000,0.255713,Hold,0.928223,0.000000,Hold,-77897.000000,77824.000000,HighGoal,3270.000000,-3272.727273,Speed,3247.500000,-3272.727273,Speed,Off,Off,0.000000,FALSE,0,,,,,0.000000,0.000000
12:39:12.242 PM 04/09/2016,Teleop Enabled,10,FALSE,0,NO ERROR,-0.000000,-0.218166,-0.000000,-0.044917,TRUE,FALSE,TRUE,FALSE,FALSE,FALSE,Disabled,0.000000,0.000000,0.000000,TRUE,1.335236,-0.235611,0.000000,1.343201,-0.000107,0.000000,0.085000,-0.215000,0.087000,2.410000,-0.260000,-0.320000,0.263986,Hold,0.928223,0.000000,Hold,-77897.000000,77824.000000,HighGoal,3277.500000,-3272.727273,Speed,3247.500000,-3272.727273,Speed,Off,Off,0.000000,FALSE,0,,,,,0.000000,0.000000
12:39:12.343 PM 04/09/2016,Teleop Enabled,11,FALSE,0,NO ERROR,-0.000000,-0.218166,-0.000000,-0.044917,TRUE,FALSE,TRUE,FALSE,FALSE,FALSE,Disabled,0.000000,0.000000,0.000000,TRUE,1.405045,-0.237213,0.000000,1.432388,-0.055527,0.000000,0.109000,0.131000,0.027000,2.420000,-0.260000,-0.350000,0.266464,Hold,0.928223,0.000000,Hold,-77897.000000,77824.000000,HighGoal,3277.500000,-3272.727273,Speed,3255.000000,-3272.727273,Speed,Off,Off,0.000000,FALSE,0,,,,,0.000000,0.000000
12:39:12.443 PM 04/09/2016,Teleop Enabled,10,FALSE,0,NO ERROR,-0.000000,-0.218166,-0.000000,-0.044917,TRUE,FALSE,TRUE,FALSE,FALSE,FALSE,Disabled,0.000000,0.000000,0.000000,TRUE,1.405045,-0.237213,0.000000,1.432388,-0.055527,0.000000,0.061000,0.083000,0.041000,2.450000,-0.260000,-0.360000,0.265525,Hold,0.928223,0.000000,Hold,-77897.000000,77824.000000,HighGoal,3277.500000,-3272.727273,Speed,3255.000000,-3272.727273,Speed,Off,Off,0.000000,FALSE,0,,,,,0.000000,0.000000
12:39:12.543 PM 04/09/2016,Teleop Enabled,10,FALSE,0,NO ERROR,-0.000000,-0.218166,-0.000000,-0.044917,TRUE,FALSE,TRUE,FALSE,FALSE,FALSE,Disabled,0.000000,0.000000,0.000000,TRUE,1.550934,-0.244553,0.000000,1.456802,-0.082291,0.000000,0.092000,-0.184000,-0.058000,2.440000,-0.260000,-0.410000,0.276379,Hold,0.928223,0.000000,Hold,-77897.000000,77824.000000,HighGoal,3270.000000,-3272.727273,Speed,3247.500000,-3272.727273,Speed,Off,Off,0.000000,FALSE,0,,,,,0.000000,0.000000
12:39:12.644 PM 04/09/2016,Teleop Enabled,12,FALSE,0,NO ERROR,-0.000000,-0.218166,-0.000000,-0.044917,TRUE,FALSE,TRUE,FALSE,FALSE,FALSE,Disabled,0.000000,0.000000,0.000000,TRUE,1.623611,-0.248352,0.000000,1.447525,-0.075394,0.000000,-0.074000,0.194000,0.116000,2.430000,-0.260000,-0.370000,0.281663,Hold,0.928223,0.000000,Hold,-77897.000000,77824.000000,HighGoal,3277.500000,-3272.727273,Speed,3240.000000,-3272.727273,Speed,Off,Off,0.000000,FALSE,0,,,,,0.000000,0.000000
12:39:12.745 PM 04/09/2016,Teleop Enabled,10,FALSE,0,NO ERROR,-0.000000,-0.218166,-0.000000,-0.044917,TRUE,FALSE,TRUE,FALSE,FALSE,FALSE,Disabled,0.000000,0.000000,0.000000,TRUE,1.624252,-0.253021,0.000000,0.027634,-0.097412,0.000000,0.005000,-0.173000,-0.068000,2.420000,-0.260000,-0.370000,0.280286,Hold,0.928223,0.000000,Hold,-77897.000000,77824.000000,HighGoal,3277.500000,-3272.727273,Speed,3247.500000,-3272.727273,Speed,Off,Off,0.000000,FALSE,0,,,,,0.000000,0.000000
12:39:12.846 PM 04/09/2016,Teleop Enabled,10,FALSE,0,NO ERROR,-0.000000,-0.218166,-0.000000,-0.044917,TRUE,FALSE,TRUE,FALSE,FALSE,FALSE,Disabled,0.000000,0.000000,0.000000,TRUE,1.628220,-0.259247,0.000000,0.127060,-0.134109,0.000000,0.103000,0.039000,0.050000,2.420000,-0.260000,-0.390000,0.299606,Hold,0.928223,0.000000,Hold,-77897.000000,77824.000000,HighGoal,3277.500000,-3272.727273,Speed,3247.500000,-3272.727273,Speed,Off,Off,0.000000,FALSE,0,,,,,0.000000,0.000000
12:39:12.947 PM 04/09/2016,Teleop Enabled,11,FALSE,0,NO ERROR,-0.000000,-0.218166,-0.000000,-0.044917,TRUE,FALSE,TRUE,FALSE,FALSE,FALSE,Disabled,0.000000,0.000000,0.000000,TRUE,1.637314,-0.264816,0.000000,0.200668,-0.112015,0.000000,0.121000,-0.114000,0.046000,2.470000,-0.260000,-0.390000,0.292604,Hold,0.928223,50.000000,Hold,-77897.000000,143360.000000,HighGoal,3262.500000,-3272.727273,Speed,3255.000000,-3272.727273,Speed,Off,Off,0.000000,FALSE,0,,,,,0.000000,0.000000
12:39:13.048 PM 04/09/2016,Teleop Enabled,10,FALSE,0,NO ERROR,-0.000000,-0.205333,-0.000000,0.000000,TRUE,FALSE,TRUE,FALSE,FALSE,FALSE,Disabled,0.000000,0.000000,0.000000,TRUE,1.647598,-0.271149,0.000000,0.189743,-0.138947,0.000000,0.070000,0.179000,0.039000,2.430000,-0.270000,-0.370000,0.310502,Hold,3.913818,50.000000,Hold,-83810.000000,143360.000000,HighGoal,3270.000000,-3272.727273,Speed,3262.500000,-3272.727273,Speed,Off,Off,0.000000,FALSE,0,,,,,0.000000,0.000000
12:39:13.149 PM 04/09/2016,Teleop Enabled,10,FALSE,0,NO ERROR,-0.000000,-0.160416,-0.000000,0.032083,TRUE,FALSE,TRUE,FALSE,FALSE,FALSE,Disabled,0.000000,0.000000,0.000000,TRUE,1.656708,-0.278152,0.000000,0.163071,-0.129471,0.000000,-0.005000,0.022000,0.183000,2.470000,-0.240000,-0.350000,0.264199,Hold,8.120850,50.000000,Hold,-100100.000000,143360.000000,HighGoal,3240.000000,-3272.727273,Speed,3232.500000,-3272.727273,Speed,Off,Off,0.000000,FALSE,0,,,,,0.000000,0.000000
12:39:13.252 PM 04/09/2016,Teleop Enabled,11,FALSE,0,NO ERROR,-0.000000,-0.205333,-0.000000,-0.096250,TRUE,FALSE,TRUE,FALSE,FALSE,FALSE,Disabled,0.000000,0.000000,0.000000,TRUE,1.665939,-0.284546,0.000000,0.195221,-0.128326,0.000000,0.059000,0.063000,0.164000,2.470000,-0.310000,-0.250000,0.326279,Hold,13.629395,50.000000,Hold,-100100.000000,143360.000000,HighGoal,3105.000000,-3272.727273,Speed,3232.500000,-3272.727273,Speed,Off,Off,0.000000,FALSE,0,,,,,0.000000,0.000000
12:39:13.352 PM 04/09/2016,Teleop Enabled,9,FALSE,0,NO ERROR,-0.000000,-0.256666,-0.000000,-0.121916,TRUE,FALSE,TRUE,FALSE,FALSE,FALSE,Disabled,0.000000,0.000000,0.000000,TRUE,1.665939,-0.284546,0.000000,0.195221,-0.128326,0.000000,-0.099000,0.147000,0.138000,2.430000,-0.250000,-0.110000,0.311407,Hold,18.843506,50.000000,Hold,-120357.000000,143360.000000,HighGoal,3195.000000,-3272.727273,Speed,3225.000000,-3272.727273,Speed,Off,Off,0.000000,FALSE,0,,,,,0.000000,0.000000
12:39:13.453 PM 04/09/2016,Teleop Enabled,10,FALSE,0,NO ERROR,-0.000000,-0.256666,-0.000000,-0.121916,TRUE,FALSE,TRUE,FALSE,FALSE,FALSE,Disabled,0.000000,0.000000,0.000000,TRUE,1.675003,-0.291107,0.000000,0.117538,-0.098434,0.000000,-0.098000,0.198000,0.147000,2.410000,-0.280000,-0.380000,0.372912,Hold,26.422852,50.000000,Hold,-140168.000000,143360.000000,HighGoal,3292.500000,-3272.727273,Speed,3240.000000,-3272.727273,Speed,Off,Off,0.000000,FALSE,0,,,,,0.000000,0.000000
12:39:13.554 PM 04/09/2016,Teleop Enabled,10,FALSE,0,NO ERROR,-0.000000,-0.250249,-0.000000,-0.070583,TRUE,FALSE,TRUE,FALSE,FALSE,FALSE,Disabled,0.000000,0.000000,0.000000,TRUE,1.680756,-0.297333,0.000000,0.101578,-0.178360,0.000000,0.081000,-0.209000,0.157000,2.420000,-0.220000,-0.370000,0.269876,Hold,34.863281,50.000000,Hold,-143860.000000,143360.000000,HighGoal,3277.500000,-3272.727273,Speed,3240.000000,-3272.727273,Speed,Off,Off,0.000000,FALSE,0,,,,,0.000000,0.000000
12:39:13.656 PM 04/09/2016,Teleop Enabled,10,FALSE,0,NO ERROR,-0.000000,-0.269499,-0.000000,-0.121916,TRUE,FALSE,TRUE,FALSE,FALSE,FALSE,Disabled,0.000000,0.000000,0.000000,TRUE,1.687744,-0.318802,0.000000,0.057983,-0.192856,0.000000,-0.086000,0.193000,0.057000,2.380000,-0.340000,-0.410000,0.314374,Hold,45.234863,50.000000,Hold,-143456.000000,143360.000000,HighGoal,3262.500000,-3272.727273,Speed,3247.500000,-3272.727273,Speed,Off,Off,0.000000,FALSE,0,,,,,0.000000,0.000000
12:39:13.757 PM 04/09/2016,Teleop Enabled,10,FALSE,0,NO ERROR,-0.000000,-0.282333,-0.000000,-0.121916,TRUE,FALSE,TRUE,FALSE,FALSE,FALSE,Disabled,0.000000,0.000000,0.000000,TRUE,1.687744,-0.318802,0.000000,0.057983,-0.192856,0.000000,-0.125000,0.210000,0.123000,2.410000,-0.300000,-0.320000,0.332327,Hold,52.964111,50.000000,Hold,-143456.000000,143360.000000,HighGoal,3270.000000,-3272.727273,Speed,3247.500000,-3272.727273,Speed,Off,Off,0.000000,FALSE,0,,,,,0.000000,0.000000
12:39:13.858 PM 04/09/2016,Teleop Enabled,10,FALSE,0,NO ERROR,-0.000000,-0.282333,-0.000000,-0.121916,TRUE,FALSE,TRUE,FALSE,FALSE,FALSE,Disabled,0.000000,0.000000,0.000000,TRUE,1.687851,-0.328735,0.000000,-0.051315,-0.203018,0.000000,0.057000,0.193000,0.346000,2.440000,-0.260000,-0.670000,0.332327,Hold,54.896240,50.000000,Hold,-143456.000000,143360.000000,HighGoal,3277.500000,-3272.727273,Speed,3247.500000,-3272.727273,Speed,Off,Off,0.000000,FALSE,0,,,,,0.000000,0.000000
12:39:13.957 PM 04/09/2016,Teleop Enabled,10,FALSE,0,NO ERROR,-0.000000,-0.275916,-0.000000,-0.102666,TRUE,FALSE,TRUE,FALSE,FALSE,FALSE,Disabled,0.000000,0.000000,0.000000,TRUE,1.685699,-0.338272,0.000000,0.000000,-0.181213,0.000000,0.024000,-0.078000,-0.056000,2.440000,-0.290000,-0.510000,0.312877,Hold,54.211182,50.000000,Hold,-143456.000000,143360.000000,HighGoal,3277.500000,-3272.727273,Speed,3247.500000,-3272.727273,Speed,Off,Off,0.000000,FALSE,0,,,,,0.000000,0.000000
12:39:14.058 PM 04/09/2016,Teleop Enabled,10,FALSE,0,NO ERROR,-0.000000,-0.275916,-0.000000,-0.077000,TRUE,FALSE,TRUE,FALSE,FALSE,FALSE,Disabled,0.000000,0.000000,0.000000,TRUE,1.686310,-0.346634,0.000000,0.029388,-0.169647,0.000000,0.087000,0.193000,0.122000,2.420000,-0.280000,-0.510000,0.334025,Hold,54.194336,50.000000,Hold,-143456.000000,143360.000000,HighGoal,3270.000000,-3272.727273,Speed,3255.000000,-3272.727273,Speed,Off,Off,0.000000,FALSE,0,,,,,0.000000,0.000000
12:39:14.158 PM 04/09/2016,Teleop Enabled,10,FALSE,0,NO ERROR,-0.000000,-0.275916,-0.000000,-0.077000,TRUE,FALSE,TRUE,FALSE,FALSE,FALSE,Disabled,0.000000,0.000000,0.000000,TRUE,1.689514,-0.354446,0.000000,0.071548,-0.140060,0.000000,0.100000,-0.150000,0.002000,2.500000,-0.290000,-0.450000,0.334944,Hold,54.194336,50.000000,Hold,-143456.000000,143360.000000,HighGoal,3270.000000,-3272.727273,Speed,3262.500000,-3272.727273,Speed,Off,Off,0.000000,FALSE,0,,,,,0.000000,0.000000
12:39:14.259 PM 04/09/2016,Teleop Enabled,10,FALSE,0,NO ERROR,-0.000000,-0.275916,-0.000000,-0.077000,TRUE,FALSE,TRUE,FALSE,FALSE,FALSE,Disabled,0.000000,0.000000,0.000000,TRUE,1.692123,-0.361786,0.000000,0.009262,-0.114044,0.000000,-0.108000,-0.148000,-0.152000,2.460000,-0.270000,-0.460000,0.361276,Hold,54.193604,50.000000,Hold,-143456.000000,143360.000000,HighGoal,3270.000000,-3272.727273,Speed,3255.000000,-3272.727273,Speed,Off,Off,0.000000,FALSE,0,,,,,0.000000,0.000000
12:39:14.358 PM 04/09/2016,Teleop Enabled,10,FALSE,0,NO ERROR,-0.000000,-0.275916,-0.000000,-0.077000,TRUE,FALSE,TRUE,FALSE,FALSE,FALSE,Disabled,0.000000,0.000000,0.000000,TRUE,1.691788,-0.368011,0.000000,-0.013458,-0.126617,0.000000,-0.002000,0.214000,0.179000,2.410000,-0.290000,-0.350000,0.355547,Hold,54.193115,50.000000,Hold,-143456.000000,143360.000000,HighGoal,3270.000000,-3272.727273,Speed,3255.000000,-3272.727273,Speed,Off,Off,0.000000,FALSE,0,,,,,0.000000,0.000000
12:39:14.459 PM 04/09/2016,Teleop Enabled,11,FALSE,0,NO ERROR,-0.000000,-0.275916,-0.000000,-0.077000,TRUE,FALSE,TRUE,FALSE,FALSE,FALSE,Disabled,0.000000,0.000000,0.000000,TRUE,1.689163,-0.373489,0.000000,-0.054031,-0.109573,0.000000,0.030000,-0.191000,-0.123000,2.430000,-0.280000,-0.410000,0.368058,Hold,54.192627,50.000000,Hold,-143456.000000,143360.000000,HighGoal,3270.000000,-3272.727273,Speed,3247.500000,-3272.727273,Speed,Off,Off,0.000000,FALSE,0,,,,,0.000000,0.000000
12:39:14.558 PM 04/09/2016,Teleop Enabled,10,FALSE,0,NO ERROR,-0.000000,-0.275916,-0.000000,-0.077000,TRUE,FALSE,TRUE,FALSE,FALSE,FALSE,Disabled,0.000000,0.000000,0.000000,TRUE,1.688690,-0.379761,0.000000,0.021011,-0.134064,0.000000,0.163000,-0.145000,0.097000,2.450000,-0.280000,-0.410000,0.393340,Hold,54.192627,50.000000,Hold,-143456.000000,143360.000000,HighGoal,3255.000000,-3272.727273,Speed,3240.000000,-3272.727273,Speed,Off,Off,0.000000,FALSE,0,,,,,0.000000,0.000000
12:39:14.659 PM 04/09/2016,Teleop Enabled,10,FALSE,0,NO ERROR,-0.000000,-0.275916,-0.000000,-0.077000,TRUE,FALSE,TRUE,FALSE,FALSE,FALSE,Disabled,0.000000,0.000000,0.000000,TRUE,1.690475,-0.385468,0.000000,0.047821,-0.112747,0.000000,-0.077000,-0.076000,-0.002000,2.500000,-0.290000,-0.480000,0.403998,Hold,54.192627,50.000000,Hold,-143456.000000,143360.000000,HighGoal,3240.000000,-3272.727273,Speed,3262.500000,-3272.727273,Speed,Off,Off,0.000000,FALSE,0,,,,,0.000000,0.000000
12:39:14.759 PM 04/09/2016,Teleop Enabled,10,FALSE,0,NO ERROR,-0.000000,-0.275916,-0.000000,-0.077000,TRUE,FALSE,TRUE,FALSE,FALSE,FALSE,Disabled,0.000000,0.000000,0.000000,TRUE,1.693665,-0.391785,0.000000,0.092407,-0.142120,0.000000,0.165000,-0.068000,0.043000,2.490000,-0.290000,-0.530000,0.396841,Hold,54.192383,50.000000,Hold,-143456.000000,143360.000000,HighGoal,3240.000000,-3272.727273,Speed,3255.000000,-3272.727273,Speed,Off,Off,0.000000,FALSE,0,,,,,0.000000,0.000000
12:39:14.859 PM 04/09/2016,Teleop Enabled,10,FALSE,0,NO ERROR,-0.000000,-0.275916,-0.000000,-0.077000,TRUE,FALSE,TRUE,FALSE,FALSE,FALSE,Disabled,0.000000,0.000000,0.000000,TRUE,1.699005,-0.398926,0.000000,0.104950,-0.127563,0.000000,0.004000,-0.010000,0.093000,2.540000,-0.280000,-0.590000,0.407496,Hold,54.192383,50.000000,Hold,-143456.000000,143360.000000,HighGoal,3247.500000,-3272.727273,Speed,3240.000000,-3272.727273,Speed,Off,Off,0.000000,FALSE,0,,,,,0.000000,0.000000
12:39:14.959 PM 04/09/2016,Teleop Enabled,11,FALSE,0,NO ERROR,-0.000000,-0.275916,-0.000000,-0.077000,TRUE,FALSE,TRUE,FALSE,FALSE,FALSE,Disabled,0.000000,0.000000,0.000000,TRUE,1.705780,-0.400421,0.000000,0.167938,-0.013687,0.000000,-0.012000,0.008000,-0.078000,2.530000,-0.280000,-0.550000,0.398721,Hold,54.192383,50.000000,Hold,-143456.000000,143360.000000,HighGoal,3247.500000,-3272.727273,Speed,3240.000000,-3272.727273,Speed,Off,Off,0.000000,FALSE,0,,,,,0.000000,0.000000
12:39:15.059 PM 04/09/2016,Teleop Enabled,12,FALSE,0,NO ERROR,-0.000000,-0.275916,-0.000000,-0.077000,TRUE,FALSE,TRUE,FALSE,FALSE,FALSE,Disabled,0.000000,0.000000,0.000000,TRUE,1.714645,-0.401215,0.000000,0.170181,-0.010223,0.000000,0.002000,0.053000,0.029000,2.570000,-0.280000,-0.560000,0.405134,Hold,54.192383,50.000000,Hold,-143456.000000,143360.000000,HighGoal,3247.500000,-3272.727273,Speed,3240.000000,-3272.727273,Speed,Off,Off,0.000000,FALSE,0,,,,,0.000000,0.000000
12:39:15.160 PM 04/09/2016,Teleop Enabled,10,FALSE,0,NO ERROR,-0.000000,-0.275916,-0.000000,-0.077000,TRUE,FALSE,TRUE,FALSE,FALSE,FALSE,Disabled,0.000000,0.000000,0.000000,TRUE,1.722031,-0.402039,0.000000,0.112259,-0.033905,0.000000,-0.016000,0.070000,0.124000,2.590000,-0.290000,-0.570000,0.423562,Hold,54.192139,50.000000,HighGoal,-143456.000000,77824.000000,HighGoal,3240.000000,-3272.727273,Speed,3255.000000,-3272.727273,Speed,Off,Off,0.000000,FALSE,0,,,,,0.000000,0.000000
12:39:15.259 PM 04/09/2016,Teleop Enabled,11,FALSE,0,NO ERROR,-0.000000,-0.275916,-0.000000,-0.077000,TRUE,FALSE,TRUE,FALSE,FALSE,FALSE,Disabled,0.000000,0.000000,0.000000,TRUE,1.728104,-0.404526,0.000000,0.142426,-0.045151,0.000000,0.133000,-0.124000,0.144000,2.570000,-0.290000,-0.540000,0.428516,Hold,54.192139,50.000000,Hold,-143456.000000,77824.000000,HighGoal,3247.500000,-3272.727273,Speed,3262.500000,-3272.727273,Speed,Off,Off,0.000000,FALSE,0,,,,,0.000000,0.000000
12:39:15.360 PM 04/09/2016,Teleop Enabled,10,FALSE,0,NO ERROR,-0.000000,-0.275916,-0.000000,-0.096250,TRUE,FALSE,TRUE,FALSE,FALSE,FALSE,Disabled,0.000000,0.000000,0.000000,TRUE,1.736984,-0.406296,0.000000,0.196136,-0.028336,0.000000,-0.085000,0.149000,-0.040000,2.610000,-0.280000,-0.600000,0.444365,Hold,54.192139,50.000000,HighGoal,-143456.000000,77824.000000,HighGoal,3240.000000,-3272.727273,Speed,3247.500000,-3272.727273,Speed,Off,Off,0.000000,FALSE,0,,,,,0.000000,0.000000
12:39:15.461 PM 04/09/2016,Teleop Enabled,10,FALSE,0,NO ERROR,-0.000000,-0.275916,-0.000000,-0.102666,TRUE,FALSE,TRUE,FALSE,FALSE,FALSE,Disabled,0.000000,0.000000,0.000000,TRUE,1.740875,-0.407516,0.000000,0.011353,-0.037170,0.000000,0.051000,-0.079000,0.133000,2.610000,-0.260000,-0.570000,0.455619,Hold,54.190430,50.000000,Hold,-136349.000000,77824.000000,HighGoal,3240.000000,-3272.727273,Speed,3240.000000,-3272.727273,Speed,Off,Off,0.000000,FALSE,0,,,,,0.000000,0.000000
12:39:15.561 PM 04/09/2016,Teleop Enabled,10,FALSE,0,NO ERROR,-0.000000,-0.275916,-0.000000,-0.083416,TRUE,FALSE,TRUE,FALSE,FALSE,FALSE,Disabled,0.000000,0.000000,0.000000,TRUE,1.742493,-0.409241,0.000000,0.037537,-0.012085,0.000000,-0.128000,0.107000,0.030000,2.600000,-0.310000,-0.530000,0.405489,Hold,54.176758,50.000000,HighGoal,-124980.000000,77824.000000,HighGoal,3240.000000,-3272.727273,Speed,3240.000000,-3272.727273,Speed,Off,Off,0.000000,FALSE,0,,,,,0.000000,0.000000
12:39:15.661 PM 04/09/2016,Teleop Enabled,10,FALSE,0,NO ERROR,-0.000000,-0.275916,-0.000000,-0.083416,TRUE,FALSE,TRUE,FALSE,FALSE,FALSE,Disabled,0.000000,0.000000,0.000000,TRUE,1.742538,-0.408783,0.000000,-0.002335,0.008911,0.000000,-0.005000,-0.002000,-0.034000,2.590000,-0.270000,-0.550000,0.454421,Hold,54.176514,50.000000,Hold,-113746.000000,77824.000000,HighGoal,3240.000000,-3272.727273,Speed,3247.500000,-3272.727273,Speed,Off,Off,0.000000,FALSE,0,,,,,0.000000,0.000000
12:39:15.761 PM 04/09/2016,Teleop Enabled,11,FALSE,0,NO ERROR,-0.000000,-0.275916,-0.000000,-0.083416,TRUE,FALSE,TRUE,FALSE,FALSE,FALSE,Disabled,0.000000,0.000000,0.000000,TRUE,1.742477,-0.408920,0.000000,0.006546,-0.009842,0.000000,-0.021000,-0.120000,-0.007000,2.610000,-0.280000,-0.530000,0.439071,Hold,54.176270,50.000000,Hold,-101989.000000,77824.000000,HighGoal,3247.500000,-3272.727273,Speed,3255.000000,-3272.727273,Speed,Off,Off,0.000000,FALSE,0,,,,,0.000000,0.000000
12:39:15.861 PM 04/09/2016,Teleop Enabled,12,FALSE,0,NO ERROR,-0.000000,-0.275916,-0.000000,-0.083416,TRUE,FALSE,TRUE,FALSE,FALSE,FALSE,Disabled,0.000000,0.000000,0.000000,TRUE,1.743790,-0.409164,0.000000,0.030319,0.005966,0.000000,-0.048000,0.116000,0.033000,2.540000,-0.290000,-0.450000,0.449743,Hold,54.176270,50.000000,Hold,-89916.000000,77824.000000,HighGoal,3030.000000,-3272.727273,Speed,3255.000000,-3272.727273,Speed,Off,Off,0.000000,FALSE,0,,,,,0.000000,0.000000
12:39:15.961 PM 04/09/2016,Teleop Enabled,11,FALSE,0,NO ERROR,-0.000000,-0.275916,-0.000000,-0.083416,TRUE,FALSE,TRUE,FALSE,FALSE,FALSE,Disabled,0.000000,0.000000,0.000000,TRUE,1.744415,-0.409760,0.000000,0.006195,-0.025238,0.000000,-0.030000,0.235000,-0.075000,2.530000,-0.290000,-0.480000,0.447240,Hold,54.176025,50.000000,Hold,-89916.000000,77824.000000,HighGoal,3030.000000,-3272.727273,Speed,3247.500000,-3272.727273,Speed,Off,Off,0.000000,FALSE,0,,,,,0.000000,0.000000
12:39:16.062 PM 04/09/2016,Teleop Enabled,11,FALSE,0,NO ERROR,-0.000000,-0.243833,-0.000000,-0.012833,TRUE,FALSE,TRUE,FALSE,FALSE,FALSE,Disabled,0.000000,0.000000,0.000000,TRUE,1.744614,-0.410248,0.000000,0.015289,-0.010452,0.000000,0.059000,-0.094000,0.030000,2.520000,-0.300000,-0.490000,0.445185,Hold,54.175781,50.000000,Hold,-77529.000000,77824.000000,HighGoal,3112.500000,-3272.727273,Speed,3225.000000,-3272.727273,Speed,Off,Off,0.000000,FALSE,0,,,,,0.000000,0.000000
12:39:16.163 PM 04/09/2016,Teleop Enabled,11,FALSE,0,NO ERROR,-0.000000,-0.218166,-0.000000,0.000000,TRUE,FALSE,TRUE,FALSE,FALSE,FALSE,Disabled,0.000000,0.000000,0.000000,TRUE,1.748627,-0.411804,0.000000,0.141861,-0.034241,0.000000,0.133000,0.040000,-0.137000,2.520000,-0.320000,-0.420000,0.451815,Hold,54.175293,50.000000,Hold,-77771.000000,77824.000000,HighGoal,3292.500000,-3272.727273,Speed,3225.000000,-3272.727273,Speed,Off,Off,0.000000,FALSE,0,,,,,0.000000,0.000000
12:39:16.263 PM 04/09/2016,Teleop Enabled,11,FALSE,0,NO ERROR,-0.000000,-0.288749,-0.000000,-0.128333,TRUE,FALSE,TRUE,FALSE,FALSE,FALSE,Disabled,0.000000,0.000000,0.000000,TRUE,1.758118,-0.414078,0.000000,0.186630,-0.058136,0.000000,-0.097000,0.079000,0.136000,2.550000,-0.250000,-0.350000,0.516515,Hold,54.175293,50.000000,Hold,-77906.000000,77824.000000,HighGoal,3322.500000,-3272.727273,Speed,3247.500000,-3272.727273,Speed,Off,Off,0.000000,FALSE,0,,,,,0.000000,0.000000
12:39:16.363 PM 04/09/2016,Teleop Enabled,11,FALSE,0,NO ERROR,-0.000000,-0.282333,-0.000000,-0.083416,TRUE,FALSE,TRUE,FALSE,FALSE,FALSE,Disabled,0.000000,0.000000,0.000000,TRUE,1.764938,-0.416931,0.000000,0.112366,-0.045135,0.000000,-0.116000,-0.021000,-0.219000,2.510000,-0.310000,-0.550000,0.463819,Hold,54.150879,50.000000,Hold,-77903.000000,77824.000000,HighGoal,3285.000000,-3272.727273,Speed,3270.000000,-3272.727273,Speed,Off,Off,0.000000,FALSE,0,,,,,0.000000,0.000000
12:39:16.463 PM 04/09/2016,Teleop Enabled,11,FALSE,0,NO ERROR,-0.000000,-0.282333,-0.000000,-0.089833,TRUE,FALSE,TRUE,FALSE,FALSE,FALSE,Disabled,0.000000,0.000000,0.000000,TRUE,1.769196,-0.418472,0.000000,0.063171,-0.023956,0.000000,-0.041000,0.060000,0.106000,2.460000,-0.280000,-0.440000,0.478550,Hold,54.149170,50.000000,Hold,-77902.000000,77824.000000,HighGoal,3270.000000,-3272.727273,Speed,3270.000000,-3272.727273,Speed,Off,Off,0.000000,FALSE,0,,,,,0.000000,0.000000
12:39:16.563 PM 04/09/2016,Teleop Enabled,10,FALSE,0,NO ERROR,-0.000000,-0.282333,-0.000000,-0.077000,TRUE,FALSE,TRUE,FALSE,FALSE,FALSE,Disabled,0.000000,0.000000,0.000000,TRUE,1.770950,-0.420502,0.000000,0.023773,-0.044846,0.000000,-0.054000,-0.093000,-0.106000,2.450000,-0.290000,-0.520000,0.456487,Hold,54.147461,50.000000,Hold,-77902.000000,77824.000000,HighGoal,3270.000000,-3272.727273,Speed,3262.500000,-3272.727273,Speed,Off,Off,0.000000,FALSE,0,,,,,0.000000,0.000000
12:39:16.662 PM 04/09/2016,Teleop Enabled,10,FALSE,0,NO ERROR,-0.000000,-0.282333,-0.000000,-0.077000,TRUE,FALSE,TRUE,FALSE,FALSE,FALSE,Disabled,0.000000,0.000000,0.000000,TRUE,1.772369,-0.422226,0.000000,0.040268,-0.033600,0.000000,0.037000,0.031000,0.053000,2.480000,-0.290000,-0.450000,0.471496,Hold,54.146729,50.000000,Hold,-77902.000000,77824.000000,HighGoal,3277.500000,-3272.727273,Speed,3255.000000,-3272.727273,Speed,Off,Off,0.000000,FALSE,0,,,,,0.000000,0.000000
12:39:16.763 PM 04/09/2016,Teleop Enabled,11,FALSE,0,NO ERROR,-0.000000,-0.282333,-0.000000,-0.089833,TRUE,FALSE,TRUE,FALSE,FALSE,FALSE,Disabled,0.000000,0.000000,0.000000,TRUE,1.773743,-0.424606,0.000000,0.003967,-0.045715,0.000000,0.021000,-0.033000,0.039000,2.430000,-0.280000,-0.480000,0.480464,Hold,54.145020,50.000000,Hold,-77902.000000,77824.000000,HighGoal,3285.000000,-3272.727273,Speed,3255.000000,-3272.727273,Speed,Off,Off,0.000000,FALSE,0,,,,,0.000000,0.000000
12:39:16.863 PM 04/09/2016,Teleop Enabled,10,FALSE,0,NO ERROR,-0.000000,-0.282333,-0.000000,-0.083416,TRUE,FALSE,TRUE,FALSE,FALSE,FALSE,Disabled,0.000000,0.000000,0.000000,TRUE,1.772827,-0.425278,0.000000,-0.046494,0.010498,0.000000,-0.156000,0.142000,0.081000,2.460000,-0.310000,-0.410000,0.476956,Hold,54.144287,50.000000,Hold,-77901.000000,77824.000000,HighGoal,3277.500000,-3272.727273,Speed,3255.000000,-3272.727273,Speed,Off,Off,0.000000,FALSE,0,,,,,0.000000,0.000000
12:39:16.962 PM 04/09/2016,Teleop Enabled,11,FALSE,0,NO ERROR,-0.000000,-0.282333,-0.000000,-0.083416,TRUE,FALSE,TRUE,FALSE,FALSE,FALSE,Disabled,0.000000,0.000000,0.000000,TRUE,1.768143,-0.423843,0.000000,-0.126938,0.037766,0.000000,-0.004000,-0.080000,-0.047000,2.430000,-0.300000,-0.410000,0.508122,Hold,54.144043,50.000000,Hold,-77901.000000,77824.000000,HighGoal,3277.500000,-3272.727273,Speed,3262.500000,-3272.727273,Speed,Off,Off,0.000000,FALSE,0,,,,,0.000000,0.000000
12:39:17.062 PM 04/09/2016,Teleop Enabled,11,FALSE,0,NO ERROR,-0.000000,-0.282333,-0.000000,-0.083416,TRUE,FALSE,TRUE,FALSE,FALSE,FALSE,Disabled,0.000000,0.000000,0.000000,TRUE,1.759750,-0.420715,0.000000,-0.189148,0.073349,0.000000,-0.057000,0.108000,0.129000,2.430000,-0.300000,-0.370000,0.516666,Hold,54.143311,50.000000,Hold,-77901.000000,77824.000000,HighGoal,3277.500000,-3272.727273,Speed,3262.500000,-3272.727273,Speed,Off,Off,0.000000,FALSE,0,,,,,0.000000,0.000000
12:39:17.162 PM 04/09/2016,Teleop Enabled,11,FALSE,0,NO ERROR,-0.000000,-0.282333,-0.000000,-0.083416,TRUE,FALSE,TRUE,FALSE,FALSE,FALSE,Disabled,0.000000,0.000000,0.000000,TRUE,1.748398,-0.417603,0.000000,-0.248276,0.063370,0.000000,-0.004000,-0.138000,0.032000,2.430000,-0.300000,-0.380000,0.525090,Hold,54.142822,50.000000,Hold,-77901.000000,77824.000000,HighGoal,3285.000000,-3272.727273,Speed,3262.500000,-3272.727273,Speed,Off,Off,0.000000,FALSE,0,,,,,0.000000,0.000000
12:39:17.262 PM 04/09/2016,Teleop Enabled,11,FALSE,0,NO ERROR,-0.000000,-0.282333,-0.000000,-0.083416,TRUE,FALSE,TRUE,FALSE,FALSE,FALSE,Disabled,0.000000,0.000000,0.000000,TRUE,1.734573,-0.414001,0.000000,-0.302628,0.065063,0.000000,-0.092000,0.100000,0.112000,2.470000,-0.300000,-0.430000,0.526519,Hold,54.142334,50.000000,Hold,-77901.000000,77824.000000,HighGoal,3255.000000,-3272.727273,Speed,3247.500000,-3272.727273,Speed,Off,Off,0.000000,FALSE,0,,,,,0.000000,0.000000
12:39:17.362 PM 04/09/2016,Teleop Enabled,11,FALSE,0,NO ERROR,-0.000000,-0.282333,-0.000000,-0.083416,TRUE,FALSE,TRUE,FALSE,FALSE,FALSE,Disabled,0.000000,0.000000,0.000000,TRUE,1.713226,-0.410339,0.000000,-0.408813,0.076126,0.000000,-0.010000,0.089000,0.087000,2.450000,-0.300000,-0.430000,0.542650,Hold,54.141846,50.000000,Hold,-77901.000000,77824.000000,HighGoal,3240.000000,-3272.727273,Speed,3255.000000,-3272.727273,Speed,Off,Off,0.000000,FALSE,0,,,,,0.000000,0.000000
