Time,Robot Mode,Loop Time,Error Status,Error Code,Error Source,Left Motor Output,Left Motor Encoder,Right Motor Output,Right Motor Encoder,Is Level,Is Stalled,Ball Detector Photoeye,Vision Enabled,Vision Teleop Control,Vision Auto Control,Vision Current State,Vision X Output,Vision NavX Error,Vision NavX Target,NavX Connection Status,NavX Displacement X,NavX Displacement Y,NavX Displacement Z,NavX Velocity X,NavX Velocity Y,NavX Velocity Z,NavX Acceleration X,NavX Acceleration Y,NavX Acceleration Z,NavX Pitch,NavX Yaw,NavX Roll,Gyro Angle,Roller Arm State,Roller Arm Actual,Roller Arm Desired,Shooter Arm State,Shooter Arm Actual,Shooter Arm Desired,Shooter State,Actual RPM Left,Desired RPM Left,Control Mode Left,Actual RPM Right,Desired RPM Right,Control Mode Right,Ball Shooter Cylinder,Ball Halo Cylinder,Scaler Motor Output,Scaler Solenoid Fire,Auto To Run,Auto Current File,Auto File Status,Auto Current Command,Auto Trimmed Command,Shooter Amps Left,Shooter Amps Right
07:53:07.708 PM 04/04/2016,Autonomous Enabled,11,TRUE,7,Read from Text File in DoesScriptNumberContainNull.vi->Disabled.vi->Robot Main.vi<APPEND> /home/lvuser/scripts/auto_42.bee,0.000000,0.000000,-0.000000,0.000000,TRUE,FALSE,TRUE,TRUE,FALSE,FALSE,Disabled,0.000000,0.000000,0.000000,TRUE,-7.565353,-13.116486,0.000000,0.000000,0.000000,0.000000,0.003000,-0.013000,0.032000,-0.110000,-0.120000,2.600000,-0.022122,ResetBack,0.958252,-0.000049,ResetBack,-8162.000000,-0.250000,LowGoal,0.000000,0.000000,Speed,0.000000,0.000000,Speed,Off,Off,0.000000,FALSE,43,Read: /home/lvuser/scripts/auto_43.bee,File good!,WAIT 1500,WAIT,0.000000,0.000000
07:53:07.808 PM 04/04/2016,Autonomous Enabled,10,TRUE,7,Read from Text File in DoesScriptNumberContainNull.vi->Disabled.vi->Robot Main.vi<APPEND> /home/lvuser/scripts/auto_42.bee,0.000000,0.000000,-0.000000,0.000000,TRUE,FALSE,TRUE,TRUE,FALSE,FALSE,Disabled,0.000000,0.000000,0.000000,TRUE,-7.565231,-13.116486,0.000000,0.007675,0.000000,0.000000,0.003000,-0.013000,0.032000,-0.110000,-0.120000,2.590000,-0.024542,ResetBack,-0.306396,-0.000049,ResetBack,-6747.000000,-0.250000,LowGoal,0.000000,-2181.818182,Speed,0.000000,-2181.818182,Speed,Off,Off,0.000000,FALSE,43,Read: /home/lvuser/scripts/auto_43.bee,File good!,WAIT 1500,WAIT,0.000000,0.000000
07:53:07.908 PM 04/04/2016,Autonomous Enabled,10,TRUE,7,Read from Text File in DoesScriptNumberContainNull.vi->Disabled.vi->Robot Main.vi<APPEND> /home/lvuser/scripts/auto_42.bee,0.000000,0.000000,-0.000000,0.000000,TRUE,FALSE,TRUE,TRUE,FALSE,FALSE,Disabled,0.000000,0.000000,0.000000,TRUE,-7.565903,-13.116394,0.000000,-0.032455,-0.002563,0.000000,0.031000,-0.052000,0.039000,-0.120000,-0.150000,2.590000,-0.023193,ResetBack,-0.306396,-0.000049,ResetBack,-1394.000000,-0.250000,LowGoal,52.500000,-2181.818182,Speed,7.500000,-2181.818182,Speed,Off,Off,0.000000,FALSE,43,Read: /home/lvuser/scripts/auto_43.bee,File good!,WAIT 1500,WAIT,0.000000,0.000000
07:53:08.008 PM 04/04/2016,Autonomous Enabled,9,TRUE,7,Read from Text File in DoesScriptNumberContainNull.vi->Disabled.vi->Robot Main.vi<APPEND> /home/lvuser/scripts/auto_42.bee,0.000000,0.000000,-0.000000,0.000000,TRUE,FALSE,TRUE,TRUE,FALSE,FALSE,Disabled,0.000000,0.000000,0.000000,TRUE,-7.566803,-13.117249,0.000000,0.000000,0.000000,0.000000,0.031000,-0.052000,0.039000,-0.120000,-0.150000,2.590000,-0.026666,Reset,-0.306396,0.000000,ResetBack,-564.000000,-0.250000,LowGoal,540.000000,-2181.818182,Speed,75.000000,-2181.818182,Speed,Off,Off,0.000000,FALSE,43,Read: /home/lvuser/scripts/auto_43.bee,File good!,WAIT 1500,WAIT,0.000000,0.000000
07:53:08.108 PM 04/04/2016,Autonomous Enabled,12,TRUE,7,Read from Text File in DoesScriptNumberContainNull.vi->Disabled.vi->Robot Main.vi<APPEND> /home/lvuser/scripts/auto_42.bee,0.000000,0.000000,-0.000000,0.000000,TRUE,FALSE,TRUE,TRUE,FALSE,FALSE,Disabled,0.000000,0.000000,0.000000,TRUE,-7.566803,-13.117249,0.000000,0.000000,0.000000,0.000000,-0.064000,-0.006000,0.015000,-0.120000,-0.150000,2.560000,0.003332,Hold,1.203613,0.000000,ResetBack,-557.000000,-0.250000,LowGoal,1125.000000,-2181.818182,Speed,120.000000,-2181.818182,Speed,Off,Off,0.000000,FALSE,43,Read: /home/lvuser/scripts/auto_43.bee,File good!,WAIT 1500,WAIT,0.000000,0.000000
07:53:08.210 PM 04/04/2016,Autonomous Enabled,9,TRUE,7,Read from Text File in DoesScriptNumberContainNull.vi->Disabled.vi->Robot Main.vi<APPEND> /home/lvuser/scripts/auto_42.bee,0.000000,0.000000,-0.000000,0.000000,TRUE,FALSE,TRUE,TRUE,FALSE,FALSE,Disabled,0.000000,0.000000,0.000000,TRUE,-7.568161,-13.118866,0.000000,-0.048050,-0.014832,0.000000,-0.037000,-0.074000,-0.023000,-0.110000,-0.270000,2.610000,-0.001931,Hold,0.929932,0.000000,ResetBack,-476.000000,-0.250000,LowGoal,1597.500000,-2181.818182,Speed,255.000000,-2181.818182,Speed,Off,Off,0.000000,FALSE,43,Read: /home/lvuser/scripts/auto_43.bee,File good!,WAIT 1500,WAIT,0.000000,0.000000
07:53:08.310 PM 04/04/2016,Autonomous Enabled,11,TRUE,7,Read from Text File in DoesScriptNumberContainNull.vi->Disabled.vi->Robot Main.vi<APPEND> /home/lvuser/scripts/auto_42.bee,0.000000,0.000000,-0.000000,0.000000,TRUE,FALSE,TRUE,TRUE,FALSE,FALSE,Disabled,0.000000,0.000000,0.000000,TRUE,-7.571487,-13.118790,0.000000,-0.054855,0.014175,0.000000,-0.150000,0.094000,0.058000,-0.100000,-0.250000,2.620000,-0.004317,Hold,0.929932,0.000000,ResetBack,-476.000000,-0.250000,LowGoal,1972.500000,-2181.818182,Speed,652.500000,-2181.818182,Speed,Off,Off,0.000000,FALSE,43,Read: /home/lvuser/scripts/auto_43.bee,File good!,WAIT 1500,WAIT,0.000000,0.000000
07:53:08.412 PM 04/04/2016,Autonomous Enabled,10,TRUE,7,Read from Text File in DoesScriptNumberContainNull.vi->Disabled.vi->Robot Main.vi<APPEND> /home/lvuser/scripts/auto_42.bee,0.000000,0.000000,-0.000000,0.000000,TRUE,FALSE,TRUE,TRUE,FALSE,FALSE,Disabled,0.000000,0.000000,0.000000,TRUE,-7.574600,-13.118134,0.000000,-0.087906,0.001801,0.000000,0.046000,0.099000,-0.014000,-0.110000,-0.280000,2.590000,-0.017777,Hold,0.929932,0.000000,ResetBack,-192.000000,-0.250000,LowGoal,2137.500000,-2181.818182,Speed,1500.000000,-2181.818182,Speed,Off,Off,0.000000,FALSE,43,Read: /home/lvuser/scripts/auto_43.bee,File good!,WAIT 1500,WAIT,0.000000,0.000000
07:53:08.512 PM 04/04/2016,Autonomous Enabled,14,TRUE,7,Read from Text File in DoesScriptNumberContainNull.vi->Disabled.vi->Robot Main.vi<APPEND> /home/lvuser/scripts/auto_42.bee,0.000000,0.000000,-0.000000,0.000000,TRUE,FALSE,TRUE,TRUE,FALSE,FALSE,Disabled,0.000000,0.000000,0.000000,TRUE,-7.574600,-13.118134,0.000000,-0.087906,0.001801,0.000000,-0.148000,0.086000,-0.153000,-0.110000,-0.200000,2.510000,-0.015726,Hold,0.929932,0.000000,ResetBack,-114.000000,-0.250000,LowGoal,2130.000000,-2181.818182,Speed,2205.000000,-2181.818182,Speed,Off,Off,0.000000,FALSE,43,Read: /home/lvuser/scripts/auto_43.bee,File good!,WAIT 1500,WAIT,0.000000,0.000000
07:53:08.613 PM 04/04/2016,Autonomous Enabled,9,TRUE,7,Read from Text File in DoesScriptNumberContainNull.vi->Disabled.vi->Robot Main.vi<APPEND> /home/lvuser/scripts/auto_42.bee,0.000000,0.000000,-0.000000,0.000000,TRUE,FALSE,TRUE,TRUE,FALSE,FALSE,Disabled,0.000000,0.000000,0.000000,TRUE,-7.582916,-13.114670,0.000000,-0.146164,0.000000,0.000000,-0.064000,0.036000,-0.035000,-0.110000,-0.170000,2.530000,-0.010989,Hold,0.929932,0.000000,ResetBack,644.000000,-0.250000,LowGoal,2077.500000,-2181.818182,Speed,2407.500000,-2181.818182,Speed,Off,Off,0.000000,FALSE,43,Read: /home/lvuser/scripts/auto_43.bee,File good!,WAIT 1500,WAIT,0.000000,0.000000
07:53:08.713 PM 04/04/2016,Autonomous Enabled,10,TRUE,7,Read from Text File in DoesScriptNumberContainNull.vi->Disabled.vi->Robot Main.vi<APPEND> /home/lvuser/scripts/auto_42.bee,0.000000,0.000000,-0.000000,0.000000,TRUE,FALSE,TRUE,TRUE,FALSE,FALSE,Disabled,0.000000,0.000000,0.000000,TRUE,-7.588943,-13.114700,0.000000,-0.158356,-0.001114,0.000000,-0.007000,0.045000,0.102000,-0.110000,-0.200000,2.530000,-0.013753,Hold,0.929932,0.000000,ResetBack,1244.000000,-0.250000,LowGoal,2100.000000,-2181.818182,Speed,2190.000000,-2181.818182,Speed,Off,Off,0.000000,FALSE,43,Read: /home/lvuser/scripts/auto_43.bee,File good!,WAIT 1500,WAIT,0.000000,0.000000
07:53:08.813 PM 04/04/2016,Autonomous Enabled,10,TRUE,7,Read from Text File in DoesScriptNumberContainNull.vi->Disabled.vi->Robot Main.vi<APPEND> /home/lvuser/scripts/auto_42.bee,0.000000,0.000000,-0.000000,0.006417,TRUE,FALSE,TRUE,TRUE,FALSE,FALSE,Disabled,0.000000,0.000000,0.000000,TRUE,-7.596329,-13.114594,0.000000,-0.142090,-0.002441,0.000000,0.039000,-0.121000,0.257000,-0.110000,-0.120000,2.550000,-0.008820,Hold,0.929932,0.000000,ResetBack,1496.000000,-0.250000,LowGoal,2130.000000,-2181.818182,Speed,1950.000000,-2181.818182,Speed,Off,Off,0.000000,FALSE,43,Read: /home/lvuser/scripts/auto_43.bee,File good!,WAIT 1500,WAIT,0.000000,0.000000
07:53:08.913 PM 04/04/2016,Autonomous Enabled,10,TRUE,7,Read from Text File in DoesScriptNumberContainNull.vi->Disabled.vi->Robot Main.vi<APPEND> /home/lvuser/scripts/auto_42.bee,0.000000,0.000000,-0.000000,0.006417,TRUE,FALSE,TRUE,TRUE,FALSE,FALSE,Disabled,0.000000,0.000000,0.000000,TRUE,-7.603882,-13.118042,0.000000,-0.170959,-0.125381,0.000000,-0.036000,-0.114000,0.177000,-0.120000,-0.150000,2.560000,-0.008820,Hold,0.929932,0.000000,Reset,1503.000000,2.000000,LowGoal,2145.000000,-2181.818182,Speed,1935.000000,-2181.818182,Speed,Off,Off,0.000000,FALSE,43,Read: /home/lvuser/scripts/auto_43.bee,File good!,WAIT 1500,WAIT,0.000000,0.000000
07:53:09.013 PM 04/04/2016,Autonomous Enabled,10,TRUE,7,Read from Text File in DoesScriptNumberContainNull.vi->Disabled.vi->Robot Main.vi<APPEND> /home/lvuser/scripts/auto_42.bee,0.000000,0.000000,-0.000000,0.006417,TRUE,FALSE,TRUE,TRUE,FALSE,FALSE,Disabled,0.000000,0.000000,0.000000,TRUE,-7.612335,-13.128220,0.000000,-0.166367,-0.269638,0.000000,0.155000,-0.198000,0.108000,-0.110000,-0.160000,2.540000,-0.008131,Hold,0.929932,0.000000,Hold,1503.000000,2.000000,LowGoal,2152.500000,-2181.818182,Speed,2040.000000,-2181.818182,Speed,Off,Off,0.000000,FALSE,43,Read: /home/lvuser/scripts/auto_43.bee,File good!,WAIT 1500,WAIT,0.000000,0.000000
07:53:09.113 PM 04/04/2016,Autonomous Enabled,9,TRUE,7,Read from Text File in DoesScriptNumberContainNull.vi->Disabled.vi->Robot Main.vi<APPEND> /home/lvuser/scripts/auto_42.bee,0.000000,0.000000,-0.000000,0.006417,TRUE,FALSE,TRUE,TRUE,FALSE,FALSE,Disabled,0.000000,0.000000,0.000000,TRUE,-7.615234,-13.147781,0.000000,0.037750,-0.476807,0.000000,0.128000,-0.204000,-0.033000,-0.110000,-0.100000,2.520000,0.003153,Hold,0.929932,0.000000,Hold,-92.000000,2.000000,LowGoal,2152.500000,-2181.818182,Speed,2085.000000,-2181.818182,Speed,Off,Off,0.000000,FALSE,43,Read: /home/lvuser/scripts/auto_43.bee,File good!,WAIT 1500,WAIT,0.000000,0.000000
07:53:09.215 PM 04/04/2016,Autonomous Enabled,10,TRUE,7,Read from Text File in DoesScriptNumberContainNull.vi->Disabled.vi->Robot Main.vi<APPEND> /home/lvuser/scripts/auto_42.bee,0.000000,0.000000,-0.000000,0.006417,TRUE,FALSE,TRUE,TRUE,FALSE,FALSE,Disabled,0.000000,0.000000,0.000000,TRUE,-7.609451,-13.183701,0.000000,0.086975,-0.651413,0.000000,0.087000,0.060000,-0.076000,-0.120000,-0.030000,2.520000,-0.007914,Hold,0.929932,0.000000,Hold,-93.000000,2.000000,LowGoal,2152.500000,-2181.818182,Speed,2062.500000,-2181.818182,Speed,Off,Off,0.000000,FALSE,43,Read: /home/lvuser/scripts/auto_43.bee,File good!,WAIT 1500,WAIT,0.000000,0.000000
07:53:09.316 PM 04/04/2016,Autonomous Enabled,11,TRUE,7,Read from Text File in DoesScriptNumberContainNull.vi->Disabled.vi->Robot Main.vi<APPEND> /home/lvuser/scripts/auto_42.bee,-0.562500,0.000000,0.562500,0.006417,TRUE,FALSE,TRUE,TRUE,FALSE,FALSE,Disabled,0.000000,0.000000,0.000000,TRUE,-7.604721,-13.213730,0.000000,0.089340,-0.521622,0.000000,-0.075000,0.222000,-0.266000,-0.120000,0.000000,2.460000,-0.012744,Hold,0.929932,0.000000,Hold,-94.000000,2.000000,LowGoal,2152.500000,2400.000000,Speed,2040.000000,2400.000000,Speed,Off,Off,0.000000,FALSE,43,Read: /home/lvuser/scripts/auto_43.bee,File good!,DRIVE_STRAIGHT_NAVX_RAMPARTS 200 5000 10,DRIVE_STRAIGHT_NAVX_RAMPARTS,0.000000,0.000000
07:53:09.418 PM 04/04/2016,Autonomous Enabled,10,TRUE,7,Read from Text File in DoesScriptNumberContainNull.vi->Disabled.vi->Robot Main.vi<APPEND> /home/lvuser/scripts/auto_42.bee,-0.562500,-0.141166,0.562500,-0.032083,TRUE,FALSE,TRUE,TRUE,FALSE,FALSE,Disabled,0.000000,0.000000,0.000000,TRUE,-7.603653,-13.233597,0.000000,-0.021835,-0.327698,0.000000,-0.156000,0.173000,-0.196000,0.000000,-0.040000,2.480000,-0.009254,Hold,0.930420,0.000000,Hold,-95.000000,2.000000,LowGoal,2092.500000,2400.000000,Speed,2017.500000,2400.000000,Speed,Off,Off,0.000000,FALSE,43,Read: /home/lvuser/scripts/auto_43.bee,File good!,DRIVE_STRAIGHT_NAVX_RAMPARTS 200 5000 10,DRIVE_STRAIGHT_NAVX_RAMPARTS,0.000000,0.000000
07:53:09.519 PM 04/04/2016,Autonomous Enabled,11,TRUE,7,Read from Text File in DoesScriptNumberContainNull.vi->Disabled.vi->Robot Main.vi<APPEND> /home/lvuser/scripts/auto_42.bee,-0.562500,-1.347497,0.562500,-1.264080,TRUE,FALSE,TRUE,TRUE,FALSE,FALSE,Disabled,0.000000,0.000000,0.000000,TRUE,-7.596695,-13.246429,0.000000,0.274673,-0.211594,0.000000,0.345000,-0.009000,0.172000,-0.030000,2.430000,2.310000,0.003656,Hold,0.930420,0.000000,Hold,-97.000000,2.000000,LowGoal,1312.500000,2400.000000,Speed,1335.000000,2400.000000,Speed,Off,Off,0.000000,FALSE,43,Read: /home/lvuser/scripts/auto_43.bee,File good!,DRIVE_STRAIGHT_NAVX_RAMPARTS 200 5000 10,DRIVE_STRAIGHT_NAVX_RAMPARTS,0.000000,0.000000
07:53:09.626 PM 04/04/2016,Autonomous Enabled,11,TRUE,7,Read from Text File in DoesScriptNumberContainNull.vi->Disabled.vi->Robot Main.vi<APPEND> /home/lvuser/scripts/auto_42.bee,-0.562500,-5.845570,0.562500,-5.922569,TRUE,FALSE,TRUE,TRUE,FALSE,FALSE,Disabled,0.000000,0.000000,0.000000,TRUE,-7.576202,-13.257492,0.000000,0.486343,-0.220673,0.000000,0.084000,0.029000,0.204000,-0.030000,2.690000,2.380000,0.140023,Hold,0.933838,0.000000,Hold,-98.000000,2.000000,LowGoal,315.000000,2400.000000,Speed,555.000000,2400.000000,Speed,Off,Off,0.000000,FALSE,43,Read: /home/lvuser/scripts/auto_43.bee,File good!,DRIVE_STRAIGHT_NAVX_RAMPARTS 200 5000 10,DRIVE_STRAIGHT_NAVX_RAMPARTS,0.000000,0.000000
07:53:09.727 PM 04/04/2016,Autonomous Enabled,10,TRUE,7,Read from Text File in DoesScriptNumberContainNull.vi->Disabled.vi->Robot Main.vi<APPEND> /home/lvuser/scripts/auto_42.bee,-0.562500,-5.845570,0.562500,-5.922569,FALSE,FALSE,TRUE,TRUE,FALSE,FALSE,Disabled,0.000000,0.000000,0.000000,TRUE,-7.546738,-13.267319,0.000000,0.656326,-0.170197,0.000000,0.043000,0.090000,-0.145000,0.050000,3.100000,2.430000,0.140023,Hold,0.933838,0.000000,Hold,-98.000000,2.000000,LowGoal,-435.000000,2400.000000,Speed,270.000000,2400.000000,Speed,Off,Off,0.000000,FALSE,43,Read: /home/lvuser/scripts/auto_43.bee,File good!,DRIVE_STRAIGHT_NAVX_RAMPARTS 200 5000 10,DRIVE_STRAIGHT_NAVX_RAMPARTS,0.000000,0.000000
07:53:09.829 PM 04/04/2016,Autonomous Enabled,9,TRUE,7,Read from Text File in DoesScriptNumberContainNull.vi->Disabled.vi->Robot Main.vi<APPEND> /home/lvuser/scripts/auto_42.bee,-0.562500,-13.365885,0.570327,-13.628968,FALSE,FALSE,TRUE,TRUE,FALSE,FALSE,Disabled,0.000000,0.000000,0.000000,TRUE,-7.512192,-13.275574,0.000000,0.719162,-0.188858,0.000000,0.105000,-0.065000,0.088000,0.170000,4.410000,2.370000,0.316261,Hold,0.933838,0.000000,Hold,-98.000000,2.000000,LowGoal,-1012.500000,2400.000000,Speed,60.000000,2400.000000,Speed,Off,Off,0.000000,FALSE,43,Read: /home/lvuser/scripts/auto_43.bee,File good!,DRIVE_STRAIGHT_NAVX_RAMPARTS 200 5000 10,DRIVE_STRAIGHT_NAVX_RAMPARTS,0.000000,0.000000
07:53:09.929 PM 04/04/2016,Autonomous Enabled,11,TRUE,7,Read from Text File in DoesScriptNumberContainNull.vi->Disabled.vi->Robot Main.vi<APPEND> /home/lvuser/scripts/auto_42.bee,-0.562500,-18.062874,0.571113,-18.338790,FALSE,FALSE,TRUE,TRUE,FALSE,FALSE,Disabled,0.000000,0.000000,0.000000,TRUE,-7.472473,-13.285858,0.000000,0.848038,-0.216385,0.000000,0.153000,0.035000,0.031000,0.220000,4.000000,2.440000,0.352411,Hold,0.933838,0.000000,Hold,-98.000000,2.000000,LowGoal,-1470.000000,2400.000000,Speed,-112.500000,2400.000000,Speed,Off,Off,0.000000,FALSE,43,Read: /home/lvuser/scripts/auto_43.bee,File good!,DRIVE_STRAIGHT_NAVX_RAMPARTS 200 5000 10,DRIVE_STRAIGHT_NAVX_RAMPARTS,0.000000,0.000000
07:53:10.030 PM 04/04/2016,Autonomous Enabled,10,TRUE,7,Read from Text File in DoesScriptNumberContainNull.vi->Disabled.vi->Robot Main.vi<APPEND> /home/lvuser/scripts/auto_42.bee,-0.562500,-23.176946,0.570720,-23.517028,FALSE,FALSE,TRUE,TRUE,FALSE,FALSE,Disabled,0.000000,0.000000,0.000000,TRUE,-7.426697,-13.295746,0.000000,0.947327,-0.175766,0.000000,0.033000,-0.017000,-0.059000,0.230000,4.360000,2.530000,0.310343,Hold,0.933838,0.000000,Hold,-99.000000,2.000000,LowGoal,-1867.500000,2400.000000,Speed,-345.000000,2400.000000,Speed,Off,Off,0.000000,FALSE,43,Read: /home/lvuser/scripts/auto_43.bee,File good!,DRIVE_STRAIGHT_NAVX_RAMPARTS 200 5000 10,DRIVE_STRAIGHT_NAVX_RAMPARTS,0.000000,0.000000
07:53:10.130 PM 04/04/2016,Autonomous Enabled,10,TRUE,7,Read from Text File in DoesScriptNumberContainNull.vi->Disabled.vi->Robot Main.vi<APPEND> /home/lvuser/scripts/auto_42.bee,-0.562500,-28.772266,0.566015,-29.112349,FALSE,FALSE,TRUE,TRUE,FALSE,FALSE,Disabled,0.000000,0.000000,0.000000,TRUE,-7.377777,-13.305054,0.000000,1.004608,-0.200836,0.000000,0.151000,-0.056000,-0.060000,0.200000,4.750000,2.350000,0.164878,Hold,0.933838,0.000000,Hold,-99.000000,2.000000,LowGoal,-2145.000000,2400.000000,Speed,-1275.000000,2400.000000,Speed,Off,Off,0.000000,FALSE,43,Read: /home/lvuser/scripts/auto_43.bee,File good!,DRIVE_STRAIGHT_NAVX_RAMPARTS 200 5000 10,DRIVE_STRAIGHT_NAVX_RAMPARTS,0.000000,0.000000
07:53:10.230 PM 04/04/2016,Autonomous Enabled,10,TRUE,7,Read from Text File in DoesScriptNumberContainNull.vi->Disabled.vi->Robot Main.vi<APPEND> /home/lvuser/scripts/auto_42.bee,-0.562500,-28.772266,0.567190,-29.112349,FALSE,FALSE,TRUE,TRUE,FALSE,FALSE,Disabled,0.000000,0.000000,0.000000,TRUE,-7.323517,-13.317917,0.000000,1.167953,-0.301956,0.000000,0.124000,-0.140000,-0.076000,0.030000,4.310000,2.430000,0.164878,Hold,0.933838,0.000000,Hold,-99.000000,2.000000,LowGoal,-2362.500000,2400.000000,Speed,-2167.500000,2400.000000,Speed,Off,Off,0.000000,FALSE,43,Read: /home/lvuser/scripts/auto_43.bee,File good!,DRIVE_STRAIGHT_NAVX_RAMPARTS 200 5000 10,DRIVE_STRAIGHT_NAVX_RAMPARTS,0.000000,0.000000
07:53:10.330 PM 04/04/2016,Autonomous Enabled,12,TRUE,7,Read from Text File in DoesScriptNumberContainNull.vi->Disabled.vi->Robot Main.vi<APPEND> /home/lvuser/scripts/auto_42.bee,-0.562500,-34.836002,0.562110,-35.375001,FALSE,FALSE,TRUE,TRUE,FALSE,FALSE,Disabled,0.000000,0.000000,0.000000,TRUE,-7.261124,-13.336014,0.000000,1.253799,-0.378937,0.000000,-0.059000,0.014000,-0.174000,0.180000,4.900000,2.330000,0.323284,Hold,0.933838,0.000000,Hold,-100.000000,2.000000,LowGoal,-2400.000000,2400.000000,Speed,-2332.500000,2400.000000,Speed,Off,Off,0.000000,FALSE,43,Read: /home/lvuser/scripts/auto_43.bee,File good!,DRIVE_STRAIGHT_NAVX_RAMPARTS 200 5000 10,DRIVE_STRAIGHT_NAVX_RAMPARTS,0.000000,0.000000
07:53:10.431 PM 04/04/2016,Autonomous Enabled,11,TRUE,7,Read from Text File in DoesScriptNumberContainNull.vi->Disabled.vi->Robot Main.vi<APPEND> /home/lvuser/scripts/auto_42.bee,-0.562500,-41.701819,0.542403,-42.022652,FALSE,FALSE,TRUE,TRUE,FALSE,FALSE,Disabled,0.000000,0.000000,0.000000,TRUE,-7.198822,-13.353912,0.000000,1.271942,-0.352371,0.000000,0.225000,0.053000,-0.067000,-0.010000,5.670000,2.540000,-0.082174,Hold,0.934326,0.000000,Hold,-100.000000,2.000000,LowGoal,-2377.500000,2400.000000,Speed,-2347.500000,2400.000000,Speed,Off,Off,0.000000,FALSE,43,Read: /home/lvuser/scripts/auto_43.bee,File good!,DRIVE_STRAIGHT_NAVX_RAMPARTS 200 5000 10,DRIVE_STRAIGHT_NAVX_RAMPARTS,0.000000,0.000000
07:53:10.533 PM 04/04/2016,Autonomous Enabled,10,TRUE,7,Read from Text File in DoesScriptNumberContainNull.vi->Disabled.vi->Robot Main.vi<APPEND> /home/lvuser/scripts/auto_42.bee,-0.562500,-48.766553,0.520043,-48.753719,FALSE,FALSE,TRUE,TRUE,FALSE,FALSE,Disabled,0.000000,0.000000,0.000000,TRUE,-7.124619,-13.372559,0.000000,1.150879,-0.281174,0.000000,0.059000,0.040000,-0.065000,-0.600000,10.360000,2.380000,-0.736208,Hold,0.944580,0.000000,Hold,-101.000000,2.000000,LowGoal,-2370.000000,2400.000000,Speed,-2265.000000,2400.000000,Speed,Off,Off,0.000000,FALSE,43,Read: /home/lvuser/scripts/auto_43.bee,File good!,DRIVE_STRAIGHT_NAVX_RAMPARTS 200 5000 10,DRIVE_STRAIGHT_NAVX_RAMPARTS,0.000000,0.000000
07:53:10.634 PM 04/04/2016,Autonomous Enabled,10,TRUE,7,Read from Text File in DoesScriptNumberContainNull.vi->Disabled.vi->Robot Main.vi<APPEND> /home/lvuser/scripts/auto_42.bee,-0.562500,-55.741453,0.474225,-55.619537,FALSE,FALSE,TRUE,TRUE,FALSE,FALSE,Disabled,0.000000,0.000000,0.000000,TRUE,-7.068634,-13.384064,0.000000,1.055923,-0.166595,0.000000,-0.872000,-0.321000,0.831000,-1.080000,14.240000,2.240000,-0.969720,Hold,0.946533,0.000000,Hold,-102.000000,2.000000,LowGoal,-2362.500000,2400.000000,Speed,-2182.500000,2400.000000,Speed,Off,Off,0.000000,FALSE,43,Read: /home/lvuser/scripts/auto_43.bee,File good!,DRIVE_STRAIGHT_NAVX_RAMPARTS 200 5000 10,DRIVE_STRAIGHT_NAVX_RAMPARTS,0.000000,0.000000
07:53:10.734 PM 04/04/2016,Autonomous Enabled,11,TRUE,7,Read from Text File in DoesScriptNumberContainNull.vi->Disabled.vi->Robot Main.vi<APPEND> /home/lvuser/scripts/auto_42.bee,-0.562500,-62.626520,0.459657,-62.543104,FALSE,FALSE,TRUE,TRUE,FALSE,FALSE,Disabled,0.000000,0.000000,0.000000,TRUE,-7.035706,-13.397217,0.000000,0.826492,-0.426849,0.000000,-0.088000,-0.085000,-0.796000,-3.250000,18.790000,2.610000,-2.895976,Hold,0.959961,0.000000,Hold,-102.000000,2.000000,LowGoal,-2340.000000,2400.000000,Speed,-2235.000000,2400.000000,Speed,Off,Off,0.000000,FALSE,43,Read: /home/lvuser/scripts/auto_43.bee,File good!,DRIVE_STRAIGHT_NAVX_RAMPARTS 200 5000 10,DRIVE_STRAIGHT_NAVX_RAMPARTS,0.000000,0.000000
07:53:10.834 PM 04/04/2016,Autonomous Enabled,11,TRUE,7,Read from Text File in DoesScriptNumberContainNull.vi->Disabled.vi->Robot Main.vi<APPEND> /home/lvuser/scripts/auto_42.bee,-0.562500,-67.066843,0.556277,-68.330924,FALSE,FALSE,TRUE,TRUE,FALSE,FALSE,Disabled,0.000000,0.000000,0.000000,TRUE,-6.990479,-13.412888,0.000000,0.861252,-0.129883,0.000000,-0.332000,-0.431000,-0.810000,-1.120000,21.740000,2.580000,-1.249580,Hold,0.972900,0.000000,Hold,-102.000000,2.000000,LowGoal,-2340.000000,2400.000000,Speed,-2287.500000,2400.000000,Speed,Off,Off,0.000000,FALSE,43,Read: /home/lvuser/scripts/auto_43.bee,File good!,DRIVE_STRAIGHT_NAVX_RAMPARTS 200 5000 10,DRIVE_STRAIGHT_NAVX_RAMPARTS,0.000000,0.000000
07:53:10.934 PM 04/04/2016,Autonomous Enabled,9,TRUE,7,Read from Text File in DoesScriptNumberContainNull.vi->Disabled.vi->Robot Main.vi<APPEND> /home/lvuser/scripts/auto_42.bee,-0.562500,-70.891168,0.612713,-72.533830,FALSE,FALSE,TRUE,TRUE,FALSE,FALSE,Disabled,0.000000,0.000000,0.000000,TRUE,-6.946716,-13.427856,0.000000,0.610626,-0.390579,0.000000,0.003000,0.126000,1.085000,0.100000,13.890000,3.570000,-0.119147,Hold,1.003906,0.000000,Hold,-103.000000,2.000000,LowGoal,-2332.500000,2400.000000,Speed,-2242.500000,2400.000000,Speed,Off,Off,0.000000,FALSE,43,Read: /home/lvuser/scripts/auto_43.bee,File good!,DRIVE_STRAIGHT_NAVX_RAMPARTS 200 5000 10,DRIVE_STRAIGHT_NAVX_RAMPARTS,0.000000,0.000000
07:53:11.034 PM 04/04/2016,Autonomous Enabled,11,TRUE,7,Read from Text File in DoesScriptNumberContainNull.vi->Disabled.vi->Robot Main.vi<APPEND> /home/lvuser/scripts/auto_42.bee,-0.562500,-75.594573,0.723112,-78.924815,FALSE,FALSE,TRUE,TRUE,FALSE,FALSE,Disabled,0.000000,0.000000,0.000000,TRUE,-6.907272,-13.444794,0.000000,0.910812,-0.340134,0.000000,0.072000,0.065000,-0.940000,3.350000,12.510000,1.450000,1.890150,Hold,0.957764,0.000000,Hold,-103.000000,2.000000,LowGoal,-2332.500000,2400.000000,Speed,-2242.500000,2400.000000,Speed,Off,Off,0.000000,FALSE,43,Read: /home/lvuser/scripts/auto_43.bee,File good!,DRIVE_STRAIGHT_NAVX_RAMPARTS 200 5000 10,DRIVE_STRAIGHT_NAVX_RAMPARTS,0.000000,0.000000
07:53:11.135 PM 04/04/2016,Autonomous Enabled,9,TRUE,7,Read from Text File in DoesScriptNumberContainNull.vi->Disabled.vi->Robot Main.vi<APPEND> /home/lvuser/scripts/auto_42.bee,-0.562500,-84.680552,0.633234,-84.744718,FALSE,FALSE,TRUE,TRUE,FALSE,FALSE,Disabled,0.000000,0.000000,0.000000,TRUE,-6.855652,-13.463364,0.000000,0.423447,-0.254761,0.000000,-0.459000,-0.454000,0.305000,2.690000,6.570000,3.840000,3.498562,Hold,1.383057,0.000000,Hold,-104.000000,2.000000,LowGoal,-2317.500000,2400.000000,Speed,-2220.000000,2400.000000,Speed,Off,Off,0.000000,FALSE,43,Read: /home/lvuser/scripts/auto_43.bee,File good!,DRIVE_STRAIGHT_NAVX_RAMPARTS 200 5000 10,DRIVE_STRAIGHT_NAVX_RAMPARTS,0.000000,0.000000
07:53:11.236 PM 04/04/2016,Autonomous Enabled,11,TRUE,7,Read from Text File in DoesScriptNumberContainNull.vi->Disabled.vi->Robot Main.vi<APPEND> /home/lvuser/scripts/auto_42.bee,-0.562500,-87.221546,0.580583,-86.284715,FALSE,FALSE,TRUE,TRUE,FALSE,FALSE,Disabled,0.000000,0.000000,0.000000,TRUE,-6.840393,-13.482422,0.000000,0.563477,-0.323715,0.000000,0.759000,0.462000,0.926000,0.590000,-7.990000,1.530000,0.611426,Hold,1.241455,0.000000,Hold,-104.000000,2.000000,LowGoal,-2302.500000,2400.000000,Speed,-2212.500000,2400.000000,Speed,Off,Off,0.000000,FALSE,43,Read: /home/lvuser/scripts/auto_43.bee,File good!,DRIVE_STRAIGHT_NAVX_RAMPARTS 200 5000 10,DRIVE_STRAIGHT_NAVX_RAMPARTS,0.000000,0.000000
07:53:11.337 PM 04/04/2016,Autonomous Enabled,11,TRUE,7,Read from Text File in DoesScriptNumberContainNull.vi->Disabled.vi->Robot Main.vi<APPEND> /home/lvuser/scripts/auto_42.bee,-0.562500,-91.995535,0.556277,-90.487622,FALSE,FALSE,TRUE,TRUE,FALSE,FALSE,Disabled,0.000000,0.000000,0.000000,TRUE,-6.782318,-13.498535,0.000000,1.143433,-0.372375,0.000000,0.329000,-0.419000,-0.440000,-0.020000,-7.520000,2.220000,0.388355,Hold,1.514404,0.000000,Hold,-107.000000,2.000000,LowGoal,-2250.000000,2400.000000,Speed,-2190.000000,2400.000000,Speed,Off,Off,0.000000,FALSE,43,Read: /home/lvuser/scripts/auto_43.bee,File good!,DRIVE_STRAIGHT_NAVX_RAMPARTS 200 5000 10,DRIVE_STRAIGHT_NAVX_RAMPARTS,0.000000,0.000000
07:53:11.437 PM 04/04/2016,Autonomous Enabled,10,TRUE,7,Read from Text File in DoesScriptNumberContainNull.vi->Disabled.vi->Robot Main.vi<APPEND> /home/lvuser/scripts/auto_42.bee,-0.562500,-97.796188,0.524176,-96.140692,FALSE,FALSE,TRUE,TRUE,FALSE,FALSE,Disabled,0.000000,0.000000,0.000000,TRUE,-6.731827,-13.518494,0.000000,1.318390,-0.654236,0.000000,0.111000,0.287000,1.018000,-0.770000,-8.190000,2.520000,-0.540829,Hold,1.145996,0.000000,Hold,-110.000000,2.000000,LowGoal,-2302.500000,2400.000000,Speed,-2167.500000,2400.000000,Speed,Off,Off,0.000000,FALSE,43,Read: /home/lvuser/scripts/auto_43.bee,File good!,DRIVE_STRAIGHT_NAVX_RAMPARTS 200 5000 10,DRIVE_STRAIGHT_NAVX_RAMPARTS,0.000000,0.000000
07:53:11.537 PM 04/04/2016,Autonomous Enabled,11,TRUE,7,Read from Text File in DoesScriptNumberContainNull.vi->Disabled.vi->Robot Main.vi<APPEND> /home/lvuser/scripts/auto_42.bee,-0.562500,-105.130421,0.471008,-103.295258,FALSE,FALSE,TRUE,TRUE,FALSE,FALSE,Disabled,0.000000,0.000000,0.000000,TRUE,-6.662231,-13.548157,0.000000,1.422882,-0.535431,0.000000,-0.098000,-0.028000,-0.923000,-1.940000,-4.960000,2.780000,-1.487065,Hold,0.962402,0.000000,Hold,-110.000000,2.000000,LowGoal,-2332.500000,2400.000000,Speed,-2137.500000,2400.000000,Speed,Off,Off,0.000000,FALSE,43,Read: /home/lvuser/scripts/auto_43.bee,File good!,DRIVE_STRAIGHT_NAVX_RAMPARTS 200 5000 10,DRIVE_STRAIGHT_NAVX_RAMPARTS,0.000000,0.000000
07:53:11.638 PM 04/04/2016,Autonomous Enabled,11,TRUE,7,Read from Text File in DoesScriptNumberContainNull.vi->Disabled.vi->Robot Main.vi<APPEND> /home/lvuser/scripts/auto_42.bee,-0.562500,-112.098905,0.494856,-110.860491,FALSE,FALSE,TRUE,TRUE,FALSE,FALSE,Disabled,0.000000,0.000000,0.000000,TRUE,-6.594193,-13.573868,0.000000,1.417419,-0.337738,0.000000,-0.047000,-0.281000,-1.428000,-1.970000,-4.340000,2.260000,-1.765130,Hold,1.000732,0.000000,Hold,-110.000000,2.000000,LowGoal,-2347.500000,2400.000000,Speed,-2250.000000,2400.000000,Speed,Off,Off,0.000000,FALSE,43,Read: /home/lvuser/scripts/auto_43.bee,File good!,DRIVE_STRAIGHT_NAVX_RAMPARTS 200 5000 10,DRIVE_STRAIGHT_NAVX_RAMPARTS,0.000000,0.000000
07:53:11.738 PM 04/04/2016,Autonomous Enabled,10,TRUE,7,Read from Text File in DoesScriptNumberContainNull.vi->Disabled.vi->Robot Main.vi<APPEND> /home/lvuser/scripts/auto_42.bee,-0.562500,-119.760387,0.534010,-119.086638,TRUE,FALSE,TRUE,TRUE,FALSE,FALSE,Disabled,0.000000,0.000000,0.000000,TRUE,-6.509430,-13.599808,0.000000,1.400482,-0.449219,0.000000,0.469000,0.702000,0.214000,-0.960000,-1.520000,1.250000,-0.741689,Hold,1.079102,0.000000,Hold,-112.000000,2.000000,LowGoal,-2340.000000,2400.000000,Speed,-2265.000000,2400.000000,Speed,Off,Off,0.000000,FALSE,43,Read: /home/lvuser/scripts/auto_43.bee,File good!,DRIVE_STRAIGHT_NAVX_RAMPARTS 200 5000 10,DRIVE_STRAIGHT_NAVX_RAMPARTS,0.000000,0.000000
07:53:11.838 PM 04/04/2016,Autonomous Enabled,9,TRUE,7,Read from Text File in DoesScriptNumberContainNull.vi->Disabled.vi->Robot Main.vi<APPEND> /home/lvuser/scripts/auto_42.bee,0.000000,-127.819701,-0.000000,-127.524535,FALSE,FALSE,TRUE,TRUE,FALSE,FALSE,Disabled,0.000000,0.000000,0.000000,TRUE,-6.435196,-13.623260,0.000000,1.340714,-0.561829,0.000000,-0.694000,-0.945000,-0.662000,0.420000,6.630000,3.620000,0.456555,Hold,1.741943,0.000000,Hold,-112.000000,2.000000,LowGoal,-2310.000000,2400.000000,Speed,-2287.500000,2400.000000,Speed,Off,Off,0.000000,FALSE,43,Read: /home/lvuser/scripts/auto_43.bee,File good!,WAIT_FOR_PID,WAIT_FOR_PID,0.000000,0.000000
07:53:11.938 PM 04/04/2016,Autonomous Enabled,10,TRUE,7,Read from Text File in DoesScriptNumberContainNull.vi->Disabled.vi->Robot Main.vi<APPEND> /home/lvuser/scripts/auto_42.bee,0.000000,-133.216105,-0.000000,-134.525102,FALSE,FALSE,TRUE,TRUE,FALSE,TRUE,Disabled,0.000000,0.000000,0.000000,TRUE,-6.376541,-13.660141,0.000000,1.191925,-0.823257,0.000000,0.139000,0.021000,-0.565000,1.400000,5.990000,1.410000,1.729496,Hold,1.223389,58.000000,Hold,-112.000000,70041.600000,LowGoal,-2310.000000,-3272.727273,Speed,-2280.000000,-3272.727273,Speed,Off,Off,0.000000,FALSE,43,Read: /home/lvuser/scripts/auto_43.bee,File good!,SEARCH_FOR_GOAL,SEARCH_FOR_GOAL,0.000000,0.000000
07:53:12.038 PM 04/04/2016,Autonomous Enabled,10,TRUE,7,Read from Text File in DoesScriptNumberContainNull.vi->Disabled.vi->Robot Main.vi<APPEND> /home/lvuser/scripts/auto_42.bee,0.000000,-137.188013,-0.000000,-139.087341,TRUE,FALSE,TRUE,TRUE,FALSE,TRUE,Disabled,0.000000,0.000000,0.000000,TRUE,-6.310989,-13.712509,0.000000,1.083145,-0.797989,0.000000,-0.031000,-0.023000,-0.943000,1.410000,-0.450000,2.760000,1.835868,Hold,6.197021,58.000000,Hold,-1313.000000,70041.600000,LowGoal,-2242.500000,-3272.727273,Speed,-2227.500000,-3272.727273,Speed,Off,Off,0.000000,FALSE,43,Read: /home/lvuser/scripts/auto_43.bee,File good!,SEARCH_FOR_GOAL,SEARCH_FOR_GOAL,0.000000,0.000000
07:53:12.139 PM 04/04/2016,Autonomous Enabled,10,TRUE,7,Read from Text File in DoesScriptNumberContainNull.vi->Disabled.vi->Robot Main.vi<APPEND> /home/lvuser/scripts/auto_42.bee,0.000000,-139.350424,-0.000000,-141.102170,TRUE,FALSE,TRUE,TRUE,FALSE,TRUE,Disabled,0.000000,0.000000,0.000000,TRUE,-6.278076,-13.737488,0.000000,1.084717,-0.836365,0.000000,0.168000,-0.144000,0.992000,1.420000,0.000000,2.130000,1.836942,Hold,9.111328,58.000000,Hold,-12516.000000,70041.600000,LowGoal,-1327.500000,-3272.727273,Speed,-1642.500000,-3272.727273,Speed,Off,Off,0.000000,FALSE,43,Read: /home/lvuser/scripts/auto_43.bee,File good!,SEARCH_FOR_GOAL,SEARCH_FOR_GOAL,0.000000,0.000000
07:53:12.239 PM 04/04/2016,Autonomous Enabled,9,TRUE,7,Read from Text File in DoesScriptNumberContainNull.vi->Disabled.vi->Robot Main.vi<APPEND> /home/lvuser/scripts/auto_42.bee,0.000000,-142.148084,-0.000000,-143.970413,TRUE,FALSE,TRUE,TRUE,FALSE,TRUE,Disabled,0.000000,0.000000,0.000000,TRUE,-6.236679,-13.783249,0.000000,0.732285,-0.933273,0.000000,-0.292000,0.014000,-0.505000,1.620000,-1.010000,2.300000,1.923815,Hold,13.311035,58.000000,Hold,-23962.000000,70041.600000,LowGoal,-472.500000,-3272.727273,Speed,-1132.500000,-3272.727273,Speed,Off,Off,0.000000,FALSE,43,Read: /home/lvuser/scripts/auto_43.bee,File good!,SEARCH_FOR_GOAL,SEARCH_FOR_GOAL,0.000000,0.000000
07:53:12.339 PM 04/04/2016,Autonomous Enabled,10,TRUE,7,Read from Text File in DoesScriptNumberContainNull.vi->Disabled.vi->Robot Main.vi<APPEND> /home/lvuser/scripts/auto_42.bee,0.000000,-143.899830,-0.000000,-145.792742,FALSE,FALSE,TRUE,TRUE,FALSE,TRUE,Disabled,0.000000,0.000000,0.000000,TRUE,-6.201218,-13.839386,0.000000,0.510010,-0.927597,0.000000,-0.055000,-0.037000,0.024000,1.830000,-2.880000,3.000000,2.191422,Hold,18.592041,58.000000,Hold,-35658.000000,70041.600000,LowGoal,360.000000,-3272.727273,Speed,-780.000000,-3272.727273,Speed,Off,Off,0.000000,FALSE,43,Read: /home/lvuser/scripts/auto_43.bee,File good!,SEARCH_FOR_GOAL,SEARCH_FOR_GOAL,0.000000,0.000000
07:53:12.439 PM 04/04/2016,Autonomous Enabled,8,TRUE,7,Read from Text File in DoesScriptNumberContainNull.vi->Disabled.vi->Robot Main.vi<APPEND> /home/lvuser/scripts/auto_42.bee,0.000000,-145.176744,-0.000000,-147.153073,FALSE,FALSE,TRUE,TRUE,FALSE,TRUE,Disabled,0.000000,0.000000,0.000000,TRUE,-6.182312,-13.876663,0.000000,0.444824,-0.924805,0.000000,-0.042000,-0.016000,-0.128000,2.010000,-3.170000,2.890000,2.349987,Hold,25.029541,58.000000,Hold,-35658.000000,70041.600000,LowGoal,960.000000,-3272.727273,Speed,-472.500000,-3272.727273,Speed,Off,Off,0.000000,FALSE,43,Read: /home/lvuser/scripts/auto_43.bee,File good!,SEARCH_FOR_GOAL,SEARCH_FOR_GOAL,0.000000,0.000000
07:53:12.542 PM 04/04/2016,Autonomous Enabled,10,TRUE,7,Read from Text File in DoesScriptNumberContainNull.vi->Disabled.vi->Robot Main.vi<APPEND> /home/lvuser/scripts/auto_42.bee,0.000000,-145.888992,-0.000000,-147.910237,FALSE,FALSE,TRUE,TRUE,FALSE,TRUE,Disabled,0.000000,0.000000,0.000000,TRUE,-6.154663,-13.940659,0.000000,0.371201,-0.926163,0.000000,-0.031000,-0.009000,-0.043000,2.140000,-3.630000,2.770000,2.500643,Hold,32.946045,58.000000,Hold,-48909.000000,70041.600000,LowGoal,1560.000000,-3272.727273,Speed,-210.000000,-3272.727273,Speed,Off,Off,0.000000,FALSE,43,Read: /home/lvuser/scripts/auto_43.bee,File good!,SEARCH_FOR_GOAL,SEARCH_FOR_GOAL,0.000000,0.000000
07:53:12.642 PM 04/04/2016,Autonomous Enabled,9,TRUE,7,Read from Text File in DoesScriptNumberContainNull.vi->Disabled.vi->Robot Main.vi<APPEND> /home/lvuser/scripts/auto_42.bee,0.000000,-146.222658,-0.000000,-148.243903,FALSE,FALSE,TRUE,TRUE,FALSE,TRUE,Disabled,0.000000,0.000000,0.000000,TRUE,-6.136429,-13.985809,0.000000,0.362305,-0.871201,0.000000,0.054000,0.133000,0.198000,2.180000,-3.680000,2.770000,2.557232,Hold,42.492188,58.000000,Hold,-63336.000000,70041.600000,LowGoal,1897.500000,-3272.727273,Speed,922.500000,-3272.727273,Speed,Off,Off,0.000000,FALSE,43,Read: /home/lvuser/scripts/auto_43.bee,File good!,SEARCH_FOR_GOAL,SEARCH_FOR_GOAL,0.000000,0.000000
07:53:12.745 PM 04/04/2016,Autonomous Enabled,10,TRUE,7,Read from Text File in DoesScriptNumberContainNull.vi->Disabled.vi->Robot Main.vi<APPEND> /home/lvuser/scripts/auto_42.bee,0.000000,-146.434408,-0.000000,-148.487736,FALSE,FALSE,TRUE,TRUE,FALSE,TRUE,Disabled,0.000000,0.000000,0.000000,TRUE,-6.121445,-14.017273,0.000000,0.378113,-0.721848,0.000000,-0.062000,-0.063000,-0.323000,2.260000,-4.100000,2.750000,2.656533,Hold,52.114990,58.000000,Hold,-70191.000000,70041.600000,LowGoal,2250.000000,-3272.727273,Speed,1800.000000,-3272.727273,Speed,Off,Off,0.000000,FALSE,43,Read: /home/lvuser/scripts/auto_43.bee,File good!,SEARCH_FOR_GOAL,SEARCH_FOR_GOAL,0.000000,0.000000
07:53:12.847 PM 04/04/2016,Autonomous Enabled,12,TRUE,7,Read from Text File in DoesScriptNumberContainNull.vi->Disabled.vi->Robot Main.vi<APPEND> /home/lvuser/scripts/auto_42.bee,0.000000,-146.626907,-0.000000,-148.641736,FALSE,FALSE,TRUE,TRUE,FALSE,TRUE,Disabled,0.000000,0.000000,0.000000,TRUE,-6.097717,-14.065399,0.000000,0.332001,-0.679642,0.000000,-0.182000,0.202000,0.530000,2.160000,-3.090000,2.680000,2.603514,Hold,61.992920,58.000000,Hold,-70124.000000,70041.600000,LowGoal,2557.500000,-3272.727273,Speed,2107.500000,-3272.727273,Speed,Off,Off,0.000000,FALSE,43,Read: /home/lvuser/scripts/auto_43.bee,File good!,SEARCH_FOR_GOAL,SEARCH_FOR_GOAL,0.000000,0.000000
07:53:12.947 PM 04/04/2016,Autonomous Enabled,10,TRUE,7,Read from Text File in DoesScriptNumberContainNull.vi->Disabled.vi->Robot Main.vi<APPEND> /home/lvuser/scripts/auto_42.bee,0.000000,-146.472907,-0.000000,-148.462069,FALSE,FALSE,TRUE,TRUE,FALSE,TRUE,Disabled,0.000000,0.000000,0.000000,TRUE,-6.080536,-14.098114,0.000000,0.378922,-0.663422,0.000000,0.114000,0.007000,-0.593000,2.140000,-4.040000,2.690000,2.586180,Hold,64.311523,58.000000,Hold,-70121.000000,70041.600000,LowGoal,2835.000000,-3272.727273,Speed,2317.500000,-3272.727273,Speed,Off,Off,0.000000,FALSE,43,Read: /home/lvuser/scripts/auto_43.bee,File good!,SEARCH_FOR_GOAL,SEARCH_FOR_GOAL,0.000000,0.000000
07:53:13.047 PM 04/04/2016,Autonomous Enabled,9,TRUE,7,Read from Text File in DoesScriptNumberContainNull.vi->Disabled.vi->Robot Main.vi<APPEND> /home/lvuser/scripts/auto_42.bee,0.000000,-146.460074,-0.000000,-148.468486,TRUE,FALSE,TRUE,TRUE,FALSE,TRUE,Disabled,0.000000,0.000000,0.000000,TRUE,-6.061584,-14.125519,0.000000,0.527145,-0.693115,0.000000,-0.014000,0.099000,0.232000,2.090000,-2.580000,2.660000,2.632304,Hold,63.282227,58.000000,Hold,-70123.000000,70041.600000,LowGoal,3067.500000,-3272.727273,Speed,2475.000000,-3272.727273,Speed,Off,Off,0.000000,FALSE,43,Read: /home/lvuser/scripts/auto_43.bee,File good!,SEARCH_FOR_GOAL,SEARCH_FOR_GOAL,0.000000,0.000000
07:53:13.147 PM 04/04/2016,Autonomous Enabled,11,TRUE,7,Read from Text File in DoesScriptNumberContainNull.vi->Disabled.vi->Robot Main.vi<APPEND> /home/lvuser/scripts/auto_42.bee,0.000000,-146.460074,-0.000000,-148.417153,TRUE,FALSE,TRUE,TRUE,FALSE,TRUE,Disabled,0.000000,0.000000,0.000000,TRUE,-6.030075,-14.166336,0.000000,0.525589,-0.661911,0.000000,0.097000,0.067000,0.186000,2.070000,-2.880000,2.670000,2.629646,Hold,62.341797,58.000000,Hold,-70120.000000,70041.600000,LowGoal,3232.500000,-3272.727273,Speed,2640.000000,-3272.727273,Speed,Off,Off,0.000000,FALSE,43,Read: /home/lvuser/scripts/auto_43.bee,File good!,SEARCH_FOR_GOAL,SEARCH_FOR_GOAL,0.000000,0.000000
07:53:13.247 PM 04/04/2016,Autonomous Enabled,11,TRUE,7,Read from Text File in DoesScriptNumberContainNull.vi->Disabled.vi->Robot Main.vi<APPEND> /home/lvuser/scripts/auto_42.bee,0.000000,-146.415158,-0.000000,-148.372236,TRUE,FALSE,TRUE,TRUE,FALSE,TRUE,Disabled,0.000000,0.000000,0.000000,TRUE,-6.007507,-14.192551,0.000000,0.610794,-0.659836,0.000000,0.168000,-0.062000,-0.143000,2.090000,-2.570000,2.700000,2.666106,Hold,61.828125,58.000000,Hold,-70120.000000,70041.600000,LowGoal,3262.500000,-3272.727273,Speed,2857.500000,-3272.727273,Speed,Off,Off,0.000000,FALSE,43,Read: /home/lvuser/scripts/auto_43.bee,File good!,SEARCH_FOR_GOAL,SEARCH_FOR_GOAL,0.000000,0.000000
07:53:13.347 PM 04/04/2016,Autonomous Enabled,10,TRUE,7,Read from Text File in DoesScriptNumberContainNull.vi->Disabled.vi->Robot Main.vi<APPEND> /home/lvuser/scripts/auto_42.bee,0.000000,-146.453658,-0.000000,-148.481319,TRUE,FALSE,TRUE,TRUE,FALSE,TRUE,Disabled,0.000000,0.000000,0.000000,TRUE,-5.962601,-14.239136,0.000000,0.631165,-0.661774,0.000000,-0.012000,0.077000,-0.102000,2.120000,-2.530000,2.750000,2.736889,Hold,61.756348,58.000000,Hold,-70119.000000,70041.600000,LowGoal,3240.000000,-3272.727273,Speed,3022.500000,-3272.727273,Speed,Off,Off,0.000000,FALSE,43,Read: /home/lvuser/scripts/auto_43.bee,File good!,SEARCH_FOR_GOAL,SEARCH_FOR_GOAL,0.000000,0.000000
07:53:13.447 PM 04/04/2016,Autonomous Enabled,11,TRUE,7,Read from Text File in DoesScriptNumberContainNull.vi->Disabled.vi->Robot Main.vi<APPEND> /home/lvuser/scripts/auto_42.bee,0.000000,-146.485741,-0.000000,-148.506986,TRUE,FALSE,TRUE,TRUE,FALSE,TRUE,Disabled,0.000000,0.000000,0.000000,TRUE,-5.938614,-14.266586,0.000000,0.599091,-0.692276,0.000000,-0.014000,0.287000,-0.049000,2.080000,-2.370000,2.610000,2.728293,Hold,61.635498,58.000000,Hold,-70119.000000,70041.600000,LowGoal,3225.000000,-3272.727273,Speed,3112.500000,-3272.727273,Speed,Off,Off,0.000000,FALSE,43,Read: /home/lvuser/scripts/auto_43.bee,File good!,SEARCH_FOR_GOAL,SEARCH_FOR_GOAL,0.000000,0.000000
07:53:13.547 PM 04/04/2016,Autonomous Enabled,11,TRUE,7,Read from Text File in DoesScriptNumberContainNull.vi->Disabled.vi->Robot Main.vi<APPEND> /home/lvuser/scripts/auto_42.bee,0.000000,-146.415158,-0.000000,-148.372236,TRUE,FALSE,TRUE,TRUE,FALSE,TRUE,Disabled,0.000000,0.000000,0.000000,TRUE,-5.901398,-14.309006,0.000000,0.669479,-0.695099,0.000000,0.065000,0.128000,-0.096000,2.110000,-2.660000,2.580000,2.768633,Hold,53.620605,58.000000,Hold,-70119.000000,70041.600000,LowGoal,3225.000000,-3272.727273,Speed,3150.000000,-3272.727273,Speed,Off,Off,0.000000,FALSE,43,Read: /home/lvuser/scripts/auto_43.bee,File good!,SEARCH_FOR_GOAL,SEARCH_FOR_GOAL,0.000000,0.000000
07:53:13.647 PM 04/04/2016,Autonomous Enabled,10,TRUE,7,Read from Text File in DoesScriptNumberContainNull.vi->Disabled.vi->Robot Main.vi<APPEND> /home/lvuser/scripts/auto_42.bee,0.000000,-146.581991,-0.000000,-148.539069,TRUE,FALSE,TRUE,TRUE,FALSE,TRUE,Enable,-0.200000,8.285680,-6.415680,TRUE,-5.867371,-14.341766,0.000000,0.665863,-0.625031,0.000000,0.121000,0.045000,0.139000,1.800000,-0.200000,2.580000,2.559903,Hold,53.264160,58.000000,Hold,-70119.000000,70041.600000,LowGoal,3217.500000,-3272.727273,Speed,3142.500000,-3272.727273,Speed,Off,Off,0.000000,FALSE,43,Read: /home/lvuser/scripts/auto_43.bee,File good!,SEARCH_FOR_GOAL,SEARCH_FOR_GOAL,0.000000,0.000000
07:53:13.748 PM 04/04/2016,Autonomous Enabled,9,TRUE,7,Read from Text File in DoesScriptNumberContainNull.vi->Disabled.vi->Robot Main.vi<APPEND> /home/lvuser/scripts/auto_42.bee,0.306164,-146.838657,0.306164,-148.141237,TRUE,FALSE,TRUE,TRUE,FALSE,TRUE,PID,-0.200000,8.285680,-6.415680,TRUE,-5.840576,-14.368317,0.000000,0.666809,-0.672852,0.000000,0.015000,0.149000,0.427000,1.830000,-1.950000,2.580000,2.546574,Hold,55.955811,58.000000,Hold,-70116.000000,70041.600000,LowGoal,3217.500000,-3272.727273,Speed,3105.000000,-3272.727273,Speed,Off,Off,0.000000,FALSE,43,Read: /home/lvuser/scripts/auto_43.bee,File good!,SEARCH_FOR_GOAL,SEARCH_FOR_GOAL,0.000000,0.000000
07:53:13.848 PM 04/04/2016,Autonomous Enabled,10,TRUE,7,Read from Text File in DoesScriptNumberContainNull.vi->Disabled.vi->Robot Main.vi<APPEND> /home/lvuser/scripts/auto_42.bee,0.291812,-147.390489,0.291812,-147.307072,TRUE,FALSE,TRUE,TRUE,FALSE,TRUE,PID,-0.200000,8.285680,-6.415680,TRUE,-5.811401,-14.409363,0.000000,0.531952,-0.871063,0.000000,-0.002000,-0.248000,0.285000,-0.630000,-2.410000,2.240000,0.105057,Hold,63.660889,58.000000,Hold,-70116.000000,70041.600000,LowGoal,3210.000000,-3272.727273,Speed,3120.000000,-3272.727273,Speed,Off,Off,0.000000,FALSE,43,Read: /home/lvuser/scripts/auto_43.bee,File good!,SEARCH_FOR_GOAL,SEARCH_FOR_GOAL,0.000000,0.000000
07:53:13.948 PM 04/04/2016,Autonomous Enabled,9,FALSE,0,NO ERROR,0.248822,-147.820404,0.248822,-146.537074,TRUE,FALSE,TRUE,TRUE,FALSE,TRUE,PID,-0.200000,8.285680,-6.415680,TRUE,-5.787598,-14.445923,0.000000,0.634583,-0.901093,0.000000,0.217000,0.441000,-0.394000,-3.020000,-2.630000,2.110000,-2.625050,Hold,63.842041,58.000000,Hold,-70110.000000,70041.600000,LowGoal,3172.500000,-3272.727273,Speed,3105.000000,-3272.727273,Speed,Off,Off,0.000000,FALSE,43,Read: /home/lvuser/scripts/auto_43.bee,File good!,SEARCH_FOR_GOAL,SEARCH_FOR_GOAL,0.000000,0.000000
07:53:14.048 PM 04/04/2016,Autonomous Enabled,11,FALSE,0,NO ERROR,0.224506,-148.198987,0.224506,-146.203408,TRUE,FALSE,TRUE,TRUE,FALSE,TRUE,PID,-0.200000,8.285680,-6.415680,TRUE,-5.745621,-14.492889,0.000000,0.686935,-0.721970,0.000000,0.046000,-0.378000,0.054000,-5.430000,-1.400000,2.860000,-4.098765,Hold,62.283936,58.000000,Hold,-70151.000000,70041.600000,LowGoal,3157.500000,-3272.727273,Speed,3090.000000,-3272.727273,Speed,Off,Off,0.000000,FALSE,43,Read: /home/lvuser/scripts/auto_43.bee,File good!,SEARCH_FOR_GOAL,SEARCH_FOR_GOAL,0.000000,0.000000
07:53:14.150 PM 04/04/2016,Autonomous Enabled,12,FALSE,0,NO ERROR,0.208800,-148.539069,0.208800,-145.330743,TRUE,FALSE,TRUE,TRUE,FALSE,TRUE,PID,-0.200000,8.285680,-6.415680,TRUE,-5.710068,-14.536362,0.000000,0.732132,-0.951172,0.000000,0.243000,-0.033000,0.372000,-7.980000,-1.980000,2.120000,-6.443429,Hold,58.986816,58.000000,Hold,-70135.000000,70041.600000,LowGoal,3165.000000,-3272.727273,Speed,3135.000000,-3272.727273,Speed,Off,Off,0.000000,FALSE,43,Read: /home/lvuser/scripts/auto_43.bee,File good!,SEARCH_FOR_GOAL,SEARCH_FOR_GOAL,0.000000,0.000000
07:53:14.250 PM 04/04/2016,Autonomous Enabled,10,FALSE,0,NO ERROR,-0.228655,-148.506986,-0.228655,-144.952161,TRUE,FALSE,TRUE,TRUE,FALSE,TRUE,PID,-0.200000,8.285680,-6.415680,TRUE,-5.671600,-14.582199,0.000000,0.783249,-0.846558,0.000000,0.147000,0.041000,-0.473000,-9.250000,-2.010000,2.550000,-8.062753,Hold,53.481934,58.000000,Hold,-70132.000000,70041.600000,LowGoal,3172.500000,-3272.727273,Speed,3127.500000,-3272.727273,Speed,Off,Off,0.000000,FALSE,43,Read: /home/lvuser/scripts/auto_43.bee,File good!,SEARCH_FOR_GOAL,SEARCH_FOR_GOAL,0.000000,0.000000
07:53:14.351 PM 04/04/2016,Autonomous Enabled,10,FALSE,0,NO ERROR,-0.238441,-148.032154,-0.238441,-145.561743,TRUE,FALSE,TRUE,TRUE,FALSE,TRUE,PID,-0.200000,8.285680,-6.415680,TRUE,-5.622589,-14.631119,0.000000,0.814667,-0.872345,0.000000,-0.143000,-0.060000,-0.614000,-8.860000,0.550000,2.760000,-7.524692,Hold,53.905273,58.000000,Hold,-70132.000000,70041.600000,LowGoal,3187.500000,-3272.727273,Speed,3112.500000,-3272.727273,Speed,Off,Off,0.000000,FALSE,43,Read: /home/lvuser/scripts/auto_43.bee,File good!,SEARCH_FOR_GOAL,SEARCH_FOR_GOAL,0.000000,0.000000
07:53:14.452 PM 04/04/2016,Autonomous Enabled,11,FALSE,0,NO ERROR,-0.218958,-147.371239,-0.218958,-145.747826,FALSE,FALSE,TRUE,TRUE,FALSE,TRUE,PID,-0.200000,8.285680,-6.415680,TRUE,-5.581375,-14.673782,0.000000,0.848999,-0.802429,0.000000,0.127000,0.020000,0.046000,-7.020000,-1.080000,3.060000,-5.727339,Hold,58.620361,58.000000,Hold,-70121.000000,70041.600000,LowGoal,3202.500000,-3272.727273,Speed,3135.000000,-3272.727273,Speed,Off,Off,0.000000,FALSE,43,Read: /home/lvuser/scripts/auto_43.bee,File good!,SEARCH_FOR_GOAL,SEARCH_FOR_GOAL,0.000000,0.000000
07:53:14.552 PM 04/04/2016,Autonomous Enabled,11,FALSE,0,NO ERROR,0.208457,-146.928490,0.208457,-145.773492,FALSE,FALSE,TRUE,TRUE,FALSE,TRUE,PID,-0.200000,8.285680,-6.415680,TRUE,-5.537292,-14.715088,0.000000,0.856857,-0.857971,0.000000,-0.190000,-0.069000,0.303000,-4.540000,-1.500000,3.080000,-3.701377,Hold,64.403076,58.000000,Hold,-70121.000000,70041.600000,LowGoal,3202.500000,-3272.727273,Speed,3127.500000,-3272.727273,Speed,Off,Off,0.000000,FALSE,43,Read: /home/lvuser/scripts/auto_43.bee,File good!,SEARCH_FOR_GOAL,SEARCH_FOR_GOAL,0.000000,0.000000
07:53:14.652 PM 04/04/2016,Autonomous Enabled,10,FALSE,0,NO ERROR,0.224980,-147.428989,0.224980,-145.228077,TRUE,FALSE,TRUE,TRUE,FALSE,TRUE,PID,0.053125,8.285680,-6.415680,TRUE,-5.495422,-14.763840,0.000000,0.832336,-1.018600,0.000000,0.046000,0.337000,0.136000,-5.770000,-1.320000,1.990000,-4.141325,Hold,62.958740,58.000000,Hold,-70130.000000,70041.600000,LowGoal,3210.000000,-3272.727273,Speed,3112.500000,-3272.727273,Speed,Off,Off,0.000000,FALSE,43,Read: /home/lvuser/scripts/auto_43.bee,File good!,SEARCH_FOR_GOAL,SEARCH_FOR_GOAL,0.000000,0.000000
07:53:14.752 PM 04/04/2016,Autonomous Enabled,11,FALSE,0,NO ERROR,0.000000,-147.833238,-0.000000,-144.637745,TRUE,FALSE,TRUE,TRUE,FALSE,TRUE,Enable,0.053125,-2.200884,-5.149116,TRUE,-5.452347,-14.809692,0.000000,0.897827,-0.903595,0.000000,0.118000,-0.196000,-0.043000,-8.220000,-1.210000,2.590000,-6.539728,Hold,61.951172,58.000000,Hold,-70142.000000,70041.600000,LowGoal,3217.500000,-3272.727273,Speed,3120.000000,-3272.727273,Speed,Off,Off,0.000000,FALSE,43,Read: /home/lvuser/scripts/auto_43.bee,File good!,SEARCH_FOR_GOAL,SEARCH_FOR_GOAL,0.000000,0.000000
07:53:14.852 PM 04/04/2016,Autonomous Enabled,10,FALSE,0,NO ERROR,-0.246523,-147.473905,-0.246523,-144.605662,TRUE,FALSE,TRUE,TRUE,FALSE,TRUE,PID,0.053125,-2.200884,-5.149116,TRUE,-5.424026,-14.857422,0.000000,0.025024,-0.905457,0.000000,0.266000,0.423000,-0.070000,-8.970000,-1.520000,2.630000,-7.606256,Hold,56.105713,58.000000,Hold,-70124.000000,70041.600000,LowGoal,3217.500000,-3272.727273,Speed,3150.000000,-3272.727273,Speed,Off,Off,0.000000,FALSE,43,Read: /home/lvuser/scripts/auto_43.bee,File good!,SEARCH_FOR_GOAL,SEARCH_FOR_GOAL,0.000000,0.000000
07:53:14.952 PM 04/04/2016,Autonomous Enabled,9,FALSE,0,NO ERROR,-0.242813,-147.172323,-0.242813,-145.330743,TRUE,FALSE,TRUE,TRUE,FALSE,TRUE,PID,0.053125,-2.200884,-5.149116,TRUE,-5.415665,-14.907562,0.000000,0.195862,-0.910614,0.000000,0.266000,0.423000,-0.070000,-7.460000,0.340000,2.850000,-6.311810,Hold,53.160156,58.000000,Hold,-70128.000000,70041.600000,LowGoal,3195.000000,-3272.727273,Speed,3127.500000,-3272.727273,Speed,Off,Off,0.000000,FALSE,43,Read: /home/lvuser/scripts/auto_43.bee,File good!,SEARCH_FOR_GOAL,SEARCH_FOR_GOAL,0.000000,0.000000
07:53:15.054 PM 04/04/2016,Autonomous Enabled,10,FALSE,0,NO ERROR,-0.216468,-146.479324,-0.216468,-145.921075,TRUE,FALSE,TRUE,TRUE,FALSE,TRUE,PID,0.053125,-2.200884,-5.149116,TRUE,-5.408142,-14.944611,0.000000,0.186737,-0.857040,0.000000,0.033000,0.134000,-0.201000,-4.750000,0.130000,2.510000,-3.170723,Hold,55.493652,58.000000,Hold,-70128.000000,70041.600000,LowGoal,3202.500000,-3272.727273,Speed,3105.000000,-3272.727273,Speed,Off,Off,0.000000,FALSE,43,Read: /home/lvuser/scripts/auto_43.bee,File good!,SEARCH_FOR_GOAL,SEARCH_FOR_GOAL,0.000000,0.000000
07:53:15.154 PM 04/04/2016,Autonomous Enabled,13,FALSE,0,NO ERROR,0.220420,-146.363824,0.220420,-146.062242,FALSE,FALSE,TRUE,TRUE,FALSE,TRUE,PID,0.053125,-2.200884,-5.149116,TRUE,-5.398590,-14.982590,0.000000,0.177002,-0.741302,0.000000,-0.315000,-0.687000,0.300000,-2.200000,-0.500000,3.000000,-0.723664,Hold,63.437256,58.000000,Hold,-70120.000000,70041.600000,LowGoal,3225.000000,-3272.727273,Speed,3127.500000,-3272.727273,Speed,Off,Off,0.000000,FALSE,43,Read: /home/lvuser/scripts/auto_43.bee,File good!,SEARCH_FOR_GOAL,SEARCH_FOR_GOAL,0.000000,0.000000
07:53:15.254 PM 04/04/2016,Autonomous Enabled,12,FALSE,0,NO ERROR,0.241439,-146.549907,0.241439,-145.741409,TRUE,FALSE,TRUE,TRUE,FALSE,TRUE,PID,0.053125,-2.200884,-5.149116,TRUE,-5.391235,-15.028824,0.000000,0.167953,-0.978851,0.000000,-0.206000,0.259000,-0.317000,-2.990000,-1.650000,2.090000,-1.356950,Hold,64.156738,58.000000,Hold,-70120.000000,70041.600000,LowGoal,3232.500000,-3272.727273,Speed,3142.500000,-3272.727273,Speed,Off,Off,0.000000,FALSE,43,Read: /home/lvuser/scripts/auto_43.bee,File good!,SEARCH_FOR_GOAL,SEARCH_FOR_GOAL,0.000000,0.000000
07:53:15.355 PM 04/04/2016,Autonomous Enabled,9,FALSE,0,NO ERROR,0.221242,-147.287822,0.221242,-145.247327,TRUE,FALSE,TRUE,TRUE,FALSE,TRUE,PID,0.053125,-2.200884,-5.149116,TRUE,-5.383270,-15.075455,0.000000,0.148178,-0.868744,0.000000,0.003000,-0.032000,0.398000,-5.590000,-0.680000,2.770000,-3.822462,Hold,62.602539,58.000000,Hold,-70133.000000,70041.600000,LowGoal,3217.500000,-3272.727273,Speed,3127.500000,-3272.727273,Speed,Off,Off,0.000000,FALSE,43,Read: /home/lvuser/scripts/auto_43.bee,File good!,SEARCH_FOR_GOAL,SEARCH_FOR_GOAL,0.000000,0.000000
07:53:15.456 PM 04/04/2016,Autonomous Enabled,9,FALSE,0,NO ERROR,-0.213108,-147.159489,-0.213108,-145.029161,TRUE,FALSE,TRUE,TRUE,FALSE,TRUE,PID,0.053125,-2.200884,-5.149116,TRUE,-5.376114,-15.118225,0.000000,0.145416,-0.906570,0.000000,0.003000,-0.032000,0.398000,-7.690000,-0.960000,2.220000,-6.014400,Hold,59.778320,58.000000,Hold,-70129.000000,70041.600000,LowGoal,3217.500000,-3272.727273,Speed,3150.000000,-3272.727273,Speed,Off,Off,0.000000,FALSE,43,Read: /home/lvuser/scripts/auto_43.bee,File good!,SEARCH_FOR_GOAL,SEARCH_FOR_GOAL,0.000000,0.000000
07:53:15.556 PM 04/04/2016,Autonomous Enabled,17,FALSE,0,NO ERROR,-0.230771,-146.780907,-0.230771,-145.292244,FALSE,FALSE,TRUE,TRUE,FALSE,TRUE,PID,0.053125,-2.200884,-5.149116,TRUE,-5.376114,-15.118225,0.000000,0.145416,-0.906570,0.000000,0.186000,0.119000,-0.038000,-6.280000,-0.910000,3.130000,-4.904285,Hold,53.382080,58.000000,Hold,-70128.000000,70041.600000,LowGoal,3210.000000,-3272.727273,Speed,3165.000000,-3272.727273,Speed,Off,Off,0.000000,FALSE,43,Read: /home/lvuser/scripts/auto_43.bee,File good!,SEARCH_FOR_GOAL,SEARCH_FOR_GOAL,0.000000,0.000000
07:53:15.657 PM 04/04/2016,Autonomous Enabled,11,FALSE,0,NO ERROR,-0.208288,-146.479324,-0.208288,-146.023742,TRUE,FALSE,TRUE,TRUE,FALSE,TRUE,PID,0.031250,-2.200884,-5.149116,TRUE,-5.353394,-15.201767,0.000000,0.148087,-0.794601,0.000000,-0.065000,-0.168000,-0.788000,-4.250000,0.980000,2.280000,-2.906875,Hold,53.652100,58.000000,Hold,-70128.000000,70041.600000,LowGoal,3195.000000,-3272.727273,Speed,3105.000000,-3272.727273,Speed,Off,Off,0.000000,FALSE,43,Read: /home/lvuser/scripts/auto_43.bee,File good!,SEARCH_FOR_GOAL,SEARCH_FOR_GOAL,0.000000,0.000000
07:53:15.757 PM 04/04/2016,Autonomous Enabled,11,FALSE,0,NO ERROR,0.000000,-146.010909,-0.000000,-146.216241,FALSE,FALSE,TRUE,TRUE,FALSE,TRUE,Enable,0.031250,-1.294638,-2.455362,TRUE,-5.345428,-15.235062,0.000000,0.212265,-0.610031,0.000000,-0.132000,-0.041000,0.004000,-1.990000,-0.590000,3.370000,-0.615426,Hold,59.490479,58.000000,Hold,-70122.000000,70041.600000,LowGoal,3217.500000,-3272.727273,Speed,3097.500000,-3272.727273,Speed,Off,Off,0.000000,FALSE,43,Read: /home/lvuser/scripts/auto_43.bee,File good!,SEARCH_FOR_GOAL,SEARCH_FOR_GOAL,0.000000,0.000000
07:53:15.858 PM 04/04/2016,Autonomous Enabled,9,FALSE,0,NO ERROR,0.209482,-146.171325,0.209482,-145.869742,TRUE,FALSE,TRUE,TRUE,FALSE,TRUE,PID,0.031250,-1.294638,-2.455362,TRUE,-5.345428,-15.235062,0.000000,0.212265,-0.610031,0.000000,0.120000,-0.123000,0.023000,-1.910000,-1.360000,2.440000,-0.356356,Hold,64.208252,58.000000,Hold,-70122.000000,70041.600000,LowGoal,3225.000000,-3272.727273,Speed,3112.500000,-3272.727273,Speed,Off,Off,0.000000,FALSE,43,Read: /home/lvuser/scripts/auto_43.bee,File good!,SEARCH_FOR_GOAL,SEARCH_FOR_GOAL,0.000000,0.000000
07:53:15.959 PM 04/04/2016,Autonomous Enabled,9,FALSE,0,NO ERROR,0.205950,-146.710324,0.205950,-145.536076,TRUE,FALSE,TRUE,TRUE,FALSE,TRUE,PID,0.031250,-1.294638,-2.455362,TRUE,-5.326675,-15.312073,0.000000,0.219238,-0.773697,0.000000,-0.012000,-0.047000,0.157000,-1.910000,-1.360000,2.440000,-1.908114,Hold,63.330078,58.000000,Hold,-70120.000000,70041.600000,LowGoal,3225.000000,-3272.727273,Speed,3120.000000,-3272.727273,Speed,Off,Off,0.000000,FALSE,43,Read: /home/lvuser/scripts/auto_43.bee,File good!,SEARCH_FOR_GOAL,SEARCH_FOR_GOAL,0.000000,0.000000
07:53:16.059 PM 04/04/2016,Autonomous Enabled,11,FALSE,0,NO ERROR,-0.221307,-146.562741,-0.221307,-145.613076,TRUE,FALSE,TRUE,TRUE,FALSE,TRUE,PID,0.031250,-1.294638,-2.455362,TRUE,-5.315872,-15.347809,0.000000,0.256165,-0.691757,0.000000,-0.012000,-0.047000,0.157000,-3.710000,-1.110000,2.480000,-3.566800,Hold,61.875244,58.000000,Hold,-70130.000000,70041.600000,LowGoal,3210.000000,-3272.727273,Speed,3165.000000,-3272.727273,Speed,Off,Off,0.000000,FALSE,43,Read: /home/lvuser/scripts/auto_43.bee,File good!,SEARCH_FOR_GOAL,SEARCH_FOR_GOAL,0.000000,0.000000
07:53:16.159 PM 04/04/2016,Autonomous Enabled,11,FALSE,0,NO ERROR,-0.233707,-146.107158,-0.233707,-145.741409,TRUE,FALSE,TRUE,TRUE,FALSE,TRUE,PID,0.031250,-1.294638,-2.455362,TRUE,-5.300354,-15.384903,0.000000,0.292236,-0.708862,0.000000,0.000000,-0.350000,0.348000,-5.370000,-0.570000,2.640000,-2.604770,Hold,55.740723,58.000000,Hold,-70127.000000,70041.600000,LowGoal,3210.000000,-3272.727273,Speed,3180.000000,-3272.727273,Speed,Off,Off,0.000000,FALSE,43,Read: /home/lvuser/scripts/auto_43.bee,File good!,SEARCH_FOR_GOAL,SEARCH_FOR_GOAL,0.000000,0.000000
07:53:16.260 PM 04/04/2016,Autonomous Enabled,11,FALSE,0,NO ERROR,-0.215698,-145.959575,-0.215698,-146.273991,FALSE,FALSE,TRUE,TRUE,FALSE,TRUE,PID,0.031250,-1.294638,-2.455362,TRUE,-5.283203,-15.417664,0.000000,0.360901,-0.693710,0.000000,0.033000,0.291000,-0.173000,-4.160000,-1.280000,3.000000,-1.358416,Hold,53.297852,58.000000,Hold,-70127.000000,70041.600000,LowGoal,3187.500000,-3272.727273,Speed,3150.000000,-3272.727273,Speed,Off,Off,0.000000,FALSE,43,Read: /home/lvuser/scripts/auto_43.bee,File good!,SEARCH_FOR_GOAL,SEARCH_FOR_GOAL,0.000000,0.000000
07:53:16.361 PM 04/04/2016,Autonomous Enabled,11,FALSE,0,NO ERROR,0.204930,-145.844076,0.204930,-146.100742,TRUE,FALSE,TRUE,TRUE,FALSE,TRUE,PID,0.031250,-1.294638,-2.455362,TRUE,-5.266556,-15.453934,0.000000,0.324417,-0.697220,0.000000,-0.120000,-0.107000,0.523000,-3.010000,0.280000,2.570000,0.931670,Hold,54.738037,58.000000,Hold,-70125.000000,70041.600000,LowGoal,3202.500000,-3272.727273,Speed,3135.000000,-3272.727273,Speed,Off,Off,0.000000,FALSE,43,Read: /home/lvuser/scripts/auto_43.bee,File good!,SEARCH_FOR_GOAL,SEARCH_FOR_GOAL,0.000000,0.000000
07:53:16.461 PM 04/04/2016,Autonomous Enabled,10,FALSE,0,NO ERROR,0.222375,-146.100742,0.222375,-145.741409,TRUE,FALSE,TRUE,TRUE,FALSE,TRUE,PID,0.031250,-1.294638,-2.455362,TRUE,-5.254120,-15.489899,0.000000,0.210403,-0.734802,0.000000,-0.211000,-0.316000,-0.025000,-0.710000,-0.410000,2.670000,-0.162024,Hold,62.947998,58.000000,Hold,-70114.000000,70041.600000,LowGoal,3217.500000,-3272.727273,Speed,3150.000000,-3272.727273,Speed,Off,Off,0.000000,FALSE,43,Read: /home/lvuser/scripts/auto_43.bee,File good!,SEARCH_FOR_GOAL,SEARCH_FOR_GOAL,0.000000,0.000000
07:53:16.562 PM 04/04/2016,Autonomous Enabled,10,FALSE,0,NO ERROR,-0.204356,-145.850492,-0.204356,-145.715743,TRUE,FALSE,TRUE,TRUE,FALSE,TRUE,PID,0.031250,-1.294638,-2.455362,TRUE,-5.254120,-15.489899,0.000000,0.210403,-0.734802,0.000000,-0.136000,-0.054000,0.213000,-2.110000,-0.840000,2.320000,-1.754359,Hold,62.947998,58.000000,Hold,-70114.000000,70041.600000,LowGoal,3210.000000,-3272.727273,Speed,3157.500000,-3272.727273,Speed,Off,Off,0.000000,FALSE,43,Read: /home/lvuser/scripts/auto_43.bee,File good!,SEARCH_FOR_GOAL,SEARCH_FOR_GOAL,0.000000,0.000000
07:53:16.662 PM 04/04/2016,Autonomous Enabled,9,FALSE,0,NO ERROR,-0.214423,-145.555326,-0.214423,-146.280408,TRUE,FALSE,TRUE,TRUE,FALSE,TRUE,PID,-0.131250,-1.294638,-2.455362,TRUE,-5.239227,-15.536438,0.000000,0.337067,-0.699783,0.000000,0.184000,0.512000,-0.561000,-3.550000,-1.140000,2.140000,-0.077392,Hold,63.886475,58.000000,Hold,-70114.000000,70041.600000,LowGoal,3202.500000,-3272.727273,Speed,3150.000000,-3272.727273,Speed,Off,Off,0.000000,FALSE,43,Read: /home/lvuser/scripts/auto_43.bee,File good!,SEARCH_FOR_GOAL,SEARCH_FOR_GOAL,0.000000,0.000000
07:53:16.762 PM 04/04/2016,Autonomous Enabled,10,FALSE,0,NO ERROR,0.000000,-145.118994,-0.000000,-146.434408,FALSE,FALSE,TRUE,TRUE,FALSE,TRUE,Enable,-0.131250,5.437477,-6.767478,TRUE,-5.222031,-15.568832,0.000000,0.312439,-0.714569,0.000000,-0.270000,-0.123000,0.003000,-2.270000,0.130000,3.060000,1.837865,Hold,62.484863,58.000000,Hold,-70135.000000,70041.600000,LowGoal,3217.500000,-3272.727273,Speed,3150.000000,-3272.727273,Speed,Off,Off,0.000000,FALSE,43,Read: /home/lvuser/scripts/auto_43.bee,File good!,SEARCH_FOR_GOAL,SEARCH_FOR_GOAL,0.000000,0.000000
07:53:16.862 PM 04/04/2016,Autonomous Enabled,10,FALSE,0,NO ERROR,0.289410,-145.118994,0.289410,-146.434408,TRUE,FALSE,TRUE,TRUE,FALSE,TRUE,PID,-0.131250,5.437477,-6.767478,TRUE,-5.211456,-15.606949,0.000000,0.153870,-0.713730,0.000000,-0.059000,0.231000,0.076000,0.090000,-0.950000,2.860000,1.837865,Hold,57.183105,58.000000,Hold,-70132.000000,70041.600000,LowGoal,3225.000000,-3272.727273,Speed,3165.000000,-3272.727273,Speed,Off,Off,0.000000,FALSE,43,Read: /home/lvuser/scripts/auto_43.bee,File good!,SEARCH_FOR_GOAL,SEARCH_FOR_GOAL,0.000000,0.000000
