Time,Robot Mode,Loop Time,Error Status,Error Code,Error Source,Left Motor Output,Left Motor Encoder,Right Motor Output,Right Motor Encoder,Is Level,Is Stalled,Ball Detector Photoeye,Vision Enabled,Vision Teleop Control,Vision Auto Control,Vision Current State,Vision X Output,Vision NavX Error,Vision NavX Target,NavX Connection Status,NavX Displacement X,NavX Displacement Y,NavX Displacement Z,NavX Velocity X,NavX Velocity Y,NavX Velocity Z,NavX Acceleration X,NavX Acceleration Y,NavX Acceleration Z,NavX Pitch,NavX Yaw,NavX Roll,Gyro Angle,Roller Arm State,Roller Arm Actual,Roller Arm Desired,Shooter Arm State,Shooter Arm Actual,Shooter Arm Desired,Shooter State,Actual RPM Left,Desired RPM Left,Control Mode Left,Actual RPM Right,Desired RPM Right,Control Mode Right,Ball Shooter Cylinder,Ball Halo Cylinder,Scaler Motor Output,Scaler Solenoid Fire,Auto To Run,Auto Current File,Auto File Status,Auto Current Command,Auto Trimmed Command,Shooter Amps Left,Shooter Amps Right
01:29:33.771 PM 04/09/2016,Autonomous Enabled,11,TRUE,7,Read from Text File in DoesScriptNumberContainNull.vi->Disabled.vi->Robot Main.vi<APPEND> /home/lvuser/scripts/auto_42.bee,0.250000,0.000000,0.250000,0.000000,TRUE,FALSE,TRUE,TRUE,FALSE,FALSE,Disabled,0.000000,0.574819,-5.694819,TRUE,9.675262,-31.198441,0.000000,0.000000,0.000000,0.000000,-0.001000,0.001000,0.022000,2.630000,-0.080000,-0.110000,-0.359482,ResetBack,0.936523,-0.000049,ResetBack,-26024.000000,-0.250000,LowGoal,0.000000,-2181.818182,Speed,0.000000,-2181.818182,Speed,Off,Off,0.000000,FALSE,43,Read: /home/lvuser/scripts/auto_43.bee,File good!,SET_HEADING 179,SET_HEADING,0.000000,0.000000
01:29:33.872 PM 04/09/2016,Autonomous Enabled,7,TRUE,7,Read from Text File in DoesScriptNumberContainNull.vi->Disabled.vi->Robot Main.vi<APPEND> /home/lvuser/scripts/auto_42.bee,0.250000,-0.282333,0.250000,0.230999,TRUE,FALSE,TRUE,TRUE,FALSE,FALSE,Disabled,0.000000,0.574819,-5.694819,TRUE,9.674133,-31.198425,0.000000,-0.079193,0.001877,0.000000,0.124000,0.041000,-0.060000,2.610000,-0.210000,-0.500000,-0.395536,ResetBack,0.936523,-0.000049,ResetBack,-24700.000000,-0.250000,LowGoal,67.500000,-2181.818182,Speed,97.500000,-2181.818182,Speed,Off,Off,0.000000,FALSE,43,Read: /home/lvuser/scripts/auto_43.bee,File good!,WAIT 1500,WAIT,0.000000,0.000000
01:29:33.972 PM 04/09/2016,Autonomous Enabled,10,TRUE,7,Read from Text File in DoesScriptNumberContainNull.vi->Disabled.vi->Robot Main.vi<APPEND> /home/lvuser/scripts/auto_42.bee,0.250000,-0.667332,0.250000,0.712248,TRUE,FALSE,TRUE,TRUE,FALSE,FALSE,Disabled,0.000000,0.574819,-5.694819,TRUE,9.669815,-31.196457,0.000000,-0.136398,0.097641,0.000000,-0.044000,-0.101000,-0.030000,2.560000,-2.040000,-0.300000,-1.918582,ResetBack,-0.022949,-0.000049,ResetBack,-24700.000000,-0.250000,LowGoal,630.000000,-2181.818182,Speed,652.500000,-2181.818182,Speed,Off,Off,0.000000,FALSE,43,Read: /home/lvuser/scripts/auto_43.bee,File good!,WAIT 1500,WAIT,0.000000,0.000000
01:29:34.073 PM 04/09/2016,Autonomous Enabled,11,TRUE,7,Read from Text File in DoesScriptNumberContainNull.vi->Disabled.vi->Robot Main.vi<APPEND> /home/lvuser/scripts/auto_42.bee,0.250000,-1.000998,0.250000,1.154997,TRUE,FALSE,TRUE,TRUE,FALSE,FALSE,Disabled,0.000000,0.574819,-5.694819,TRUE,9.665649,-31.193222,0.000000,-0.015640,0.050797,0.000000,-0.044000,-0.101000,-0.030000,2.560000,-2.040000,-0.300000,-3.484974,ResetBack,-0.023193,-0.000049,ResetBack,-20620.000000,-0.250000,LowGoal,630.000000,-2181.818182,Speed,652.500000,-2181.818182,Speed,Off,Off,0.000000,FALSE,43,Read: /home/lvuser/scripts/auto_43.bee,File good!,WAIT 1500,WAIT,0.000000,0.000000
01:29:34.173 PM 04/09/2016,Autonomous Enabled,11,TRUE,7,Read from Text File in DoesScriptNumberContainNull.vi->Disabled.vi->Robot Main.vi<APPEND> /home/lvuser/scripts/auto_42.bee,0.250000,-1.334664,0.250000,1.726079,TRUE,FALSE,TRUE,TRUE,FALSE,FALSE,Disabled,0.000000,0.574819,-5.694819,TRUE,9.662613,-31.186996,0.000000,-0.018219,0.072632,0.000000,0.086000,-0.107000,0.051000,2.570000,-4.890000,-0.360000,-5.352221,Reset,-0.023193,-0.000049,ResetBack,-16881.000000,-0.250000,LowGoal,1245.000000,-2181.818182,Speed,1200.000000,-2181.818182,Speed,Off,Off,0.000000,FALSE,43,Read: /home/lvuser/scripts/auto_43.bee,File good!,WAIT 1500,WAIT,0.000000,0.000000
01:29:34.273 PM 04/09/2016,Autonomous Enabled,9,TRUE,7,Read from Text File in DoesScriptNumberContainNull.vi->Disabled.vi->Robot Main.vi<APPEND> /home/lvuser/scripts/auto_42.bee,0.250000,-1.655496,0.250000,2.335661,TRUE,FALSE,TRUE,TRUE,FALSE,FALSE,Disabled,0.000000,0.574819,-5.694819,TRUE,9.661072,-31.186539,0.000000,-0.060318,0.035858,0.000000,0.013000,0.129000,-0.100000,2.480000,-7.370000,-0.200000,-7.066715,Reset,-0.023682,0.000000,ResetBack,-12326.000000,-0.250000,LowGoal,1762.500000,-2181.818182,Speed,1642.500000,-2181.818182,Speed,Off,Off,0.000000,FALSE,43,Read: /home/lvuser/scripts/auto_43.bee,File good!,WAIT 1500,WAIT,0.000000,0.000000
01:29:34.374 PM 04/09/2016,Autonomous Enabled,10,TRUE,7,Read from Text File in DoesScriptNumberContainNull.vi->Disabled.vi->Robot Main.vi<APPEND> /home/lvuser/scripts/auto_42.bee,0.250000,-2.111078,0.250000,3.067159,TRUE,FALSE,TRUE,TRUE,FALSE,FALSE,Disabled,0.000000,0.574819,-5.694819,TRUE,9.658051,-31.181442,0.000000,-0.064072,0.152451,0.000000,-0.051000,0.171000,-0.297000,2.150000,-9.740000,-0.290000,-9.243606,Hold,1.011719,0.000000,ResetBack,-7823.000000,-0.250000,LowGoal,2145.000000,-2181.818182,Speed,2002.500000,-2181.818182,Speed,Off,Off,0.000000,FALSE,43,Read: /home/lvuser/scripts/auto_43.bee,File good!,WAIT 1500,WAIT,0.000000,0.000000
01:29:34.477 PM 04/09/2016,Autonomous Enabled,11,TRUE,7,Read from Text File in DoesScriptNumberContainNull.vi->Disabled.vi->Robot Main.vi<APPEND> /home/lvuser/scripts/auto_42.bee,0.250000,-2.675744,0.250000,3.901324,TRUE,FALSE,TRUE,TRUE,FALSE,FALSE,Disabled,0.000000,0.574819,-5.694819,TRUE,9.654404,-31.167755,0.000000,-0.060501,0.360672,0.000000,-0.124000,0.209000,-0.091000,2.150000,-9.740000,-0.290000,-11.934096,Hold,0.919434,0.000000,ResetBack,-5161.000000,-0.250000,LowGoal,2242.500000,-2181.818182,Speed,2160.000000,-2181.818182,Speed,Off,Off,0.000000,FALSE,43,Read: /home/lvuser/scripts/auto_43.bee,File good!,WAIT 1500,WAIT,0.000000,0.000000
01:29:34.576 PM 04/09/2016,Autonomous Enabled,10,TRUE,7,Read from Text File in DoesScriptNumberContainNull.vi->Disabled.vi->Robot Main.vi<APPEND> /home/lvuser/scripts/auto_42.bee,0.250000,-3.323826,0.250000,4.799655,TRUE,FALSE,TRUE,TRUE,FALSE,FALSE,Disabled,0.000000,0.574819,-5.694819,TRUE,9.645538,-31.139984,0.000000,-0.205856,0.518356,0.000000,-0.124000,0.209000,-0.091000,2.140000,-15.620000,-0.270000,-15.511991,Hold,0.919434,0.000000,ResetBack,-5161.000000,-0.250000,LowGoal,2175.000000,-2181.818182,Speed,2115.000000,-2181.818182,Speed,Off,Off,0.000000,FALSE,43,Read: /home/lvuser/scripts/auto_43.bee,File good!,WAIT 1500,WAIT,0.000000,0.000000
01:29:34.677 PM 04/09/2016,Autonomous Enabled,10,TRUE,7,Read from Text File in DoesScriptNumberContainNull.vi->Disabled.vi->Robot Main.vi<APPEND> /home/lvuser/scripts/auto_42.bee,0.250000,-3.965491,0.250000,5.697987,TRUE,FALSE,TRUE,TRUE,FALSE,FALSE,Disabled,0.000000,0.574819,-5.694819,TRUE,9.635590,-31.110611,0.000000,-0.215347,0.632187,0.000000,0.091000,0.110000,-0.018000,2.140000,-15.620000,-0.270000,-18.606317,Hold,0.919434,0.000000,ResetBack,-3562.000000,-0.250000,LowGoal,2122.500000,-2181.818182,Speed,2077.500000,-2181.818182,Speed,Off,Off,0.000000,FALSE,43,Read: /home/lvuser/scripts/auto_43.bee,File good!,WAIT 1500,WAIT,0.000000,0.000000
01:29:34.778 PM 04/09/2016,Autonomous Enabled,11,TRUE,7,Read from Text File in DoesScriptNumberContainNull.vi->Disabled.vi->Robot Main.vi<APPEND> /home/lvuser/scripts/auto_42.bee,0.250000,-4.652072,0.250000,6.647651,TRUE,FALSE,TRUE,TRUE,FALSE,FALSE,Disabled,0.000000,0.574819,-5.694819,TRUE,9.628448,-31.079391,0.000000,-0.004562,0.594681,0.000000,-0.099000,0.019000,-0.111000,2.150000,-22.070000,-0.270000,-21.815835,Hold,0.919434,0.000000,ResetBack,-2460.000000,-0.250000,LowGoal,2130.000000,-2181.818182,Speed,2077.500000,-2181.818182,Speed,Off,Off,0.000000,FALSE,43,Read: /home/lvuser/scripts/auto_43.bee,File good!,WAIT 1500,WAIT,0.000000,0.000000
01:29:34.877 PM 04/09/2016,Autonomous Enabled,11,TRUE,7,Read from Text File in DoesScriptNumberContainNull.vi->Disabled.vi->Robot Main.vi<APPEND> /home/lvuser/scripts/auto_42.bee,0.250000,-5.345071,0.250000,7.590899,TRUE,FALSE,TRUE,TRUE,FALSE,FALSE,Disabled,0.000000,0.574819,-5.694819,TRUE,9.626129,-31.051666,0.000000,-0.065445,0.546112,0.000000,0.024000,-0.035000,0.080000,2.190000,-25.400000,-0.250000,-25.069827,Hold,0.919434,0.000000,ResetBack,-990.000000,-0.250000,LowGoal,2152.500000,-2181.818182,Speed,2092.500000,-2181.818182,Speed,Off,Off,0.000000,FALSE,43,Read: /home/lvuser/scripts/auto_43.bee,File good!,WAIT 1500,WAIT,0.000000,0.000000
01:29:34.978 PM 04/09/2016,Autonomous Enabled,10,TRUE,7,Read from Text File in DoesScriptNumberContainNull.vi->Disabled.vi->Robot Main.vi<APPEND> /home/lvuser/scripts/auto_42.bee,0.250000,-6.082986,0.250000,8.540563,TRUE,FALSE,TRUE,TRUE,FALSE,FALSE,Disabled,0.000000,0.574819,-5.694819,TRUE,9.621368,-31.023056,0.000000,-0.141907,0.609039,0.000000,0.024000,-0.035000,0.080000,2.190000,-25.400000,-0.250000,-28.359343,Hold,0.919434,0.000000,ResetBack,-96.000000,-0.250000,LowGoal,2160.000000,-2181.818182,Speed,2092.500000,-2181.818182,Speed,Off,Off,0.000000,FALSE,43,Read: /home/lvuser/scripts/auto_43.bee,File good!,WAIT 1500,WAIT,0.000000,0.000000
01:29:35.080 PM 04/09/2016,Autonomous Enabled,12,TRUE,7,Read from Text File in DoesScriptNumberContainNull.vi->Disabled.vi->Robot Main.vi<APPEND> /home/lvuser/scripts/auto_42.bee,0.250000,-6.775984,0.250000,9.496644,TRUE,FALSE,TRUE,TRUE,FALSE,FALSE,Disabled,0.000000,0.574819,-5.694819,TRUE,9.621368,-31.023056,0.000000,-0.141907,0.609039,0.000000,-0.104000,0.170000,-0.029000,2.060000,-29.450000,-0.140000,-31.598187,Hold,0.919434,0.000000,ResetBack,-67.000000,-0.250000,LowGoal,2160.000000,-2181.818182,Speed,2085.000000,-2181.818182,Speed,Off,Off,0.000000,FALSE,43,Read: /home/lvuser/scripts/auto_43.bee,File good!,WAIT 1500,WAIT,0.000000,0.000000
01:29:35.181 PM 04/09/2016,Autonomous Enabled,10,TRUE,7,Read from Text File in DoesScriptNumberContainNull.vi->Disabled.vi->Robot Main.vi<APPEND> /home/lvuser/scripts/auto_42.bee,0.250000,-7.462566,0.250000,10.433476,TRUE,FALSE,TRUE,TRUE,FALSE,FALSE,Disabled,0.000000,0.574819,-5.694819,TRUE,9.596512,-30.965164,0.000000,-0.324738,0.000000,0.000000,-0.042000,0.003000,0.062000,2.090000,-35.430000,-0.140000,-34.846207,Hold,0.919434,0.000000,Reset,-49.000000,2.000000,LowGoal,2152.500000,-2181.818182,Speed,2085.000000,-2181.818182,Speed,Off,Off,0.000000,FALSE,43,Read: /home/lvuser/scripts/auto_43.bee,File good!,WAIT 1500,WAIT,0.000000,0.000000
01:29:35.281 PM 04/09/2016,Autonomous Enabled,10,TRUE,7,Read from Text File in DoesScriptNumberContainNull.vi->Disabled.vi->Robot Main.vi<APPEND> /home/lvuser/scripts/auto_42.bee,0.250000,-8.155564,0.250000,11.370307,TRUE,FALSE,TRUE,TRUE,FALSE,FALSE,Disabled,0.000000,0.574819,-5.694819,TRUE,9.596512,-30.965164,0.000000,-0.324738,0.000000,0.000000,-0.042000,0.003000,0.062000,2.090000,-35.430000,-0.140000,-38.072087,Hold,0.919434,0.000000,Hold,-49.000000,2.000000,LowGoal,2137.500000,-2181.818182,Speed,2092.500000,-2181.818182,Speed,Off,Off,0.000000,FALSE,43,Read: /home/lvuser/scripts/auto_43.bee,File good!,WAIT 1500,WAIT,0.000000,0.000000
01:29:35.381 PM 04/09/2016,Autonomous Enabled,9,TRUE,7,Read from Text File in DoesScriptNumberContainNull.vi->Disabled.vi->Robot Main.vi<APPEND> /home/lvuser/scripts/auto_42.bee,0.250000,-8.829313,0.250000,12.281471,TRUE,FALSE,TRUE,TRUE,FALSE,FALSE,Disabled,0.000000,0.574819,-5.694819,TRUE,9.578308,-30.977875,0.000000,-0.118317,-0.220642,0.000000,0.220000,-0.153000,0.192000,2.050000,-39.420000,-0.060000,-41.217600,Hold,0.919434,0.000000,Hold,-86.000000,2.000000,LowGoal,2130.000000,-2181.818182,Speed,2092.500000,-2181.818182,Speed,Off,Off,0.000000,FALSE,43,Read: /home/lvuser/scripts/auto_43.bee,File good!,NAVX_ZERO_YAW,NAVX_ZERO_YAW,0.000000,0.000000
01:29:35.485 PM 04/09/2016,Autonomous Enabled,10,TRUE,7,Read from Text File in DoesScriptNumberContainNull.vi->Disabled.vi->Robot Main.vi<APPEND> /home/lvuser/scripts/auto_42.bee,-0.562500,-0.423499,0.562500,0.147583,TRUE,FALSE,TRUE,TRUE,FALSE,FALSE,Disabled,0.000000,0.574819,-5.694819,TRUE,9.578308,-30.977875,0.000000,-0.118317,-0.220642,0.000000,0.013000,0.008000,0.032000,2.040000,-43.300000,-0.080000,-2.582335,Hold,0.919434,0.000000,Hold,-87.000000,2.000000,LowGoal,2137.500000,-2181.818182,Speed,2092.500000,-2181.818182,Speed,Off,Off,0.000000,FALSE,43,Read: /home/lvuser/scripts/auto_43.bee,File good!,DRIVE_STRAIGHT_NAVX_RAMPARTS 200 5000 10,DRIVE_STRAIGHT_NAVX_RAMPARTS,0.000000,0.000000
01:29:35.585 PM 04/09/2016,Autonomous Enabled,12,TRUE,7,Read from Text File in DoesScriptNumberContainNull.vi->Disabled.vi->Robot Main.vi<APPEND> /home/lvuser/scripts/auto_42.bee,-0.562500,-2.489661,0.562500,-1.847996,TRUE,FALSE,TRUE,TRUE,FALSE,FALSE,Disabled,0.000000,0.574819,-5.694819,TRUE,9.570587,-30.988052,0.000000,-0.105286,-0.101746,0.000000,0.739000,0.169000,-0.298000,1.870000,-3.370000,0.460000,-4.493457,Hold,0.919434,0.000000,Hold,-88.000000,2.000000,LowGoal,2145.000000,2400.000000,Speed,2100.000000,2400.000000,Speed,Off,Off,0.000000,FALSE,43,Read: /home/lvuser/scripts/auto_43.bee,File good!,DRIVE_STRAIGHT_NAVX_RAMPARTS 200 5000 10,DRIVE_STRAIGHT_NAVX_RAMPARTS,0.000000,0.000000
01:29:35.687 PM 04/09/2016,Autonomous Enabled,11,TRUE,7,Read from Text File in DoesScriptNumberContainNull.vi->Disabled.vi->Robot Main.vi<APPEND> /home/lvuser/scripts/auto_42.bee,-0.562500,-4.857405,0.562500,-4.215740,FALSE,FALSE,TRUE,TRUE,FALSE,FALSE,Disabled,0.000000,0.574819,-5.694819,TRUE,9.583374,-30.984283,0.000000,0.376678,0.179535,0.000000,-0.251000,0.213000,0.025000,2.330000,-4.180000,5.340000,-4.467483,Hold,0.919434,0.000000,Hold,-90.000000,2.000000,LowGoal,2010.000000,2400.000000,Speed,1980.000000,2400.000000,Speed,Off,Off,0.000000,FALSE,43,Read: /home/lvuser/scripts/auto_43.bee,File good!,DRIVE_STRAIGHT_NAVX_RAMPARTS 200 5000 10,DRIVE_STRAIGHT_NAVX_RAMPARTS,0.000000,0.000000
01:29:35.786 PM 04/09/2016,Autonomous Enabled,11,TRUE,7,Read from Text File in DoesScriptNumberContainNull.vi->Disabled.vi->Robot Main.vi<APPEND> /home/lvuser/scripts/auto_42.bee,-0.562500,-7.950231,0.562500,-7.276483,TRUE,FALSE,TRUE,TRUE,FALSE,FALSE,Disabled,0.000000,0.574819,-5.694819,TRUE,9.603149,-30.978241,0.000000,0.418564,0.084244,0.000000,0.167000,0.026000,0.371000,2.330000,-4.240000,2.470000,-4.563125,Hold,0.919434,0.000000,Hold,-90.000000,2.000000,LowGoal,1080.000000,2400.000000,Speed,1102.500000,2400.000000,Speed,Off,Off,0.000000,FALSE,43,Read: /home/lvuser/scripts/auto_43.bee,File good!,DRIVE_STRAIGHT_NAVX_RAMPARTS 200 5000 10,DRIVE_STRAIGHT_NAVX_RAMPARTS,0.000000,0.000000
01:29:35.887 PM 04/09/2016,Autonomous Enabled,9,TRUE,7,Read from Text File in DoesScriptNumberContainNull.vi->Disabled.vi->Robot Main.vi<APPEND> /home/lvuser/scripts/auto_42.bee,-0.562500,-11.203474,0.562500,-10.497642,FALSE,FALSE,TRUE,TRUE,FALSE,FALSE,Disabled,0.000000,0.574819,-5.694819,TRUE,9.627380,-30.976364,0.000000,0.505203,0.005829,0.000000,0.120000,-0.040000,-0.383000,2.340000,-4.340000,3.390000,-4.711692,Hold,0.919434,0.000000,Hold,-90.000000,2.000000,LowGoal,75.000000,2400.000000,Speed,67.500000,2400.000000,Speed,Off,Off,0.000000,FALSE,43,Read: /home/lvuser/scripts/auto_43.bee,File good!,DRIVE_STRAIGHT_NAVX_RAMPARTS 200 5000 10,DRIVE_STRAIGHT_NAVX_RAMPARTS,0.000000,0.000000
01:29:35.987 PM 04/09/2016,Autonomous Enabled,10,TRUE,7,Read from Text File in DoesScriptNumberContainNull.vi->Disabled.vi->Robot Main.vi<APPEND> /home/lvuser/scripts/auto_42.bee,-0.562500,-14.623549,0.400031,-13.872801,FALSE,FALSE,TRUE,TRUE,FALSE,FALSE,Disabled,0.000000,0.574819,-5.694819,TRUE,9.657440,-30.976532,0.000000,0.479263,-0.008835,0.000000,0.019000,-0.041000,-0.335000,2.330000,-4.470000,3.150000,-4.832925,Hold,0.919434,0.000000,Hold,-90.000000,2.000000,LowGoal,-547.500000,2400.000000,Speed,-682.500000,2400.000000,Speed,Off,Off,0.000000,FALSE,43,Read: /home/lvuser/scripts/auto_43.bee,File good!,DRIVE_STRAIGHT_NAVX_RAMPARTS 200 5000 10,DRIVE_STRAIGHT_NAVX_RAMPARTS,0.000000,0.000000
01:29:36.087 PM 04/09/2016,Autonomous Enabled,10,FALSE,0,NO ERROR,-0.562500,-17.703542,0.404649,-17.414793,TRUE,FALSE,TRUE,TRUE,FALSE,FALSE,Disabled,0.000000,0.574819,-5.694819,TRUE,9.687347,-30.977173,0.000000,0.470627,0.013489,0.000000,0.069000,0.072000,-0.124000,2.470000,-4.380000,2.510000,-4.832925,Hold,0.919434,0.000000,Hold,-90.000000,2.000000,LowGoal,-1185.000000,2400.000000,Speed,-1147.500000,2400.000000,Speed,Off,Off,0.000000,FALSE,43,Read: /home/lvuser/scripts/auto_43.bee,File good!,DRIVE_STRAIGHT_NAVX_RAMPARTS 200 5000 10,DRIVE_STRAIGHT_NAVX_RAMPARTS,0.000000,0.000000
01:29:36.187 PM 04/09/2016,Autonomous Enabled,10,FALSE,0,NO ERROR,-0.562500,-17.703542,0.433938,-17.414793,TRUE,FALSE,TRUE,TRUE,FALSE,FALSE,Disabled,0.000000,0.574819,-5.694819,TRUE,9.701752,-30.976669,0.000000,0.489273,0.022293,0.000000,-0.049000,-0.024000,0.047000,2.580000,-3.870000,2.390000,-4.499324,Hold,0.919434,0.000000,Hold,-90.000000,2.000000,LowGoal,-1717.500000,2400.000000,Speed,-1732.500000,2400.000000,Speed,Off,Off,0.000000,FALSE,43,Read: /home/lvuser/scripts/auto_43.bee,File good!,DRIVE_STRAIGHT_NAVX_RAMPARTS 200 5000 10,DRIVE_STRAIGHT_NAVX_RAMPARTS,0.000000,0.000000
01:29:36.287 PM 04/09/2016,Autonomous Enabled,10,FALSE,0,NO ERROR,-0.562500,-20.706535,0.472436,-20.956784,TRUE,FALSE,TRUE,TRUE,FALSE,FALSE,Disabled,0.000000,0.574819,-5.694819,TRUE,9.726990,-30.975632,0.000000,0.351547,0.026260,0.000000,-0.097000,0.020000,-0.179000,2.510000,-3.130000,2.400000,-3.642237,Hold,0.919434,0.000000,Hold,-90.000000,2.000000,LowGoal,-2167.500000,2400.000000,Speed,-2122.500000,2400.000000,Speed,Off,Off,0.000000,FALSE,43,Read: /home/lvuser/scripts/auto_43.bee,File good!,DRIVE_STRAIGHT_NAVX_RAMPARTS 200 5000 10,DRIVE_STRAIGHT_NAVX_RAMPARTS,0.000000,0.000000
01:29:36.387 PM 04/09/2016,Autonomous Enabled,9,FALSE,0,NO ERROR,-0.562500,-23.837861,0.502936,-24.575776,TRUE,FALSE,TRUE,TRUE,FALSE,FALSE,Disabled,0.000000,0.574819,-5.694819,TRUE,9.744232,-30.973907,0.000000,0.377045,-0.006866,0.000000,-0.056000,-0.283000,0.226000,2.480000,-1.820000,2.480000,-2.501975,Hold,0.919434,0.000000,Hold,-90.000000,2.000000,LowGoal,-2437.500000,2400.000000,Speed,-2370.000000,2400.000000,Speed,Off,Off,0.000000,FALSE,43,Read: /home/lvuser/scripts/auto_43.bee,File good!,DRIVE_STRAIGHT_NAVX_RAMPARTS 200 5000 10,DRIVE_STRAIGHT_NAVX_RAMPARTS,0.000000,0.000000
01:29:36.488 PM 04/09/2016,Autonomous Enabled,10,FALSE,0,NO ERROR,-0.562500,-27.116770,0.502936,-28.181934,TRUE,FALSE,TRUE,TRUE,FALSE,FALSE,Disabled,0.000000,0.574819,-5.694819,TRUE,9.744232,-30.973907,0.000000,0.377045,-0.006866,0.000000,-0.056000,-0.283000,0.226000,2.480000,-1.820000,2.480000,-1.878167,Hold,0.919434,0.000000,Hold,-103.000000,2.000000,LowGoal,-2422.500000,2400.000000,Speed,-2370.000000,2400.000000,Speed,Off,Off,0.000000,FALSE,43,Read: /home/lvuser/scripts/auto_43.bee,File good!,DRIVE_STRAIGHT_NAVX_RAMPARTS 200 5000 10,DRIVE_STRAIGHT_NAVX_RAMPARTS,0.000000,0.000000
01:29:36.588 PM 04/09/2016,Autonomous Disabled,10,FALSE,0,NO ERROR,-0.562500,-29.009682,0.502936,-30.113346,TRUE,FALSE,TRUE,TRUE,FALSE,FALSE,Disabled,0.000000,0.574819,-5.694819,TRUE,9.732498,-30.983566,0.000000,-0.578171,-0.032822,0.000000,-0.329000,0.132000,-0.600000,2.200000,-0.820000,-2.540000,-1.436184,Hold,0.919434,0.000000,Hold,-697.000000,2.000000,LowGoal,-2302.500000,-2181.818182,Speed,-2220.000000,-2181.818182,Speed,Off,Off,0.000000,FALSE,43,Read: /home/lvuser/scripts/auto_43.bee,File good!,DRIVE_STRAIGHT_NAVX_RAMPARTS 200 5000 10,DRIVE_STRAIGHT_NAVX_RAMPARTS,0.000000,0.000000
01:29:36.688 PM 04/09/2016,Autonomous Disabled,10,FALSE,0,NO ERROR,-0.562500,-29.702681,0.502936,-30.979594,TRUE,FALSE,TRUE,TRUE,FALSE,FALSE,Disabled,0.000000,0.574819,-5.694819,TRUE,9.694092,-30.980392,0.000000,-0.905472,0.136047,0.000000,-0.149000,0.171000,0.440000,2.550000,-0.560000,-0.890000,-1.214108,Hold,0.919434,0.000000,Hold,-697.000000,2.000000,LowGoal,-2167.500000,-2181.818182,Speed,-2017.500000,-2181.818182,Speed,Off,Off,0.000000,FALSE,43,Read: /home/lvuser/scripts/auto_43.bee,File good!,DRIVE_STRAIGHT_NAVX_RAMPARTS 200 5000 10,DRIVE_STRAIGHT_NAVX_RAMPARTS,0.000000,0.000000
01:29:36.788 PM 04/09/2016,Autonomous Disabled,9,FALSE,0,NO ERROR,-0.562500,-29.632097,0.502936,-30.928261,TRUE,FALSE,TRUE,TRUE,FALSE,FALSE,Disabled,0.000000,0.574819,-5.694819,TRUE,9.642532,-30.968750,0.000000,-1.054779,0.253143,0.000000,0.084000,-0.111000,-0.010000,2.440000,-0.390000,-1.720000,-1.046637,Hold,0.919434,0.000000,Hold,-1049.000000,2.000000,LowGoal,-2070.000000,-2181.818182,Speed,-1822.500000,-2181.818182,Speed,Off,Off,0.000000,FALSE,43,Read: /home/lvuser/scripts/auto_43.bee,File good!,DRIVE_STRAIGHT_NAVX_RAMPARTS 200 5000 10,DRIVE_STRAIGHT_NAVX_RAMPARTS,0.000000,0.000000
01:29:36.887 PM 04/09/2016,Autonomous Disabled,10,FALSE,0,NO ERROR,-0.562500,-29.632097,0.502936,-30.889761,TRUE,FALSE,TRUE,TRUE,FALSE,FALSE,Disabled,0.000000,0.574819,-5.694819,TRUE,9.592560,-30.956757,0.000000,-0.971405,0.220840,0.000000,-0.045000,-0.041000,-0.131000,2.330000,-0.700000,-1.140000,-1.334976,Hold,0.919434,0.000000,Hold,-1052.000000,2.000000,LowGoal,-1927.500000,-2181.818182,Speed,-1635.000000,-2181.818182,Speed,Off,Off,0.000000,FALSE,43,Read: /home/lvuser/scripts/auto_43.bee,File good!,DRIVE_STRAIGHT_NAVX_RAMPARTS 200 5000 10,DRIVE_STRAIGHT_NAVX_RAMPARTS,0.000000,0.000000
01:29:36.988 PM 04/09/2016,Autonomous Disabled,9,FALSE,0,NO ERROR,-0.562500,-29.632097,0.502936,-30.889761,TRUE,FALSE,TRUE,TRUE,FALSE,FALSE,Disabled,0.000000,0.574819,-5.694819,TRUE,9.544052,-30.946472,0.000000,-0.944901,0.212631,0.000000,0.133000,-0.078000,-0.053000,2.430000,-0.590000,-1.180000,-1.225537,Hold,0.919434,0.000000,Hold,-1053.000000,2.000000,LowGoal,-1837.500000,-2181.818182,Speed,-1492.500000,-2181.818182,Speed,Off,Off,0.000000,FALSE,43,Read: /home/lvuser/scripts/auto_43.bee,File good!,DRIVE_STRAIGHT_NAVX_RAMPARTS 200 5000 10,DRIVE_STRAIGHT_NAVX_RAMPARTS,0.000000,0.000000
01:29:37.088 PM 04/09/2016,Autonomous Disabled,10,FALSE,0,NO ERROR,-0.562500,-29.632097,0.502936,-30.889761,TRUE,FALSE,TRUE,TRUE,FALSE,FALSE,Disabled,0.000000,0.574819,-5.694819,TRUE,9.496765,-30.936981,0.000000,-0.949326,0.177719,0.000000,0.133000,-0.078000,-0.053000,2.430000,-0.590000,-1.180000,-1.255759,Hold,0.919434,0.000000,Hold,-1055.000000,2.000000,LowGoal,-1732.500000,-2181.818182,Speed,-1290.000000,-2181.818182,Speed,Off,Off,0.000000,FALSE,43,Read: /home/lvuser/scripts/auto_43.bee,File good!,DRIVE_STRAIGHT_NAVX_RAMPARTS 200 5000 10,DRIVE_STRAIGHT_NAVX_RAMPARTS,0.000000,0.000000
01:29:37.188 PM 04/09/2016,Autonomous Disabled,9,FALSE,0,NO ERROR,-0.562500,-29.632097,0.502936,-30.889761,TRUE,FALSE,TRUE,TRUE,FALSE,FALSE,Disabled,0.000000,0.574819,-5.694819,TRUE,9.423676,-30.922424,0.000000,-0.864517,0.165283,0.000000,0.098000,-0.030000,0.059000,2.450000,-0.630000,-1.090000,-1.246244,Hold,0.919434,0.000000,Hold,-1056.000000,2.000000,LowGoal,-1642.500000,-2181.818182,Speed,-1132.500000,-2181.818182,Speed,Off,Off,0.000000,FALSE,43,Read: /home/lvuser/scripts/auto_43.bee,File good!,DRIVE_STRAIGHT_NAVX_RAMPARTS 200 5000 10,DRIVE_STRAIGHT_NAVX_RAMPARTS,0.000000,0.000000
01:29:37.289 PM 04/09/2016,Autonomous Disabled,10,FALSE,0,NO ERROR,-0.562500,-29.632097,0.502936,-30.889761,TRUE,FALSE,TRUE,TRUE,FALSE,FALSE,Disabled,0.000000,0.574819,-5.694819,TRUE,9.389587,-30.920792,0.000000,-0.846436,0.000000,0.000000,0.098000,-0.030000,0.059000,2.460000,-0.640000,-1.040000,-1.251535,Hold,0.919434,0.000000,Hold,-1057.000000,2.000000,LowGoal,-1552.500000,-2181.818182,Speed,-982.500000,-2181.818182,Speed,Off,Off,0.000000,FALSE,43,Read: /home/lvuser/scripts/auto_43.bee,File good!,DRIVE_STRAIGHT_NAVX_RAMPARTS 200 5000 10,DRIVE_STRAIGHT_NAVX_RAMPARTS,0.000000,0.000000
01:29:37.391 PM 04/09/2016,Autonomous Disabled,8,FALSE,0,NO ERROR,-0.562500,-29.632097,0.502936,-30.889761,TRUE,FALSE,TRUE,TRUE,FALSE,FALSE,Disabled,0.000000,0.574819,-5.694819,TRUE,9.389587,-30.920792,0.000000,-0.846436,0.000000,0.000000,0.023000,0.043000,0.068000,2.430000,-0.640000,-0.850000,-1.253931,Hold,0.919434,0.000000,Hold,-1057.000000,2.000000,LowGoal,-1462.500000,-2181.818182,Speed,-840.000000,-2181.818182,Speed,Off,Off,0.000000,FALSE,43,Read: /home/lvuser/scripts/auto_43.bee,File good!,DRIVE_STRAIGHT_NAVX_RAMPARTS 200 5000 10,DRIVE_STRAIGHT_NAVX_RAMPARTS,0.000000,0.000000
01:29:37.491 PM 04/09/2016,Autonomous Disabled,10,FALSE,0,NO ERROR,-0.562500,-29.632097,0.502936,-30.889761,TRUE,FALSE,TRUE,TRUE,FALSE,FALSE,Disabled,0.000000,0.574819,-5.694819,TRUE,9.340408,-30.920364,0.000000,-0.800537,-0.000381,0.000000,0.022000,0.028000,0.034000,2.320000,-0.640000,-0.730000,-1.245493,Hold,0.919434,0.000000,Hold,-1058.000000,2.000000,LowGoal,-1372.500000,-2181.818182,Speed,-705.000000,-2181.818182,Speed,Off,Off,0.000000,FALSE,43,Read: /home/lvuser/scripts/auto_43.bee,File good!,DRIVE_STRAIGHT_NAVX_RAMPARTS 200 5000 10,DRIVE_STRAIGHT_NAVX_RAMPARTS,0.000000,0.000000
01:29:37.592 PM 04/09/2016,Autonomous Disabled,10,FALSE,0,NO ERROR,-0.562500,-29.632097,0.502936,-30.889761,TRUE,FALSE,TRUE,TRUE,FALSE,FALSE,Disabled,0.000000,0.574819,-5.694819,TRUE,9.259018,-30.918930,0.000000,-0.844162,0.041412,0.000000,0.023000,0.030000,0.013000,2.370000,-0.640000,-0.720000,-1.248788,Hold,0.919434,0.000000,Hold,-1059.000000,2.000000,LowGoal,-1282.500000,-2181.818182,Speed,-607.500000,-2181.818182,Speed,Off,Off,0.000000,FALSE,43,Read: /home/lvuser/scripts/auto_43.bee,File good!,DRIVE_STRAIGHT_NAVX_RAMPARTS 200 5000 10,DRIVE_STRAIGHT_NAVX_RAMPARTS,0.000000,0.000000
01:29:37.694 PM 04/09/2016,Autonomous Disabled,11,FALSE,0,NO ERROR,-0.562500,-29.632097,0.502936,-30.889761,TRUE,FALSE,TRUE,TRUE,FALSE,FALSE,Disabled,0.000000,0.574819,-5.694819,TRUE,9.259018,-30.918930,0.000000,-0.844162,0.041412,0.000000,-0.058000,0.044000,0.005000,2.410000,-0.640000,-0.750000,-1.252785,Hold,0.919434,0.000000,Hold,-1060.000000,2.000000,LowGoal,-1192.500000,-2181.818182,Speed,-487.500000,-2181.818182,Speed,Off,Off,0.000000,FALSE,43,Read: /home/lvuser/scripts/auto_43.bee,File good!,DRIVE_STRAIGHT_NAVX_RAMPARTS 200 5000 10,DRIVE_STRAIGHT_NAVX_RAMPARTS,0.000000,0.000000
01:29:37.796 PM 04/09/2016,Autonomous Disabled,11,FALSE,0,NO ERROR,-0.562500,-29.632097,0.502936,-30.889761,TRUE,FALSE,TRUE,TRUE,FALSE,FALSE,Disabled,0.000000,0.574819,-5.694819,TRUE,9.217163,-30.916458,0.000000,-0.827911,0.044434,0.000000,-0.073000,0.035000,-0.029000,2.400000,-0.650000,-0.680000,-1.259043,Hold,0.919434,0.000000,Hold,-1061.000000,2.000000,LowGoal,-1110.000000,-2181.818182,Speed,-375.000000,-2181.818182,Speed,Off,Off,0.000000,FALSE,43,Read: /home/lvuser/scripts/auto_43.bee,File good!,DRIVE_STRAIGHT_NAVX_RAMPARTS 200 5000 10,DRIVE_STRAIGHT_NAVX_RAMPARTS,0.000000,0.000000
01:29:37.897 PM 04/09/2016,Autonomous Disabled,11,FALSE,0,NO ERROR,-0.562500,-29.632097,0.502936,-30.889761,TRUE,FALSE,TRUE,TRUE,FALSE,FALSE,Disabled,0.000000,0.574819,-5.694819,TRUE,9.130051,-30.910446,0.000000,-0.860779,0.047623,0.000000,-0.014000,-0.020000,0.044000,2.400000,-0.650000,-0.600000,-1.273320,Hold,0.919434,0.000000,Hold,-1061.000000,2.000000,LowGoal,-1027.500000,-2181.818182,Speed,-277.500000,-2181.818182,Speed,Off,Off,0.000000,FALSE,43,Read: /home/lvuser/scripts/auto_43.bee,File good!,DRIVE_STRAIGHT_NAVX_RAMPARTS 200 5000 10,DRIVE_STRAIGHT_NAVX_RAMPARTS,0.000000,0.000000
01:29:38.000 PM 04/09/2016,Autonomous Disabled,14,FALSE,0,NO ERROR,-0.562500,-29.632097,0.502936,-30.889761,TRUE,FALSE,TRUE,TRUE,FALSE,FALSE,Disabled,0.000000,0.574819,-5.694819,TRUE,9.087097,-30.908768,0.000000,-0.848969,0.026154,0.000000,-0.043000,-0.042000,-0.007000,2.420000,-0.660000,-0.550000,-1.286271,Hold,0.919434,0.000000,Hold,-1061.000000,2.000000,LowGoal,-960.000000,-2181.818182,Speed,-180.000000,-2181.818182,Speed,Off,Off,0.000000,FALSE,43,Read: /home/lvuser/scripts/auto_43.bee,File good!,DRIVE_STRAIGHT_NAVX_RAMPARTS 200 5000 10,DRIVE_STRAIGHT_NAVX_RAMPARTS,0.000000,0.000000
01:29:38.098 PM 04/09/2016,Autonomous Disabled,11,FALSE,0,NO ERROR,-0.562500,-29.632097,0.502936,-30.889761,TRUE,FALSE,TRUE,TRUE,FALSE,FALSE,Disabled,0.000000,0.574819,-5.694819,TRUE,9.087097,-30.908768,0.000000,-0.848969,0.026154,0.000000,0.021000,-0.031000,0.007000,2.440000,-0.660000,-0.510000,-1.276693,Hold,0.919434,0.000000,Hold,-1062.000000,2.000000,LowGoal,-892.500000,-2181.818182,Speed,-75.000000,-2181.818182,Speed,Off,Off,0.000000,FALSE,43,Read: /home/lvuser/scripts/auto_43.bee,File good!,DRIVE_STRAIGHT_NAVX_RAMPARTS 200 5000 10,DRIVE_STRAIGHT_NAVX_RAMPARTS,0.000000,0.000000
01:29:38.199 PM 04/09/2016,Autonomous Disabled,10,FALSE,0,NO ERROR,-0.562500,-29.632097,0.502936,-30.889761,TRUE,FALSE,TRUE,TRUE,FALSE,FALSE,Disabled,0.000000,0.574819,-5.694819,TRUE,9.053680,-30.908203,0.000000,0.009918,-0.016235,0.000000,-0.031000,-0.046000,-0.052000,2.450000,-0.660000,-0.470000,-1.274373,Hold,0.919434,0.000000,Hold,-1062.000000,2.000000,LowGoal,-817.500000,-2181.818182,Speed,-15.000000,-2181.818182,Speed,Off,Off,0.000000,FALSE,43,Read: /home/lvuser/scripts/auto_43.bee,File good!,DRIVE_STRAIGHT_NAVX_RAMPARTS 200 5000 10,DRIVE_STRAIGHT_NAVX_RAMPARTS,0.000000,0.000000
01:29:38.299 PM 04/09/2016,Autonomous Disabled,10,FALSE,0,NO ERROR,-0.562500,-29.632097,0.502936,-30.889761,TRUE,FALSE,TRUE,TRUE,FALSE,FALSE,Disabled,0.000000,0.574819,-5.694819,TRUE,9.053680,-30.908203,0.000000,0.009918,-0.016235,0.000000,-0.008000,0.007000,0.050000,2.470000,-0.670000,-0.470000,-1.273361,Hold,0.919434,0.000000,Hold,-1062.000000,2.000000,LowGoal,-750.000000,-2181.818182,Speed,0.000000,-2181.818182,Speed,Off,Off,0.000000,FALSE,43,Read: /home/lvuser/scripts/auto_43.bee,File good!,DRIVE_STRAIGHT_NAVX_RAMPARTS 200 5000 10,DRIVE_STRAIGHT_NAVX_RAMPARTS,0.000000,0.000000
01:29:38.401 PM 04/09/2016,Autonomous Disabled,10,FALSE,0,NO ERROR,-0.562500,-29.632097,0.502936,-30.889761,TRUE,FALSE,TRUE,TRUE,FALSE,FALSE,Disabled,0.000000,0.574819,-5.694819,TRUE,9.053802,-30.908218,0.000000,0.000427,0.021072,0.000000,-0.011000,0.034000,0.031000,2.490000,-0.670000,-0.460000,-1.273702,Hold,0.919434,0.000000,Hold,-1062.000000,2.000000,LowGoal,-682.500000,-2181.818182,Speed,0.000000,-2181.818182,Speed,Off,Off,0.000000,FALSE,43,Read: /home/lvuser/scripts/auto_43.bee,File good!,DRIVE_STRAIGHT_NAVX_RAMPARTS 200 5000 10,DRIVE_STRAIGHT_NAVX_RAMPARTS,0.000000,0.000000
01:29:38.501 PM 04/09/2016,Autonomous Disabled,10,FALSE,0,NO ERROR,-0.562500,-29.632097,0.502936,-30.889761,TRUE,FALSE,TRUE,TRUE,FALSE,FALSE,Disabled,0.000000,0.574819,-5.694819,TRUE,9.053497,-30.905899,0.000000,-0.008179,0.059677,0.000000,0.036000,-0.033000,-0.040000,2.500000,-0.670000,-0.430000,-1.273702,Hold,0.919434,0.000000,Hold,-1062.000000,2.000000,LowGoal,-622.500000,-2181.818182,Speed,0.000000,-2181.818182,Speed,Off,Off,0.000000,FALSE,43,Read: /home/lvuser/scripts/auto_43.bee,File good!,DRIVE_STRAIGHT_NAVX_RAMPARTS 200 5000 10,DRIVE_STRAIGHT_NAVX_RAMPARTS,0.000000,0.000000
01:29:38.602 PM 04/09/2016,Autonomous Disabled,11,FALSE,0,NO ERROR,-0.562500,-29.632097,0.502936,-30.889761,TRUE,FALSE,TRUE,TRUE,FALSE,FALSE,Disabled,0.000000,0.574819,-5.694819,TRUE,9.053543,-30.903366,0.000000,0.001160,0.054001,0.000000,-0.005000,0.035000,-0.025000,2.470000,-0.680000,-0.360000,-1.271798,Hold,0.919434,0.000000,Hold,-1062.000000,2.000000,LowGoal,-555.000000,-2181.818182,Speed,0.000000,-2181.818182,Speed,Off,Off,0.000000,FALSE,43,Read: /home/lvuser/scripts/auto_43.bee,File good!,DRIVE_STRAIGHT_NAVX_RAMPARTS 200 5000 10,DRIVE_STRAIGHT_NAVX_RAMPARTS,0.000000,0.000000
01:29:38.702 PM 04/09/2016,Autonomous Disabled,11,FALSE,0,NO ERROR,-0.562500,-29.632097,0.502936,-30.889761,TRUE,FALSE,TRUE,TRUE,FALSE,FALSE,Disabled,0.000000,0.574819,-5.694819,TRUE,9.053436,-30.899384,0.000000,0.000000,0.071793,0.000000,-0.005000,0.054000,0.002000,2.470000,-0.680000,-0.330000,-1.264176,Hold,0.919434,0.000000,Hold,-1063.000000,2.000000,LowGoal,-555.000000,-2181.818182,Speed,0.000000,-2181.818182,Speed,Off,Off,0.000000,FALSE,43,Read: /home/lvuser/scripts/auto_43.bee,File good!,DRIVE_STRAIGHT_NAVX_RAMPARTS 200 5000 10,DRIVE_STRAIGHT_NAVX_RAMPARTS,0.000000,0.000000
01:29:38.803 PM 04/09/2016,Autonomous Disabled,11,FALSE,0,NO ERROR,-0.562500,-29.632097,0.502936,-30.889761,TRUE,FALSE,TRUE,TRUE,FALSE,FALSE,Disabled,0.000000,0.574819,-5.694819,TRUE,9.053436,-30.896332,0.000000,0.000000,0.078156,0.000000,0.021000,-0.061000,-0.025000,2.500000,-0.690000,-0.300000,-1.252420,Hold,0.919434,0.000000,Hold,-1063.000000,2.000000,LowGoal,-435.000000,-2181.818182,Speed,0.000000,-2181.818182,Speed,Off,Off,0.000000,FALSE,43,Read: /home/lvuser/scripts/auto_43.bee,File good!,DRIVE_STRAIGHT_NAVX_RAMPARTS 200 5000 10,DRIVE_STRAIGHT_NAVX_RAMPARTS,0.000000,0.000000
01:29:38.904 PM 04/09/2016,Autonomous Disabled,11,FALSE,0,NO ERROR,-0.562500,-29.632097,0.502936,-30.889761,TRUE,FALSE,TRUE,TRUE,FALSE,FALSE,Disabled,0.000000,0.574819,-5.694819,TRUE,9.053833,-30.892242,0.000000,0.016205,0.061600,0.000000,0.031000,-0.061000,0.036000,2.510000,-0.690000,-0.290000,-1.273537,Hold,0.919434,0.000000,Hold,-1063.000000,2.000000,LowGoal,-375.000000,-2181.818182,Speed,0.000000,-2181.818182,Speed,Off,Off,0.000000,FALSE,43,Read: /home/lvuser/scripts/auto_43.bee,File good!,DRIVE_STRAIGHT_NAVX_RAMPARTS 200 5000 10,DRIVE_STRAIGHT_NAVX_RAMPARTS,0.000000,0.000000
01:29:39.005 PM 04/09/2016,Autonomous Disabled,10,FALSE,0,NO ERROR,-0.562500,-29.632097,0.502936,-30.889761,TRUE,FALSE,TRUE,TRUE,FALSE,FALSE,Disabled,0.000000,0.574819,-5.694819,TRUE,9.054840,-30.890762,0.000000,0.031601,0.023514,0.000000,0.018000,-0.013000,0.019000,2.520000,-0.690000,-0.260000,-1.275588,Hold,0.919434,0.000000,Hold,-1063.000000,2.000000,LowGoal,-322.500000,-2181.818182,Speed,0.000000,-2181.818182,Speed,Off,Off,0.000000,FALSE,43,Read: /home/lvuser/scripts/auto_43.bee,File good!,DRIVE_STRAIGHT_NAVX_RAMPARTS 200 5000 10,DRIVE_STRAIGHT_NAVX_RAMPARTS,0.000000,0.000000
01:29:39.105 PM 04/09/2016,Autonomous Disabled,10,FALSE,0,NO ERROR,-0.562500,-29.632097,0.502936,-30.889761,TRUE,FALSE,TRUE,TRUE,FALSE,FALSE,Disabled,0.000000,0.574819,-5.694819,TRUE,9.055054,-30.890228,0.000000,0.000000,0.000000,0.000000,0.012000,-0.009000,0.052000,2.520000,-0.690000,-0.250000,-1.273602,Hold,0.919434,0.000000,Hold,-1063.000000,2.000000,LowGoal,-277.500000,-2181.818182,Speed,0.000000,-2181.818182,Speed,Off,Off,0.000000,FALSE,43,Read: /home/lvuser/scripts/auto_43.bee,File good!,DRIVE_STRAIGHT_NAVX_RAMPARTS 200 5000 10,DRIVE_STRAIGHT_NAVX_RAMPARTS,0.000000,0.000000
01:29:39.206 PM 04/09/2016,Autonomous Disabled,11,FALSE,0,NO ERROR,-0.562500,-29.632097,0.502936,-30.889761,TRUE,FALSE,TRUE,TRUE,FALSE,FALSE,Disabled,0.000000,0.574819,-5.694819,TRUE,9.055054,-30.890228,0.000000,0.000000,0.000000,0.000000,0.009000,-0.006000,0.045000,2.520000,-0.700000,-0.220000,-1.276125,Hold,0.919434,0.000000,Hold,-1063.000000,2.000000,LowGoal,-225.000000,-2181.818182,Speed,0.000000,-2181.818182,Speed,Off,Off,0.000000,FALSE,43,Read: /home/lvuser/scripts/auto_43.bee,File good!,DRIVE_STRAIGHT_NAVX_RAMPARTS 200 5000 10,DRIVE_STRAIGHT_NAVX_RAMPARTS,0.000000,0.000000
01:29:39.306 PM 04/09/2016,Autonomous Disabled,10,FALSE,0,NO ERROR,-0.562500,-29.632097,0.502936,-30.889761,TRUE,FALSE,TRUE,TRUE,FALSE,FALSE,Disabled,0.000000,0.574819,-5.694819,TRUE,9.055054,-30.890228,0.000000,0.000000,0.000000,0.000000,0.005000,-0.004000,0.046000,2.530000,-0.700000,-0.200000,-1.281358,Hold,0.919434,0.000000,Hold,-1063.000000,2.000000,LowGoal,-165.000000,-2181.818182,Speed,0.000000,-2181.818182,Speed,Off,Off,0.000000,FALSE,43,Read: /home/lvuser/scripts/auto_43.bee,File good!,DRIVE_STRAIGHT_NAVX_RAMPARTS 200 5000 10,DRIVE_STRAIGHT_NAVX_RAMPARTS,0.000000,0.000000
01:29:39.408 PM 04/09/2016,Autonomous Disabled,10,FALSE,0,NO ERROR,-0.562500,-29.632097,0.502936,-30.889761,TRUE,FALSE,TRUE,TRUE,FALSE,FALSE,Disabled,0.000000,0.574819,-5.694819,TRUE,9.055237,-30.890228,0.000000,0.000000,0.000000,0.000000,0.005000,0.000000,0.033000,2.520000,-0.700000,-0.170000,-1.286222,Hold,0.919434,0.000000,Hold,-1063.000000,2.000000,LowGoal,-120.000000,-2181.818182,Speed,0.000000,-2181.818182,Speed,Off,Off,0.000000,FALSE,43,Read: /home/lvuser/scripts/auto_43.bee,File good!,DRIVE_STRAIGHT_NAVX_RAMPARTS 200 5000 10,DRIVE_STRAIGHT_NAVX_RAMPARTS,0.000000,0.000000
01:29:39.509 PM 04/09/2016,Autonomous Disabled,11,FALSE,0,NO ERROR,-0.562500,-29.632097,0.502936,-30.889761,TRUE,FALSE,TRUE,TRUE,FALSE,FALSE,Disabled,0.000000,0.574819,-5.694819,TRUE,9.055237,-30.890228,0.000000,0.000000,0.000000,0.000000,0.005000,0.000000,0.029000,2.530000,-0.700000,-0.160000,-1.289837,Hold,0.919434,0.000000,Hold,-1063.000000,2.000000,LowGoal,-82.500000,-2181.818182,Speed,0.000000,-2181.818182,Speed,Off,Off,0.000000,FALSE,43,Read: /home/lvuser/scripts/auto_43.bee,File good!,DRIVE_STRAIGHT_NAVX_RAMPARTS 200 5000 10,DRIVE_STRAIGHT_NAVX_RAMPARTS,0.000000,0.000000
01:29:39.609 PM 04/09/2016,Autonomous Disabled,10,FALSE,0,NO ERROR,-0.562500,-29.632097,0.502936,-30.889761,TRUE,FALSE,TRUE,TRUE,FALSE,FALSE,Disabled,0.000000,0.574819,-5.694819,TRUE,9.055237,-30.890228,0.000000,0.000000,0.000000,0.000000,-0.003000,0.015000,0.014000,2.540000,-0.700000,-0.160000,-1.288608,Hold,0.919434,0.000000,Hold,-1063.000000,2.000000,LowGoal,-45.000000,-2181.818182,Speed,0.000000,-2181.818182,Speed,Off,Off,0.000000,FALSE,43,Read: /home/lvuser/scripts/auto_43.bee,File good!,DRIVE_STRAIGHT_NAVX_RAMPARTS 200 5000 10,DRIVE_STRAIGHT_NAVX_RAMPARTS,0.000000,0.000000
01:29:39.710 PM 04/09/2016,Autonomous Disabled,11,FALSE,0,NO ERROR,-0.562500,-29.632097,0.502936,-30.889761,TRUE,FALSE,TRUE,TRUE,FALSE,FALSE,Disabled,0.000000,0.574819,-5.694819,TRUE,9.055237,-30.890228,0.000000,0.000000,0.000000,0.000000,0.001000,0.000000,0.013000,2.550000,-0.700000,-0.150000,-1.299373,Hold,0.919434,0.000000,Hold,-1063.000000,2.000000,LowGoal,-45.000000,-2181.818182,Speed,0.000000,-2181.818182,Speed,Off,Off,0.000000,FALSE,43,Read: /home/lvuser/scripts/auto_43.bee,File good!,DRIVE_STRAIGHT_NAVX_RAMPARTS 200 5000 10,DRIVE_STRAIGHT_NAVX_RAMPARTS,0.000000,0.000000
01:29:39.812 PM 04/09/2016,Autonomous Disabled,11,FALSE,0,NO ERROR,-0.562500,-29.632097,0.502936,-30.889761,TRUE,FALSE,TRUE,TRUE,FALSE,FALSE,Disabled,0.000000,0.574819,-5.694819,TRUE,9.055237,-30.890228,0.000000,0.000000,0.000000,0.000000,0.001000,0.003000,0.021000,2.560000,-0.700000,-0.140000,-1.295679,Hold,0.919434,0.000000,Hold,-1063.000000,2.000000,LowGoal,0.000000,-2181.818182,Speed,0.000000,-2181.818182,Speed,Off,Off,0.000000,FALSE,43,Read: /home/lvuser/scripts/auto_43.bee,File good!,DRIVE_STRAIGHT_NAVX_RAMPARTS 200 5000 10,DRIVE_STRAIGHT_NAVX_RAMPARTS,0.000000,0.000000
01:29:39.912 PM 04/09/2016,Autonomous Disabled,11,FALSE,0,NO ERROR,-0.562500,-29.632097,0.502936,-30.889761,TRUE,FALSE,TRUE,TRUE,FALSE,FALSE,Disabled,0.000000,0.574819,-5.694819,TRUE,9.055237,-30.890228,0.000000,0.000000,0.000000,0.000000,0.003000,0.001000,0.023000,2.560000,-0.710000,-0.130000,-1.287637,Hold,0.919434,0.000000,Hold,-1063.000000,2.000000,LowGoal,0.000000,-2181.818182,Speed,0.000000,-2181.818182,Speed,Off,Off,0.000000,FALSE,43,Read: /home/lvuser/scripts/auto_43.bee,File good!,DRIVE_STRAIGHT_NAVX_RAMPARTS 200 5000 10,DRIVE_STRAIGHT_NAVX_RAMPARTS,0.000000,0.000000
01:29:40.014 PM 04/09/2016,Autonomous Disabled,11,FALSE,0,NO ERROR,-0.562500,-29.632097,0.502936,-30.889761,TRUE,FALSE,TRUE,TRUE,FALSE,FALSE,Disabled,0.000000,0.574819,-5.694819,TRUE,9.055237,-30.890228,0.000000,0.000000,0.000000,0.000000,0.003000,0.002000,0.027000,2.560000,-0.710000,-0.130000,-1.293658,Hold,0.919434,0.000000,Hold,-1063.000000,2.000000,LowGoal,0.000000,-2181.818182,Speed,0.000000,-2181.818182,Speed,Off,Off,0.000000,FALSE,43,Read: /home/lvuser/scripts/auto_43.bee,File good!,DRIVE_STRAIGHT_NAVX_RAMPARTS 200 5000 10,DRIVE_STRAIGHT_NAVX_RAMPARTS,0.000000,0.000000
01:29:40.114 PM 04/09/2016,Autonomous Disabled,11,FALSE,0,NO ERROR,-0.562500,-29.632097,0.502936,-30.889761,TRUE,FALSE,TRUE,TRUE,FALSE,FALSE,Disabled,0.000000,0.574819,-5.694819,TRUE,9.055237,-30.890228,0.000000,0.000000,0.000000,0.000000,0.002000,0.002000,0.022000,2.560000,-0.710000,-0.110000,-1.302106,Hold,0.919434,0.000000,Hold,-1063.000000,2.000000,LowGoal,0.000000,-2181.818182,Speed,0.000000,-2181.818182,Speed,Off,Off,0.000000,FALSE,43,Read: /home/lvuser/scripts/auto_43.bee,File good!,DRIVE_STRAIGHT_NAVX_RAMPARTS 200 5000 10,DRIVE_STRAIGHT_NAVX_RAMPARTS,0.000000,0.000000
01:29:40.214 PM 04/09/2016,Autonomous Disabled,10,FALSE,0,NO ERROR,-0.562500,-29.632097,0.502936,-30.889761,TRUE,FALSE,TRUE,TRUE,FALSE,FALSE,Disabled,0.000000,0.574819,-5.694819,TRUE,9.055237,-30.890228,0.000000,0.000000,0.000000,0.000000,0.006000,-0.001000,0.024000,2.570000,-0.720000,-0.100000,-1.298660,Hold,0.919434,0.000000,Hold,-1063.000000,2.000000,LowGoal,0.000000,-2181.818182,Speed,0.000000,-2181.818182,Speed,Off,Off,0.000000,FALSE,43,Read: /home/lvuser/scripts/auto_43.bee,File good!,DRIVE_STRAIGHT_NAVX_RAMPARTS 200 5000 10,DRIVE_STRAIGHT_NAVX_RAMPARTS,0.000000,0.000000
01:29:40.315 PM 04/09/2016,Autonomous Disabled,10,FALSE,0,NO ERROR,-0.562500,-29.632097,0.502936,-30.889761,TRUE,FALSE,TRUE,TRUE,FALSE,FALSE,Disabled,0.000000,0.574819,-5.694819,TRUE,9.055237,-30.890228,0.000000,0.000000,0.000000,0.000000,0.001000,0.001000,0.025000,2.570000,-0.720000,-0.100000,-1.290725,Hold,0.919434,0.000000,Hold,-1063.000000,2.000000,LowGoal,0.000000,-2181.818182,Speed,0.000000,-2181.818182,Speed,Off,Off,0.000000,FALSE,43,Read: /home/lvuser/scripts/auto_43.bee,File good!,DRIVE_STRAIGHT_NAVX_RAMPARTS 200 5000 10,DRIVE_STRAIGHT_NAVX_RAMPARTS,0.000000,0.000000
01:29:40.416 PM 04/09/2016,Autonomous Disabled,10,FALSE,0,NO ERROR,-0.562500,-29.632097,0.502936,-30.889761,TRUE,FALSE,TRUE,TRUE,FALSE,FALSE,Disabled,0.000000,0.574819,-5.694819,TRUE,9.055237,-30.890228,0.000000,0.000000,0.000000,0.000000,0.000000,0.001000,0.020000,2.570000,-0.720000,-0.090000,-1.277940,Hold,0.919434,0.000000,Hold,-1063.000000,2.000000,LowGoal,0.000000,-2181.818182,Speed,0.000000,-2181.818182,Speed,Off,Off,0.000000,FALSE,43,Read: /home/lvuser/scripts/auto_43.bee,File good!,DRIVE_STRAIGHT_NAVX_RAMPARTS 200 5000 10,DRIVE_STRAIGHT_NAVX_RAMPARTS,0.000000,0.000000
01:29:40.517 PM 04/09/2016,Autonomous Disabled,11,FALSE,0,NO ERROR,-0.562500,-29.632097,0.502936,-30.889761,TRUE,FALSE,TRUE,TRUE,FALSE,FALSE,Disabled,0.000000,0.574819,-5.694819,TRUE,9.055237,-30.890228,0.000000,0.000000,0.000000,0.000000,-0.006000,0.007000,0.025000,2.570000,-0.720000,-0.090000,-1.278766,Hold,0.919434,0.000000,Hold,-1063.000000,2.000000,LowGoal,0.000000,-2181.818182,Speed,0.000000,-2181.818182,Speed,Off,Off,0.000000,FALSE,43,Read: /home/lvuser/scripts/auto_43.bee,File good!,DRIVE_STRAIGHT_NAVX_RAMPARTS 200 5000 10,DRIVE_STRAIGHT_NAVX_RAMPARTS,0.000000,0.000000
01:29:40.618 PM 04/09/2016,Autonomous Disabled,9,FALSE,0,NO ERROR,-0.562500,-29.632097,0.502936,-30.889761,TRUE,FALSE,TRUE,TRUE,FALSE,FALSE,Disabled,0.000000,0.574819,-5.694819,TRUE,9.055237,-30.890228,0.000000,0.000000,0.000000,0.000000,-0.012000,-0.002000,0.024000,2.560000,-0.750000,-0.160000,-1.312486,Hold,0.919434,0.000000,Hold,-1063.000000,2.000000,LowGoal,0.000000,-2181.818182,Speed,0.000000,-2181.818182,Speed,Off,Off,0.000000,FALSE,43,Read: /home/lvuser/scripts/auto_43.bee,File good!,DRIVE_STRAIGHT_NAVX_RAMPARTS 200 5000 10,DRIVE_STRAIGHT_NAVX_RAMPARTS,0.000000,0.000000
01:29:40.719 PM 04/09/2016,Autonomous Disabled,10,FALSE,0,NO ERROR,-0.562500,-29.632097,0.502936,-30.889761,TRUE,FALSE,TRUE,TRUE,FALSE,FALSE,Disabled,0.000000,0.574819,-5.694819,TRUE,9.055237,-30.890228,0.000000,0.000000,0.000000,0.000000,-0.004000,-0.001000,0.011000,2.540000,-0.790000,-0.190000,-1.366689,Hold,0.919434,0.000000,Hold,-1063.000000,2.000000,LowGoal,0.000000,-2181.818182,Speed,0.000000,-2181.818182,Speed,Off,Off,0.000000,FALSE,43,Read: /home/lvuser/scripts/auto_43.bee,File good!,DRIVE_STRAIGHT_NAVX_RAMPARTS 200 5000 10,DRIVE_STRAIGHT_NAVX_RAMPARTS,0.000000,0.000000
01:29:40.819 PM 04/09/2016,Autonomous Disabled,10,FALSE,0,NO ERROR,-0.562500,-29.632097,0.502936,-30.883344,TRUE,FALSE,TRUE,TRUE,FALSE,FALSE,Disabled,0.000000,0.574819,-5.694819,TRUE,9.055206,-30.890228,0.000000,-0.003006,0.000000,0.000000,-0.016000,0.001000,0.019000,2.510000,-0.860000,-0.350000,-1.420234,Hold,0.919434,0.000000,Hold,-1063.000000,2.000000,LowGoal,0.000000,-2181.818182,Speed,0.000000,-2181.818182,Speed,Off,Off,0.000000,FALSE,43,Read: /home/lvuser/scripts/auto_43.bee,File good!,DRIVE_STRAIGHT_NAVX_RAMPARTS 200 5000 10,DRIVE_STRAIGHT_NAVX_RAMPARTS,0.000000,0.000000
01:29:40.919 PM 04/09/2016,Autonomous Disabled,10,FALSE,0,NO ERROR,-0.562500,-29.625681,0.502936,-30.806345,TRUE,FALSE,TRUE,TRUE,FALSE,FALSE,Disabled,0.000000,0.574819,-5.694819,TRUE,9.054764,-30.890274,0.000000,-0.002655,-0.003616,0.000000,-0.036000,0.007000,0.021000,2.490000,-0.970000,-0.470000,-1.517283,Hold,0.919434,0.000000,Hold,-1063.000000,2.000000,LowGoal,0.000000,-2181.818182,Speed,0.000000,-2181.818182,Speed,Off,Off,0.000000,FALSE,43,Read: /home/lvuser/scripts/auto_43.bee,File good!,DRIVE_STRAIGHT_NAVX_RAMPARTS 200 5000 10,DRIVE_STRAIGHT_NAVX_RAMPARTS,0.000000,0.000000
01:29:41.019 PM 04/09/2016,Autonomous Disabled,10,FALSE,0,NO ERROR,-0.562500,-29.567931,0.502936,-30.581762,TRUE,FALSE,TRUE,TRUE,FALSE,FALSE,Disabled,0.000000,0.574819,-5.694819,TRUE,9.053253,-30.890884,0.000000,-0.038300,0.000000,0.000000,-0.018000,-0.004000,0.037000,2.430000,-1.250000,-0.600000,-1.698221,Hold,0.919434,0.000000,Hold,-1063.000000,2.000000,LowGoal,0.000000,-2181.818182,Speed,0.000000,-2181.818182,Speed,Off,Off,0.000000,FALSE,43,Read: /home/lvuser/scripts/auto_43.bee,File good!,DRIVE_STRAIGHT_NAVX_RAMPARTS 200 5000 10,DRIVE_STRAIGHT_NAVX_RAMPARTS,0.000000,0.000000
01:29:41.120 PM 04/09/2016,Autonomous Disabled,9,FALSE,0,NO ERROR,-0.562500,-29.304848,0.502936,-30.222429,TRUE,FALSE,TRUE,TRUE,FALSE,FALSE,Disabled,0.000000,0.574819,-5.694819,TRUE,9.050598,-30.890884,0.000000,-0.067474,0.000000,0.000000,-0.035000,0.002000,0.040000,2.460000,-1.440000,-0.840000,-1.981502,Hold,0.919434,0.000000,Hold,-1063.000000,2.000000,LowGoal,0.000000,-2181.818182,Speed,0.000000,-2181.818182,Speed,Off,Off,0.000000,FALSE,43,Read: /home/lvuser/scripts/auto_43.bee,File good!,DRIVE_STRAIGHT_NAVX_RAMPARTS 200 5000 10,DRIVE_STRAIGHT_NAVX_RAMPARTS,0.000000,0.000000
01:29:41.220 PM 04/09/2016,Autonomous Disabled,10,FALSE,0,NO ERROR,-0.562500,-28.855683,0.502936,-29.728347,TRUE,FALSE,TRUE,TRUE,FALSE,FALSE,Disabled,0.000000,0.574819,-5.694819,TRUE,9.046204,-30.890808,0.000000,-0.098679,-0.004745,0.000000,-0.016000,-0.017000,0.016000,2.450000,-1.520000,-0.970000,-2.084782,Hold,0.919434,0.000000,Hold,-1063.000000,2.000000,LowGoal,0.000000,-2181.818182,Speed,0.000000,-2181.818182,Speed,Off,Off,0.000000,FALSE,43,Read: /home/lvuser/scripts/auto_43.bee,File good!,DRIVE_STRAIGHT_NAVX_RAMPARTS 200 5000 10,DRIVE_STRAIGHT_NAVX_RAMPARTS,0.000000,0.000000
01:29:41.320 PM 04/09/2016,Autonomous Disabled,11,FALSE,0,NO ERROR,-0.562500,-28.291017,0.502936,-29.067432,TRUE,FALSE,TRUE,TRUE,FALSE,FALSE,Disabled,0.000000,0.574819,-5.694819,TRUE,9.043030,-30.890961,0.000000,0.001907,-0.006165,0.000000,0.024000,-0.010000,0.029000,2.450000,-1.710000,-0.970000,-2.256308,Hold,0.919434,0.000000,Hold,-1063.000000,2.000000,LowGoal,0.000000,-2181.818182,Speed,0.000000,-2181.818182,Speed,Off,Off,0.000000,FALSE,43,Read: /home/lvuser/scripts/auto_43.bee,File good!,DRIVE_STRAIGHT_NAVX_RAMPARTS 200 5000 10,DRIVE_STRAIGHT_NAVX_RAMPARTS,0.000000,0.000000
01:29:41.421 PM 04/09/2016,Autonomous Disabled,10,FALSE,0,NO ERROR,-0.562500,-27.713519,0.502936,-28.361600,TRUE,FALSE,TRUE,TRUE,FALSE,FALSE,Disabled,0.000000,0.574819,-5.694819,TRUE,9.043747,-30.891235,0.000000,0.016510,-0.007278,0.000000,0.019000,-0.018000,0.014000,2.490000,-1.880000,-0.840000,-2.483127,Hold,0.919434,0.000000,Hold,-1063.000000,2.000000,LowGoal,0.000000,-2181.818182,Speed,0.000000,-2181.818182,Speed,Off,Off,0.000000,FALSE,43,Read: /home/lvuser/scripts/auto_43.bee,File good!,DRIVE_STRAIGHT_NAVX_RAMPARTS 200 5000 10,DRIVE_STRAIGHT_NAVX_RAMPARTS,0.000000,0.000000
01:29:41.521 PM 04/09/2016,Autonomous Disabled,10,FALSE,0,NO ERROR,-0.562500,-27.148853,0.502936,-27.668602,TRUE,FALSE,TRUE,TRUE,FALSE,FALSE,Disabled,0.000000,0.574819,-5.694819,TRUE,9.043930,-30.891815,0.000000,0.000000,-0.018875,0.000000,-0.001000,0.028000,0.020000,2.490000,-2.180000,-0.820000,-2.734593,Hold,0.919434,0.000000,Hold,-1063.000000,2.000000,LowGoal,0.000000,-2181.818182,Speed,0.000000,-2181.818182,Speed,Off,Off,0.000000,FALSE,43,Read: /home/lvuser/scripts/auto_43.bee,File good!,DRIVE_STRAIGHT_NAVX_RAMPARTS 200 5000 10,DRIVE_STRAIGHT_NAVX_RAMPARTS,0.000000,0.000000
01:29:41.622 PM 04/09/2016,Autonomous Disabled,10,FALSE,0,NO ERROR,-0.562500,-26.552105,0.502936,-26.905020,TRUE,FALSE,TRUE,TRUE,FALSE,FALSE,Disabled,0.000000,0.574819,-5.694819,TRUE,9.043930,-30.892181,0.000000,0.000000,0.003113,0.000000,0.015000,-0.032000,-0.003000,2.510000,-2.490000,-0.840000,-3.017657,Hold,0.919434,0.000000,Hold,-1063.000000,2.000000,LowGoal,0.000000,-2181.818182,Speed,0.000000,-2181.818182,Speed,Off,Off,0.000000,FALSE,43,Read: /home/lvuser/scripts/auto_43.bee,File good!,DRIVE_STRAIGHT_NAVX_RAMPARTS 200 5000 10,DRIVE_STRAIGHT_NAVX_RAMPARTS,0.000000,0.000000
01:29:41.721 PM 04/09/2016,Autonomous Disabled,10,FALSE,0,NO ERROR,-0.562500,-25.929689,0.502936,-26.115772,TRUE,FALSE,TRUE,TRUE,FALSE,FALSE,Disabled,0.000000,0.574819,-5.694819,TRUE,9.043930,-30.891922,0.000000,0.000000,0.006485,0.000000,-0.018000,0.024000,0.024000,2.520000,-2.730000,-0.830000,-3.319841,Hold,0.919434,0.000000,Hold,-1063.000000,2.000000,LowGoal,0.000000,-2181.818182,Speed,0.000000,-2181.818182,Speed,Off,Off,0.000000,FALSE,43,Read: /home/lvuser/scripts/auto_43.bee,File good!,DRIVE_STRAIGHT_NAVX_RAMPARTS 200 5000 10,DRIVE_STRAIGHT_NAVX_RAMPARTS,0.000000,0.000000
01:29:41.821 PM 04/09/2016,Autonomous Disabled,10,FALSE,0,NO ERROR,-0.562500,-25.294441,0.502936,-25.281608,TRUE,TRUE,TRUE,TRUE,FALSE,FALSE,Disabled,0.000000,0.574819,-5.694819,TRUE,9.044342,-30.891357,0.000000,0.016647,0.020157,0.000000,0.006000,-0.027000,0.018000,2.490000,-3.200000,-0.750000,-3.655546,Hold,0.919434,0.000000,Hold,-1063.000000,2.000000,LowGoal,0.000000,-2181.818182,Speed,0.000000,-2181.818182,Speed,Off,Off,0.000000,FALSE,43,Read: /home/lvuser/scripts/auto_43.bee,File good!,DRIVE_STRAIGHT_NAVX_RAMPARTS 200 5000 10,DRIVE_STRAIGHT_NAVX_RAMPARTS,0.000000,0.000000
01:29:41.922 PM 04/09/2016,Autonomous Disabled,10,FALSE,0,NO ERROR,-0.562500,-24.672026,0.502936,-24.518026,TRUE,TRUE,TRUE,TRUE,FALSE,FALSE,Disabled,0.000000,0.574819,-5.694819,TRUE,9.044937,-30.890228,0.000000,0.017868,0.023834,0.000000,0.022000,0.000000,0.016000,2.490000,-3.440000,-0.700000,-3.938421,Hold,0.919434,0.000000,Hold,-1063.000000,2.000000,LowGoal,0.000000,0.000000,Speed,0.000000,0.000000,Speed,Off,Off,0.000000,FALSE,43,Read: /home/lvuser/scripts/auto_43.bee,File good!,DRIVE_STRAIGHT_NAVX_RAMPARTS 200 5000 10,DRIVE_STRAIGHT_NAVX_RAMPARTS,0.000000,0.000000
01:29:42.022 PM 04/09/2016,Autonomous Disabled,9,FALSE,0,NO ERROR,-0.562500,-24.100944,0.502936,-23.805778,TRUE,FALSE,TRUE,TRUE,FALSE,FALSE,Disabled,0.000000,0.574819,-5.694819,TRUE,9.045700,-30.889709,0.000000,0.000000,0.000000,0.000000,0.019000,0.031000,0.021000,2.490000,-3.790000,-0.640000,-4.238763,Hold,0.919434,0.000000,Hold,-1063.000000,2.000000,LowGoal,0.000000,0.000000,Speed,0.000000,0.000000,Speed,Off,Off,0.000000,FALSE,43,Read: /home/lvuser/scripts/auto_43.bee,File good!,DRIVE_STRAIGHT_NAVX_RAMPARTS 200 5000 10,DRIVE_STRAIGHT_NAVX_RAMPARTS,0.000000,0.000000
01:29:42.122 PM 04/09/2016,Autonomous Disabled,10,FALSE,0,NO ERROR,-0.562500,-23.478528,0.502936,-23.048613,TRUE,FALSE,TRUE,TRUE,FALSE,FALSE,Disabled,0.000000,0.574819,-5.694819,TRUE,9.045486,-30.889267,0.000000,-0.009750,0.005127,0.000000,0.017000,0.004000,0.017000,2.510000,-3.990000,-0.610000,-4.548755,Hold,0.919434,0.000000,Hold,-1063.000000,2.000000,LowGoal,0.000000,-2181.818182,Speed,0.000000,-2181.818182,Speed,Off,Off,0.000000,FALSE,43,Read: /home/lvuser/scripts/auto_43.bee,File good!,DRIVE_STRAIGHT_NAVX_RAMPARTS 200 5000 10,DRIVE_STRAIGHT_NAVX_RAMPARTS,0.000000,0.000000
01:29:42.222 PM 04/09/2016,Autonomous Disabled,10,FALSE,0,NO ERROR,-0.562500,-22.894613,0.502936,-22.323531,TRUE,FALSE,TRUE,TRUE,FALSE,FALSE,Disabled,0.000000,0.574819,-5.694819,TRUE,9.045258,-30.888779,0.000000,-0.001083,0.000000,0.000000,-0.029000,0.023000,0.033000,2.500000,-4.290000,-0.580000,-4.795191,Hold,0.919434,0.000000,Hold,-1063.000000,2.000000,LowGoal,0.000000,-2181.818182,Speed,0.000000,-2181.818182,Speed,Off,Off,0.000000,FALSE,43,Read: /home/lvuser/scripts/auto_43.bee,File good!,DRIVE_STRAIGHT_NAVX_RAMPARTS 200 5000 10,DRIVE_STRAIGHT_NAVX_RAMPARTS,0.000000,0.000000
01:29:42.323 PM 04/09/2016,Autonomous Disabled,10,FALSE,0,NO ERROR,-0.562500,-22.272198,0.502936,-21.572783,TRUE,FALSE,TRUE,TRUE,FALSE,FALSE,Disabled,0.000000,0.574819,-5.694819,TRUE,9.045105,-30.888702,0.000000,0.000000,0.000000,0.000000,0.005000,0.008000,0.033000,2.500000,-4.600000,-0.620000,-5.092659,Hold,0.919434,0.000000,Hold,-1063.000000,2.000000,LowGoal,0.000000,-2181.818182,Speed,0.000000,-2181.818182,Speed,Off,Off,0.000000,FALSE,43,Read: /home/lvuser/scripts/auto_43.bee,File good!,DRIVE_STRAIGHT_NAVX_RAMPARTS 200 5000 10,DRIVE_STRAIGHT_NAVX_RAMPARTS,0.000000,0.000000
01:29:42.422 PM 04/09/2016,Autonomous Disabled,10,FALSE,0,NO ERROR,-0.562500,-21.643366,0.502936,-20.802785,TRUE,FALSE,TRUE,TRUE,FALSE,FALSE,Disabled,0.000000,0.574819,-5.694819,TRUE,9.045364,-30.888046,0.000000,0.010513,0.021011,0.000000,-0.023000,0.000000,0.046000,2.490000,-4.810000,-0.640000,-5.357732,Hold,0.919434,0.000000,Hold,-1063.000000,2.000000,LowGoal,0.000000,-2181.818182,Speed,0.000000,-2181.818182,Speed,Off,Off,0.000000,FALSE,43,Read: /home/lvuser/scripts/auto_43.bee,File good!,DRIVE_STRAIGHT_NAVX_RAMPARTS 200 5000 10,DRIVE_STRAIGHT_NAVX_RAMPARTS,0.000000,0.000000
01:29:42.522 PM 04/09/2016,Autonomous Disabled,9,FALSE,0,NO ERROR,-0.562500,-20.982451,0.502936,-20.007120,TRUE,FALSE,TRUE,TRUE,FALSE,FALSE,Disabled,0.000000,0.574819,-5.694819,TRUE,9.045776,-30.887634,0.000000,0.006989,0.013519,0.000000,-0.019000,0.033000,0.000000,2.500000,-5.140000,-0.690000,-5.626913,Hold,0.919434,0.000000,Hold,-1063.000000,2.000000,LowGoal,0.000000,-2181.818182,Speed,0.000000,-2181.818182,Speed,Off,Off,0.000000,FALSE,43,Read: /home/lvuser/scripts/auto_43.bee,File good!,DRIVE_STRAIGHT_NAVX_RAMPARTS 200 5000 10,DRIVE_STRAIGHT_NAVX_RAMPARTS,0.000000,0.000000
01:29:42.622 PM 04/09/2016,Autonomous Disabled,10,FALSE,0,NO ERROR,-0.562500,-20.321536,0.502936,-19.166539,TRUE,FALSE,TRUE,TRUE,FALSE,FALSE,Disabled,0.000000,0.574819,-5.694819,TRUE,9.045578,-30.886398,0.000000,-0.007462,0.030609,0.000000,0.021000,-0.053000,0.034000,2.500000,-5.440000,-0.670000,-5.988361,Hold,0.919434,0.000000,Hold,-1063.000000,2.000000,LowGoal,0.000000,-2181.818182,Speed,0.000000,-2181.818182,Speed,Off,Off,0.000000,FALSE,43,Read: /home/lvuser/scripts/auto_43.bee,File good!,DRIVE_STRAIGHT_NAVX_RAMPARTS 200 5000 10,DRIVE_STRAIGHT_NAVX_RAMPARTS,0.000000,0.000000
01:29:42.723 PM 04/09/2016,Autonomous Disabled,9,FALSE,0,NO ERROR,-0.562500,-19.641371,0.502936,-18.293874,TRUE,FALSE,TRUE,TRUE,FALSE,FALSE,Disabled,0.000000,0.574819,-5.694819,TRUE,9.045181,-30.885635,0.000000,-0.009491,0.017563,0.000000,-0.007000,-0.025000,0.049000,2.480000,-5.810000,-0.690000,-6.369366,Hold,0.919434,0.000000,Hold,-1063.000000,2.000000,LowGoal,0.000000,-2181.818182,Speed,0.000000,-2181.818182,Speed,Off,Off,0.000000,FALSE,43,Read: /home/lvuser/scripts/auto_43.bee,File good!,DRIVE_STRAIGHT_NAVX_RAMPARTS 200 5000 10,DRIVE_STRAIGHT_NAVX_RAMPARTS,0.000000,0.000000
01:29:42.824 PM 04/09/2016,Autonomous Disabled,10,FALSE,0,NO ERROR,-0.562500,-18.935539,0.502936,-17.414793,TRUE,FALSE,TRUE,TRUE,FALSE,FALSE,Disabled,0.000000,0.574819,-5.694819,TRUE,9.044968,-30.884933,0.000000,-0.000534,0.000000,0.000000,-0.016000,-0.009000,0.035000,2.480000,-6.250000,-0.630000,-6.730717,Hold,0.919434,0.000000,Hold,-1063.000000,2.000000,LowGoal,0.000000,-2181.818182,Speed,0.000000,-2181.818182,Speed,Off,Off,0.000000,FALSE,43,Read: /home/lvuser/scripts/auto_43.bee,File good!,DRIVE_STRAIGHT_NAVX_RAMPARTS 200 5000 10,DRIVE_STRAIGHT_NAVX_RAMPARTS,0.000000,0.000000
01:29:42.924 PM 04/09/2016,Autonomous Disabled,9,FALSE,0,NO ERROR,-0.562500,-18.210457,0.502936,-16.516461,TRUE,FALSE,TRUE,TRUE,FALSE,FALSE,Disabled,0.000000,0.574819,-5.694819,TRUE,9.044724,-30.884171,0.000000,0.000000,0.014740,0.000000,-0.016000,-0.009000,0.035000,2.500000,-6.620000,-0.670000,-7.083707,Hold,0.919434,0.000000,Hold,-1063.000000,2.000000,LowGoal,0.000000,-2181.818182,Speed,0.000000,-2181.818182,Speed,Off,Off,0.000000,FALSE,43,Read: /home/lvuser/scripts/auto_43.bee,File good!,DRIVE_STRAIGHT_NAVX_RAMPARTS 200 5000 10,DRIVE_STRAIGHT_NAVX_RAMPARTS,0.000000,0.000000
01:29:43.025 PM 04/09/2016,Autonomous Disabled,9,FALSE,0,NO ERROR,-0.562500,-17.459709,0.502936,-15.611713,TRUE,FALSE,TRUE,TRUE,FALSE,FALSE,Disabled,0.000000,0.574819,-5.694819,TRUE,9.044739,-30.883591,0.000000,-0.010574,0.023651,0.000000,0.030000,-0.019000,0.041000,2.500000,-6.620000,-0.670000,-7.397386,Hold,0.919434,0.000000,Hold,-1063.000000,2.000000,LowGoal,0.000000,-2181.818182,Speed,0.000000,-2181.818182,Speed,Off,Off,0.000000,FALSE,43,Read: /home/lvuser/scripts/auto_43.bee,File good!,DRIVE_STRAIGHT_NAVX_RAMPARTS 200 5000 10,DRIVE_STRAIGHT_NAVX_RAMPARTS,0.000000,0.000000
01:29:43.126 PM 04/09/2016,Autonomous Disabled,10,FALSE,0,NO ERROR,-0.562500,-16.625544,0.502936,-14.681299,TRUE,FALSE,TRUE,TRUE,FALSE,FALSE,Disabled,0.000000,0.574819,-5.694819,TRUE,9.043503,-30.880920,0.000000,-0.028152,0.062317,0.000000,0.044000,0.041000,0.004000,2.560000,-7.080000,-0.700000,-7.571858,Hold,0.919434,0.000000,Hold,-1063.000000,2.000000,LowGoal,0.000000,-2181.818182,Speed,0.000000,-2181.818182,Speed,Off,Off,0.000000,FALSE,43,Read: /home/lvuser/scripts/auto_43.bee,File good!,DRIVE_STRAIGHT_NAVX_RAMPARTS 200 5000 10,DRIVE_STRAIGHT_NAVX_RAMPARTS,0.000000,0.000000
01:29:43.227 PM 04/09/2016,Autonomous Disabled,9,FALSE,0,NO ERROR,-0.562500,-15.675880,0.502936,-13.815051,TRUE,FALSE,TRUE,TRUE,FALSE,FALSE,Disabled,0.000000,0.574819,-5.694819,TRUE,9.042938,-30.877945,0.000000,-0.006119,0.048233,0.000000,0.018000,-0.007000,0.036000,2.680000,-6.850000,-0.560000,-7.375357,Hold,0.919434,0.000000,Hold,-1063.000000,2.000000,LowGoal,0.000000,-2181.818182,Speed,0.000000,-2181.818182,Speed,Off,Off,0.000000,FALSE,43,Read: /home/lvuser/scripts/auto_43.bee,File good!,DRIVE_STRAIGHT_NAVX_RAMPARTS 200 5000 10,DRIVE_STRAIGHT_NAVX_RAMPARTS,0.000000,0.000000
01:29:43.327 PM 04/09/2016,Autonomous Disabled,11,FALSE,0,NO ERROR,-0.562500,-14.777549,0.502936,-13.038636,TRUE,FALSE,TRUE,TRUE,FALSE,FALSE,Disabled,0.000000,0.574819,-5.694819,TRUE,9.043381,-30.874985,0.000000,0.023239,0.072601,0.000000,0.033000,-0.007000,0.024000,2.750000,-6.530000,-0.470000,-7.075552,Hold,0.919434,0.000000,Hold,-1063.000000,2.000000,LowGoal,0.000000,-2181.818182,Speed,0.000000,-2181.818182,Speed,Off,Off,0.000000,FALSE,43,Read: /home/lvuser/scripts/auto_43.bee,File good!,DRIVE_STRAIGHT_NAVX_RAMPARTS 200 5000 10,DRIVE_STRAIGHT_NAVX_RAMPARTS,0.000000,0.000000
01:29:43.427 PM 04/09/2016,Autonomous Disabled,10,FALSE,0,NO ERROR,-0.562500,-13.866384,0.502936,-12.384138,TRUE,FALSE,TRUE,TRUE,FALSE,FALSE,Disabled,0.000000,0.574819,-5.694819,TRUE,9.045975,-30.869843,0.000000,0.052948,0.089584,0.000000,0.033000,-0.007000,0.024000,2.840000,-6.150000,-0.380000,-6.580106,Hold,0.919434,0.000000,Hold,-1063.000000,2.000000,LowGoal,0.000000,-2181.818182,Speed,0.000000,-2181.818182,Speed,Off,Off,0.000000,FALSE,43,Read: /home/lvuser/scripts/auto_43.bee,File good!,DRIVE_STRAIGHT_NAVX_RAMPARTS 200 5000 10,DRIVE_STRAIGHT_NAVX_RAMPARTS,0.000000,0.000000
