Time,Robot Mode,Loop Time,Error Status,Error Code,Error Source,Left Motor Output,Left Motor Encoder,Right Motor Output,Right Motor Encoder,Is Level,Is Stalled,Ball Detector Photoeye,Vision Enabled,Vision Teleop Control,Vision Auto Control,Vision Current State,Vision X Output,Vision NavX Error,Vision NavX Target,NavX Connection Status,NavX Displacement X,NavX Displacement Y,NavX Displacement Z,NavX Velocity X,NavX Velocity Y,NavX Velocity Z,NavX Acceleration X,NavX Acceleration Y,NavX Acceleration Z,NavX Pitch,NavX Yaw,NavX Roll,Gyro Angle,Roller Arm State,Roller Arm Actual,Roller Arm Desired,Shooter Arm State,Shooter Arm Actual,Shooter Arm Desired,Shooter State,Actual RPM Left,Desired RPM Left,Control Mode Left,Actual RPM Right,Desired RPM Right,Control Mode Right,Ball Shooter Cylinder,Ball Halo Cylinder,Scaler Motor Output,Scaler Solenoid Fire,Auto To Run,Auto Current File,Auto File Status,Auto Current Command,Auto Trimmed Command,Shooter Amps Left,Shooter Amps Right
10:42:40.823 AM 04/09/2016,Teleop Enabled,11,FALSE,0,NO ERROR,-0.000000,1.835162,-0.000000,1.982745,TRUE,FALSE,FALSE,FALSE,FALSE,FALSE,Disabled,-0.096875,0.000000,0.000000,TRUE,-0.062164,0.003128,0.000000,0.000000,0.000000,0.000000,-0.039000,-0.010000,0.040000,-0.300000,0.320000,2.610000,-0.119126,ResetBack,-63.078369,-0.000049,ResetBack,71929.000000,-0.250000,Suck,-7.500000,1818.181818,Speed,0.000000,1818.181818,Speed,Off,On,0.000000,FALSE,0,,,,,0.000000,0.000000
10:42:40.924 AM 04/09/2016,Teleop Enabled,11,FALSE,0,NO ERROR,-0.000000,1.835162,-0.000000,1.982745,TRUE,FALSE,FALSE,FALSE,FALSE,FALSE,Disabled,-0.096875,0.000000,0.000000,TRUE,-0.063187,0.002701,0.000000,-0.017899,-0.021713,0.000000,0.048000,-0.018000,-0.217000,-0.300000,0.280000,2.610000,-0.078439,ResetBack,-64.655518,-0.000049,ResetBack,74243.000000,-0.250000,Suck,-285.000000,1818.181818,Speed,-375.000000,1818.181818,Speed,Off,On,0.000000,FALSE,0,,,,,0.000000,0.000000
10:42:41.025 AM 04/09/2016,Teleop Enabled,11,FALSE,0,NO ERROR,-0.000000,1.835162,-0.000000,1.976329,TRUE,FALSE,FALSE,FALSE,FALSE,FALSE,Disabled,-0.096875,0.000000,0.000000,TRUE,-0.063126,0.002167,0.000000,0.005310,-0.015732,0.000000,0.000000,-0.007000,0.079000,-0.310000,0.270000,2.620000,-0.071061,ResetBack,-64.655762,-0.000049,ResetBack,77455.000000,-0.250000,Suck,-990.000000,1818.181818,Speed,-1065.000000,1818.181818,Speed,Off,On,0.000000,FALSE,0,,,,,0.000000,0.000000
10:42:41.126 AM 04/09/2016,Teleop Enabled,11,FALSE,0,NO ERROR,-0.000000,1.828746,-0.000000,1.976329,TRUE,FALSE,FALSE,FALSE,FALSE,FALSE,Disabled,-0.096875,0.000000,0.000000,TRUE,-0.063370,0.001602,0.000000,-0.027252,-0.000107,0.000000,-0.137000,-0.020000,0.021000,-0.300000,0.300000,2.600000,-0.070349,Reset,-64.655762,0.000000,ResetBack,77455.000000,-0.250000,Suck,-1590.000000,1818.181818,Speed,-1612.500000,1818.181818,Speed,Off,On,0.000000,FALSE,0,,,,,0.000000,0.000000
10:42:41.229 AM 04/09/2016,Teleop Enabled,11,FALSE,0,NO ERROR,-0.000000,1.828746,-0.000000,1.976329,TRUE,FALSE,FALSE,FALSE,FALSE,FALSE,Disabled,-0.096875,0.000000,0.000000,TRUE,-0.063828,0.000839,0.000000,-0.001007,-0.026810,0.000000,0.017000,-0.039000,0.040000,-0.300000,0.300000,2.580000,-0.067419,Hold,-64.655762,0.000000,ResetBack,79410.000000,-0.250000,Suck,-1905.000000,1818.181818,Speed,-1860.000000,1818.181818,Speed,Off,On,0.000000,FALSE,0,,,,,0.000000,0.000000
10:42:41.339 AM 04/09/2016,Teleop Enabled,10,FALSE,0,NO ERROR,-0.000000,1.828746,-0.000000,1.976329,TRUE,FALSE,FALSE,FALSE,FALSE,FALSE,Disabled,-0.096875,0.000000,0.000000,TRUE,-0.064072,-0.000320,0.000000,0.000000,-0.025833,0.000000,0.030000,0.003000,-0.081000,-0.320000,0.260000,2.580000,-0.083782,Hold,0.932373,0.000000,ResetBack,81889.000000,-0.250000,Suck,-1875.000000,1818.181818,Speed,-1800.000000,1818.181818,Speed,Off,On,0.000000,FALSE,0,,,,,0.000000,0.000000
10:42:41.434 AM 04/09/2016,Teleop Enabled,11,FALSE,0,NO ERROR,-0.000000,1.828746,-0.000000,1.976329,TRUE,FALSE,FALSE,FALSE,FALSE,FALSE,Disabled,-0.096875,0.000000,0.000000,TRUE,-0.062164,-0.003311,0.000000,0.046082,-0.050140,0.000000,0.030000,0.003000,-0.081000,-0.320000,0.260000,2.580000,-0.061670,Hold,0.939941,0.000000,ResetBack,83331.000000,-0.250000,Suck,-1807.500000,1818.181818,Speed,-1732.500000,1818.181818,Speed,Off,On,0.000000,FALSE,0,,,,,0.000000,0.000000
10:42:41.534 AM 04/09/2016,Teleop Enabled,9,FALSE,0,NO ERROR,-0.000000,1.828746,-0.000000,1.976329,TRUE,FALSE,FALSE,FALSE,FALSE,FALSE,Disabled,0.000000,0.000000,0.000000,TRUE,-0.060303,-0.004318,0.000000,0.051834,-0.019089,0.000000,-0.011000,0.089000,0.065000,-0.320000,0.300000,2.650000,-0.039985,Hold,0.939941,0.000000,ResetBack,84648.000000,-0.250000,Suck,-1770.000000,1818.181818,Speed,-1717.500000,1818.181818,Speed,Off,On,0.000000,FALSE,0,,,,,0.000000,0.000000
10:42:41.634 AM 04/09/2016,Teleop Enabled,9,FALSE,0,NO ERROR,-0.000000,1.828746,-0.000000,1.976329,TRUE,FALSE,FALSE,FALSE,FALSE,FALSE,Disabled,0.000000,0.000000,0.000000,TRUE,-0.057480,-0.004425,0.000000,0.045853,-0.000977,0.000000,-0.053000,-0.018000,-0.071000,-0.320000,0.240000,2.660000,-0.026466,Hold,0.939941,0.000000,ResetBack,85693.000000,-0.250000,Suck,-1777.500000,1818.181818,Speed,-1740.000000,1818.181818,Speed,Off,On,0.000000,FALSE,0,,,,,0.000000,0.000000
10:42:41.735 AM 04/09/2016,Teleop Enabled,9,FALSE,0,NO ERROR,-0.000000,1.828746,-0.000000,1.976329,TRUE,FALSE,FALSE,FALSE,FALSE,FALSE,Disabled,0.000000,0.000000,0.000000,TRUE,-0.055130,-0.005051,0.000000,0.039459,-0.005310,0.000000,-0.113000,0.027000,0.081000,-0.320000,0.310000,2.690000,-0.023812,Hold,0.939941,0.000000,ResetBack,86009.000000,-0.250000,Suck,-1792.500000,1818.181818,Speed,-1747.500000,1818.181818,Speed,Off,On,0.000000,FALSE,0,,,,,0.000000,0.000000
10:42:41.834 AM 04/09/2016,Teleop Enabled,10,FALSE,0,NO ERROR,-0.000000,1.828746,-0.000000,1.976329,TRUE,FALSE,FALSE,FALSE,FALSE,FALSE,Disabled,0.000000,0.000000,0.000000,TRUE,-0.054321,-0.005402,0.000000,0.000000,-0.007660,0.000000,-0.200000,0.100000,0.016000,-0.320000,0.310000,2.730000,-0.020521,Hold,0.939941,0.000000,ResetBack,86009.000000,-0.250000,Suck,-1800.000000,1818.181818,Speed,-1747.500000,1818.181818,Speed,Off,On,0.000000,FALSE,0,,,,,0.000000,0.000000
10:42:41.935 AM 04/09/2016,Teleop Enabled,9,FALSE,0,NO ERROR,-0.000000,1.828746,-0.000000,1.976329,TRUE,FALSE,FALSE,FALSE,FALSE,FALSE,Disabled,0.000000,0.000000,0.000000,TRUE,-0.053238,-0.005386,0.000000,0.025223,0.003082,0.000000,-0.200000,0.100000,0.016000,-0.320000,0.310000,2.730000,-0.027671,Hold,0.939941,0.000000,ResetBack,86009.000000,-0.250000,Suck,-1792.500000,1818.181818,Speed,-1747.500000,1818.181818,Speed,Off,On,0.000000,FALSE,0,,,,,0.000000,0.000000
10:42:42.037 AM 04/09/2016,Teleop Enabled,11,FALSE,0,NO ERROR,-0.000000,1.828746,-0.000000,1.976329,TRUE,FALSE,FALSE,FALSE,FALSE,FALSE,Disabled,0.000000,0.000000,0.000000,TRUE,-0.051605,-0.005173,0.000000,0.032547,0.011780,0.000000,-0.059000,-0.089000,-0.030000,-0.320000,0.240000,2.690000,-0.029733,Hold,0.939941,0.000000,Reset,86024.000000,2.000000,Suck,-1785.000000,1818.181818,Speed,-1740.000000,1818.181818,Speed,Off,On,0.000000,FALSE,0,,,,,0.000000,0.000000
10:42:42.138 AM 04/09/2016,Teleop Enabled,11,FALSE,0,NO ERROR,-0.000000,1.828746,-0.000000,1.976329,TRUE,FALSE,FALSE,FALSE,FALSE,FALSE,Disabled,0.000000,0.000000,0.000000,TRUE,-0.051132,-0.004425,0.000000,0.024521,0.012070,0.000000,-0.067000,0.038000,0.029000,-0.320000,0.280000,2.750000,-0.033080,Hold,0.939941,0.000000,Hold,-84.000000,2.000000,Suck,-1777.500000,1818.181818,Speed,-1747.500000,1818.181818,Speed,Off,On,0.000000,FALSE,0,,,,,0.000000,0.000000
10:42:42.239 AM 04/09/2016,Teleop Enabled,9,FALSE,0,NO ERROR,-0.000000,1.828746,-0.000000,1.976329,TRUE,FALSE,FALSE,FALSE,FALSE,FALSE,Disabled,0.000000,0.000000,0.000000,TRUE,-0.049271,-0.004105,0.000000,0.045792,-0.004074,0.000000,-0.082000,0.013000,0.034000,-0.320000,0.280000,2.730000,-0.022225,Hold,0.939941,0.000000,Hold,-85.000000,2.000000,Suck,-1785.000000,1818.181818,Speed,-1747.500000,1818.181818,Speed,Off,On,0.000000,FALSE,0,,,,,0.000000,0.000000
10:42:42.343 AM 04/09/2016,Teleop Enabled,10,FALSE,0,NO ERROR,-0.000000,1.828746,-0.000000,1.976329,TRUE,FALSE,FALSE,FALSE,FALSE,FALSE,Disabled,0.000000,0.000000,0.000000,TRUE,-0.047241,-0.003372,0.000000,0.045288,0.020996,0.000000,-0.093000,-0.056000,-0.080000,-0.320000,0.270000,2.690000,-0.009009,Hold,0.939941,0.000000,Hold,-86.000000,2.000000,Suck,-1785.000000,1818.181818,Speed,-1755.000000,1818.181818,Speed,Off,On,0.000000,FALSE,0,,,,,0.000000,0.000000
10:42:42.442 AM 04/09/2016,Teleop Enabled,9,FALSE,0,NO ERROR,-0.000000,1.828746,-0.000000,1.976329,TRUE,FALSE,FALSE,FALSE,FALSE,FALSE,Disabled,0.000000,0.000000,0.000000,TRUE,-0.045654,-0.003204,0.000000,0.045547,-0.014633,0.000000,0.082000,-0.053000,0.104000,-0.320000,0.290000,2.700000,-0.016610,Hold,0.939941,0.000000,Hold,-86.000000,2.000000,Suck,-1785.000000,1818.181818,Speed,-1755.000000,1818.181818,Speed,Off,On,0.000000,FALSE,0,,,,,0.000000,0.000000
10:42:42.543 AM 04/09/2016,Teleop Enabled,10,FALSE,0,NO ERROR,-0.000000,1.828746,-0.000000,1.976329,TRUE,FALSE,FALSE,FALSE,FALSE,FALSE,Disabled,0.000000,0.000000,0.000000,TRUE,-0.042770,-0.005020,0.000000,0.045105,-0.043427,0.000000,0.082000,-0.053000,0.104000,-0.320000,0.290000,2.700000,-0.034432,Hold,0.939941,0.000000,Hold,-86.000000,2.000000,Suck,-1785.000000,1818.181818,Speed,-1747.500000,1818.181818,Speed,Off,On,0.000000,FALSE,0,,,,,0.000000,0.000000
10:42:42.645 AM 04/09/2016,Teleop Enabled,10,FALSE,0,NO ERROR,0.267717,1.873662,-0.267717,1.976329,TRUE,FALSE,FALSE,FALSE,FALSE,FALSE,Disabled,0.000000,0.000000,0.000000,TRUE,-0.041504,-0.006683,0.000000,0.014175,-0.025696,0.000000,-0.004000,-0.069000,0.007000,-0.320000,0.270000,2.580000,-0.033809,Hold,0.939941,0.000000,Hold,-86.000000,2.000000,Suck,-1792.500000,1818.181818,Speed,-1755.000000,1818.181818,Speed,Off,On,0.000000,FALSE,0,,,,,0.000000,0.000000
10:42:42.748 AM 04/09/2016,Teleop Enabled,7,FALSE,0,NO ERROR,0.307087,2.014829,-0.307087,2.540994,TRUE,FALSE,FALSE,FALSE,FALSE,FALSE,Disabled,0.000000,0.000000,0.000000,TRUE,-0.041504,-0.006683,0.000000,0.014175,-0.025696,0.000000,-0.004000,-0.069000,0.007000,-0.320000,0.320000,2.600000,-0.088570,Hold,0.939941,0.000000,Hold,-86.000000,2.000000,Suck,-1785.000000,1818.181818,Speed,-1747.500000,1818.181818,Speed,Off,On,0.000000,FALSE,0,,,,,0.000000,0.000000
10:42:42.851 AM 04/09/2016,Teleop Enabled,11,FALSE,0,NO ERROR,0.480315,3.131326,-0.480315,3.644658,TRUE,FALSE,FALSE,FALSE,FALSE,FALSE,Disabled,0.000000,0.000000,0.000000,TRUE,-0.049484,-0.007248,0.000000,-0.220718,0.014069,0.000000,-0.111000,0.020000,0.114000,-0.900000,-2.110000,2.750000,-0.642688,Hold,0.939941,0.000000,Hold,-86.000000,2.000000,Suck,-1777.500000,1818.181818,Speed,-1747.500000,1818.181818,Speed,Off,On,0.000000,FALSE,0,,,,,0.000000,0.000000
10:42:42.951 AM 04/09/2016,Teleop Enabled,10,FALSE,0,NO ERROR,0.488189,5.210321,-0.488189,5.768570,TRUE,FALSE,FALSE,FALSE,FALSE,FALSE,Disabled,0.000000,0.000000,0.000000,TRUE,-0.070236,-0.006500,0.000000,-0.514740,0.018631,0.000000,-0.359000,-0.061000,-0.177000,-0.900000,-2.110000,2.750000,-0.610359,Hold,0.939941,0.000000,Hold,-87.000000,2.000000,Suck,-1770.000000,1818.181818,Speed,-1740.000000,1818.181818,Speed,Off,On,0.000000,FALSE,0,,,,,0.000000,0.000000
10:42:43.055 AM 04/09/2016,Teleop Enabled,10,FALSE,0,NO ERROR,0.488189,8.123481,-0.488189,8.675313,TRUE,FALSE,FALSE,FALSE,FALSE,FALSE,Disabled,0.000000,0.000000,0.000000,TRUE,-0.099869,-0.006653,0.000000,-0.628876,-0.006607,0.000000,-0.137000,-0.015000,-0.100000,-0.800000,-2.610000,2.720000,-0.613794,Hold,0.939941,0.000000,Hold,-87.000000,2.000000,Suck,-1762.500000,1818.181818,Speed,-1732.500000,1818.181818,Speed,Off,On,0.000000,FALSE,0,,,,,0.000000,0.000000
10:42:43.153 AM 04/09/2016,Teleop Enabled,10,FALSE,0,NO ERROR,-0.000000,11.229140,-0.000000,11.877222,TRUE,FALSE,FALSE,FALSE,FALSE,FALSE,Disabled,0.000000,0.000000,0.000000,TRUE,-0.099869,-0.006653,0.000000,-0.628876,-0.006607,0.000000,0.207000,-0.025000,-0.048000,-0.780000,-2.420000,2.690000,-0.627389,Hold,0.939941,0.000000,Hold,-87.000000,2.000000,Suck,-1770.000000,1818.181818,Speed,-1732.500000,1818.181818,Speed,Off,On,0.000000,FALSE,0,,,,,0.000000,0.000000
10:42:43.254 AM 04/09/2016,Teleop Enabled,10,FALSE,0,NO ERROR,-0.000000,12.769137,-0.000000,13.109219,TRUE,FALSE,FALSE,FALSE,FALSE,FALSE,Disabled,0.000000,0.000000,0.000000,TRUE,-0.117249,-0.007187,0.000000,0.064087,0.001892,0.000000,0.104000,-0.058000,0.090000,-0.920000,0.640000,2.450000,-1.001289,Hold,0.939941,0.000000,Hold,-87.000000,2.000000,Suck,-1785.000000,1818.181818,Speed,-1747.500000,1818.181818,Speed,Off,On,0.000000,FALSE,0,,,,,0.000000,0.000000
10:42:43.353 AM 04/09/2016,Teleop Enabled,9,FALSE,0,NO ERROR,-0.000000,13.840718,-0.000000,14.103800,TRUE,FALSE,FALSE,FALSE,FALSE,FALSE,Disabled,0.000000,0.000000,0.000000,TRUE,-0.074020,-0.006165,0.000000,0.664749,0.007996,0.000000,0.282000,0.095000,0.226000,-0.920000,0.640000,2.450000,-0.889357,Hold,0.939941,0.000000,Hold,-87.000000,2.000000,Suck,-1785.000000,1818.181818,Speed,-1755.000000,1818.181818,Speed,Off,On,0.000000,FALSE,0,,,,,0.000000,0.000000
10:42:43.455 AM 04/09/2016,Teleop Enabled,10,FALSE,0,NO ERROR,-0.000000,14.341216,-0.000000,14.585049,TRUE,FALSE,FALSE,FALSE,FALSE,FALSE,Disabled,0.000000,0.000000,0.000000,TRUE,-0.034668,-0.006287,0.000000,0.863739,-0.015015,0.000000,0.124000,0.064000,0.225000,-0.650000,1.920000,2.560000,-0.832173,Hold,0.939941,0.000000,Hold,-87.000000,2.000000,Suck,-1785.000000,1818.181818,Speed,-1755.000000,1818.181818,Speed,Off,On,0.000000,FALSE,0,,,,,0.000000,0.000000
10:42:43.555 AM 04/09/2016,Teleop Enabled,11,FALSE,0,NO ERROR,-0.000000,14.302717,-0.000000,14.527299,TRUE,FALSE,FALSE,FALSE,FALSE,FALSE,Disabled,0.000000,0.000000,0.000000,TRUE,0.008652,-0.007187,0.000000,0.820312,-0.001068,0.000000,0.021000,-0.002000,-0.384000,-0.570000,1.070000,2.670000,-1.080268,Hold,0.939941,0.000000,Hold,-87.000000,2.000000,Suck,-1785.000000,1818.181818,Speed,-1747.500000,1818.181818,Speed,Off,On,0.000000,FALSE,0,,,,,0.000000,0.000000
10:42:43.656 AM 04/09/2016,Teleop Enabled,9,FALSE,0,NO ERROR,-0.000000,14.386133,-0.000000,14.636382,TRUE,FALSE,FALSE,FALSE,FALSE,FALSE,Disabled,0.000000,0.000000,0.000000,TRUE,0.008652,-0.007187,0.000000,0.820312,-0.001068,0.000000,0.076000,0.039000,-0.022000,-0.590000,1.350000,2.710000,-1.223172,Hold,0.939941,0.000000,Hold,-87.000000,2.000000,Suck,-1785.000000,1818.181818,Speed,-1755.000000,1818.181818,Speed,Off,On,0.000000,FALSE,0,,,,,0.000000,0.000000
10:42:43.757 AM 04/09/2016,Teleop Enabled,11,FALSE,0,NO ERROR,-0.000000,14.386133,-0.000000,14.642799,TRUE,FALSE,FALSE,FALSE,FALSE,FALSE,Disabled,0.000000,0.000000,0.000000,TRUE,0.057999,-0.006729,0.000000,0.837601,0.010345,0.000000,-0.086000,-0.127000,-0.130000,-0.600000,1.190000,2.730000,-1.426173,Hold,0.939941,0.000000,Hold,-87.000000,2.000000,Suck,-1785.000000,1818.181818,Speed,-1755.000000,1818.181818,Speed,Off,On,0.000000,FALSE,0,,,,,0.000000,0.000000
10:42:43.859 AM 04/09/2016,Teleop Enabled,12,FALSE,0,NO ERROR,-0.000000,14.386133,-0.000000,14.629966,TRUE,FALSE,FALSE,FALSE,FALSE,FALSE,Disabled,0.000000,0.000000,0.000000,TRUE,0.099167,-0.007355,0.000000,0.818359,0.003723,0.000000,0.117000,0.039000,0.091000,-0.630000,1.140000,2.680000,-1.496731,Hold,0.939941,0.000000,Hold,-87.000000,2.000000,Suck,-1785.000000,1818.181818,Speed,-1755.000000,1818.181818,Speed,Off,On,0.000000,FALSE,0,,,,,0.000000,0.000000
10:42:43.960 AM 04/09/2016,Teleop Enabled,11,FALSE,0,NO ERROR,-0.000000,14.386133,-0.000000,14.629966,TRUE,FALSE,FALSE,FALSE,FALSE,FALSE,Disabled,0.000000,0.000000,0.000000,TRUE,0.141327,-0.006180,0.000000,0.834778,0.029495,0.000000,-0.207000,0.113000,0.099000,-0.550000,1.120000,2.590000,-1.496731,Hold,0.939941,0.000000,Hold,-87.000000,2.000000,Suck,-1785.000000,1818.181818,Speed,-1755.000000,1818.181818,Speed,Off,On,0.000000,FALSE,0,,,,,0.000000,0.000000
10:42:44.061 AM 04/09/2016,Teleop Enabled,9,FALSE,0,NO ERROR,-0.000000,14.386133,-0.000000,14.629966,TRUE,FALSE,FALSE,FALSE,FALSE,FALSE,Disabled,0.000000,0.000000,0.000000,TRUE,0.181213,-0.004181,0.000000,0.793503,0.025803,0.000000,-0.077000,0.019000,0.002000,-0.590000,0.920000,2.630000,-1.700125,Hold,0.939941,0.000000,Hold,-87.000000,2.000000,Suck,-1792.500000,1818.181818,Speed,-1755.000000,1818.181818,Speed,Off,On,0.000000,FALSE,0,,,,,0.000000,0.000000
10:42:44.162 AM 04/09/2016,Teleop Enabled,9,FALSE,0,NO ERROR,-0.000000,14.386133,-0.000000,14.629966,TRUE,FALSE,FALSE,FALSE,FALSE,FALSE,Disabled,0.000000,0.000000,0.000000,TRUE,0.220657,-0.004318,0.000000,0.785736,-0.014297,0.000000,-0.058000,0.065000,-0.028000,-0.560000,0.860000,2.600000,-1.847383,Hold,0.939941,0.000000,Hold,-88.000000,2.000000,Suck,-1785.000000,1818.181818,Speed,-1755.000000,1818.181818,Speed,Off,On,0.000000,FALSE,0,,,,,0.000000,0.000000
10:42:44.265 AM 04/09/2016,Teleop Enabled,11,FALSE,0,NO ERROR,-0.000000,14.386133,-0.000000,14.649216,TRUE,FALSE,FALSE,FALSE,FALSE,FALSE,Disabled,0.000000,0.000000,0.000000,TRUE,0.258850,-0.004089,0.000000,0.748611,-0.001038,0.000000,-0.013000,-0.033000,0.016000,-0.580000,0.930000,2.660000,-2.012454,Hold,0.939941,0.000000,Hold,-88.000000,2.000000,Suck,-1785.000000,1818.181818,Speed,-1755.000000,1818.181818,Speed,Off,On,0.000000,FALSE,0,,,,,0.000000,0.000000
10:42:44.364 AM 04/09/2016,Teleop Enabled,10,FALSE,0,NO ERROR,-0.000000,14.386133,-0.000000,14.649216,TRUE,FALSE,FALSE,FALSE,FALSE,FALSE,Disabled,0.000000,0.000000,0.000000,TRUE,0.295990,-0.004593,0.000000,0.752716,0.000000,0.000000,-0.014000,0.055000,-0.048000,-0.570000,0.820000,2.660000,-2.207902,Hold,0.939941,0.000000,Hold,-88.000000,2.000000,Suck,-1785.000000,1818.181818,Speed,-1755.000000,1818.181818,Speed,Off,On,0.000000,FALSE,0,,,,,0.000000,0.000000
10:42:44.464 AM 04/09/2016,Teleop Enabled,10,FALSE,0,NO ERROR,-0.000000,14.386133,-0.000000,14.649216,TRUE,FALSE,FALSE,FALSE,FALSE,FALSE,Disabled,0.000000,0.000000,0.000000,TRUE,0.334122,-0.003464,0.000000,0.759979,0.038620,0.000000,0.097000,0.007000,-0.029000,-0.580000,0.770000,2.660000,-2.372401,Hold,0.939941,0.000000,Hold,-88.000000,2.000000,Suck,-1785.000000,1818.181818,Speed,-1755.000000,1818.181818,Speed,Off,On,0.000000,FALSE,0,,,,,0.000000,0.000000
10:42:44.565 AM 04/09/2016,Teleop Enabled,10,FALSE,0,NO ERROR,-0.000000,14.386133,-0.000000,14.649216,TRUE,FALSE,FALSE,FALSE,FALSE,FALSE,Disabled,0.000000,0.000000,0.000000,TRUE,0.349213,-0.001465,0.000000,0.005157,0.030731,0.000000,0.188000,0.010000,-0.045000,-0.570000,0.720000,2.630000,-2.532246,Hold,0.939941,0.000000,Hold,-88.000000,2.000000,Suck,-1785.000000,1818.181818,Speed,-1755.000000,1818.181818,Speed,Off,On,0.000000,FALSE,0,,,,,0.000000,0.000000
10:42:44.666 AM 04/09/2016,Teleop Enabled,10,FALSE,0,NO ERROR,-0.000000,14.386133,-0.000000,14.649216,TRUE,FALSE,FALSE,FALSE,FALSE,FALSE,Disabled,0.000000,0.000000,0.000000,TRUE,0.350220,0.000076,0.000000,0.010696,0.036758,0.000000,0.111000,0.020000,0.023000,-0.570000,0.730000,2.610000,-2.701964,Hold,0.939941,0.000000,Hold,-88.000000,2.000000,Suck,-1785.000000,1818.181818,Speed,-1762.500000,1818.181818,Speed,Off,On,0.000000,FALSE,0,,,,,0.000000,0.000000
10:42:44.767 AM 04/09/2016,Teleop Enabled,11,FALSE,0,NO ERROR,-0.000000,14.386133,-0.000000,14.649216,TRUE,FALSE,FALSE,FALSE,FALSE,FALSE,Disabled,0.000000,0.000000,0.000000,TRUE,0.350891,0.001175,0.000000,0.008026,0.000931,0.000000,-0.048000,0.049000,-0.018000,-0.580000,0.710000,2.630000,-2.882313,Hold,0.939941,0.000000,Hold,-88.000000,2.000000,Suck,-1785.000000,1818.181818,Speed,-1755.000000,1818.181818,Speed,Off,On,0.000000,FALSE,0,,,,,0.000000,0.000000
10:42:44.868 AM 04/09/2016,Teleop Enabled,10,FALSE,0,NO ERROR,-0.000000,14.386133,-0.000000,14.649216,TRUE,FALSE,FALSE,FALSE,FALSE,FALSE,Disabled,0.000000,0.000000,0.000000,TRUE,0.351074,0.000473,0.000000,0.007874,-0.025208,0.000000,-0.054000,-0.054000,-0.002000,-0.580000,0.710000,2.670000,-3.037004,Hold,0.939941,0.000000,Hold,-88.000000,2.000000,Suck,-1785.000000,1818.181818,Speed,-1755.000000,1818.181818,Speed,Off,On,0.000000,FALSE,0,,,,,0.000000,0.000000
10:42:44.969 AM 04/09/2016,Teleop Enabled,10,FALSE,0,NO ERROR,-0.000000,14.386133,-0.000000,14.649216,TRUE,FALSE,FALSE,FALSE,FALSE,FALSE,Disabled,0.000000,0.000000,0.000000,TRUE,0.351395,-0.001358,0.000000,-0.009689,-0.025391,0.000000,0.125000,0.047000,0.088000,-0.580000,0.680000,2.660000,-3.183302,Hold,0.939941,0.000000,Hold,-88.000000,2.000000,Suck,-1792.500000,1818.181818,Speed,-1762.500000,1818.181818,Speed,Off,On,0.000000,FALSE,0,,,,,0.000000,0.000000
10:42:45.072 AM 04/09/2016,Teleop Enabled,10,FALSE,0,NO ERROR,-0.000000,14.386133,-0.000000,14.649216,TRUE,FALSE,FALSE,FALSE,FALSE,FALSE,Disabled,0.000000,0.000000,0.000000,TRUE,0.350266,-0.001755,0.000000,-0.029602,-0.022324,0.000000,-0.065000,-0.113000,-0.042000,-0.580000,0.640000,2.620000,-3.380186,Hold,0.939941,0.000000,Hold,-88.000000,2.000000,Suck,-1785.000000,1818.181818,Speed,-1755.000000,1818.181818,Speed,Off,On,0.000000,FALSE,0,,,,,0.000000,0.000000
10:42:45.172 AM 04/09/2016,Teleop Enabled,9,FALSE,0,NO ERROR,-0.000000,14.386133,-0.000000,14.649216,TRUE,FALSE,FALSE,FALSE,FALSE,FALSE,Disabled,0.000000,0.000000,0.000000,TRUE,0.348831,-0.004807,0.000000,-0.001450,-0.045547,0.000000,0.051000,0.093000,0.119000,-0.580000,0.620000,2.650000,-3.543277,Hold,0.939941,0.000000,Hold,-88.000000,2.000000,Suck,-1785.000000,1818.181818,Speed,-1762.500000,1818.181818,Speed,Off,On,0.000000,FALSE,0,,,,,0.000000,0.000000
10:42:45.272 AM 04/09/2016,Teleop Enabled,11,FALSE,0,NO ERROR,-0.000000,14.386133,-0.000000,14.649216,TRUE,FALSE,FALSE,FALSE,FALSE,FALSE,Disabled,0.000000,0.000000,0.000000,TRUE,0.348755,-0.005402,0.000000,-0.002640,-0.021927,0.000000,-0.054000,0.013000,-0.092000,-0.580000,0.600000,2.600000,-3.702554,Hold,0.939941,0.000000,Hold,-88.000000,2.000000,Suck,-1785.000000,1818.181818,Speed,-1762.500000,1818.181818,Speed,Off,On,0.000000,FALSE,0,,,,,0.000000,0.000000
10:42:45.373 AM 04/09/2016,Teleop Enabled,11,FALSE,0,NO ERROR,-0.000000,14.386133,-0.000000,14.649216,TRUE,FALSE,FALSE,FALSE,FALSE,FALSE,Disabled,0.000000,0.000000,0.000000,TRUE,0.348755,-0.006668,0.000000,0.007568,-0.026535,0.000000,-0.017000,0.039000,0.060000,-0.580000,0.660000,2.670000,-3.857104,Hold,0.939941,0.000000,Hold,-88.000000,2.000000,Suck,-1792.500000,1818.181818,Speed,-1755.000000,1818.181818,Speed,Off,On,0.000000,FALSE,0,,,,,0.000000,0.000000
10:42:45.475 AM 04/09/2016,Teleop Enabled,10,FALSE,0,NO ERROR,-0.000000,14.386133,-0.000000,14.649216,TRUE,FALSE,FALSE,FALSE,FALSE,FALSE,Disabled,0.000000,0.000000,0.000000,TRUE,0.349167,-0.008026,0.000000,0.013550,-0.028366,0.000000,0.023000,0.023000,0.017000,-0.580000,0.610000,2.610000,-4.015982,Hold,0.939941,0.000000,Hold,-88.000000,2.000000,Suck,-1785.000000,1818.181818,Speed,-1755.000000,1818.181818,Speed,Off,On,0.000000,FALSE,0,,,,,0.000000,0.000000
10:42:45.575 AM 04/09/2016,Teleop Enabled,10,FALSE,0,NO ERROR,-0.000000,14.386133,-0.000000,14.649216,TRUE,FALSE,FALSE,FALSE,FALSE,FALSE,Disabled,0.000000,0.000000,0.000000,TRUE,0.348648,-0.008591,0.000000,-0.024734,-0.011353,0.000000,-0.109000,-0.068000,-0.069000,-0.580000,0.640000,2.680000,-4.189927,Hold,0.939941,0.000000,Hold,-88.000000,2.000000,Suck,-1785.000000,1818.181818,Speed,-1762.500000,1818.181818,Speed,Off,On,0.000000,FALSE,0,,,,,0.000000,0.000000
10:42:45.675 AM 04/09/2016,Teleop Enabled,10,FALSE,0,NO ERROR,-0.000000,14.386133,-0.000000,14.649216,TRUE,FALSE,FALSE,FALSE,FALSE,FALSE,Disabled,0.000000,0.000000,0.000000,TRUE,0.348053,-0.010452,0.000000,0.003265,-0.057556,0.000000,0.167000,-0.010000,-0.035000,-0.580000,0.540000,2.620000,-4.342298,Hold,0.939941,0.000000,Hold,-88.000000,2.000000,Suck,-1792.500000,1818.181818,Speed,-1762.500000,1818.181818,Speed,Off,On,0.000000,FALSE,0,,,,,0.000000,0.000000
10:42:45.775 AM 04/09/2016,Teleop Enabled,10,FALSE,0,NO ERROR,-0.000000,14.386133,-0.000000,14.649216,TRUE,FALSE,FALSE,FALSE,FALSE,FALSE,Disabled,0.000000,0.000000,0.000000,TRUE,0.347778,-0.011673,0.000000,-0.019547,-0.005859,0.000000,-0.003000,-0.073000,-0.028000,-0.580000,0.560000,2.620000,-4.499850,Hold,0.939941,0.000000,Hold,-88.000000,2.000000,Suck,-1785.000000,1818.181818,Speed,-1755.000000,1818.181818,Speed,Off,On,0.000000,FALSE,0,,,,,0.000000,0.000000
10:42:45.876 AM 04/09/2016,Teleop Enabled,9,FALSE,0,NO ERROR,-0.000000,14.386133,-0.000000,14.649216,TRUE,FALSE,FALSE,FALSE,FALSE,FALSE,Disabled,0.000000,0.000000,0.000000,TRUE,0.347061,-0.013596,0.000000,0.022400,-0.051590,0.000000,-0.121000,0.037000,0.006000,-0.580000,0.550000,2.620000,-4.649605,Hold,0.939941,0.000000,Hold,-88.000000,2.000000,Suck,-1785.000000,1818.181818,Speed,-1762.500000,1818.181818,Speed,Off,On,0.000000,FALSE,0,,,,,0.000000,0.000000
10:42:45.977 AM 04/09/2016,Teleop Enabled,11,FALSE,0,NO ERROR,-0.000000,14.386133,-0.000000,14.649216,TRUE,FALSE,FALSE,FALSE,FALSE,FALSE,Disabled,0.000000,0.000000,0.000000,TRUE,0.348038,-0.015564,0.000000,0.015335,-0.028793,0.000000,-0.208000,0.075000,0.022000,-0.580000,0.550000,2.640000,-4.817946,Hold,0.939941,0.000000,Hold,-88.000000,2.000000,Suck,-1785.000000,1818.181818,Speed,-1755.000000,1818.181818,Speed,Off,On,0.000000,FALSE,0,,,,,0.000000,0.000000
10:42:46.077 AM 04/09/2016,Teleop Enabled,10,FALSE,0,NO ERROR,-0.000000,14.386133,-0.000000,14.649216,TRUE,FALSE,FALSE,FALSE,FALSE,FALSE,Disabled,0.000000,0.000000,0.000000,TRUE,0.347992,-0.016037,0.000000,-0.020523,-0.002304,0.000000,0.177000,-0.001000,-0.017000,-0.570000,0.550000,2.630000,-4.971674,Hold,0.939941,0.000000,Hold,-88.000000,2.000000,Suck,-1785.000000,1818.181818,Speed,-1755.000000,1818.181818,Speed,Off,On,0.000000,FALSE,0,,,,,0.000000,0.000000
10:42:46.177 AM 04/09/2016,Teleop Enabled,10,FALSE,0,NO ERROR,-0.000000,14.386133,-0.000000,14.649216,TRUE,FALSE,FALSE,FALSE,FALSE,FALSE,Disabled,0.000000,0.000000,0.000000,TRUE,0.347382,-0.016495,0.000000,-0.013412,-0.016403,0.000000,-0.019000,-0.044000,0.010000,-0.570000,0.490000,2.640000,-5.160288,Hold,0.939941,0.000000,Hold,-88.000000,2.000000,Suck,-1785.000000,1818.181818,Speed,-1762.500000,1818.181818,Speed,Off,On,0.000000,FALSE,0,,,,,0.000000,0.000000
10:42:46.277 AM 04/09/2016,Teleop Enabled,12,FALSE,0,NO ERROR,-0.000000,14.386133,-0.000000,14.649216,TRUE,FALSE,FALSE,FALSE,FALSE,FALSE,Disabled,0.000000,0.000000,0.000000,TRUE,0.345657,-0.017227,0.000000,-0.037476,-0.001556,0.000000,-0.020000,0.075000,0.020000,-0.580000,0.470000,2.580000,-5.325469,Hold,0.939941,0.000000,Hold,-88.000000,2.000000,Suck,-1792.500000,1818.181818,Speed,-1755.000000,1818.181818,Speed,Off,On,0.000000,FALSE,0,,,,,0.000000,0.000000
10:42:46.378 AM 04/09/2016,Teleop Enabled,9,FALSE,0,NO ERROR,-0.000000,14.386133,-0.000000,14.649216,TRUE,FALSE,FALSE,FALSE,FALSE,FALSE,Disabled,0.000000,0.000000,0.000000,TRUE,0.344650,-0.017242,0.000000,-0.036331,-0.006866,0.000000,0.009000,-0.016000,0.025000,-0.580000,0.470000,2.630000,-5.469660,Hold,0.939941,0.000000,Hold,-88.000000,2.000000,Suck,-1785.000000,1818.181818,Speed,-1755.000000,1818.181818,Speed,Off,On,0.000000,FALSE,0,,,,,0.000000,0.000000
10:42:46.479 AM 04/09/2016,Teleop Enabled,9,FALSE,0,NO ERROR,-0.000000,14.386133,-0.000000,14.649216,TRUE,FALSE,FALSE,FALSE,FALSE,FALSE,Disabled,0.000000,0.000000,0.000000,TRUE,0.342987,-0.017151,0.000000,-0.017502,0.017899,0.000000,-0.084000,0.123000,0.071000,-0.570000,0.470000,2.640000,-5.617931,Hold,0.939941,0.000000,Hold,-88.000000,2.000000,Suck,-1785.000000,1818.181818,Speed,-1762.500000,1818.181818,Speed,Off,On,0.000000,FALSE,0,,,,,0.000000,0.000000
10:42:46.580 AM 04/09/2016,Teleop Enabled,10,FALSE,0,NO ERROR,-0.000000,14.386133,-0.000000,14.649216,TRUE,FALSE,FALSE,FALSE,FALSE,FALSE,Disabled,0.000000,0.000000,0.000000,TRUE,0.342148,-0.014511,0.000000,-0.025253,0.049896,0.000000,-0.092000,-0.029000,-0.059000,-0.580000,0.480000,2.660000,-5.770130,Hold,0.939941,0.000000,Hold,-88.000000,2.000000,Suck,-1785.000000,1818.181818,Speed,-1755.000000,1818.181818,Speed,Off,On,0.000000,FALSE,0,,,,,0.000000,0.000000
10:42:46.681 AM 04/09/2016,Teleop Enabled,7,FALSE,0,NO ERROR,-0.000000,14.386133,-0.000000,14.649216,TRUE,FALSE,FALSE,FALSE,FALSE,FALSE,Disabled,0.000000,0.000000,0.000000,TRUE,0.340866,-0.013062,0.000000,-0.010391,0.010513,0.000000,-0.045000,0.015000,0.059000,-0.580000,0.480000,2.610000,-5.919551,Hold,0.939941,0.000000,Hold,-88.000000,2.000000,Suck,-1792.500000,1818.181818,Speed,-1762.500000,1818.181818,Speed,Off,On,0.000000,FALSE,0,,,,,0.000000,0.000000
10:42:46.782 AM 04/09/2016,Teleop Enabled,10,FALSE,0,NO ERROR,-0.000000,14.386133,-0.000000,14.649216,TRUE,FALSE,FALSE,FALSE,FALSE,FALSE,Disabled,0.000000,0.000000,0.000000,TRUE,0.339737,-0.012405,0.000000,-0.028870,0.018692,0.000000,0.056000,-0.036000,-0.062000,-0.580000,0.430000,2.560000,-6.096788,Hold,0.939941,0.000000,Hold,-88.000000,2.000000,Suck,-1792.500000,1818.181818,Speed,-1762.500000,1818.181818,Speed,Off,On,0.000000,FALSE,0,,,,,0.000000,0.000000
10:42:46.881 AM 04/09/2016,Teleop Enabled,9,FALSE,0,NO ERROR,-0.000000,14.386133,-0.000000,14.649216,TRUE,FALSE,FALSE,FALSE,FALSE,FALSE,Disabled,0.000000,0.000000,0.000000,TRUE,0.338394,-0.012146,0.000000,0.000000,0.000000,0.000000,-0.001000,-0.014000,-0.008000,-0.570000,0.450000,2.590000,-6.256206,Hold,0.939941,0.000000,Hold,-88.000000,2.000000,Suck,-1785.000000,1818.181818,Speed,-1755.000000,1818.181818,Speed,Off,On,0.000000,FALSE,0,,,,,0.000000,0.000000
10:42:46.983 AM 04/09/2016,Teleop Enabled,11,FALSE,0,NO ERROR,-0.000000,14.386133,-0.000000,14.649216,TRUE,FALSE,FALSE,FALSE,FALSE,FALSE,Disabled,0.000000,0.000000,0.000000,TRUE,0.339508,-0.012436,0.000000,0.030563,-0.011292,0.000000,-0.187000,0.068000,-0.095000,-0.570000,0.430000,2.590000,-6.395998,Hold,0.939941,0.000000,Hold,-88.000000,2.000000,Suck,-1792.500000,1818.181818,Speed,-1762.500000,1818.181818,Speed,Off,On,0.000000,FALSE,0,,,,,0.000000,0.000000
10:42:47.082 AM 04/09/2016,Teleop Enabled,10,FALSE,0,NO ERROR,-0.000000,14.386133,-0.000000,14.649216,TRUE,FALSE,FALSE,FALSE,FALSE,FALSE,Disabled,0.000000,0.000000,0.000000,TRUE,0.340454,-0.011414,0.000000,0.022003,0.046829,0.000000,-0.060000,0.108000,0.014000,-0.580000,0.480000,2.650000,-6.538492,Hold,0.939941,0.000000,Hold,-88.000000,2.000000,Suck,-1792.500000,1818.181818,Speed,-1762.500000,1818.181818,Speed,Off,On,0.000000,FALSE,0,,,,,0.000000,0.000000
10:42:47.183 AM 04/09/2016,Teleop Enabled,9,FALSE,0,NO ERROR,-0.000000,14.386133,-0.000000,14.649216,TRUE,FALSE,FALSE,FALSE,FALSE,FALSE,Disabled,0.000000,0.000000,0.000000,TRUE,0.341370,-0.009644,0.000000,0.028931,0.016190,0.000000,0.159000,-0.043000,-0.040000,-0.580000,0.410000,2.590000,-6.675571,Hold,0.939941,50.000000,Hold,-88.000000,2.000000,Suck,-1785.000000,1818.181818,Speed,-1762.500000,1818.181818,Speed,Off,On,0.000000,FALSE,0,,,,,0.000000,0.000000
10:42:47.285 AM 04/09/2016,Teleop Enabled,10,FALSE,0,NO ERROR,-0.000000,14.386133,-0.000000,14.649216,TRUE,FALSE,FALSE,FALSE,FALSE,FALSE,Disabled,0.000000,0.000000,0.000000,TRUE,0.342529,-0.008469,0.000000,-0.004425,0.037338,0.000000,-0.087000,0.067000,0.085000,-0.570000,0.500000,2.600000,-6.826180,Hold,3.698730,50.000000,Hold,-88.000000,143360.000000,Suck,-1785.000000,1818.181818,Speed,-1762.500000,1818.181818,Speed,Off,On,0.000000,FALSE,0,,,,,0.000000,0.000000
10:42:47.386 AM 04/09/2016,Teleop Enabled,10,FALSE,0,NO ERROR,-0.000000,14.392550,-0.000000,14.649216,TRUE,FALSE,FALSE,FALSE,FALSE,FALSE,Disabled,0.000000,0.000000,0.000000,TRUE,0.342438,-0.008072,0.000000,0.001572,-0.001633,0.000000,0.116000,0.049000,0.086000,-0.560000,0.470000,2.670000,-6.990551,Hold,7.598389,50.000000,Hold,-363.000000,143360.000000,Suck,-1785.000000,1818.181818,Speed,-1755.000000,1818.181818,Speed,Off,On,0.000000,FALSE,0,,,,,0.000000,0.000000
10:42:47.485 AM 04/09/2016,Teleop Enabled,9,FALSE,0,NO ERROR,-0.000000,14.386133,-0.000000,14.649216,TRUE,FALSE,FALSE,FALSE,FALSE,FALSE,Disabled,0.000000,0.000000,0.000000,TRUE,0.342590,-0.008423,0.000000,-0.005875,0.000381,0.000000,0.092000,-0.070000,0.038000,-0.580000,0.410000,2.590000,-7.164710,Hold,12.804199,50.000000,Hold,-14412.000000,143360.000000,Suck,-1785.000000,1818.181818,Speed,-1762.500000,1818.181818,Speed,Off,On,0.000000,FALSE,0,,,,,0.000000,0.000000
10:42:47.585 AM 04/09/2016,Teleop Enabled,10,FALSE,0,NO ERROR,-0.000000,14.392550,-0.000000,14.668466,TRUE,FALSE,FALSE,FALSE,FALSE,FALSE,Disabled,0.000000,0.000000,0.000000,TRUE,0.341568,-0.008835,0.000000,-0.003860,-0.012100,0.000000,0.060000,-0.035000,0.026000,-0.590000,0.760000,2.570000,-7.296760,Hold,17.633789,50.000000,Hold,-28750.000000,143360.000000,Suck,-1785.000000,1818.181818,Speed,-1770.000000,1818.181818,Speed,Off,On,0.000000,FALSE,0,,,,,0.000000,0.000000
10:42:47.685 AM 04/09/2016,Teleop Enabled,11,FALSE,0,NO ERROR,-0.000000,14.392550,-0.000000,14.662049,TRUE,FALSE,FALSE,FALSE,FALSE,FALSE,Disabled,0.000000,0.000000,0.000000,TRUE,0.342514,-0.009811,0.000000,0.020432,-0.038803,0.000000,-0.054000,-0.046000,-0.027000,-0.580000,0.390000,2.610000,-7.449902,Hold,24.171143,50.000000,Hold,-42454.000000,143360.000000,Suck,-1792.500000,1818.181818,Speed,-1762.500000,1818.181818,Speed,Off,On,0.000000,FALSE,0,,,,,0.000000,0.000000
10:42:47.786 AM 04/09/2016,Teleop Enabled,10,FALSE,0,NO ERROR,-0.000000,14.392550,-0.000000,14.662049,TRUE,FALSE,FALSE,FALSE,FALSE,FALSE,Disabled,0.000000,0.000000,0.000000,TRUE,0.342712,-0.010895,0.000000,0.002304,-0.020172,0.000000,-0.054000,-0.046000,-0.027000,-0.600000,0.270000,2.600000,-7.709812,Hold,32.014648,50.000000,Hold,-58531.000000,143360.000000,Suck,-1785.000000,1818.181818,Speed,-1762.500000,1818.181818,Speed,Off,On,0.000000,FALSE,0,,,,,0.000000,0.000000
10:42:47.886 AM 04/09/2016,Teleop Enabled,12,FALSE,0,NO ERROR,-0.000000,14.373300,-0.000000,14.591466,TRUE,FALSE,FALSE,FALSE,FALSE,FALSE,Disabled,0.000000,0.000000,0.000000,TRUE,0.344254,-0.012085,0.000000,0.042313,0.000000,0.000000,0.013000,-0.014000,0.071000,-0.640000,0.280000,2.550000,-8.039647,Hold,41.846436,50.000000,Hold,-58531.000000,143360.000000,Suck,-1785.000000,1818.181818,Speed,-1762.500000,1818.181818,Speed,Off,On,0.000000,FALSE,0,,,,,0.000000,0.000000
10:42:47.987 AM 04/09/2016,Teleop Enabled,9,FALSE,0,NO ERROR,-0.000000,14.251383,-0.000000,14.482383,TRUE,FALSE,FALSE,FALSE,FALSE,FALSE,Disabled,0.000000,0.000000,0.000000,TRUE,0.345398,-0.012024,0.000000,-0.015503,0.002716,0.000000,0.013000,-0.014000,0.071000,-0.640000,0.280000,2.550000,-8.260432,Hold,51.179443,50.000000,Hold,-76724.000000,143360.000000,Suck,-1785.000000,1818.181818,Speed,-1770.000000,1818.181818,Speed,Off,On,0.000000,FALSE,0,,,,,0.000000,0.000000
10:42:48.087 AM 04/09/2016,Teleop Enabled,11,FALSE,0,NO ERROR,-0.000000,14.251383,-0.000000,14.488799,TRUE,FALSE,FALSE,FALSE,FALSE,FALSE,Disabled,0.000000,0.000000,0.000000,TRUE,0.341019,-0.012238,0.000000,-0.103531,-0.016098,0.000000,-0.217000,-0.016000,-0.074000,-0.630000,-0.260000,2.610000,-8.525082,Hold,55.020508,50.000000,Hold,-96701.000000,143360.000000,Suck,-1507.500000,1818.181818,Speed,-1762.500000,1818.181818,Speed,Off,On,0.000000,FALSE,0,,,,,0.000000,0.000000
10:42:48.187 AM 04/09/2016,Teleop Enabled,10,FALSE,0,NO ERROR,-0.000000,14.244967,-0.000000,14.488799,TRUE,FALSE,FALSE,FALSE,FALSE,FALSE,Disabled,0.000000,0.000000,0.000000,TRUE,0.337280,-0.014511,0.000000,-0.077881,-0.052216,0.000000,0.143000,-0.119000,-0.069000,-0.630000,0.070000,2.510000,-8.689647,Hold,54.905029,50.000000,Hold,-116234.000000,143360.000000,Suck,-1522.500000,1818.181818,Speed,-1755.000000,1818.181818,Speed,Off,On,0.000000,FALSE,0,,,,,0.000000,0.000000
10:42:48.288 AM 04/09/2016,Teleop Enabled,10,FALSE,0,NO ERROR,-0.000000,14.257800,-0.000000,14.572216,TRUE,FALSE,FALSE,FALSE,FALSE,FALSE,Disabled,0.000000,0.000000,0.000000,TRUE,0.334396,-0.016724,0.000000,0.004227,-0.042206,0.000000,0.001000,0.088000,0.172000,-0.630000,0.070000,2.510000,-8.756677,Hold,54.736816,50.000000,Hold,-136731.000000,143360.000000,Suck,-1852.500000,1818.181818,Speed,-1747.500000,1818.181818,Speed,Off,On,0.000000,FALSE,0,,,,,0.000000,0.000000
10:42:48.387 AM 04/09/2016,Teleop Enabled,11,FALSE,0,NO ERROR,-0.000000,14.283467,-0.000000,14.591466,TRUE,FALSE,FALSE,FALSE,FALSE,FALSE,Disabled,0.000000,0.000000,0.000000,TRUE,0.335312,-0.022537,0.000000,0.004852,-0.119278,0.000000,0.106000,-0.044000,0.274000,-0.660000,0.000000,2.560000,-8.828595,Hold,54.655762,50.000000,Hold,-143187.000000,143360.000000,Suck,-1875.000000,1818.181818,Speed,-1755.000000,1818.181818,Speed,Off,On,0.000000,FALSE,0,,,,,0.000000,0.000000
10:42:48.488 AM 04/09/2016,Teleop Enabled,11,FALSE,0,NO ERROR,-0.000000,14.334800,-0.000000,14.655632,TRUE,FALSE,FALSE,FALSE,FALSE,FALSE,Disabled,0.000000,0.000000,0.000000,TRUE,0.336731,-0.027924,0.000000,0.033859,-0.090347,0.000000,0.022000,0.017000,0.137000,-0.680000,0.090000,2.540000,-8.874756,Hold,54.621338,50.000000,Hold,-143457.000000,143360.000000,Suck,-1807.500000,1818.181818,Speed,-1747.500000,1818.181818,Speed,Off,On,0.000000,FALSE,0,,,,,0.000000,0.000000
10:42:48.587 AM 04/09/2016,Teleop Enabled,10,FALSE,0,NO ERROR,-0.000000,14.334800,-0.000000,14.655632,TRUE,FALSE,FALSE,FALSE,FALSE,FALSE,Disabled,0.000000,0.000000,0.000000,TRUE,0.336731,-0.027924,0.000000,0.033859,-0.090347,0.000000,-0.070000,0.005000,-0.057000,-0.690000,-0.040000,2.530000,-8.917630,Hold,54.621338,50.000000,Hold,-143457.000000,143360.000000,Suck,-1770.000000,1818.181818,Speed,-1762.500000,1818.181818,Speed,Off,On,0.000000,FALSE,0,,,,,0.000000,0.000000
10:42:48.688 AM 04/09/2016,Teleop Enabled,11,FALSE,0,NO ERROR,-0.000000,14.354050,-0.000000,14.655632,TRUE,FALSE,FALSE,FALSE,FALSE,FALSE,Disabled,0.000000,0.000000,0.000000,TRUE,0.338623,-0.031723,0.000000,0.015503,0.007492,0.000000,-0.056000,0.075000,-0.045000,-0.700000,0.120000,2.540000,-8.971716,Hold,54.618652,50.000000,Hold,-143457.000000,143360.000000,Suck,-1777.500000,1818.181818,Speed,-1770.000000,1818.181818,Speed,Off,On,0.000000,FALSE,0,,,,,0.000000,0.000000
10:42:48.788 AM 04/09/2016,Teleop Enabled,9,FALSE,0,NO ERROR,-0.000000,14.354050,-0.000000,14.655632,TRUE,FALSE,FALSE,FALSE,FALSE,FALSE,Disabled,0.000000,0.000000,0.000000,TRUE,0.339096,-0.031372,0.000000,0.001572,0.001984,0.000000,0.089000,-0.006000,-0.060000,-0.720000,0.020000,2.550000,-9.017151,Hold,54.618652,50.000000,Hold,-143457.000000,143360.000000,Suck,-1785.000000,1818.181818,Speed,-1770.000000,1818.181818,Speed,Off,On,0.000000,FALSE,0,,,,,0.000000,0.000000
10:42:48.888 AM 04/09/2016,Teleop Enabled,11,FALSE,0,NO ERROR,-0.000000,14.354050,-0.000000,14.655632,TRUE,FALSE,FALSE,FALSE,FALSE,FALSE,Disabled,0.000000,0.000000,0.000000,TRUE,0.340637,-0.031906,0.000000,0.026245,-0.003082,0.000000,-0.046000,-0.036000,0.033000,-0.690000,0.020000,2.570000,-9.095383,Hold,54.618652,50.000000,Hold,-143457.000000,143360.000000,Suck,-1792.500000,1818.181818,Speed,-1762.500000,1818.181818,Speed,Off,On,0.000000,FALSE,0,,,,,0.000000,0.000000
10:42:48.989 AM 04/09/2016,Teleop Enabled,10,FALSE,0,NO ERROR,-0.000000,14.354050,-0.000000,14.655632,TRUE,FALSE,FALSE,FALSE,FALSE,FALSE,Disabled,0.000000,0.000000,0.000000,TRUE,0.341507,-0.031647,0.000000,0.020538,-0.000519,0.000000,0.038000,0.026000,0.004000,-0.740000,0.020000,2.540000,-9.131847,Hold,54.618652,50.000000,Hold,-143457.000000,143360.000000,Suck,-1785.000000,1818.181818,Speed,-1770.000000,1818.181818,Speed,Off,On,0.000000,FALSE,0,,,,,0.000000,0.000000
10:42:49.089 AM 04/09/2016,Teleop Enabled,12,FALSE,0,NO ERROR,-0.000000,14.354050,-0.000000,14.655632,TRUE,FALSE,FALSE,FALSE,FALSE,FALSE,Disabled,0.000000,0.000000,0.000000,TRUE,0.343475,-0.032486,0.000000,0.041000,-0.025787,0.000000,-0.033000,0.037000,-0.011000,-0.710000,0.070000,2.560000,-9.131847,Hold,54.618652,50.000000,Hold,-143457.000000,143360.000000,Suck,-1785.000000,1818.181818,Speed,-1770.000000,1818.181818,Speed,Off,On,0.000000,FALSE,0,,,,,0.000000,0.000000
10:42:49.190 AM 04/09/2016,Teleop Enabled,11,FALSE,0,NO ERROR,-0.000000,14.354050,-0.000000,14.655632,TRUE,FALSE,FALSE,FALSE,FALSE,FALSE,Disabled,0.000000,0.000000,0.000000,TRUE,0.345200,-0.033005,0.000000,0.043167,0.003876,0.000000,-0.048000,0.028000,0.059000,-0.720000,0.000000,2.550000,-9.193307,Hold,54.618652,50.000000,Hold,-143457.000000,143360.000000,Suck,-1785.000000,1818.181818,Speed,-1762.500000,1818.181818,Speed,Off,On,0.000000,FALSE,0,,,,,0.000000,0.000000
10:42:49.290 AM 04/09/2016,Teleop Enabled,14,FALSE,0,NO ERROR,-0.000000,14.354050,-0.000000,14.655632,TRUE,FALSE,FALSE,FALSE,FALSE,FALSE,Disabled,0.000000,0.000000,0.000000,TRUE,0.347595,-0.032669,0.000000,0.052948,-0.001541,0.000000,-0.023000,-0.033000,0.042000,-0.720000,0.020000,2.590000,-9.233991,Hold,54.618652,50.000000,Hold,-143457.000000,143360.000000,Suck,-1785.000000,1818.181818,Speed,-1762.500000,1818.181818,Speed,Off,On,0.000000,FALSE,0,,,,,0.000000,0.000000
10:42:49.392 AM 04/09/2016,Teleop Enabled,12,FALSE,0,NO ERROR,-0.000000,14.354050,-0.000000,14.655632,TRUE,FALSE,FALSE,FALSE,FALSE,FALSE,Disabled,0.000000,0.000000,0.000000,TRUE,0.350327,-0.032562,0.000000,0.056732,0.012436,0.000000,0.046000,-0.089000,0.056000,-0.740000,0.030000,2.540000,-9.286362,Hold,54.618652,50.000000,Hold,-143457.000000,143360.000000,Suck,-1785.000000,1818.181818,Speed,-1770.000000,1818.181818,Speed,Off,On,0.000000,FALSE,0,,,,,0.000000,0.000000
10:42:49.496 AM 04/09/2016,Teleop Enabled,12,FALSE,0,NO ERROR,-0.000000,14.354050,-0.000000,14.655632,TRUE,FALSE,FALSE,FALSE,FALSE,FALSE,Disabled,0.000000,0.000000,0.000000,TRUE,0.353271,-0.032562,0.000000,0.062912,-0.002899,0.000000,0.019000,-0.072000,0.015000,-0.720000,0.000000,2.570000,-9.324058,Hold,54.618652,50.000000,Hold,-143457.000000,143360.000000,Suck,-1800.000000,1818.181818,Speed,-1770.000000,1818.181818,Speed,Off,On,0.000000,FALSE,0,,,,,0.000000,0.000000
10:42:49.596 AM 04/09/2016,Teleop Enabled,11,FALSE,0,NO ERROR,-0.000000,14.354050,-0.000000,14.655632,TRUE,FALSE,FALSE,FALSE,FALSE,FALSE,Disabled,0.000000,0.000000,0.000000,TRUE,0.356628,-0.033417,0.000000,0.074966,0.000000,0.000000,0.054000,-0.003000,0.026000,-0.740000,-0.020000,2.560000,-9.366443,Hold,54.618652,50.000000,Hold,-143457.000000,143360.000000,Suck,-1792.500000,1818.181818,Speed,-1762.500000,1818.181818,Speed,Off,On,0.000000,FALSE,0,,,,,0.000000,0.000000
10:42:49.696 AM 04/09/2016,Teleop Enabled,9,FALSE,0,NO ERROR,-0.000000,14.354050,-0.000000,14.655632,TRUE,FALSE,FALSE,FALSE,FALSE,FALSE,Disabled,0.000000,0.000000,0.000000,TRUE,0.360291,-0.033188,0.000000,0.068237,0.012604,0.000000,0.005000,0.023000,-0.006000,-0.730000,-0.030000,2.530000,-9.409165,Hold,54.618652,50.000000,Hold,-143457.000000,143360.000000,Suck,-1785.000000,1818.181818,Speed,-1770.000000,1818.181818,Speed,Off,On,0.000000,FALSE,0,,,,,0.000000,0.000000
10:42:49.797 AM 04/09/2016,Teleop Enabled,8,FALSE,0,NO ERROR,-0.000000,14.354050,-0.000000,14.655632,TRUE,FALSE,FALSE,FALSE,FALSE,FALSE,Disabled,0.000000,0.000000,0.000000,TRUE,0.364441,-0.032776,0.000000,0.098724,0.012482,0.000000,-0.014000,0.088000,-0.058000,-0.740000,-0.050000,2.530000,-9.464394,Hold,54.618652,50.000000,Hold,-143457.000000,143360.000000,Suck,-1785.000000,1818.181818,Speed,-1770.000000,1818.181818,Speed,Off,On,0.000000,FALSE,0,,,,,0.000000,0.000000
10:42:49.896 AM 04/09/2016,Teleop Enabled,9,FALSE,0,NO ERROR,-0.000000,14.354050,-0.000000,14.655632,TRUE,FALSE,FALSE,FALSE,FALSE,FALSE,Disabled,0.000000,0.000000,0.000000,TRUE,0.367767,-0.032501,0.000000,0.048126,-0.008652,0.000000,0.057000,0.079000,0.063000,-0.740000,-0.040000,2.530000,-9.496407,Hold,54.618652,50.000000,Hold,-143457.000000,143360.000000,Suck,-1792.500000,1818.181818,Speed,-1770.000000,1818.181818,Speed,Off,On,0.000000,FALSE,0,,,,,0.000000,0.000000
10:42:49.996 AM 04/09/2016,Teleop Enabled,10,FALSE,0,NO ERROR,-0.000000,14.354050,-0.000000,14.655632,TRUE,FALSE,FALSE,FALSE,FALSE,FALSE,Disabled,0.000000,0.000000,0.000000,TRUE,0.372177,-0.032639,0.000000,0.063919,0.000000,0.000000,-0.156000,0.012000,-0.092000,-0.740000,-0.020000,2.560000,-9.536048,Hold,54.618652,50.000000,Hold,-143457.000000,143360.000000,Suck,-1785.000000,1818.181818,Speed,-1762.500000,1818.181818,Speed,Off,On,0.000000,FALSE,0,,,,,0.000000,0.000000
10:42:50.097 AM 04/09/2016,Teleop Enabled,9,FALSE,0,NO ERROR,-0.000000,14.354050,-0.000000,14.655632,TRUE,FALSE,FALSE,FALSE,FALSE,FALSE,Disabled,0.000000,0.000000,0.000000,TRUE,0.374695,-0.033798,0.000000,0.057602,-0.030762,0.000000,0.143000,-0.006000,0.016000,-0.750000,-0.030000,2.550000,-9.586450,Hold,54.618652,50.000000,Hold,-143457.000000,143360.000000,Suck,-1785.000000,1818.181818,Speed,-1770.000000,1818.181818,Speed,Off,On,0.000000,FALSE,0,,,,,0.000000,0.000000
10:42:50.197 AM 04/09/2016,Teleop Enabled,8,FALSE,0,NO ERROR,-0.000000,14.354050,-0.000000,14.655632,TRUE,FALSE,FALSE,FALSE,FALSE,FALSE,Disabled,0.000000,0.000000,0.000000,TRUE,0.375168,-0.033783,0.000000,-0.015579,0.001617,0.000000,-0.076000,0.061000,-0.027000,-0.740000,0.000000,2.560000,-9.645480,Hold,54.618652,50.000000,Hold,-143457.000000,143360.000000,Suck,-1785.000000,1818.181818,Speed,-1770.000000,1818.181818,Speed,Off,On,0.000000,FALSE,0,,,,,0.000000,0.000000
10:42:50.297 AM 04/09/2016,Teleop Enabled,9,FALSE,0,NO ERROR,-0.000000,14.354050,-0.000000,14.655632,TRUE,FALSE,FALSE,FALSE,FALSE,FALSE,Disabled,0.000000,0.000000,0.000000,TRUE,0.375122,-0.033066,0.000000,0.004684,0.016663,0.000000,0.017000,-0.028000,0.010000,-0.750000,0.010000,2.560000,-9.688925,Hold,54.618652,50.000000,Hold,-143457.000000,143360.000000,Suck,-1785.000000,1818.181818,Speed,-1770.000000,1818.181818,Speed,Off,On,0.000000,FALSE,0,,,,,0.000000,0.000000
10:42:50.397 AM 04/09/2016,Teleop Enabled,11,FALSE,0,NO ERROR,-0.000000,14.354050,-0.000000,14.655632,TRUE,FALSE,FALSE,FALSE,FALSE,FALSE,Disabled,0.000000,0.000000,0.000000,TRUE,0.375061,-0.032852,0.000000,-0.006744,-0.003052,0.000000,0.065000,0.087000,0.152000,-0.750000,0.030000,2.560000,-9.720741,Hold,54.618652,50.000000,Hold,-143457.000000,143360.000000,Suck,-1785.000000,1818.181818,Speed,-1762.500000,1818.181818,Speed,Off,On,0.000000,FALSE,0,,,,,0.000000,0.000000
10:42:50.497 AM 04/09/2016,Teleop Enabled,8,FALSE,0,NO ERROR,-0.000000,14.354050,-0.000000,14.655632,TRUE,FALSE,FALSE,FALSE,FALSE,FALSE,Disabled,0.000000,0.000000,0.000000,TRUE,0.375107,-0.031342,0.000000,-0.014832,0.033508,0.000000,-0.135000,-0.027000,0.046000,-0.760000,0.060000,2.540000,-9.772187,Hold,54.618652,50.000000,Hold,-143457.000000,143360.000000,Suck,-1777.500000,1818.181818,Speed,-1770.000000,1818.181818,Speed,Off,On,0.000000,FALSE,0,,,,,0.000000,0.000000
10:42:50.598 AM 04/09/2016,Teleop Enabled,11,FALSE,0,NO ERROR,-0.000000,14.354050,-0.000000,14.655632,TRUE,FALSE,FALSE,FALSE,FALSE,FALSE,Disabled,0.000000,0.000000,0.000000,TRUE,0.374130,-0.030731,0.000000,-0.000854,0.004562,0.000000,0.062000,0.038000,0.066000,-0.760000,0.010000,2.580000,-9.809707,Hold,54.618652,50.000000,Hold,-143457.000000,143360.000000,Suck,-1777.500000,1818.181818,Speed,-1770.000000,1818.181818,Speed,Off,On,0.000000,FALSE,0,,,,,0.000000,0.000000
10:42:50.699 AM 04/09/2016,Teleop Enabled,8,FALSE,0,NO ERROR,-0.000000,14.354050,-0.000000,14.655632,TRUE,FALSE,FALSE,FALSE,FALSE,FALSE,Disabled,0.000000,0.000000,0.000000,TRUE,0.373825,-0.028534,0.000000,-0.015350,0.040527,0.000000,-0.082000,0.058000,0.025000,-0.760000,0.070000,2.580000,-9.855452,Hold,54.618652,50.000000,Hold,-143457.000000,143360.000000,Suck,-1785.000000,1818.181818,Speed,-1762.500000,1818.181818,Speed,Off,On,0.000000,FALSE,0,,,,,0.000000,0.000000
10:42:50.800 AM 04/09/2016,Teleop Enabled,9,FALSE,0,NO ERROR,-0.000000,14.354050,-0.000000,14.655632,TRUE,FALSE,FALSE,FALSE,FALSE,FALSE,Disabled,0.000000,0.000000,0.000000,TRUE,0.373169,-0.026291,0.000000,-0.009659,0.035767,0.000000,-0.061000,-0.014000,-0.065000,-0.770000,0.060000,2.580000,-9.902677,Hold,54.618652,50.000000,Hold,-143457.000000,143360.000000,Suck,-1785.000000,1818.181818,Speed,-1762.500000,1818.181818,Speed,Off,On,0.000000,FALSE,0,,,,,0.000000,0.000000
10:42:50.900 AM 04/09/2016,Teleop Enabled,10,FALSE,0,NO ERROR,-0.000000,14.354050,-0.000000,14.655632,TRUE,FALSE,FALSE,FALSE,FALSE,FALSE,Disabled,0.000000,0.000000,0.000000,TRUE,0.372726,-0.025482,0.000000,-0.004807,0.000000,0.000000,-0.027000,0.015000,-0.049000,-0.770000,0.070000,2.580000,-9.964388,Hold,54.618652,50.000000,Hold,-143457.000000,143360.000000,Suck,-1785.000000,1818.181818,Speed,-1770.000000,1818.181818,Speed,Off,On,0.000000,FALSE,0,,,,,0.000000,0.000000
10:42:51.001 AM 04/09/2016,Teleop Enabled,9,FALSE,0,NO ERROR,-0.000000,14.354050,-0.000000,14.655632,TRUE,FALSE,FALSE,FALSE,FALSE,FALSE,Disabled,0.000000,0.000000,0.000000,TRUE,0.371979,-0.025208,0.000000,-0.012863,-0.000046,0.000000,-0.048000,0.077000,-0.001000,-0.760000,0.070000,2.600000,-10.019090,Hold,54.618652,50.000000,Hold,-143457.000000,143360.000000,Suck,-1785.000000,1818.181818,Speed,-1770.000000,1818.181818,Speed,Off,On,0.000000,FALSE,0,,,,,0.000000,0.000000
10:42:51.100 AM 04/09/2016,Teleop Enabled,11,FALSE,0,NO ERROR,-0.000000,14.354050,-0.000000,14.655632,TRUE,FALSE,FALSE,FALSE,FALSE,FALSE,Disabled,0.000000,0.000000,0.000000,TRUE,0.371811,-0.023895,0.000000,0.003967,0.048523,0.000000,-0.020000,0.052000,-0.004000,-0.770000,0.050000,2.580000,-10.053685,Hold,54.618652,50.000000,Hold,-143457.000000,143360.000000,Suck,-1785.000000,1818.181818,Speed,-1762.500000,1818.181818,Speed,Off,On,0.000000,FALSE,0,,,,,0.000000,0.000000
10:42:51.202 AM 04/09/2016,Teleop Enabled,9,FALSE,0,NO ERROR,-0.000000,14.354050,-0.000000,14.655632,TRUE,FALSE,FALSE,FALSE,FALSE,FALSE,Disabled,0.000000,0.000000,0.000000,TRUE,0.371552,-0.021408,0.000000,-0.011673,0.051575,0.000000,0.047000,-0.054000,-0.040000,-0.770000,0.080000,2.580000,-10.083783,Hold,54.618652,50.000000,Hold,-143457.000000,143360.000000,Suck,-1785.000000,1818.181818,Speed,-1770.000000,1818.181818,Speed,Off,On,0.000000,FALSE,0,,,,,0.000000,0.000000
10:42:51.303 AM 04/09/2016,Teleop Enabled,10,FALSE,0,NO ERROR,-0.000000,14.354050,-0.000000,14.655632,TRUE,FALSE,FALSE,FALSE,FALSE,FALSE,Disabled,0.000000,0.000000,0.000000,TRUE,0.371292,-0.018997,0.000000,-0.002304,0.072266,0.000000,-0.014000,0.000000,-0.009000,-0.770000,0.070000,2.590000,-10.138192,Hold,54.618652,50.000000,Hold,-143457.000000,143360.000000,Suck,-1777.500000,1818.181818,Speed,-1770.000000,1818.181818,Speed,Off,On,0.000000,FALSE,0,,,,,0.000000,0.000000
10:42:51.404 AM 04/09/2016,Teleop Enabled,11,FALSE,0,NO ERROR,-0.000000,14.354050,-0.000000,14.655632,TRUE,FALSE,FALSE,FALSE,FALSE,FALSE,Disabled,0.000000,0.000000,0.000000,TRUE,0.370300,-0.013672,0.000000,-0.022339,0.102219,0.000000,-0.019000,-0.017000,-0.028000,-0.770000,0.020000,2.590000,-10.170549,Hold,54.618652,50.000000,Hold,-143457.000000,143360.000000,Suck,-1777.500000,1818.181818,Speed,-1770.000000,1818.181818,Speed,Off,On,0.000000,FALSE,0,,,,,0.000000,0.000000
10:42:51.505 AM 04/09/2016,Teleop Enabled,11,FALSE,0,NO ERROR,-0.000000,14.354050,-0.000000,14.655632,TRUE,FALSE,FALSE,FALSE,FALSE,FALSE,Disabled,0.000000,0.000000,0.000000,TRUE,0.369781,-0.009781,0.000000,-0.007767,0.092087,0.000000,-0.007000,0.009000,0.091000,-0.780000,0.050000,2.560000,-10.220466,Hold,54.618652,50.000000,Hold,-143457.000000,143360.000000,Suck,-1785.000000,1818.181818,Speed,-1762.500000,1818.181818,Speed,Off,On,0.000000,FALSE,0,,,,,0.000000,0.000000
10:42:51.605 AM 04/09/2016,Teleop Enabled,10,FALSE,0,NO ERROR,0.000000,14.354050,-0.000000,14.655632,TRUE,FALSE,FALSE,TRUE,TRUE,FALSE,Disabled,0.000000,0.000000,0.000000,TRUE,0.368927,-0.003540,0.000000,-0.022156,0.115936,0.000000,-0.004000,-0.034000,0.094000,-0.780000,0.070000,2.560000,-10.264861,Hold,54.618652,45.000000,Hold,-143457.000000,143360.000000,Suck,-1785.000000,1818.181818,Speed,-1770.000000,1818.181818,Speed,Off,On,0.000000,FALSE,0,,,,,0.000000,0.000000
10:42:51.706 AM 04/09/2016,Teleop Enabled,10,FALSE,0,NO ERROR,0.000000,14.360466,-0.000000,14.726216,TRUE,FALSE,FALSE,TRUE,TRUE,FALSE,Enable,-0.078125,0.000000,0.000000,TRUE,0.367645,0.002106,0.000000,-0.025528,0.066940,0.000000,-0.004000,-0.034000,0.094000,-0.780000,0.070000,2.560000,-10.324734,Hold,53.583496,45.000000,Hold,-143457.000000,143360.000000,Suck,-1785.000000,1818.181818,Speed,-1770.000000,1818.181818,Speed,Off,On,0.000000,FALSE,0,,,,,0.000000,0.000000
10:42:51.806 AM 04/09/2016,Teleop Enabled,8,FALSE,0,NO ERROR,0.172709,14.360466,0.172709,14.732632,TRUE,FALSE,FALSE,TRUE,TRUE,FALSE,PID,-0.078125,3.236594,-4.036594,TRUE,0.366501,0.004379,0.000000,-0.044601,0.075760,0.000000,0.054000,-0.080000,-0.011000,-0.790000,0.050000,2.560000,-10.369866,Hold,51.349365,45.000000,Hold,-143457.000000,143360.000000,Suck,-1777.500000,1818.181818,Speed,-1762.500000,1818.181818,Speed,Off,On,0.000000,FALSE,0,,,,,0.000000,0.000000
10:42:51.909 AM 04/09/2016,Teleop Enabled,10,FALSE,0,NO ERROR,0.172293,14.540133,0.172293,14.867382,TRUE,FALSE,FALSE,TRUE,TRUE,FALSE,PID,-0.078125,3.236594,-4.036594,TRUE,0.364349,0.004883,0.000000,-0.037323,-0.009674,0.000000,-0.017000,-0.002000,0.001000,-0.830000,0.080000,2.540000,-10.445854,Hold,50.160889,45.000000,Hold,-143457.000000,143360.000000,Suck,-1777.500000,1818.181818,Speed,-1770.000000,1818.181818,Speed,Off,On,0.000000,FALSE,0,,,,,0.000000,0.000000
10:42:52.010 AM 04/09/2016,Teleop Enabled,10,FALSE,0,NO ERROR,0.167758,14.148717,0.167758,14.995715,TRUE,FALSE,FALSE,TRUE,TRUE,FALSE,PID,-0.078125,3.236594,-4.036594,TRUE,0.362549,0.003342,0.000000,-0.053802,-0.054031,0.000000,0.254000,0.109000,0.157000,-1.020000,0.230000,2.480000,-10.675758,Hold,50.050049,45.000000,Hold,-143457.000000,143360.000000,Suck,-1785.000000,1818.181818,Speed,-1770.000000,1818.181818,Speed,Off,On,0.000000,FALSE,0,,,,,0.000000,0.000000
10:42:52.111 AM 04/09/2016,Teleop Enabled,10,FALSE,0,NO ERROR,0.160566,13.975467,0.160566,15.168965,TRUE,FALSE,FALSE,TRUE,TRUE,FALSE,PID,-0.078125,3.236594,-4.036594,TRUE,0.359726,0.002457,0.000000,-0.040329,0.006485,0.000000,0.014000,0.069000,0.028000,-1.880000,-0.030000,2.490000,-11.414820,Hold,50.049805,45.000000,Hold,-143457.000000,143360.000000,Suck,-1785.000000,1818.181818,Speed,-1762.500000,1818.181818,Speed,Off,On,0.000000,FALSE,0,,,,,0.000000,0.000000
10:42:52.212 AM 04/09/2016,Teleop Enabled,10,FALSE,0,NO ERROR,0.156090,13.879218,0.156090,15.297298,TRUE,FALSE,FALSE,TRUE,TRUE,FALSE,PID,-0.078125,3.236594,-4.036594,TRUE,0.359177,0.003235,0.000000,-0.005447,0.014938,0.000000,-0.071000,-0.048000,0.031000,-2.340000,-0.020000,2.470000,-12.055054,Hold,50.047119,45.000000,Hold,-143457.000000,143360.000000,Suck,-1777.500000,1818.181818,Speed,-1762.500000,1818.181818,Speed,Off,On,0.000000,FALSE,0,,,,,0.000000,0.000000
10:42:52.313 AM 04/09/2016,Teleop Enabled,10,FALSE,0,NO ERROR,0.151385,13.859968,0.151385,15.476964,TRUE,FALSE,FALSE,TRUE,TRUE,FALSE,PID,-0.078125,3.236594,-4.036594,TRUE,0.358597,0.003372,0.000000,-0.018448,-0.000946,0.000000,0.059000,0.043000,-0.097000,-2.750000,-0.100000,2.490000,-12.508039,Hold,50.047119,45.000000,Hold,-143457.000000,143360.000000,Suck,-1777.500000,1818.181818,Speed,-1770.000000,1818.181818,Speed,Off,On,0.000000,FALSE,0,,,,,0.000000,0.000000
10:42:52.412 AM 04/09/2016,Teleop Enabled,10,FALSE,0,NO ERROR,0.149253,13.859968,0.149253,15.624547,TRUE,FALSE,FALSE,TRUE,TRUE,FALSE,PID,-0.078125,3.236594,-4.036594,TRUE,0.357956,0.004410,0.000000,-0.000275,0.025375,0.000000,-0.012000,0.024000,0.025000,-3.070000,0.040000,2.600000,-12.855331,Hold,50.047119,45.000000,Hold,-143457.000000,143360.000000,Suck,-1785.000000,1818.181818,Speed,-1762.500000,1818.181818,Speed,Off,On,0.000000,FALSE,0,,,,,0.000000,0.000000
10:42:52.513 AM 04/09/2016,Teleop Enabled,11,FALSE,0,NO ERROR,0.155364,13.866384,0.155364,15.714380,TRUE,FALSE,FALSE,TRUE,TRUE,FALSE,PID,-0.040625,1.683029,-4.893029,TRUE,0.357880,0.005219,0.000000,-0.005600,0.008163,0.000000,0.107000,-0.042000,-0.080000,-3.300000,0.030000,2.490000,-13.120518,Hold,50.046631,45.000000,Hold,-143457.000000,143360.000000,Suck,-1785.000000,1818.181818,Speed,-1762.500000,1818.181818,Speed,Off,On,0.000000,FALSE,0,,,,,0.000000,0.000000
10:42:52.614 AM 04/09/2016,Teleop Enabled,10,FALSE,0,NO ERROR,0.153890,13.853551,0.153890,15.804213,TRUE,FALSE,FALSE,TRUE,TRUE,FALSE,PID,-0.040625,1.683029,-4.893029,TRUE,0.357483,0.005127,0.000000,-0.013748,-0.003128,0.000000,0.063000,-0.011000,0.000000,-3.480000,0.000000,2.570000,-13.333238,Hold,50.046631,45.000000,Hold,-143457.000000,143360.000000,Suck,-1777.500000,1818.181818,Speed,-1762.500000,1818.181818,Speed,Off,On,0.000000,FALSE,0,,,,,0.000000,0.000000
10:42:52.714 AM 04/09/2016,Teleop Enabled,9,FALSE,0,NO ERROR,0.151837,13.853551,0.151837,15.900463,TRUE,FALSE,FALSE,TRUE,TRUE,FALSE,PID,-0.040625,1.683029,-4.893029,TRUE,0.357758,0.004700,0.000000,0.008987,-0.016144,0.000000,-0.170000,0.027000,-0.024000,-3.720000,0.100000,2.460000,-13.565066,Hold,50.046631,45.000000,Hold,-143457.000000,143360.000000,Suck,-1777.500000,1818.181818,Speed,-1770.000000,1818.181818,Speed,Off,On,0.000000,FALSE,0,,,,,0.000000,0.000000
10:42:52.814 AM 04/09/2016,Teleop Enabled,10,FALSE,0,NO ERROR,0.149798,13.853551,0.149798,16.003129,TRUE,FALSE,FALSE,TRUE,TRUE,FALSE,PID,-0.040625,1.683029,-4.893029,TRUE,0.356628,0.002991,0.000000,-0.019257,-0.028076,0.000000,-0.170000,0.027000,-0.024000,-3.970000,0.000000,2.540000,-13.831703,Hold,50.046631,45.000000,Hold,-143457.000000,143360.000000,Suck,-1785.000000,1818.181818,Speed,-1762.500000,1818.181818,Speed,Off,On,0.000000,FALSE,0,,,,,0.000000,0.000000
10:42:52.915 AM 04/09/2016,Teleop Enabled,10,FALSE,0,NO ERROR,0.148543,13.853551,0.148543,16.048046,TRUE,FALSE,FALSE,TRUE,TRUE,FALSE,PID,-0.040625,1.683029,-4.893029,TRUE,0.357086,0.001480,0.000000,0.008011,-0.033585,0.000000,-0.068000,-0.067000,-0.016000,-4.040000,0.150000,2.530000,-13.989269,Hold,50.046387,45.000000,Hold,-143457.000000,143360.000000,Suck,-1785.000000,1818.181818,Speed,-1762.500000,1818.181818,Speed,Off,On,0.000000,FALSE,0,,,,,0.000000,0.000000
10:42:53.016 AM 04/09/2016,Teleop Enabled,9,FALSE,0,NO ERROR,0.147773,13.847134,0.147773,16.086546,TRUE,FALSE,FALSE,TRUE,TRUE,FALSE,PID,-0.040625,1.683029,-4.893029,TRUE,0.357620,0.000000,0.000000,0.020752,-0.041107,0.000000,0.006000,-0.046000,0.035000,-4.110000,0.060000,2.510000,-14.089843,Hold,50.046387,45.000000,Hold,-143457.000000,143360.000000,Suck,-1785.000000,1818.181818,Speed,-1770.000000,1818.181818,Speed,Off,On,0.000000,FALSE,0,,,,,0.000000,0.000000
10:42:53.116 AM 04/09/2016,Teleop Enabled,10,FALSE,0,NO ERROR,0.147293,13.847134,0.147293,16.118629,TRUE,FALSE,FALSE,TRUE,TRUE,FALSE,PID,-0.040625,1.683029,-4.893029,TRUE,0.359756,-0.001236,0.000000,0.047714,-0.016571,0.000000,-0.047000,0.021000,0.038000,-4.180000,0.110000,2.520000,-14.195127,Hold,50.046387,45.000000,Hold,-143457.000000,143360.000000,Suck,-1785.000000,1818.181818,Speed,-1770.000000,1818.181818,Speed,Off,On,0.000000,FALSE,0,,,,,0.000000,0.000000
10:42:53.217 AM 04/09/2016,Teleop Enabled,9,FALSE,0,NO ERROR,0.146335,13.847134,0.146335,16.163546,TRUE,FALSE,FALSE,TRUE,TRUE,FALSE,PID,-0.040625,1.683029,-4.893029,TRUE,0.361954,-0.001678,0.000000,0.048431,-0.011032,0.000000,-0.071000,-0.066000,0.017000,-4.270000,0.030000,2.550000,-14.307395,Hold,50.046387,45.000000,Hold,-143457.000000,143360.000000,Suck,-1777.500000,1818.181818,Speed,-1762.500000,1818.181818,Speed,Off,On,0.000000,FALSE,0,,,,,0.000000,0.000000
10:42:53.318 AM 04/09/2016,Teleop Enabled,9,FALSE,0,NO ERROR,0.144904,13.847134,0.144904,16.234129,TRUE,FALSE,FALSE,TRUE,TRUE,FALSE,PID,-0.040625,1.683029,-4.893029,TRUE,0.363739,-0.002136,0.000000,0.027252,-0.006821,0.000000,0.068000,0.040000,0.063000,-4.420000,0.040000,2.510000,-14.496364,Hold,50.046387,45.000000,Hold,-143457.000000,143360.000000,Suck,-1777.500000,1818.181818,Speed,-1770.000000,1818.181818,Speed,Off,On,0.000000,FALSE,0,,,,,0.000000,0.000000
10:42:53.419 AM 04/09/2016,Teleop Enabled,11,FALSE,0,NO ERROR,0.144239,13.847134,0.144239,16.272629,TRUE,FALSE,FALSE,TRUE,TRUE,FALSE,PID,-0.040625,1.683029,-4.893029,TRUE,0.365295,-0.002808,0.000000,0.025085,-0.024002,0.000000,0.030000,-0.049000,-0.072000,-4.520000,0.050000,2.550000,-14.640473,Hold,50.046387,45.000000,Hold,-143457.000000,143360.000000,Suck,-1785.000000,1818.181818,Speed,-1770.000000,1818.181818,Speed,Off,On,0.000000,FALSE,0,,,,,0.000000,0.000000
