Time,Robot Mode,Loop Time,Error Status,Error Code,Error Source,Left Motor Output,Left Motor Encoder,Right Motor Output,Right Motor Encoder,Is Level,Is Stalled,Ball Detector Photoeye,Vision Enabled,Vision Teleop Control,Vision Auto Control,Vision Current State,Vision X Output,Vision NavX Error,Vision NavX Target,NavX Connection Status,NavX Displacement X,NavX Displacement Y,NavX Displacement Z,NavX Velocity X,NavX Velocity Y,NavX Velocity Z,NavX Acceleration X,NavX Acceleration Y,NavX Acceleration Z,NavX Pitch,NavX Yaw,NavX Roll,Gyro Angle,Roller Arm State,Roller Arm Actual,Roller Arm Desired,Shooter Arm State,Shooter Arm Actual,Shooter Arm Desired,Shooter State,Actual RPM Left,Desired RPM Left,Control Mode Left,Actual RPM Right,Desired RPM Right,Control Mode Right,Ball Shooter Cylinder,Ball Halo Cylinder,Scaler Motor Output,Scaler Solenoid Fire,Auto To Run,Auto Current File,Auto File Status,Auto Current Command,Auto Trimmed Command,Shooter Amps Left,Shooter Amps Right
08:33:43.570 PM 04/07/2016,Teleop Enabled,10,TRUE,-44005,<LOCATION>WPI_CameraWait for Raw Image String.vi:6640001<CALLSTACK>WPI_CameraWait for Raw Image String.vi:6640001< <WPI_CameraGet Image.vi< <Vision Processing.vi< <Robot Main.vi,-0.000000,3.041493,-0.000000,0.545415,FALSE,FALSE,FALSE,FALSE,FALSE,FALSE,Disabled,0.000000,0.000000,0.000000,TRUE,0.400452,-0.459259,0.000000,0.000000,0.000000,0.000000,0.000000,0.001000,0.013000,9.710000,-5.310000,2.460000,-118.714179,ResetBack,-71.039307,-0.000049,ResetBack,8366.000000,-0.250000,Suck,0.000000,1818.181818,Speed,0.000000,1818.181818,Speed,Off,On,0.000000,FALSE,0,,,,,0.000000,0.000000
08:33:43.671 PM 04/07/2016,Teleop Enabled,9,TRUE,-1074396154,,-0.000000,3.041493,-0.000000,0.545415,FALSE,FALSE,FALSE,FALSE,FALSE,FALSE,Disabled,0.000000,0.000000,0.000000,TRUE,0.401321,-0.459915,0.000000,0.040619,-0.030045,0.000000,-0.004000,0.015000,-0.001000,9.680000,-5.370000,2.370000,-118.793781,ResetBack,-71.039307,-0.000049,ResetBack,8366.000000,-0.250000,Suck,0.000000,1818.181818,Speed,0.000000,1818.181818,Speed,Off,On,0.000000,FALSE,0,,,,,0.000000,0.000000
08:33:43.772 PM 04/07/2016,Teleop Enabled,10,FALSE,0,NO ERROR,-0.000000,3.041493,-0.000000,0.545415,FALSE,FALSE,FALSE,FALSE,FALSE,FALSE,Disabled,0.000000,0.000000,0.000000,TRUE,0.402740,-0.461700,0.000000,0.001770,-0.046478,0.000000,-0.069000,0.009000,0.040000,9.690000,-5.420000,2.460000,-118.792063,ResetBack,-71.432617,-0.000049,ResetBack,9205.000000,-0.250000,Suck,-202.500000,1818.181818,Speed,-82.500000,1818.181818,Speed,Off,On,0.000000,FALSE,0,,,,,0.000000,0.000000
08:33:43.872 PM 04/07/2016,Teleop Enabled,10,FALSE,0,NO ERROR,-0.000000,3.041493,-0.000000,0.545415,FALSE,FALSE,FALSE,FALSE,FALSE,FALSE,Disabled,0.000000,0.000000,0.000000,TRUE,0.402328,-0.464508,0.000000,-0.010941,-0.042389,0.000000,0.059000,-0.012000,0.024000,9.690000,-5.460000,2.540000,-118.812540,ResetBack,-71.443604,-0.000049,ResetBack,9205.000000,-0.250000,Suck,-907.500000,1818.181818,Speed,-735.000000,1818.181818,Speed,Off,On,0.000000,FALSE,0,,,,,0.000000,0.000000
08:33:43.972 PM 04/07/2016,Teleop Enabled,10,FALSE,0,NO ERROR,-0.000000,3.041493,-0.000000,0.545415,FALSE,FALSE,FALSE,FALSE,FALSE,FALSE,Disabled,0.000000,0.000000,0.000000,TRUE,0.402023,-0.465988,0.000000,-0.000885,-0.039673,0.000000,0.059000,-0.012000,0.024000,9.690000,-5.490000,2.560000,-118.821439,Reset,-71.500488,0.000000,ResetBack,10984.000000,-0.250000,Suck,-1537.500000,1818.181818,Speed,-1027.500000,1818.181818,Speed,Off,On,0.000000,FALSE,0,,,,,0.000000,0.000000
08:33:44.072 PM 04/07/2016,Teleop Enabled,9,FALSE,0,NO ERROR,-0.000000,3.035076,-0.000000,0.545415,FALSE,FALSE,FALSE,FALSE,FALSE,FALSE,Disabled,0.000000,0.000000,0.000000,TRUE,0.403046,-0.467804,0.000000,0.042114,0.008392,0.000000,-0.027000,-0.001000,0.029000,9.690000,-5.490000,2.560000,-118.833608,Hold,0.510010,0.000000,ResetBack,12657.000000,-0.250000,Suck,-1867.500000,1818.181818,Speed,-1597.500000,1818.181818,Speed,Off,On,0.000000,FALSE,0,,,,,0.000000,0.000000
08:33:44.173 PM 04/07/2016,Teleop Enabled,9,FALSE,0,NO ERROR,-0.000000,3.035076,-0.000000,0.545415,FALSE,FALSE,FALSE,FALSE,FALSE,FALSE,Disabled,0.000000,0.000000,0.000000,TRUE,0.404602,-0.467087,0.000000,0.037491,0.022369,0.000000,-0.089000,0.075000,-0.108000,9.690000,-5.560000,2.480000,-118.836985,Hold,0.520508,0.000000,ResetBack,16089.000000,-0.250000,Suck,-1852.500000,1818.181818,Speed,-2047.500000,1818.181818,Speed,Off,On,0.000000,FALSE,0,,,,,0.000000,0.000000
08:33:44.273 PM 04/07/2016,Teleop Enabled,10,FALSE,0,NO ERROR,-0.000000,3.035076,-0.000000,0.545415,FALSE,FALSE,FALSE,FALSE,FALSE,FALSE,Disabled,0.000000,0.000000,0.000000,TRUE,0.405365,-0.465179,0.000000,0.005341,0.030685,0.000000,-0.089000,0.075000,-0.108000,9.700000,-5.750000,2.530000,-118.848377,Hold,0.520508,0.000000,ResetBack,20845.000000,-0.250000,Suck,-1762.500000,1818.181818,Speed,-1927.500000,1818.181818,Speed,Off,On,0.000000,FALSE,0,,,,,0.000000,0.000000
08:33:44.373 PM 04/07/2016,Teleop Enabled,11,FALSE,0,NO ERROR,-0.000000,3.035076,-0.000000,0.545415,FALSE,FALSE,FALSE,FALSE,FALSE,FALSE,Disabled,0.000000,0.000000,0.000000,TRUE,0.403793,-0.463989,0.000000,-0.043503,0.021729,0.000000,-0.028000,-0.001000,-0.076000,9.700000,-5.750000,2.530000,-118.850032,Hold,0.520508,0.000000,ResetBack,25789.000000,-0.250000,Suck,-1747.500000,1818.181818,Speed,-1672.500000,1818.181818,Speed,Off,On,0.000000,FALSE,0,,,,,0.000000,0.000000
08:33:44.472 PM 04/07/2016,Teleop Enabled,11,FALSE,0,NO ERROR,-0.000000,3.035076,-0.000000,0.545415,FALSE,FALSE,FALSE,FALSE,FALSE,FALSE,Disabled,0.000000,0.000000,0.000000,TRUE,0.403549,-0.462402,0.000000,0.022018,0.032730,0.000000,-0.083000,0.129000,0.010000,9.710000,-5.850000,2.570000,-118.857169,Hold,0.520508,0.000000,ResetBack,30606.000000,-0.250000,Suck,-1762.500000,1818.181818,Speed,-1642.500000,1818.181818,Speed,Off,On,0.000000,FALSE,0,,,,,0.000000,0.000000
08:33:44.573 PM 04/07/2016,Teleop Enabled,11,FALSE,0,NO ERROR,-0.000000,3.035076,-0.000000,0.545415,FALSE,FALSE,FALSE,FALSE,FALSE,FALSE,Disabled,0.000000,0.000000,0.000000,TRUE,0.404037,-0.462036,0.000000,-0.003891,-0.003647,0.000000,0.112000,-0.009000,0.027000,9.710000,-5.790000,2.590000,-118.848504,Hold,0.520508,0.000000,ResetBack,30606.000000,-0.250000,Suck,-1770.000000,1818.181818,Speed,-1725.000000,1818.181818,Speed,Off,On,0.000000,FALSE,0,,,,,0.000000,0.000000
08:33:44.673 PM 04/07/2016,Teleop Enabled,11,FALSE,0,NO ERROR,-0.000000,3.035076,-0.000000,0.545415,FALSE,FALSE,FALSE,FALSE,FALSE,FALSE,Disabled,0.000000,0.000000,0.000000,TRUE,0.403214,-0.462402,0.000000,-0.009674,-0.022720,0.000000,0.058000,0.017000,0.014000,9.710000,-5.790000,2.550000,-118.865142,Hold,0.520752,0.000000,ResetBack,32889.000000,-0.250000,Suck,-1770.000000,1818.181818,Speed,-1785.000000,1818.181818,Speed,Off,On,0.000000,FALSE,0,,,,,0.000000,0.000000
08:33:44.773 PM 04/07/2016,Teleop Enabled,9,FALSE,0,NO ERROR,-0.000000,3.035076,-0.000000,0.545415,FALSE,FALSE,FALSE,FALSE,FALSE,FALSE,Disabled,0.000000,0.000000,0.000000,TRUE,0.404968,-0.461716,0.000000,0.077560,0.030533,0.000000,0.070000,-0.014000,-0.014000,9.710000,-5.840000,2.550000,-118.870585,Hold,0.520752,0.000000,ResetBack,34570.000000,-0.250000,Suck,-1770.000000,1818.181818,Speed,-1747.500000,1818.181818,Speed,Off,On,0.000000,FALSE,0,,,,,0.000000,0.000000
08:33:44.875 PM 04/07/2016,Teleop Enabled,10,FALSE,0,NO ERROR,-0.000000,3.035076,-0.000000,0.545415,FALSE,FALSE,FALSE,FALSE,FALSE,FALSE,Disabled,0.000000,0.000000,0.000000,TRUE,0.410233,-0.460068,0.000000,0.102127,0.031097,0.000000,0.065000,0.008000,0.013000,9.690000,-5.670000,2.610000,-118.858422,Hold,0.520752,0.000000,Reset,35252.000000,2.000000,Suck,-1762.500000,1818.181818,Speed,-1725.000000,1818.181818,Speed,Off,On,0.000000,FALSE,0,,,,,0.000000,0.000000
08:33:44.975 PM 04/07/2016,Teleop Enabled,10,FALSE,0,NO ERROR,-0.000000,3.035076,-0.000000,0.545415,FALSE,FALSE,FALSE,FALSE,FALSE,FALSE,Disabled,0.000000,0.000000,0.000000,TRUE,0.414703,-0.459824,0.000000,0.078979,-0.012573,0.000000,0.023000,-0.019000,0.027000,9.680000,-5.550000,2.610000,-118.869421,Hold,0.520752,0.000000,Hold,-96.000000,2.000000,Suck,-1762.500000,1818.181818,Speed,-1740.000000,1818.181818,Speed,Off,On,0.000000,FALSE,0,,,,,0.000000,0.000000
08:33:45.075 PM 04/07/2016,Teleop Enabled,10,FALSE,0,NO ERROR,-0.000000,3.035076,-0.000000,0.545415,FALSE,FALSE,FALSE,FALSE,FALSE,FALSE,Disabled,0.000000,0.000000,0.000000,TRUE,0.414551,-0.459885,0.000000,0.011368,0.010986,0.000000,0.009000,0.032000,-0.017000,9.690000,-5.700000,2.510000,-118.879769,Hold,0.520752,0.000000,Hold,-99.000000,2.000000,Suck,-1770.000000,1818.181818,Speed,-1747.500000,1818.181818,Speed,Off,On,0.000000,FALSE,0,,,,,0.000000,0.000000
08:33:45.176 PM 04/07/2016,Teleop Enabled,11,FALSE,0,NO ERROR,-0.000000,3.035076,-0.000000,0.545415,FALSE,FALSE,FALSE,FALSE,FALSE,FALSE,Disabled,0.000000,0.000000,0.000000,TRUE,0.414551,-0.459885,0.000000,0.011368,0.010986,0.000000,-0.001000,0.097000,0.006000,9.690000,-5.640000,2.530000,-118.876024,Hold,0.520752,0.000000,Hold,-99.000000,2.000000,Suck,-1770.000000,1818.181818,Speed,-1740.000000,1818.181818,Speed,Off,On,0.000000,FALSE,0,,,,,0.000000,0.000000
08:33:45.277 PM 04/07/2016,Teleop Enabled,10,FALSE,0,NO ERROR,-0.000000,3.035076,-0.000000,0.545415,FALSE,FALSE,FALSE,FALSE,FALSE,FALSE,Disabled,0.000000,0.000000,0.000000,TRUE,0.415146,-0.458099,0.000000,0.014526,0.045059,0.000000,0.012000,0.017000,0.024000,9.680000,-5.470000,2.600000,-118.878482,Hold,0.520752,0.000000,Hold,-100.000000,2.000000,Suck,-1762.500000,1818.181818,Speed,-1740.000000,1818.181818,Speed,Off,On,0.000000,FALSE,0,,,,,0.000000,0.000000
08:33:45.379 PM 04/07/2016,Teleop Enabled,11,FALSE,0,NO ERROR,-0.000000,3.035076,-0.000000,0.545415,FALSE,FALSE,FALSE,FALSE,FALSE,FALSE,Disabled,0.000000,0.000000,0.000000,TRUE,0.416077,-0.456772,0.000000,0.033234,0.008011,0.000000,-0.078000,0.008000,-0.053000,9.680000,-5.510000,2.550000,-118.894589,Hold,0.520752,0.000000,Hold,-102.000000,2.000000,Suck,-1770.000000,1818.181818,Speed,-1740.000000,1818.181818,Speed,Off,On,0.000000,FALSE,0,,,,,0.000000,0.000000
08:33:45.481 PM 04/07/2016,Teleop Enabled,10,FALSE,0,NO ERROR,-0.000000,3.035076,-0.000000,0.545415,FALSE,FALSE,FALSE,FALSE,FALSE,FALSE,Disabled,0.000000,0.000000,0.000000,TRUE,0.417252,-0.455002,0.000000,0.024414,0.044800,0.000000,0.134000,-0.088000,0.018000,9.690000,-5.630000,2.530000,-118.905296,Hold,0.520996,0.000000,Hold,-102.000000,2.000000,Suck,-1770.000000,1818.181818,Speed,-1755.000000,1818.181818,Speed,Off,On,0.000000,FALSE,0,,,,,0.000000,0.000000
08:33:45.582 PM 04/07/2016,Teleop Enabled,11,FALSE,0,NO ERROR,-0.000000,3.035076,-0.000000,0.545415,FALSE,FALSE,FALSE,FALSE,FALSE,FALSE,Disabled,0.000000,0.000000,0.000000,TRUE,0.418365,-0.452301,0.000000,0.022491,0.056015,0.000000,-0.037000,0.056000,0.007000,9.690000,-5.570000,2.540000,-118.922546,Hold,0.520996,0.000000,Hold,-103.000000,2.000000,Suck,-1770.000000,1818.181818,Speed,-1732.500000,1818.181818,Speed,Off,On,0.000000,FALSE,0,,,,,0.000000,0.000000
08:33:45.683 PM 04/07/2016,Teleop Enabled,10,FALSE,0,NO ERROR,-0.000000,3.035076,-0.000000,0.545415,FALSE,FALSE,FALSE,FALSE,FALSE,FALSE,Disabled,0.000000,0.000000,0.000000,TRUE,0.420792,-0.449509,0.000000,0.061630,0.050034,0.000000,0.026000,0.045000,0.008000,9.680000,-5.500000,2.560000,-118.948524,Hold,0.520996,0.000000,Hold,-104.000000,2.000000,Suck,-1770.000000,1818.181818,Speed,-1747.500000,1818.181818,Speed,Off,On,0.000000,FALSE,0,,,,,0.000000,0.000000
08:33:45.784 PM 04/07/2016,Teleop Enabled,11,FALSE,0,NO ERROR,-0.000000,3.035076,-0.000000,0.545415,FALSE,FALSE,FALSE,FALSE,FALSE,FALSE,Disabled,0.000000,0.000000,0.000000,TRUE,0.423676,-0.446365,0.000000,0.046616,0.073761,0.000000,-0.020000,-0.056000,0.037000,9.690000,-5.590000,2.440000,-118.948524,Hold,0.520996,0.000000,Hold,-104.000000,2.000000,Suck,-1762.500000,1818.181818,Speed,-1725.000000,1818.181818,Speed,Off,On,0.000000,FALSE,0,,,,,0.000000,0.000000
08:33:45.884 PM 04/07/2016,Teleop Enabled,11,FALSE,0,NO ERROR,-0.000000,3.035076,-0.000000,0.545415,FALSE,FALSE,FALSE,FALSE,FALSE,FALSE,Disabled,0.000000,0.000000,0.000000,TRUE,0.425995,-0.442673,0.000000,0.037781,0.101013,0.000000,0.074000,0.013000,0.046000,9.680000,-5.600000,2.470000,-118.955333,Hold,0.520996,0.000000,Hold,-104.000000,2.000000,Suck,-1770.000000,1818.181818,Speed,-1732.500000,1818.181818,Speed,Off,On,0.000000,FALSE,0,,,,,0.000000,0.000000
08:33:45.986 PM 04/07/2016,Teleop Enabled,10,FALSE,0,NO ERROR,-0.000000,3.035076,-0.000000,0.545415,FALSE,FALSE,FALSE,FALSE,FALSE,FALSE,Disabled,0.000000,0.000000,0.000000,TRUE,0.430557,-0.438782,0.000000,0.118698,0.074493,0.000000,0.011000,0.089000,0.072000,9.680000,-5.490000,2.520000,-118.956253,Hold,0.520996,0.000000,Hold,-105.000000,2.000000,Suck,-1770.000000,1818.181818,Speed,-1792.500000,1818.181818,Speed,Off,On,0.000000,FALSE,0,,,,,0.000000,0.000000
08:33:46.086 PM 04/07/2016,Teleop Enabled,11,FALSE,0,NO ERROR,-0.000000,3.035076,-0.000000,0.545415,FALSE,FALSE,FALSE,FALSE,FALSE,FALSE,Disabled,0.000000,0.000000,0.000000,TRUE,0.436386,-0.434311,0.000000,0.108978,0.098877,0.000000,-0.081000,0.008000,0.019000,9.670000,-5.470000,2.460000,-118.969179,Hold,0.520996,0.000000,Hold,-105.000000,2.000000,Suck,-1770.000000,1818.181818,Speed,-1762.500000,1818.181818,Speed,Off,On,0.000000,FALSE,0,,,,,0.000000,0.000000
08:33:46.187 PM 04/07/2016,Teleop Enabled,9,FALSE,0,NO ERROR,-0.000000,3.035076,-0.000000,0.545415,FALSE,FALSE,FALSE,FALSE,FALSE,FALSE,Disabled,0.000000,0.000000,0.000000,TRUE,0.440475,-0.429031,0.000000,0.070740,0.105820,0.000000,0.000000,0.018000,0.007000,9.680000,-5.540000,2.450000,-118.976725,Hold,0.520996,0.000000,Hold,-105.000000,2.000000,Suck,-1770.000000,1818.181818,Speed,-1725.000000,1818.181818,Speed,Off,On,0.000000,FALSE,0,,,,,0.000000,0.000000
08:33:46.288 PM 04/07/2016,Teleop Enabled,10,FALSE,0,NO ERROR,-0.000000,3.035076,-0.000000,0.545415,FALSE,FALSE,FALSE,FALSE,FALSE,FALSE,Disabled,0.000000,0.000000,0.000000,TRUE,0.445221,-0.424408,0.000000,0.106720,0.080673,0.000000,0.043000,0.045000,0.098000,9.680000,-5.470000,2.450000,-118.985535,Hold,0.521240,0.000000,Hold,-106.000000,2.000000,Suck,-1770.000000,1818.181818,Speed,-1747.500000,1818.181818,Speed,Off,On,0.000000,FALSE,0,,,,,0.000000,0.000000
08:33:46.389 PM 04/07/2016,Teleop Enabled,10,FALSE,0,NO ERROR,-0.000000,3.035076,-0.000000,0.545415,FALSE,FALSE,FALSE,FALSE,FALSE,FALSE,Disabled,0.000000,0.000000,0.000000,TRUE,0.451508,-0.422638,0.000000,0.092896,0.015076,0.000000,-0.103000,0.033000,-0.029000,9.670000,-5.450000,2.470000,-118.982299,Hold,0.521240,0.000000,Hold,-106.000000,2.000000,Suck,-1770.000000,1818.181818,Speed,-1770.000000,1818.181818,Speed,Off,On,0.000000,FALSE,0,,,,,0.000000,0.000000
08:33:46.490 PM 04/07/2016,Teleop Enabled,9,FALSE,0,NO ERROR,-0.000000,3.035076,-0.000000,0.545415,FALSE,FALSE,FALSE,FALSE,FALSE,FALSE,Disabled,0.000000,0.000000,0.000000,TRUE,0.454681,-0.422348,0.000000,0.059067,0.010529,0.000000,0.126000,0.007000,0.068000,9.670000,-5.500000,2.470000,-118.994262,Hold,0.521240,0.000000,Hold,-106.000000,2.000000,Suck,-1770.000000,1818.181818,Speed,-1770.000000,1818.181818,Speed,Off,On,0.000000,FALSE,0,,,,,0.000000,0.000000
08:33:46.591 PM 04/07/2016,Teleop Enabled,9,FALSE,0,NO ERROR,-0.000000,3.035076,-0.000000,0.545415,FALSE,FALSE,FALSE,FALSE,FALSE,FALSE,Disabled,0.000000,0.000000,0.000000,TRUE,0.458435,-0.421890,0.000000,0.064590,-0.001450,0.000000,0.056000,-0.137000,-0.015000,9.670000,-5.460000,2.530000,-119.019516,Hold,0.521240,0.000000,Hold,-106.000000,2.000000,Suck,-1770.000000,1818.181818,Speed,-1747.500000,1818.181818,Speed,Off,On,0.000000,FALSE,0,,,,,0.000000,0.000000
08:33:46.691 PM 04/07/2016,Teleop Enabled,9,FALSE,0,NO ERROR,-0.000000,3.035076,-0.000000,0.545415,FALSE,FALSE,FALSE,FALSE,FALSE,FALSE,Disabled,0.000000,0.000000,0.000000,TRUE,0.460693,-0.422226,0.000000,0.044403,-0.009140,0.000000,-0.091000,-0.029000,-0.042000,9.670000,-5.530000,2.410000,-119.018707,Hold,0.521240,0.000000,Hold,-106.000000,2.000000,Suck,-1770.000000,1818.181818,Speed,-1732.500000,1818.181818,Speed,Off,On,0.000000,FALSE,0,,,,,0.000000,0.000000
08:33:46.792 PM 04/07/2016,Teleop Enabled,10,FALSE,0,NO ERROR,-0.000000,3.035076,-0.000000,0.545415,FALSE,FALSE,FALSE,FALSE,FALSE,FALSE,Disabled,0.000000,0.000000,0.000000,TRUE,0.462662,-0.423737,0.000000,0.042267,-0.037766,0.000000,0.067000,0.008000,0.079000,9.670000,-5.510000,2.450000,-119.019355,Hold,0.521240,0.000000,Hold,-107.000000,2.000000,Suck,-1770.000000,1818.181818,Speed,-1762.500000,1818.181818,Speed,Off,On,0.000000,FALSE,0,,,,,0.000000,0.000000
08:33:46.892 PM 04/07/2016,Teleop Enabled,10,FALSE,0,NO ERROR,-0.000000,3.035076,-0.000000,0.545415,FALSE,FALSE,FALSE,FALSE,FALSE,FALSE,Disabled,0.000000,0.000000,0.000000,TRUE,0.464798,-0.424957,0.000000,0.038864,-0.032516,0.000000,-0.002000,-0.056000,-0.028000,9.670000,-5.420000,2.460000,-119.023062,Hold,0.521240,0.000000,Hold,-107.000000,2.000000,Suck,-1770.000000,1818.181818,Speed,-1770.000000,1818.181818,Speed,Off,On,0.000000,FALSE,0,,,,,0.000000,0.000000
08:33:46.993 PM 04/07/2016,Teleop Enabled,9,FALSE,0,NO ERROR,-0.000000,3.035076,-0.000000,0.545415,FALSE,FALSE,FALSE,FALSE,FALSE,FALSE,Disabled,0.000000,0.000000,0.000000,TRUE,0.465927,-0.427490,0.000000,-0.006836,0.000000,0.000000,0.036000,0.035000,-0.014000,9.670000,-5.570000,2.430000,-119.032440,Hold,0.521240,0.000000,Hold,-107.000000,2.000000,Suck,-1770.000000,1818.181818,Speed,-1762.500000,1818.181818,Speed,Off,On,0.000000,FALSE,0,,,,,0.000000,0.000000
08:33:47.094 PM 04/07/2016,Teleop Enabled,10,FALSE,0,NO ERROR,-0.000000,3.035076,-0.000000,0.545415,FALSE,FALSE,FALSE,FALSE,FALSE,FALSE,Disabled,0.000000,0.000000,0.000000,TRUE,0.465469,-0.427231,0.000000,-0.011627,0.004333,0.000000,0.014000,0.003000,0.093000,9.670000,-5.580000,2.470000,-119.045349,Hold,0.521240,0.000000,Hold,-107.000000,2.000000,Suck,-1770.000000,1818.181818,Speed,-1762.500000,1818.181818,Speed,Off,On,0.000000,FALSE,0,,,,,0.000000,0.000000
08:33:47.196 PM 04/07/2016,Teleop Enabled,11,FALSE,0,NO ERROR,-0.000000,3.035076,-0.000000,0.545415,FALSE,FALSE,FALSE,FALSE,FALSE,FALSE,Disabled,0.000000,0.000000,0.000000,TRUE,0.466049,-0.426880,0.000000,0.029541,0.014557,0.000000,-0.002000,-0.046000,-0.096000,9.660000,-5.500000,2.530000,-119.060555,Hold,0.521240,0.000000,Hold,-108.000000,2.000000,Suck,-1770.000000,1818.181818,Speed,-1740.000000,1818.181818,Speed,Off,On,0.000000,FALSE,0,,,,,0.000000,0.000000
08:33:47.296 PM 04/07/2016,Teleop Enabled,11,FALSE,0,NO ERROR,-0.000000,3.035076,-0.000000,0.545415,FALSE,FALSE,FALSE,FALSE,FALSE,FALSE,Disabled,0.000000,0.000000,0.000000,TRUE,0.467194,-0.426834,0.000000,0.006042,-0.011765,0.000000,-0.072000,0.054000,-0.041000,9.660000,-5.590000,2.460000,-119.070848,Hold,0.521240,0.000000,Hold,-108.000000,2.000000,Suck,-1770.000000,1818.181818,Speed,-1740.000000,1818.181818,Speed,Off,On,0.000000,FALSE,0,,,,,0.000000,0.000000
08:33:47.395 PM 04/07/2016,Teleop Enabled,11,FALSE,0,NO ERROR,-0.000000,3.035076,-0.000000,0.545415,FALSE,FALSE,FALSE,FALSE,FALSE,FALSE,Disabled,0.000000,0.000000,0.000000,TRUE,0.467361,-0.426819,0.000000,0.005234,0.004028,0.000000,-0.095000,0.035000,0.000000,9.670000,-5.600000,2.470000,-119.058331,Hold,0.521240,0.000000,Hold,-108.000000,2.000000,Suck,-1770.000000,1818.181818,Speed,-1747.500000,1818.181818,Speed,Off,On,0.000000,FALSE,0,,,,,0.000000,0.000000
08:33:47.496 PM 04/07/2016,Teleop Enabled,10,FALSE,0,NO ERROR,-0.000000,3.035076,-0.000000,0.545415,FALSE,FALSE,FALSE,FALSE,FALSE,FALSE,Disabled,0.000000,0.000000,0.000000,TRUE,0.468536,-0.426697,0.000000,0.037415,0.011124,0.000000,0.118000,-0.100000,-0.021000,9.660000,-5.460000,2.510000,-119.074239,Hold,0.521240,0.000000,Hold,-108.000000,2.000000,Suck,-1777.500000,1818.181818,Speed,-1777.500000,1818.181818,Speed,Off,On,0.000000,FALSE,0,,,,,0.000000,0.000000
08:33:47.597 PM 04/07/2016,Teleop Enabled,11,FALSE,0,NO ERROR,-0.000000,3.035076,-0.000000,0.545415,FALSE,FALSE,FALSE,FALSE,FALSE,FALSE,Disabled,0.000000,0.000000,0.000000,TRUE,0.471649,-0.427155,0.000000,0.071121,-0.023621,0.000000,0.021000,0.052000,0.013000,9.670000,-5.580000,2.480000,-119.070091,Hold,0.521240,0.000000,Hold,-108.000000,2.000000,Suck,-1770.000000,1818.181818,Speed,-1755.000000,1818.181818,Speed,Off,On,0.000000,FALSE,0,,,,,0.000000,0.000000
08:33:47.697 PM 04/07/2016,Teleop Enabled,11,FALSE,0,NO ERROR,-0.000000,3.035076,-0.000000,0.545415,FALSE,FALSE,FALSE,FALSE,FALSE,FALSE,Disabled,0.000000,0.000000,0.000000,TRUE,0.474930,-0.427277,0.000000,0.067551,0.015991,0.000000,-0.002000,0.005000,0.023000,9.670000,-5.560000,2.480000,-119.073606,Hold,0.521240,0.000000,Hold,-108.000000,2.000000,Suck,-1770.000000,1818.181818,Speed,-1747.500000,1818.181818,Speed,Off,On,0.000000,FALSE,0,,,,,0.000000,0.000000
08:33:47.798 PM 04/07/2016,Teleop Enabled,9,FALSE,0,NO ERROR,-0.000000,3.035076,-0.000000,0.545415,FALSE,FALSE,FALSE,FALSE,FALSE,FALSE,Disabled,0.000000,0.000000,0.000000,TRUE,0.479599,-0.427109,0.000000,0.103409,0.000000,0.000000,-0.082000,0.023000,0.051000,9.670000,-5.480000,2.490000,-119.071403,Hold,0.521240,0.000000,Hold,-108.000000,2.000000,Suck,-1777.500000,1818.181818,Speed,-1777.500000,1818.181818,Speed,Off,On,0.000000,FALSE,0,,,,,0.000000,0.000000
08:33:47.897 PM 04/07/2016,Teleop Enabled,9,FALSE,0,NO ERROR,-0.000000,3.035076,-0.000000,0.545415,FALSE,FALSE,FALSE,FALSE,FALSE,FALSE,Disabled,0.000000,0.000000,0.000000,TRUE,0.483017,-0.426529,0.000000,0.035156,0.022202,0.000000,0.148000,-0.066000,0.007000,9.670000,-5.610000,2.450000,-119.101425,Hold,0.521240,0.000000,Hold,-108.000000,2.000000,Suck,-1777.500000,1818.181818,Speed,-1762.500000,1818.181818,Speed,Off,On,0.000000,FALSE,0,,,,,0.000000,0.000000
08:33:47.998 PM 04/07/2016,Teleop Enabled,10,FALSE,0,NO ERROR,-0.000000,3.035076,-0.000000,0.545415,FALSE,FALSE,FALSE,FALSE,FALSE,FALSE,Disabled,0.000000,0.000000,0.000000,TRUE,0.485855,-0.426025,0.000000,0.064484,0.018295,0.000000,-0.002000,0.045000,0.105000,9.660000,-5.480000,2.470000,-119.104162,Hold,0.521240,0.000000,Hold,-109.000000,2.000000,Suck,-1777.500000,1818.181818,Speed,-1747.500000,1818.181818,Speed,Off,On,0.000000,FALSE,0,,,,,0.000000,0.000000
08:33:48.098 PM 04/07/2016,Teleop Enabled,8,FALSE,0,NO ERROR,-0.000000,3.035076,-0.000000,0.545415,FALSE,FALSE,FALSE,FALSE,FALSE,FALSE,Disabled,0.000000,0.000000,0.000000,TRUE,0.487030,-0.425674,0.000000,0.018585,-0.010040,0.000000,-0.096000,-0.002000,0.001000,9.650000,-5.460000,2.500000,-119.118972,Hold,0.521240,0.000000,Hold,-109.000000,2.000000,Suck,-1770.000000,1818.181818,Speed,-1762.500000,1818.181818,Speed,Off,On,0.000000,FALSE,0,,,,,0.000000,0.000000
08:33:48.198 PM 04/07/2016,Teleop Enabled,11,FALSE,0,NO ERROR,-0.000000,3.035076,-0.000000,0.545415,FALSE,FALSE,FALSE,FALSE,FALSE,FALSE,Disabled,0.000000,0.000000,0.000000,TRUE,0.486832,-0.426605,0.000000,0.000244,-0.017303,0.000000,0.070000,0.014000,0.045000,9.660000,-5.560000,2.460000,-119.128587,Hold,0.521240,0.000000,Hold,-109.000000,2.000000,Suck,-1777.500000,1818.181818,Speed,-1770.000000,1818.181818,Speed,Off,On,0.000000,FALSE,0,,,,,0.000000,0.000000
08:33:48.298 PM 04/07/2016,Teleop Enabled,10,FALSE,0,NO ERROR,-0.000000,3.035076,-0.000000,0.545415,FALSE,FALSE,FALSE,FALSE,FALSE,FALSE,Disabled,0.000000,0.000000,0.000000,TRUE,0.486725,-0.428482,0.000000,-0.004745,-0.058441,0.000000,-0.048000,0.012000,-0.011000,9.650000,-5.470000,2.480000,-119.129472,Hold,0.521240,0.000000,Hold,-109.000000,2.000000,Suck,-1777.500000,1818.181818,Speed,-1762.500000,1818.181818,Speed,Off,On,0.000000,FALSE,0,,,,,0.000000,0.000000
08:33:48.398 PM 04/07/2016,Teleop Enabled,10,FALSE,0,NO ERROR,-0.000000,3.035076,-0.000000,0.545415,FALSE,FALSE,FALSE,FALSE,FALSE,FALSE,Disabled,0.000000,0.000000,0.000000,TRUE,0.486526,-0.427917,0.000000,-0.020172,0.023682,0.000000,-0.121000,0.055000,-0.027000,9.660000,-5.500000,2.480000,-119.131565,Hold,0.521240,0.000000,Hold,-109.000000,2.000000,Suck,-1770.000000,1818.181818,Speed,-1762.500000,1818.181818,Speed,Off,On,0.000000,FALSE,0,,,,,0.000000,0.000000
08:33:48.499 PM 04/07/2016,Teleop Enabled,11,FALSE,0,NO ERROR,-0.000000,3.035076,-0.000000,0.545415,FALSE,FALSE,FALSE,FALSE,FALSE,FALSE,Disabled,0.000000,0.000000,0.000000,TRUE,0.484482,-0.427994,0.000000,-0.042343,-0.007660,0.000000,0.093000,0.016000,0.058000,9.660000,-5.540000,2.450000,-119.138674,Hold,0.521240,0.000000,Hold,-109.000000,2.000000,Suck,-1777.500000,1818.181818,Speed,-1762.500000,1818.181818,Speed,Off,On,0.000000,FALSE,0,,,,,0.000000,0.000000
08:33:48.600 PM 04/07/2016,Teleop Enabled,10,FALSE,0,NO ERROR,-0.000000,3.035076,-0.000000,0.545415,FALSE,FALSE,FALSE,FALSE,FALSE,FALSE,Disabled,0.000000,0.000000,0.000000,TRUE,0.483444,-0.427780,0.000000,-0.019119,0.004059,0.000000,0.025000,-0.062000,-0.067000,9.650000,-5.480000,2.520000,-119.147087,Hold,0.521240,0.000000,Hold,-109.000000,2.000000,Suck,-1770.000000,1818.181818,Speed,-1762.500000,1818.181818,Speed,Off,On,0.000000,FALSE,0,,,,,0.000000,0.000000
08:33:48.701 PM 04/07/2016,Teleop Enabled,11,FALSE,0,NO ERROR,-0.000000,3.035076,-0.000000,0.545415,FALSE,FALSE,FALSE,FALSE,FALSE,FALSE,Disabled,0.000000,0.000000,0.000000,TRUE,0.481781,-0.428009,0.000000,-0.027222,-0.022568,0.000000,-0.058000,-0.067000,-0.030000,9.650000,-5.500000,2.480000,-119.162252,Hold,0.521240,0.000000,Hold,-109.000000,2.000000,Suck,-1770.000000,1818.181818,Speed,-1762.500000,1818.181818,Speed,Off,On,0.000000,FALSE,0,,,,,0.000000,0.000000
08:33:48.803 PM 04/07/2016,Teleop Enabled,10,FALSE,0,NO ERROR,-0.000000,3.035076,-0.000000,0.545415,FALSE,FALSE,FALSE,FALSE,FALSE,FALSE,Disabled,0.000000,0.000000,0.000000,TRUE,0.481506,-0.428116,0.000000,0.008499,0.019623,0.000000,0.159000,-0.055000,0.005000,9.650000,-5.440000,2.460000,-119.189093,Hold,0.521240,0.000000,Hold,-109.000000,2.000000,Suck,-1777.500000,1818.181818,Speed,-1762.500000,1818.181818,Speed,Off,On,0.000000,FALSE,0,,,,,0.000000,0.000000
08:33:48.904 PM 04/07/2016,Teleop Enabled,11,FALSE,0,NO ERROR,-0.000000,3.035076,-0.000000,0.545415,FALSE,FALSE,FALSE,FALSE,FALSE,FALSE,Disabled,0.000000,0.000000,0.000000,TRUE,0.482895,-0.426926,0.000000,0.031525,0.029236,0.000000,-0.072000,0.086000,-0.055000,9.660000,-5.480000,2.450000,-119.206630,Hold,0.521240,0.000000,Hold,-109.000000,2.000000,Suck,-1777.500000,1818.181818,Speed,-1755.000000,1818.181818,Speed,Off,On,0.000000,FALSE,0,,,,,0.000000,0.000000
08:33:49.004 PM 04/07/2016,Teleop Enabled,10,FALSE,0,NO ERROR,-0.000000,3.035076,-0.000000,0.545415,FALSE,FALSE,FALSE,FALSE,FALSE,FALSE,Disabled,0.000000,0.000000,0.000000,TRUE,0.483429,-0.425797,0.000000,0.015121,0.003296,0.000000,-0.023000,0.090000,0.017000,9.650000,-5.470000,2.440000,-119.215801,Hold,0.521240,0.000000,Hold,-109.000000,2.000000,Suck,-1770.000000,1818.181818,Speed,-1770.000000,1818.181818,Speed,Off,On,0.000000,FALSE,0,,,,,0.000000,0.000000
08:33:49.104 PM 04/07/2016,Teleop Enabled,10,FALSE,0,NO ERROR,-0.000000,3.035076,-0.000000,0.545415,FALSE,FALSE,FALSE,FALSE,FALSE,FALSE,Disabled,0.000000,0.000000,0.000000,TRUE,0.486008,-0.423889,0.000000,0.058548,0.046829,0.000000,0.113000,-0.031000,0.029000,9.650000,-5.420000,2.490000,-119.233630,Hold,0.521240,0.000000,Hold,-109.000000,2.000000,Suck,-1770.000000,1818.181818,Speed,-1770.000000,1818.181818,Speed,Off,On,0.000000,FALSE,0,,,,,0.000000,0.000000
08:33:49.204 PM 04/07/2016,Teleop Enabled,10,FALSE,0,NO ERROR,-0.000000,3.035076,-0.000000,0.545415,FALSE,FALSE,FALSE,FALSE,FALSE,FALSE,Disabled,0.000000,0.000000,0.000000,TRUE,0.489578,-0.422791,0.000000,0.085815,0.010559,0.000000,-0.010000,0.015000,0.005000,9.650000,-5.490000,2.530000,-119.252612,Hold,0.521240,0.000000,Hold,-109.000000,2.000000,Suck,-1777.500000,1818.181818,Speed,-1770.000000,1818.181818,Speed,Off,On,0.000000,FALSE,0,,,,,0.000000,0.000000
08:33:49.304 PM 04/07/2016,Teleop Enabled,10,FALSE,0,NO ERROR,-0.000000,3.035076,-0.000000,0.545415,FALSE,FALSE,FALSE,FALSE,FALSE,FALSE,Disabled,0.000000,0.000000,0.000000,TRUE,0.491104,-0.422165,0.000000,0.027008,0.000000,0.000000,0.057000,-0.011000,0.073000,9.660000,-5.420000,2.470000,-119.260850,Hold,0.521240,0.000000,Hold,-109.000000,2.000000,Suck,-1777.500000,1818.181818,Speed,-1747.500000,1818.181818,Speed,Off,On,0.000000,FALSE,0,,,,,0.000000,0.000000
08:33:49.405 PM 04/07/2016,Teleop Enabled,9,FALSE,0,NO ERROR,-0.000000,3.035076,-0.000000,0.545415,FALSE,FALSE,FALSE,FALSE,FALSE,FALSE,Disabled,0.000000,0.000000,0.000000,TRUE,0.492035,-0.422333,0.000000,0.002731,0.008270,0.000000,-0.045000,0.063000,-0.038000,9.650000,-5.410000,2.500000,-119.263215,Hold,0.521240,0.000000,Hold,-109.000000,2.000000,Suck,-1777.500000,1818.181818,Speed,-1755.000000,1818.181818,Speed,Off,On,0.000000,FALSE,0,,,,,0.000000,0.000000
08:33:49.506 PM 04/07/2016,Teleop Enabled,10,FALSE,0,NO ERROR,-0.000000,3.035076,-0.000000,0.545415,FALSE,FALSE,FALSE,FALSE,FALSE,FALSE,Disabled,0.000000,0.000000,0.000000,TRUE,0.491623,-0.421799,0.000000,-0.010269,-0.000366,0.000000,-0.061000,-0.007000,0.025000,9.650000,-5.480000,2.510000,-119.272593,Hold,0.521240,0.000000,Hold,-109.000000,2.000000,Suck,-1777.500000,1818.181818,Speed,-1755.000000,1818.181818,Speed,Off,On,0.000000,FALSE,0,,,,,0.000000,0.000000
08:33:49.607 PM 04/07/2016,Teleop Enabled,8,FALSE,0,NO ERROR,-0.000000,3.035076,-0.000000,0.545415,FALSE,FALSE,FALSE,FALSE,FALSE,FALSE,Disabled,0.000000,0.000000,0.000000,TRUE,0.491226,-0.422089,0.000000,-0.002960,-0.008621,0.000000,0.092000,-0.059000,0.027000,9.650000,-5.410000,2.600000,-119.276507,Hold,0.521240,0.000000,Hold,-109.000000,2.000000,Suck,-1777.500000,1818.181818,Speed,-1762.500000,1818.181818,Speed,Off,On,0.000000,FALSE,0,,,,,0.000000,0.000000
08:33:49.708 PM 04/07/2016,Teleop Enabled,10,FALSE,0,NO ERROR,-0.000000,3.035076,-0.000000,0.545415,FALSE,FALSE,FALSE,FALSE,FALSE,FALSE,Disabled,0.000000,0.000000,0.000000,TRUE,0.490524,-0.422714,0.000000,-0.022995,-0.028915,0.000000,-0.024000,0.012000,0.012000,9.650000,-5.430000,2.560000,-119.283110,Hold,0.521484,0.000000,Hold,-109.000000,2.000000,Suck,-1770.000000,1818.181818,Speed,-1785.000000,1818.181818,Speed,Off,On,0.000000,FALSE,0,,,,,0.000000,0.000000
08:33:49.809 PM 04/07/2016,Teleop Enabled,9,FALSE,0,NO ERROR,-0.000000,3.035076,-0.000000,0.545415,FALSE,FALSE,FALSE,FALSE,FALSE,FALSE,Disabled,0.000000,0.000000,0.000000,TRUE,0.489151,-0.423981,0.000000,-0.033035,-0.032822,0.000000,-0.063000,0.132000,-0.002000,9.650000,-5.420000,2.570000,-119.303324,Hold,0.521484,0.000000,Hold,-109.000000,2.000000,Suck,-1777.500000,1818.181818,Speed,-1785.000000,1818.181818,Speed,Off,On,0.000000,FALSE,0,,,,,0.000000,0.000000
08:33:49.910 PM 04/07/2016,Teleop Enabled,9,FALSE,0,NO ERROR,-0.000000,3.035076,-0.000000,0.545415,FALSE,FALSE,FALSE,FALSE,FALSE,FALSE,Disabled,0.000000,0.000000,0.000000,TRUE,0.487869,-0.425659,0.000000,-0.032166,-0.026352,0.000000,0.004000,-0.048000,0.047000,9.650000,-5.350000,2.650000,-119.302946,Hold,0.521484,0.000000,Hold,-109.000000,2.000000,Suck,-1777.500000,1818.181818,Speed,-1755.000000,1818.181818,Speed,Off,On,0.000000,FALSE,0,,,,,0.000000,0.000000
08:33:50.010 PM 04/07/2016,Teleop Enabled,9,FALSE,0,NO ERROR,-0.000000,3.035076,-0.000000,0.545415,FALSE,FALSE,FALSE,FALSE,FALSE,FALSE,Disabled,0.000000,0.000000,0.000000,TRUE,0.485962,-0.428543,0.000000,-0.041107,-0.063156,0.000000,-0.033000,-0.104000,-0.022000,9.650000,-5.420000,2.510000,-119.310554,Hold,0.521484,0.000000,Hold,-109.000000,2.000000,Suck,-1770.000000,1818.181818,Speed,-1747.500000,1818.181818,Speed,Off,On,0.000000,FALSE,0,,,,,0.000000,0.000000
08:33:50.110 PM 04/07/2016,Teleop Enabled,9,FALSE,0,NO ERROR,-0.000000,3.035076,-0.000000,0.545415,FALSE,FALSE,FALSE,FALSE,FALSE,FALSE,Disabled,0.000000,0.000000,0.000000,TRUE,0.484619,-0.430542,0.000000,-0.045486,-0.058716,0.000000,0.028000,-0.008000,0.058000,9.650000,-5.450000,2.520000,-119.301362,Hold,0.521484,0.000000,Hold,-109.000000,2.000000,Suck,-1777.500000,1818.181818,Speed,-1770.000000,1818.181818,Speed,Off,On,0.000000,FALSE,0,,,,,0.000000,0.000000
08:33:50.210 PM 04/07/2016,Teleop Enabled,10,FALSE,0,NO ERROR,-0.000000,3.035076,-0.000000,0.545415,FALSE,FALSE,FALSE,FALSE,FALSE,FALSE,Disabled,0.000000,0.000000,0.000000,TRUE,0.483078,-0.434769,0.000000,-0.008133,-0.071716,0.000000,-0.032000,-0.004000,0.030000,9.650000,-5.370000,2.540000,-119.313039,Hold,0.521484,0.000000,Hold,-109.000000,2.000000,Suck,-1777.500000,1818.181818,Speed,-1777.500000,1818.181818,Speed,Off,On,0.000000,FALSE,0,,,,,0.000000,0.000000
08:33:50.310 PM 04/07/2016,Teleop Enabled,10,FALSE,0,NO ERROR,-0.000000,3.035076,-0.000000,0.545415,FALSE,FALSE,FALSE,FALSE,FALSE,FALSE,Disabled,0.000000,0.000000,0.000000,TRUE,0.482925,-0.434128,0.000000,-0.019211,0.025879,0.000000,0.088000,-0.025000,0.019000,9.650000,-5.450000,2.500000,-119.317904,Hold,0.521484,0.000000,Hold,-109.000000,2.000000,Suck,-1770.000000,1818.181818,Speed,-1770.000000,1818.181818,Speed,Off,On,0.000000,FALSE,0,,,,,0.000000,0.000000
08:33:50.409 PM 04/07/2016,Teleop Enabled,10,FALSE,0,NO ERROR,-0.000000,3.035076,-0.000000,0.545415,FALSE,FALSE,FALSE,FALSE,FALSE,FALSE,Disabled,0.000000,0.000000,0.000000,TRUE,0.483490,-0.433350,0.000000,0.034744,0.007721,0.000000,-0.021000,0.043000,0.030000,9.650000,-5.410000,2.550000,-119.336490,Hold,0.521484,0.000000,Hold,-109.000000,2.000000,Suck,-1777.500000,1818.181818,Speed,-1770.000000,1818.181818,Speed,Off,On,0.000000,FALSE,0,,,,,0.000000,0.000000
08:33:50.510 PM 04/07/2016,Teleop Enabled,9,FALSE,0,NO ERROR,-0.000000,3.035076,-0.000000,0.545415,FALSE,FALSE,FALSE,FALSE,FALSE,FALSE,Disabled,0.000000,0.000000,0.000000,TRUE,0.483658,-0.432739,0.000000,-0.025299,0.021301,0.000000,-0.021000,0.043000,0.030000,9.650000,-5.500000,2.490000,-119.336917,Hold,0.521484,0.000000,Hold,-109.000000,2.000000,Suck,-1777.500000,1818.181818,Speed,-1770.000000,1818.181818,Speed,Off,On,0.000000,FALSE,0,,,,,0.000000,0.000000
08:33:50.611 PM 04/07/2016,Teleop Enabled,10,FALSE,0,NO ERROR,-0.000000,3.035076,-0.000000,0.545415,FALSE,FALSE,FALSE,FALSE,FALSE,FALSE,Disabled,0.000000,0.000000,0.000000,TRUE,0.482834,-0.432846,0.000000,-0.008438,0.001556,0.000000,0.003000,-0.100000,0.027000,9.650000,-5.440000,2.530000,-119.345231,Hold,0.521484,0.000000,Hold,-109.000000,2.000000,Suck,-1777.500000,1818.181818,Speed,-1762.500000,1818.181818,Speed,Off,On,0.000000,FALSE,0,,,,,0.000000,0.000000
08:33:50.711 PM 04/07/2016,Teleop Enabled,9,FALSE,0,NO ERROR,-0.000000,3.035076,-0.000000,0.545415,FALSE,FALSE,FALSE,FALSE,FALSE,FALSE,Disabled,0.000000,0.000000,0.000000,TRUE,0.482651,-0.432602,0.000000,0.001358,-0.017151,0.000000,-0.098000,0.013000,-0.062000,9.650000,-5.440000,2.530000,-119.363958,Hold,0.521484,0.000000,Hold,-109.000000,2.000000,Suck,-1777.500000,1818.181818,Speed,-1762.500000,1818.181818,Speed,Off,On,0.000000,FALSE,0,,,,,0.000000,0.000000
08:33:50.812 PM 04/07/2016,Teleop Enabled,9,FALSE,0,NO ERROR,-0.000000,3.035076,-0.000000,0.545415,FALSE,FALSE,FALSE,FALSE,FALSE,FALSE,Disabled,0.000000,0.000000,0.000000,TRUE,0.482254,-0.434052,0.000000,-0.008026,0.000000,0.000000,-0.098000,0.013000,-0.062000,9.650000,-5.450000,2.520000,-119.376296,Hold,0.521484,0.000000,Hold,-109.000000,2.000000,Suck,-1777.500000,1818.181818,Speed,-1770.000000,1818.181818,Speed,Off,On,0.000000,FALSE,0,,,,,0.000000,0.000000
08:33:50.911 PM 04/07/2016,Teleop Enabled,10,FALSE,0,NO ERROR,-0.000000,3.035076,-0.000000,0.545415,FALSE,FALSE,FALSE,FALSE,FALSE,FALSE,Disabled,0.000000,0.000000,0.000000,TRUE,0.482162,-0.433807,0.000000,0.001907,0.006287,0.000000,-0.028000,-0.064000,0.010000,9.650000,-5.520000,2.470000,-119.387402,Hold,0.521484,0.000000,Hold,-109.000000,2.000000,Suck,-1777.500000,1818.181818,Speed,-1762.500000,1818.181818,Speed,Off,On,0.000000,FALSE,0,,,,,0.000000,0.000000
08:33:51.011 PM 04/07/2016,Teleop Enabled,11,FALSE,0,NO ERROR,-0.000000,3.035076,-0.000000,0.545415,FALSE,FALSE,FALSE,FALSE,FALSE,FALSE,Disabled,0.000000,0.000000,0.000000,TRUE,0.482178,-0.434494,0.000000,-0.014282,-0.016357,0.000000,-0.028000,-0.064000,0.010000,9.650000,-5.510000,2.490000,-119.407035,Hold,0.521484,0.000000,Hold,-109.000000,2.000000,Suck,-1777.500000,1818.181818,Speed,-1762.500000,1818.181818,Speed,Off,On,0.000000,FALSE,0,,,,,0.000000,0.000000
08:33:51.112 PM 04/07/2016,Teleop Enabled,10,FALSE,0,NO ERROR,-0.000000,3.035076,-0.000000,0.545415,FALSE,FALSE,FALSE,FALSE,FALSE,FALSE,Disabled,0.000000,0.000000,0.000000,TRUE,0.482178,-0.434494,0.000000,-0.014282,-0.016357,0.000000,-0.097000,0.066000,-0.021000,9.650000,-5.540000,2.560000,-119.423635,Hold,0.521484,0.000000,Hold,-109.000000,2.000000,Suck,-1770.000000,1818.181818,Speed,-1770.000000,1818.181818,Speed,Off,On,0.000000,FALSE,0,,,,,0.000000,0.000000
08:33:51.212 PM 04/07/2016,Teleop Enabled,9,FALSE,0,NO ERROR,-0.000000,3.035076,-0.000000,0.545415,FALSE,FALSE,FALSE,FALSE,FALSE,FALSE,Disabled,0.000000,0.000000,0.000000,TRUE,0.479050,-0.437485,0.000000,-0.018875,-0.024811,0.000000,0.165000,-0.069000,0.050000,9.650000,-5.500000,2.480000,-119.436255,Hold,0.521484,0.000000,Hold,-109.000000,2.000000,Suck,-1777.500000,1818.181818,Speed,-1762.500000,1818.181818,Speed,Off,On,0.000000,FALSE,0,,,,,0.000000,0.000000
08:33:51.314 PM 04/07/2016,Teleop Enabled,10,FALSE,0,NO ERROR,-0.000000,3.035076,-0.000000,0.545415,FALSE,FALSE,FALSE,FALSE,FALSE,FALSE,Disabled,0.000000,0.000000,0.000000,TRUE,0.477936,-0.439270,0.000000,-0.027115,-0.055222,0.000000,0.134000,-0.078000,-0.013000,9.660000,-5.530000,2.540000,-119.452941,Hold,0.521484,0.000000,Hold,-109.000000,2.000000,Suck,-1777.500000,1818.181818,Speed,-1762.500000,1818.181818,Speed,Off,On,0.000000,FALSE,0,,,,,0.000000,0.000000
08:33:51.413 PM 04/07/2016,Teleop Enabled,9,FALSE,0,NO ERROR,-0.000000,3.035076,-0.000000,0.545415,FALSE,FALSE,FALSE,FALSE,FALSE,FALSE,Disabled,0.000000,0.000000,0.000000,TRUE,0.477936,-0.439270,0.000000,-0.027115,-0.055222,0.000000,0.101000,-0.081000,0.038000,9.660000,-5.570000,2.500000,-119.466825,Hold,0.521484,0.000000,Hold,-109.000000,2.000000,Suck,-1777.500000,1818.181818,Speed,-1770.000000,1818.181818,Speed,Off,On,0.000000,FALSE,0,,,,,0.000000,0.000000
08:33:51.515 PM 04/07/2016,Teleop Enabled,10,FALSE,0,NO ERROR,-0.000000,3.035076,-0.000000,0.545415,FALSE,FALSE,FALSE,FALSE,FALSE,FALSE,Disabled,0.000000,0.000000,0.000000,TRUE,0.478363,-0.442581,0.000000,0.030670,-0.029221,0.000000,0.010000,0.036000,0.085000,9.650000,-5.450000,2.520000,-119.484906,Hold,0.521484,0.000000,Hold,-109.000000,2.000000,Suck,-1777.500000,1818.181818,Speed,-1755.000000,1818.181818,Speed,Off,On,0.000000,FALSE,0,,,,,0.000000,0.000000
08:33:51.617 PM 04/07/2016,Teleop Enabled,11,FALSE,0,NO ERROR,-0.000000,3.035076,-0.000000,0.545415,FALSE,FALSE,FALSE,FALSE,FALSE,FALSE,Disabled,0.000000,0.000000,0.000000,TRUE,0.479752,-0.443512,0.000000,0.016388,-0.011353,0.000000,0.064000,-0.057000,0.016000,9.650000,-5.520000,2.510000,-119.481776,Hold,0.521484,0.000000,Hold,-109.000000,2.000000,Suck,-1777.500000,1818.181818,Speed,-1762.500000,1818.181818,Speed,Off,On,0.000000,FALSE,0,,,,,0.000000,0.000000
08:33:51.716 PM 04/07/2016,Teleop Enabled,11,FALSE,0,NO ERROR,-0.000000,3.035076,-0.000000,0.545415,FALSE,FALSE,FALSE,FALSE,FALSE,FALSE,Disabled,0.000000,0.000000,0.000000,TRUE,0.480301,-0.444702,0.000000,0.025146,-0.041962,0.000000,-0.058000,0.008000,0.022000,9.660000,-5.580000,2.490000,-119.481776,Hold,0.521484,0.000000,Hold,-109.000000,2.000000,Suck,-1770.000000,1818.181818,Speed,-1770.000000,1818.181818,Speed,Off,On,0.000000,FALSE,0,,,,,0.000000,0.000000
08:33:51.817 PM 04/07/2016,Teleop Enabled,10,FALSE,0,NO ERROR,-0.000000,3.035076,-0.000000,0.545415,FALSE,FALSE,FALSE,FALSE,FALSE,FALSE,Disabled,0.000000,0.000000,0.000000,TRUE,0.482819,-0.445419,0.000000,0.055435,0.004471,0.000000,-0.016000,0.059000,0.034000,9.640000,-5.440000,2.500000,-119.484059,Hold,0.521484,0.000000,Hold,-109.000000,2.000000,Suck,-1777.500000,1818.181818,Speed,-1777.500000,1818.181818,Speed,Off,On,0.000000,FALSE,0,,,,,0.000000,0.000000
08:33:51.916 PM 04/07/2016,Teleop Enabled,11,FALSE,0,NO ERROR,-0.000000,3.035076,-0.000000,0.545415,FALSE,FALSE,FALSE,FALSE,FALSE,FALSE,Disabled,0.000000,0.000000,0.000000,TRUE,0.485748,-0.446350,0.000000,0.049927,-0.046555,0.000000,0.108000,-0.046000,0.021000,9.650000,-5.550000,2.440000,-119.479105,Hold,0.521484,0.000000,Hold,-109.000000,2.000000,Suck,-1777.500000,1818.181818,Speed,-1770.000000,1818.181818,Speed,Off,On,0.000000,FALSE,0,,,,,0.000000,0.000000
08:33:52.017 PM 04/07/2016,Teleop Enabled,11,FALSE,0,NO ERROR,-0.000000,3.035076,-0.000000,0.545415,FALSE,FALSE,FALSE,FALSE,FALSE,FALSE,Disabled,0.000000,0.000000,0.000000,TRUE,0.489517,-0.448486,0.000000,0.089340,-0.044220,0.000000,0.002000,-0.072000,0.049000,9.660000,-5.550000,2.470000,-119.492772,Hold,0.521484,0.000000,Hold,-109.000000,2.000000,Suck,-1777.500000,1818.181818,Speed,-1770.000000,1818.181818,Speed,Off,On,0.000000,FALSE,0,,,,,0.000000,0.000000
08:33:52.117 PM 04/07/2016,Teleop Enabled,12,FALSE,0,NO ERROR,-0.000000,3.035076,-0.000000,0.545415,FALSE,FALSE,FALSE,FALSE,FALSE,FALSE,Disabled,0.000000,0.000000,0.000000,TRUE,0.493408,-0.451187,0.000000,0.070343,-0.064484,0.000000,-0.063000,-0.039000,0.059000,9.640000,-5.460000,2.460000,-119.502762,Hold,0.521484,0.000000,Hold,-109.000000,2.000000,Suck,-1777.500000,1818.181818,Speed,-1770.000000,1818.181818,Speed,Off,On,0.000000,FALSE,0,,,,,0.000000,0.000000
08:33:52.219 PM 04/07/2016,Teleop Enabled,11,FALSE,0,NO ERROR,-0.000000,3.035076,-0.000000,0.545415,FALSE,FALSE,FALSE,FALSE,FALSE,FALSE,Disabled,0.000000,0.000000,0.000000,TRUE,0.496582,-0.455154,0.000000,0.065720,-0.079300,0.000000,0.144000,-0.054000,0.010000,9.650000,-5.550000,2.440000,-119.498173,Hold,0.521484,0.000000,Hold,-109.000000,2.000000,Suck,-1785.000000,1818.181818,Speed,-1762.500000,1818.181818,Speed,Off,On,0.000000,FALSE,0,,,,,0.000000,0.000000
08:33:52.320 PM 04/07/2016,Teleop Enabled,11,FALSE,0,NO ERROR,-0.000000,3.035076,-0.000000,0.545415,FALSE,FALSE,FALSE,FALSE,FALSE,FALSE,Disabled,0.000000,0.000000,0.000000,TRUE,0.500854,-0.460297,0.000000,0.091766,-0.122971,0.000000,-0.041000,-0.050000,0.010000,9.650000,-5.470000,2.480000,-119.496545,Hold,0.521484,0.000000,Hold,-109.000000,2.000000,Suck,-1777.500000,1818.181818,Speed,-1762.500000,1818.181818,Speed,Off,On,0.000000,FALSE,0,,,,,0.000000,0.000000
08:33:52.421 PM 04/07/2016,Teleop Enabled,10,FALSE,0,NO ERROR,-0.000000,3.035076,-0.000000,0.545415,FALSE,FALSE,FALSE,FALSE,FALSE,FALSE,Disabled,0.000000,0.000000,0.000000,TRUE,0.504608,-0.464203,0.000000,0.063232,0.004410,0.000000,0.013000,0.003000,-0.036000,9.660000,-5.580000,2.380000,-119.505368,Hold,0.521484,0.000000,Hold,-109.000000,2.000000,Suck,-1777.500000,1818.181818,Speed,-1777.500000,1818.181818,Speed,Off,On,0.000000,FALSE,0,,,,,0.000000,0.000000
08:33:52.522 PM 04/07/2016,Teleop Enabled,10,FALSE,0,NO ERROR,-0.000000,3.035076,-0.000000,0.545415,FALSE,FALSE,FALSE,FALSE,FALSE,FALSE,Disabled,0.000000,0.000000,0.000000,TRUE,0.508011,-0.463715,0.000000,0.073425,0.005081,0.000000,0.058000,-0.024000,0.048000,9.650000,-5.530000,2.460000,-119.512976,Hold,0.521484,0.000000,Hold,-109.000000,2.000000,Suck,-1777.500000,1818.181818,Speed,-1770.000000,1818.181818,Speed,Off,On,0.000000,FALSE,0,,,,,0.000000,0.000000
08:33:52.623 PM 04/07/2016,Teleop Enabled,10,FALSE,0,NO ERROR,-0.000000,3.035076,-0.000000,0.545415,FALSE,FALSE,FALSE,FALSE,FALSE,FALSE,Disabled,0.000000,0.000000,0.000000,TRUE,0.513031,-0.463455,0.000000,0.109528,0.011765,0.000000,-0.052000,0.025000,0.009000,9.650000,-5.490000,2.430000,-119.534086,Hold,0.521484,0.000000,Hold,-109.000000,2.000000,Suck,-1777.500000,1818.181818,Speed,-1777.500000,1818.181818,Speed,Off,On,0.000000,FALSE,0,,,,,0.000000,0.000000
08:33:52.723 PM 04/07/2016,Teleop Enabled,10,FALSE,0,NO ERROR,-0.000000,3.035076,-0.000000,0.545415,FALSE,FALSE,FALSE,FALSE,FALSE,FALSE,Disabled,0.000000,0.000000,0.000000,TRUE,0.518219,-0.463150,0.000000,0.117004,0.005203,0.000000,0.086000,-0.051000,0.039000,9.650000,-5.480000,2.430000,-119.527869,Hold,0.521484,0.000000,Hold,-109.000000,2.000000,Suck,-1777.500000,1818.181818,Speed,-1770.000000,1818.181818,Speed,Off,On,0.000000,FALSE,0,,,,,0.000000,0.000000
08:33:52.824 PM 04/07/2016,Teleop Enabled,11,FALSE,0,NO ERROR,-0.000000,3.035076,-0.000000,0.545415,FALSE,FALSE,FALSE,FALSE,FALSE,FALSE,Disabled,0.000000,0.000000,0.000000,TRUE,0.520874,-0.461914,0.000000,0.015167,0.022476,0.000000,-0.049000,-0.035000,-0.064000,9.650000,-5.490000,2.480000,-119.538028,Hold,0.521484,0.000000,Hold,-109.000000,2.000000,Suck,-1777.500000,1818.181818,Speed,-1762.500000,1818.181818,Speed,Off,On,0.000000,FALSE,0,,,,,0.000000,0.000000
08:33:52.924 PM 04/07/2016,Teleop Enabled,11,FALSE,0,NO ERROR,-0.000000,3.035076,-0.000000,0.545415,FALSE,FALSE,FALSE,FALSE,FALSE,FALSE,Disabled,0.000000,0.000000,0.000000,TRUE,0.521561,-0.462631,0.000000,0.007736,-0.031982,0.000000,-0.001000,0.088000,0.025000,9.650000,-5.490000,2.410000,-119.548469,Hold,0.521484,0.000000,Hold,-109.000000,2.000000,Suck,-1777.500000,1818.181818,Speed,-1770.000000,1818.181818,Speed,Off,On,0.000000,FALSE,0,,,,,0.000000,0.000000
08:33:53.024 PM 04/07/2016,Teleop Enabled,9,FALSE,0,NO ERROR,-0.000000,3.035076,-0.000000,0.545415,FALSE,FALSE,FALSE,FALSE,FALSE,FALSE,Disabled,0.000000,0.000000,0.000000,TRUE,0.522003,-0.462875,0.000000,0.002274,0.002518,0.000000,0.039000,-0.087000,0.063000,9.640000,-5.470000,2.460000,-119.552834,Hold,0.521484,0.000000,Hold,-109.000000,2.000000,Suck,-1777.500000,1818.181818,Speed,-1770.000000,1818.181818,Speed,Off,On,0.000000,FALSE,0,,,,,0.000000,0.000000
08:33:53.125 PM 04/07/2016,Teleop Enabled,13,FALSE,0,NO ERROR,-0.000000,3.035076,-0.000000,0.545415,FALSE,FALSE,FALSE,FALSE,FALSE,FALSE,Disabled,0.000000,0.000000,0.000000,TRUE,0.521530,-0.464127,0.000000,-0.010651,-0.043365,0.000000,-0.061000,0.018000,0.020000,9.650000,-5.520000,2.490000,-119.555647,Hold,0.521484,0.000000,Hold,-109.000000,2.000000,Suck,-1777.500000,1818.181818,Speed,-1762.500000,1818.181818,Speed,Off,On,0.000000,FALSE,0,,,,,0.000000,0.000000
08:33:53.226 PM 04/07/2016,Teleop Enabled,10,FALSE,0,NO ERROR,-0.000000,3.035076,-0.000000,0.545415,FALSE,FALSE,FALSE,FALSE,FALSE,FALSE,Disabled,0.000000,0.000000,0.000000,TRUE,0.521164,-0.465988,0.000000,-0.004623,-0.023224,0.000000,-0.047000,0.091000,0.083000,9.640000,-5.440000,2.470000,-119.556562,Hold,0.521484,0.000000,Hold,-109.000000,2.000000,Suck,-1785.000000,1818.181818,Speed,-1770.000000,1818.181818,Speed,Off,On,0.000000,FALSE,0,,,,,0.000000,0.000000
08:33:53.326 PM 04/07/2016,Teleop Enabled,8,FALSE,0,NO ERROR,-0.000000,3.035076,-0.000000,0.545415,FALSE,FALSE,FALSE,FALSE,FALSE,FALSE,Disabled,0.000000,0.000000,0.000000,TRUE,0.520935,-0.467911,0.000000,-0.014420,-0.055481,0.000000,0.031000,-0.059000,-0.007000,9.650000,-5.530000,2.490000,-119.563640,Hold,0.521484,0.000000,Hold,-109.000000,2.000000,Suck,-1785.000000,1818.181818,Speed,-1770.000000,1818.181818,Speed,Off,On,0.000000,FALSE,0,,,,,0.000000,0.000000
08:33:53.426 PM 04/07/2016,Teleop Enabled,9,FALSE,0,NO ERROR,-0.000000,3.035076,-0.000000,0.545415,FALSE,FALSE,FALSE,FALSE,FALSE,FALSE,Disabled,0.000000,0.000000,0.000000,TRUE,0.520721,-0.471603,0.000000,0.017563,-0.071426,0.000000,-0.085000,0.084000,-0.009000,9.640000,-5.410000,2.480000,-119.587797,Hold,0.521484,0.000000,Hold,-109.000000,2.000000,Suck,-1777.500000,1818.181818,Speed,-1770.000000,1818.181818,Speed,Off,On,0.000000,FALSE,0,,,,,0.000000,0.000000
08:33:53.527 PM 04/07/2016,Teleop Enabled,11,FALSE,0,NO ERROR,-0.000000,3.035076,-0.000000,0.545415,FALSE,FALSE,FALSE,FALSE,FALSE,FALSE,Disabled,0.000000,0.000000,0.000000,TRUE,0.521454,-0.475037,0.000000,0.002167,-0.074783,0.000000,0.118000,-0.037000,0.062000,9.640000,-5.490000,2.440000,-119.591222,Hold,0.521484,0.000000,Hold,-109.000000,2.000000,Suck,-1785.000000,1818.181818,Speed,-1747.500000,1818.181818,Speed,Off,On,0.000000,FALSE,0,,,,,0.000000,0.000000
08:33:53.628 PM 04/07/2016,Teleop Enabled,8,FALSE,0,NO ERROR,-0.000000,3.035076,-0.000000,0.545415,FALSE,FALSE,FALSE,FALSE,FALSE,FALSE,Disabled,0.000000,0.000000,0.000000,TRUE,0.522324,-0.478363,0.000000,0.013092,-0.048843,0.000000,0.083000,-0.035000,0.030000,9.640000,-5.450000,2.400000,-119.593171,Hold,0.521484,0.000000,Hold,-109.000000,2.000000,Suck,-1785.000000,1818.181818,Speed,-1770.000000,1818.181818,Speed,Off,On,0.000000,FALSE,0,,,,,0.000000,0.000000
08:33:53.728 PM 04/07/2016,Teleop Enabled,10,FALSE,0,NO ERROR,-0.000000,3.035076,-0.000000,0.545415,FALSE,FALSE,FALSE,FALSE,FALSE,FALSE,Disabled,0.000000,0.000000,0.000000,TRUE,0.525116,-0.480850,0.000000,0.043427,-0.031601,0.000000,-0.076000,0.025000,0.009000,9.650000,-5.470000,2.480000,-119.605977,Hold,0.521484,0.000000,Hold,-109.000000,2.000000,Suck,-1777.500000,1818.181818,Speed,-1777.500000,1818.181818,Speed,Off,On,0.000000,FALSE,0,,,,,0.000000,0.000000
08:33:53.829 PM 04/07/2016,Teleop Enabled,10,FALSE,0,NO ERROR,-0.000000,3.035076,-0.000000,0.545415,FALSE,FALSE,FALSE,FALSE,FALSE,FALSE,Disabled,0.000000,0.000000,0.000000,TRUE,0.527802,-0.481613,0.000000,0.051178,0.007599,0.000000,0.071000,-0.007000,0.019000,9.650000,-5.530000,2.440000,-119.601904,Hold,0.521484,0.000000,Hold,-109.000000,2.000000,Suck,-1777.500000,1818.181818,Speed,-1785.000000,1818.181818,Speed,Off,On,0.000000,FALSE,0,,,,,0.000000,0.000000
08:33:53.929 PM 04/07/2016,Teleop Enabled,9,FALSE,0,NO ERROR,-0.000000,3.035076,-0.000000,0.545415,FALSE,FALSE,FALSE,FALSE,FALSE,FALSE,Disabled,0.000000,0.000000,0.000000,TRUE,0.530945,-0.481308,0.000000,0.070267,0.000443,0.000000,-0.015000,0.030000,0.064000,9.640000,-5.430000,2.510000,-119.609953,Hold,0.521484,0.000000,Hold,-109.000000,2.000000,Suck,-1777.500000,1818.181818,Speed,-1762.500000,1818.181818,Speed,Off,On,0.000000,FALSE,0,,,,,0.000000,0.000000
08:33:54.029 PM 04/07/2016,Teleop Enabled,9,FALSE,0,NO ERROR,-0.000000,3.035076,-0.000000,0.545415,FALSE,FALSE,FALSE,FALSE,FALSE,FALSE,Disabled,0.000000,0.000000,0.000000,TRUE,0.532928,-0.480789,0.000000,0.017609,0.016220,0.000000,0.028000,-0.083000,0.000000,9.650000,-5.510000,2.480000,-119.620797,Hold,0.521484,0.000000,Hold,-109.000000,2.000000,Suck,-1785.000000,1818.181818,Speed,-1770.000000,1818.181818,Speed,Off,On,0.000000,FALSE,0,,,,,0.000000,0.000000
08:33:54.129 PM 04/07/2016,Teleop Enabled,10,FALSE,0,NO ERROR,-0.000000,3.035076,-0.000000,0.545415,FALSE,FALSE,FALSE,FALSE,FALSE,FALSE,Disabled,0.000000,0.000000,0.000000,TRUE,0.535294,-0.481155,0.000000,0.067963,-0.018539,0.000000,-0.031000,0.061000,0.068000,9.650000,-5.440000,2.530000,-119.636505,Hold,0.521484,0.000000,Hold,-109.000000,2.000000,Suck,-1777.500000,1818.181818,Speed,-1777.500000,1818.181818,Speed,Off,On,0.000000,FALSE,0,,,,,0.000000,0.000000
08:33:54.230 PM 04/07/2016,Teleop Enabled,9,FALSE,0,NO ERROR,-0.000000,3.035076,-0.000000,0.545415,FALSE,FALSE,FALSE,FALSE,FALSE,FALSE,Disabled,0.000000,0.000000,0.000000,TRUE,0.537888,-0.481827,0.000000,0.045166,-0.015076,0.000000,-0.028000,0.042000,-0.016000,9.650000,-5.510000,2.480000,-119.646575,Hold,0.521484,0.000000,Hold,-109.000000,2.000000,Suck,-1777.500000,1818.181818,Speed,-1770.000000,1818.181818,Speed,Off,On,0.000000,FALSE,0,,,,,0.000000,0.000000
08:33:54.330 PM 04/07/2016,Teleop Enabled,9,FALSE,0,NO ERROR,-0.000000,3.035076,-0.000000,0.545415,FALSE,FALSE,FALSE,FALSE,FALSE,FALSE,Disabled,0.000000,0.000000,0.000000,TRUE,0.538620,-0.481812,0.000000,-0.001724,-0.000931,0.000000,0.067000,-0.132000,-0.016000,9.650000,-5.450000,2.520000,-119.668239,Hold,0.521484,0.000000,Hold,-109.000000,2.000000,Suck,-1785.000000,1818.181818,Speed,-1770.000000,1818.181818,Speed,Off,On,0.000000,FALSE,0,,,,,0.000000,0.000000
08:33:54.431 PM 04/07/2016,Teleop Enabled,11,FALSE,0,NO ERROR,-0.000000,3.035076,-0.000000,0.545415,FALSE,FALSE,FALSE,FALSE,FALSE,FALSE,Disabled,0.000000,0.000000,0.000000,TRUE,0.539185,-0.482056,0.000000,0.008682,0.021500,0.000000,-0.061000,0.038000,-0.007000,9.640000,-5.430000,2.490000,-119.660345,Hold,0.521484,0.000000,Hold,-109.000000,2.000000,Suck,-1785.000000,1818.181818,Speed,-1777.500000,1818.181818,Speed,Off,On,0.000000,FALSE,0,,,,,0.000000,0.000000
08:33:54.531 PM 04/07/2016,Teleop Enabled,10,FALSE,0,NO ERROR,-0.000000,3.035076,-0.000000,0.545415,FALSE,FALSE,FALSE,FALSE,FALSE,FALSE,Disabled,0.000000,0.000000,0.000000,TRUE,0.540146,-0.480331,0.000000,0.033768,0.030746,0.000000,0.118000,-0.128000,0.032000,9.640000,-5.430000,2.520000,-119.674064,Hold,0.521484,0.000000,Hold,-109.000000,2.000000,Suck,-1777.500000,1818.181818,Speed,-1777.500000,1818.181818,Speed,Off,On,0.000000,FALSE,0,,,,,0.000000,0.000000
08:33:54.632 PM 04/07/2016,Teleop Enabled,10,FALSE,0,NO ERROR,-0.000000,3.035076,-0.000000,0.545415,FALSE,FALSE,FALSE,FALSE,FALSE,FALSE,Disabled,0.000000,0.000000,0.000000,TRUE,0.542343,-0.478821,0.000000,0.045914,0.049606,0.000000,-0.037000,0.032000,-0.007000,9.640000,-5.460000,2.490000,-119.682825,Hold,0.521484,0.000000,Hold,-109.000000,2.000000,Suck,-1785.000000,1818.181818,Speed,-1762.500000,1818.181818,Speed,Off,On,0.000000,FALSE,0,,,,,0.000000,0.000000
08:33:54.732 PM 04/07/2016,Teleop Enabled,9,FALSE,0,NO ERROR,-0.000000,3.035076,-0.000000,0.545415,FALSE,FALSE,FALSE,FALSE,FALSE,FALSE,Disabled,0.000000,0.000000,0.000000,TRUE,0.544739,-0.475769,0.000000,0.054153,0.053253,0.000000,0.094000,-0.027000,0.063000,9.630000,-5.400000,2.480000,-119.700155,Hold,0.521484,0.000000,Hold,-109.000000,2.000000,Suck,-1777.500000,1818.181818,Speed,-1777.500000,1818.181818,Speed,Off,On,0.000000,FALSE,0,,,,,0.000000,0.000000
08:33:54.833 PM 04/07/2016,Teleop Enabled,10,FALSE,0,NO ERROR,-0.000000,3.035076,-0.000000,0.545415,FALSE,FALSE,FALSE,FALSE,FALSE,FALSE,Disabled,0.000000,0.000000,0.000000,TRUE,0.548248,-0.472580,0.000000,0.084747,0.066940,0.000000,0.110000,-0.014000,0.018000,9.640000,-5.350000,2.550000,-119.698296,Hold,0.521484,0.000000,Hold,-109.000000,2.000000,Suck,-1785.000000,1818.181818,Speed,-1770.000000,1818.181818,Speed,Off,On,0.000000,FALSE,0,,,,,0.000000,0.000000
08:33:54.935 PM 04/07/2016,Teleop Enabled,7,FALSE,0,NO ERROR,-0.000000,3.035076,-0.000000,0.545415,FALSE,FALSE,FALSE,FALSE,FALSE,FALSE,Disabled,0.000000,0.000000,0.000000,TRUE,0.554443,-0.468735,0.000000,0.108780,0.051025,0.000000,-0.012000,-0.023000,0.002000,9.650000,-5.370000,2.530000,-119.704937,Hold,0.521484,0.000000,Hold,-109.000000,2.000000,Suck,-1785.000000,1818.181818,Speed,-1777.500000,1818.181818,Speed,Off,On,0.000000,FALSE,0,,,,,0.000000,0.000000
08:33:55.036 PM 04/07/2016,Teleop Enabled,10,FALSE,0,NO ERROR,-0.000000,3.035076,-0.000000,0.545415,FALSE,FALSE,FALSE,FALSE,FALSE,FALSE,Disabled,0.000000,0.000000,0.000000,TRUE,0.560196,-0.466431,0.000000,0.101776,0.054047,0.000000,-0.178000,0.068000,0.043000,9.650000,-5.380000,2.550000,-119.713533,Hold,0.521484,0.000000,Hold,-109.000000,2.000000,Suck,-1777.500000,1818.181818,Speed,-1770.000000,1818.181818,Speed,Off,On,0.000000,FALSE,0,,,,,0.000000,0.000000
08:33:55.136 PM 04/07/2016,Teleop Enabled,11,FALSE,0,NO ERROR,-0.000000,3.035076,-0.000000,0.545415,FALSE,FALSE,FALSE,FALSE,FALSE,FALSE,Disabled,0.000000,0.000000,0.000000,TRUE,0.563797,-0.463913,0.000000,0.072922,0.031570,0.000000,-0.178000,0.068000,0.043000,9.670000,-5.440000,2.520000,-119.721802,Hold,0.521484,0.000000,Hold,-109.000000,2.000000,Suck,-1777.500000,1818.181818,Speed,-1770.000000,1818.181818,Speed,Off,On,0.000000,FALSE,0,,,,,0.000000,0.000000
08:33:55.238 PM 04/07/2016,Teleop Enabled,10,FALSE,0,NO ERROR,-0.000000,3.035076,-0.000000,0.545415,FALSE,FALSE,FALSE,FALSE,FALSE,FALSE,Disabled,0.000000,0.000000,0.000000,TRUE,0.567322,-0.461975,0.000000,0.072891,0.054184,0.000000,-0.117000,0.069000,0.014000,9.670000,-5.390000,2.530000,-119.717237,Hold,0.521484,0.000000,Hold,-109.000000,2.000000,Suck,-1777.500000,1818.181818,Speed,-1770.000000,1818.181818,Speed,Off,On,0.000000,FALSE,0,,,,,0.000000,0.000000
08:33:55.339 PM 04/07/2016,Teleop Enabled,11,FALSE,0,NO ERROR,-0.000000,3.035076,-0.000000,0.545415,FALSE,FALSE,FALSE,FALSE,FALSE,FALSE,Disabled,0.000000,0.000000,0.000000,TRUE,0.570663,-0.458618,0.000000,0.057434,0.061554,0.000000,0.137000,-0.073000,0.000000,9.660000,-5.380000,2.520000,-119.731789,Hold,0.521484,0.000000,Hold,-109.000000,2.000000,Suck,-1777.500000,1818.181818,Speed,-1770.000000,1818.181818,Speed,Off,On,0.000000,FALSE,0,,,,,0.000000,0.000000
08:33:55.439 PM 04/07/2016,Teleop Enabled,10,FALSE,0,NO ERROR,-0.000000,3.035076,-0.000000,0.545415,FALSE,FALSE,FALSE,FALSE,FALSE,FALSE,Disabled,0.000000,0.000000,0.000000,TRUE,0.574951,-0.456131,0.000000,0.116287,0.065796,0.000000,-0.066000,0.092000,0.029000,9.660000,-5.410000,2.460000,-119.764338,Hold,0.521484,0.000000,Hold,-109.000000,2.000000,Suck,-1785.000000,1818.181818,Speed,-1777.500000,1818.181818,Speed,Off,On,0.000000,FALSE,0,,,,,0.000000,0.000000
08:33:55.540 PM 04/07/2016,Teleop Enabled,11,FALSE,0,NO ERROR,-0.000000,3.035076,-0.000000,0.545415,FALSE,FALSE,FALSE,FALSE,FALSE,FALSE,Disabled,0.000000,0.000000,0.000000,TRUE,0.580139,-0.450592,0.000000,0.089951,0.129410,0.000000,-0.079000,0.021000,-0.079000,9.660000,-5.440000,2.500000,-119.793183,Hold,0.521484,0.000000,Hold,-109.000000,2.000000,Suck,-1777.500000,1818.181818,Speed,-1777.500000,1818.181818,Speed,Off,On,0.000000,FALSE,0,,,,,0.000000,0.000000
08:33:55.641 PM 04/07/2016,Teleop Enabled,11,FALSE,0,NO ERROR,-0.000000,3.035076,-0.000000,0.545415,FALSE,FALSE,FALSE,FALSE,FALSE,FALSE,Disabled,0.000000,0.000000,0.000000,TRUE,0.585907,-0.443832,0.000000,0.122894,0.123627,0.000000,0.127000,0.025000,0.048000,9.660000,-5.420000,2.470000,-119.801256,Hold,0.521484,0.000000,Hold,-109.000000,2.000000,Suck,-1777.500000,1818.181818,Speed,-1762.500000,1818.181818,Speed,Off,On,0.000000,FALSE,0,,,,,0.000000,0.000000
08:33:55.743 PM 04/07/2016,Teleop Enabled,9,FALSE,0,NO ERROR,-0.000000,3.035076,-0.000000,0.545415,FALSE,FALSE,FALSE,FALSE,FALSE,FALSE,Disabled,0.000000,0.000000,0.000000,TRUE,0.591629,-0.438965,0.000000,0.146912,0.118439,0.000000,-0.055000,0.058000,0.000000,9.660000,-5.390000,2.520000,-119.826762,Hold,0.521484,0.000000,Hold,-109.000000,2.000000,Suck,-1785.000000,1818.181818,Speed,-1777.500000,1818.181818,Speed,Off,On,0.000000,FALSE,0,,,,,0.000000,0.000000
08:33:55.844 PM 04/07/2016,Teleop Enabled,11,FALSE,0,NO ERROR,-0.000000,3.035076,-0.000000,0.545415,FALSE,FALSE,FALSE,FALSE,FALSE,FALSE,Disabled,0.000000,0.000000,0.000000,TRUE,0.601151,-0.431305,0.000000,0.152344,0.111115,0.000000,-0.055000,0.058000,0.000000,9.660000,-5.390000,2.480000,-119.834201,Hold,0.521484,0.000000,Hold,-109.000000,2.000000,Suck,-1785.000000,1818.181818,Speed,-1770.000000,1818.181818,Speed,Off,On,0.000000,FALSE,0,,,,,0.000000,0.000000
08:33:55.945 PM 04/07/2016,Teleop Enabled,11,FALSE,0,NO ERROR,-0.000000,3.035076,-0.000000,0.545415,FALSE,FALSE,FALSE,FALSE,FALSE,FALSE,Disabled,0.000000,0.000000,0.000000,TRUE,0.605682,-0.427567,0.000000,0.137665,0.131027,0.000000,0.027000,-0.144000,-0.079000,9.660000,-5.340000,2.520000,-119.838257,Hold,0.521484,0.000000,Hold,-109.000000,2.000000,Suck,-1777.500000,1818.181818,Speed,-1755.000000,1818.181818,Speed,Off,On,0.000000,FALSE,0,,,,,0.000000,0.000000
08:33:56.045 PM 04/07/2016,Teleop Enabled,11,FALSE,0,NO ERROR,-0.000000,3.035076,-0.000000,0.545415,FALSE,FALSE,FALSE,FALSE,FALSE,FALSE,Disabled,0.000000,0.000000,0.000000,TRUE,0.611969,-0.422073,0.000000,0.116409,0.110596,0.000000,-0.022000,0.057000,0.052000,9.640000,-5.420000,2.540000,-119.869240,Hold,0.521484,0.000000,Hold,-109.000000,2.000000,Suck,-1785.000000,1818.181818,Speed,-1777.500000,1818.181818,Speed,Off,On,0.000000,FALSE,0,,,,,0.000000,0.000000
08:33:56.146 PM 04/07/2016,Teleop Enabled,10,FALSE,0,NO ERROR,-0.000000,3.035076,-0.000000,0.545415,FALSE,FALSE,FALSE,FALSE,FALSE,FALSE,Disabled,0.000000,0.000000,0.000000,TRUE,0.618942,-0.414398,0.000000,0.111115,0.141571,0.000000,0.003000,-0.033000,0.038000,9.630000,-5.340000,2.530000,-119.882962,Hold,0.521484,0.000000,Hold,-109.000000,2.000000,Suck,-1785.000000,1818.181818,Speed,-1785.000000,1818.181818,Speed,Off,On,0.000000,FALSE,0,,,,,0.000000,0.000000
