Time,Robot Mode,Loop Time,Error Status,Error Code,Error Source,Left Motor Output,Left Motor Encoder,Right Motor Output,Right Motor Encoder,Is Level,Is Stalled,Ball Detector Photoeye,Vision Enabled,Vision Teleop Control,Vision Auto Control,Vision Current State,Vision X Output,Vision NavX Error,Vision NavX Target,NavX Connection Status,NavX Displacement X,NavX Displacement Y,NavX Displacement Z,NavX Velocity X,NavX Velocity Y,NavX Velocity Z,NavX Acceleration X,NavX Acceleration Y,NavX Acceleration Z,NavX Pitch,NavX Yaw,NavX Roll,Gyro Angle,Roller Arm State,Roller Arm Actual,Roller Arm Desired,Shooter Arm State,Shooter Arm Actual,Shooter Arm Desired,Shooter State,Actual RPM Left,Desired RPM Left,Control Mode Left,Actual RPM Right,Desired RPM Right,Control Mode Right,Ball Shooter Cylinder,Ball Halo Cylinder,Scaler Motor Output,Scaler Solenoid Fire,Auto To Run,Auto Current File,Auto File Status,Auto Current Command,Auto Trimmed Command,Shooter Amps Left,Shooter Amps Right
08:59:17.780 PM 04/07/2016,Teleop Enabled,10,FALSE,0,NO ERROR,-0.000000,0.000000,-0.000000,0.000000,FALSE,FALSE,FALSE,FALSE,FALSE,FALSE,Disabled,0.000000,0.000000,0.000000,TRUE,0.141937,-0.604416,0.000000,0.021988,0.000000,0.000000,0.012000,-0.015000,0.006000,0.010000,-6.490000,2.460000,-0.064961,ResetBack,-67.602783,-0.000049,ResetBack,-1699.000000,-0.250000,Suck,-52.500000,1818.181818,Speed,0.000000,1818.181818,Speed,Off,On,0.000000,FALSE,0,,,,,0.000000,0.000000
08:59:17.880 PM 04/07/2016,Teleop Enabled,9,FALSE,0,NO ERROR,-0.000000,0.000000,-0.000000,-0.006417,FALSE,FALSE,FALSE,FALSE,FALSE,FALSE,Disabled,0.000000,0.000000,0.000000,TRUE,0.143097,-0.603180,0.000000,0.013290,0.050339,0.000000,0.032000,0.042000,-0.002000,0.000000,-6.420000,2.460000,-0.085369,ResetBack,-68.425781,-0.000049,ResetBack,-1699.000000,-0.250000,Suck,-630.000000,1818.181818,Speed,-30.000000,1818.181818,Speed,Off,On,0.000000,FALSE,0,,,,,0.000000,0.000000
08:59:17.980 PM 04/07/2016,Teleop Enabled,10,FALSE,0,NO ERROR,-0.000000,0.000000,-0.000000,0.000000,FALSE,FALSE,FALSE,FALSE,FALSE,FALSE,Disabled,0.000000,0.000000,0.000000,TRUE,0.144363,-0.599228,0.000000,0.012222,0.086029,0.000000,0.032000,0.042000,-0.002000,0.000000,-6.420000,2.460000,-0.070727,ResetBack,-68.834717,-0.000049,ResetBack,-1698.000000,-0.250000,Suck,-630.000000,1818.181818,Speed,-480.000000,1818.181818,Speed,Off,On,0.000000,FALSE,0,,,,,0.000000,0.000000
08:59:18.081 PM 04/07/2016,Teleop Enabled,9,FALSE,0,NO ERROR,-0.000000,0.000000,-0.000000,0.000000,FALSE,FALSE,FALSE,FALSE,FALSE,FALSE,Disabled,0.000000,0.000000,0.000000,TRUE,0.144363,-0.595169,0.000000,-0.003662,0.071671,0.000000,-0.078000,0.032000,-0.003000,0.010000,-6.440000,2.380000,-0.060293,ResetBack,-68.834717,-0.000049,ResetBack,-1697.000000,-0.250000,Suck,-1282.500000,1818.181818,Speed,-885.000000,1818.181818,Speed,Off,On,0.000000,FALSE,0,,,,,0.000000,0.000000
08:59:18.182 PM 04/07/2016,Teleop Enabled,10,FALSE,0,NO ERROR,-0.000000,0.000000,-0.000000,0.000000,FALSE,FALSE,FALSE,FALSE,FALSE,FALSE,Disabled,0.000000,0.000000,0.000000,TRUE,0.143738,-0.591141,0.000000,-0.008011,0.097656,0.000000,0.047000,-0.002000,-0.006000,0.000000,-6.450000,2.340000,-0.053449,Reset,-68.835205,0.000000,ResetBack,-1070.000000,-0.250000,Suck,-1762.500000,1818.181818,Speed,-1245.000000,1818.181818,Speed,Off,On,0.000000,FALSE,0,,,,,0.000000,0.000000
08:59:18.282 PM 04/07/2016,Teleop Enabled,10,FALSE,0,NO ERROR,-0.000000,0.000000,-0.000000,0.000000,FALSE,FALSE,FALSE,FALSE,FALSE,FALSE,Disabled,0.000000,0.000000,0.000000,TRUE,0.144623,-0.585648,0.000000,0.023956,0.125641,0.000000,-0.182000,0.129000,0.050000,0.000000,-6.420000,2.330000,-0.043300,Hold,0.600098,0.000000,ResetBack,-1070.000000,-0.250000,Suck,-1875.000000,1818.181818,Speed,-1477.500000,1818.181818,Speed,Off,On,0.000000,FALSE,0,,,,,0.000000,0.000000
08:59:18.383 PM 04/07/2016,Teleop Enabled,10,FALSE,0,NO ERROR,-0.000000,0.000000,-0.000000,0.000000,FALSE,FALSE,FALSE,FALSE,FALSE,FALSE,Disabled,0.000000,0.000000,0.000000,TRUE,0.143723,-0.577316,0.000000,-0.029877,0.176392,0.000000,0.019000,-0.061000,0.016000,0.020000,-6.530000,2.390000,-0.044946,Hold,0.616943,0.000000,ResetBack,-978.000000,-0.250000,Suck,-1807.500000,1818.181818,Speed,-1747.500000,1818.181818,Speed,Off,On,0.000000,FALSE,0,,,,,0.000000,0.000000
08:59:18.483 PM 04/07/2016,Teleop Enabled,10,FALSE,0,NO ERROR,-0.000000,0.000000,-0.000000,0.000000,FALSE,FALSE,FALSE,FALSE,FALSE,FALSE,Disabled,0.000000,0.000000,0.000000,TRUE,0.141922,-0.571274,0.000000,-0.062958,0.078018,0.000000,0.019000,-0.061000,0.016000,0.020000,-6.550000,2.370000,-0.034247,Hold,0.616943,0.000000,ResetBack,-310.000000,-0.250000,Suck,-1762.500000,1818.181818,Speed,-1822.500000,1818.181818,Speed,Off,On,0.000000,FALSE,0,,,,,0.000000,0.000000
08:59:18.584 PM 04/07/2016,Teleop Enabled,10,FALSE,0,NO ERROR,-0.000000,0.000000,-0.000000,0.000000,FALSE,FALSE,FALSE,FALSE,FALSE,FALSE,Disabled,0.000000,0.000000,0.000000,TRUE,0.139084,-0.569275,0.000000,-0.042496,0.000092,0.000000,0.147000,-0.054000,0.197000,0.010000,-6.520000,2.370000,-0.015633,Hold,0.617188,0.000000,ResetBack,-276.000000,-0.250000,Suck,-1770.000000,1818.181818,Speed,-1830.000000,1818.181818,Speed,Off,On,0.000000,FALSE,0,,,,,0.000000,0.000000
08:59:18.684 PM 04/07/2016,Teleop Enabled,9,FALSE,0,NO ERROR,-0.000000,0.000000,-0.000000,0.000000,FALSE,FALSE,FALSE,FALSE,FALSE,FALSE,Disabled,0.000000,0.000000,0.000000,TRUE,0.138474,-0.571457,0.000000,-0.014801,-0.088043,0.000000,-0.005000,-0.128000,0.164000,0.020000,-6.520000,2.390000,-0.012689,Hold,0.617188,0.000000,ResetBack,-241.000000,-0.250000,Suck,-1792.500000,1818.181818,Speed,-1807.500000,1818.181818,Speed,Off,On,0.000000,FALSE,0,,,,,0.000000,0.000000
08:59:18.784 PM 04/07/2016,Teleop Enabled,10,FALSE,0,NO ERROR,-0.000000,0.000000,-0.000000,0.000000,FALSE,FALSE,FALSE,FALSE,FALSE,FALSE,Disabled,0.000000,0.000000,0.000000,TRUE,0.137344,-0.578888,0.000000,-0.031723,-0.140411,0.000000,-0.005000,-0.128000,0.164000,0.020000,-6.520000,2.390000,-0.009033,Hold,0.617188,0.000000,ResetBack,-225.000000,-0.250000,Suck,-1792.500000,1818.181818,Speed,-1822.500000,1818.181818,Speed,Off,On,0.000000,FALSE,0,,,,,0.000000,0.000000
08:59:18.883 PM 04/07/2016,Teleop Enabled,11,FALSE,0,NO ERROR,-0.000000,0.000000,-0.000000,0.000000,FALSE,FALSE,FALSE,FALSE,FALSE,FALSE,Disabled,0.000000,0.000000,0.000000,TRUE,0.136810,-0.587753,0.000000,0.003082,-0.184265,0.000000,-0.019000,-0.080000,0.055000,0.020000,-6.540000,2.380000,-0.014490,Hold,0.617188,0.000000,ResetBack,-184.000000,-0.250000,Suck,-1792.500000,1818.181818,Speed,-1612.500000,1818.181818,Speed,Off,On,0.000000,FALSE,0,,,,,0.000000,0.000000
08:59:18.984 PM 04/07/2016,Teleop Enabled,9,FALSE,0,NO ERROR,-0.000000,0.000000,-0.000000,0.000000,FALSE,FALSE,FALSE,FALSE,FALSE,FALSE,Disabled,0.000000,0.000000,0.000000,TRUE,0.136200,-0.596176,0.000000,0.001648,-0.192337,0.000000,-0.120000,0.129000,0.117000,0.010000,-6.480000,2.370000,-0.021809,Hold,0.617188,0.000000,ResetBack,-184.000000,-0.250000,Suck,-1785.000000,1818.181818,Speed,-1477.500000,1818.181818,Speed,Off,On,0.000000,FALSE,0,,,,,0.000000,0.000000
08:59:19.085 PM 04/07/2016,Teleop Enabled,10,FALSE,0,NO ERROR,-0.000000,0.000000,-0.000000,0.000000,FALSE,FALSE,FALSE,FALSE,FALSE,FALSE,Disabled,0.000000,0.000000,0.000000,TRUE,0.136200,-0.596176,0.000000,0.001648,-0.192337,0.000000,-0.078000,-0.122000,0.018000,0.020000,-6.530000,2.380000,-0.007123,Hold,0.617188,0.000000,Reset,-182.000000,2.000000,Suck,-1777.500000,1818.181818,Speed,-1335.000000,1818.181818,Speed,Off,On,0.000000,FALSE,0,,,,,0.000000,0.000000
08:59:19.188 PM 04/07/2016,Teleop Enabled,10,FALSE,0,NO ERROR,-0.000000,0.000000,-0.000000,0.000000,FALSE,FALSE,FALSE,FALSE,FALSE,FALSE,Disabled,0.000000,0.000000,0.000000,TRUE,0.138748,-0.631546,0.000000,0.082153,-0.450638,0.000000,0.064000,-0.276000,0.157000,0.020000,-6.470000,2.440000,-0.024897,Hold,0.617188,0.000000,Hold,-99.000000,2.000000,Suck,-1770.000000,1818.181818,Speed,-202.500000,1818.181818,Speed,Off,On,0.000000,FALSE,0,,,,,0.000000,0.000000
08:59:19.289 PM 04/07/2016,Teleop Enabled,11,FALSE,0,NO ERROR,-0.000000,0.000000,-0.000000,0.000000,FALSE,FALSE,FALSE,FALSE,FALSE,FALSE,Disabled,0.000000,0.000000,0.000000,TRUE,0.138748,-0.631546,0.000000,0.082153,-0.450638,0.000000,0.186000,-0.162000,0.107000,0.020000,-6.460000,2.480000,-0.035827,Hold,0.617676,0.000000,Hold,-111.000000,2.000000,Suck,-1762.500000,1818.181818,Speed,0.000000,1818.181818,Speed,Off,On,0.000000,FALSE,0,,,,,0.000000,0.000000
08:59:19.389 PM 04/07/2016,Teleop Enabled,11,FALSE,0,NO ERROR,-0.000000,0.000000,-0.000000,0.000000,FALSE,FALSE,FALSE,FALSE,FALSE,FALSE,Disabled,0.000000,0.000000,0.000000,TRUE,0.146286,-0.679794,0.000000,-0.009445,-0.496201,0.000000,0.019000,-0.049000,0.002000,0.020000,-6.410000,2.490000,-0.012786,Hold,0.617676,0.000000,Hold,-111.000000,2.000000,Suck,-1762.500000,1818.181818,Speed,0.000000,1818.181818,Speed,Off,On,0.000000,FALSE,0,,,,,0.000000,0.000000
08:59:19.490 PM 04/07/2016,Teleop Enabled,10,FALSE,0,NO ERROR,-0.000000,0.000000,-0.000000,0.000000,FALSE,FALSE,FALSE,FALSE,FALSE,FALSE,Disabled,0.000000,0.000000,0.000000,TRUE,0.146286,-0.679794,0.000000,-0.009445,-0.496201,0.000000,-0.010000,-0.036000,0.063000,0.020000,-6.490000,2.470000,-0.000045,Hold,0.617920,0.000000,Hold,-112.000000,2.000000,Suck,-1770.000000,1818.181818,Speed,0.000000,1818.181818,Speed,Off,On,0.000000,FALSE,0,,,,,0.000000,0.000000
08:59:19.591 PM 04/07/2016,Teleop Enabled,11,FALSE,0,NO ERROR,-0.000000,0.000000,-0.000000,0.000000,FALSE,FALSE,FALSE,FALSE,FALSE,FALSE,Disabled,0.000000,0.000000,0.000000,TRUE,0.144592,-0.710693,0.000000,0.000000,-0.533005,0.000000,0.076000,-0.101000,0.008000,0.010000,-6.440000,2.480000,-0.000045,Hold,0.617920,0.000000,Hold,-112.000000,2.000000,Suck,-1770.000000,1818.181818,Speed,0.000000,1818.181818,Speed,Off,On,0.000000,FALSE,0,,,,,0.000000,0.000000
08:59:19.695 PM 04/07/2016,Teleop Enabled,9,FALSE,0,NO ERROR,-0.000000,0.000000,-0.000000,0.000000,FALSE,FALSE,FALSE,FALSE,FALSE,FALSE,Disabled,0.000000,0.000000,0.000000,TRUE,0.144928,-0.736603,0.000000,0.015564,-0.506531,0.000000,-0.063000,-0.079000,0.024000,0.020000,-6.480000,2.520000,-0.044588,Hold,0.617920,0.000000,Hold,-112.000000,2.000000,Suck,-1777.500000,1818.181818,Speed,0.000000,1818.181818,Speed,Off,On,0.000000,FALSE,0,,,,,0.000000,0.000000
08:59:19.794 PM 04/07/2016,Teleop Enabled,11,FALSE,0,NO ERROR,-0.000000,0.000000,-0.000000,0.000000,FALSE,FALSE,FALSE,FALSE,FALSE,FALSE,Disabled,0.000000,0.000000,0.000000,TRUE,0.145554,-0.762741,0.000000,0.015945,-0.523544,0.000000,0.090000,-0.001000,-0.131000,0.020000,-6.520000,2.540000,-0.044588,Hold,0.617920,0.000000,Hold,-112.000000,2.000000,Suck,-1770.000000,1818.181818,Speed,0.000000,1818.181818,Speed,Off,On,0.000000,FALSE,0,,,,,0.000000,0.000000
08:59:19.895 PM 04/07/2016,Teleop Enabled,10,FALSE,0,NO ERROR,-0.000000,0.000000,-0.000000,0.000000,FALSE,FALSE,FALSE,FALSE,FALSE,FALSE,Disabled,0.000000,0.000000,0.000000,TRUE,0.147034,-0.788513,0.000000,0.039734,-0.522125,0.000000,0.057000,-0.030000,-0.044000,0.020000,-6.470000,2.550000,-0.046013,Hold,0.617920,0.000000,Hold,-112.000000,2.000000,Suck,-1770.000000,1818.181818,Speed,0.000000,1818.181818,Speed,Off,On,0.000000,FALSE,0,,,,,0.000000,0.000000
08:59:19.995 PM 04/07/2016,Teleop Enabled,10,FALSE,0,NO ERROR,-0.000000,0.000000,-0.000000,0.000000,FALSE,FALSE,FALSE,FALSE,FALSE,FALSE,Disabled,0.000000,0.000000,0.000000,TRUE,0.149002,-0.815140,0.000000,0.037430,-0.527374,0.000000,0.051000,0.042000,-0.035000,0.020000,-6.490000,2.530000,-0.037520,Hold,0.617920,0.000000,Hold,-113.000000,2.000000,Suck,-1777.500000,1818.181818,Speed,0.000000,1818.181818,Speed,Off,On,0.000000,FALSE,0,,,,,0.000000,0.000000
08:59:20.096 PM 04/07/2016,Teleop Enabled,9,FALSE,0,NO ERROR,-0.000000,0.000000,-0.000000,0.000000,FALSE,FALSE,FALSE,FALSE,FALSE,FALSE,Disabled,0.000000,0.000000,0.000000,TRUE,0.150146,-0.841537,0.000000,-0.000717,-0.545731,0.000000,0.048000,0.041000,0.114000,0.030000,-6.510000,2.530000,-0.028195,Hold,0.617920,0.000000,Hold,-113.000000,2.000000,Suck,-1777.500000,1818.181818,Speed,0.000000,1818.181818,Speed,Off,On,0.000000,FALSE,0,,,,,0.000000,0.000000
08:59:20.197 PM 04/07/2016,Teleop Enabled,9,FALSE,0,NO ERROR,-0.000000,0.000000,-0.000000,0.000000,FALSE,FALSE,FALSE,FALSE,FALSE,FALSE,Disabled,0.000000,0.000000,0.000000,TRUE,0.152344,-0.872650,0.000000,0.042953,-0.507111,0.000000,0.024000,-0.142000,-0.056000,0.020000,-6.440000,2.520000,-0.029262,Hold,0.617920,0.000000,Hold,-113.000000,2.000000,Suck,-1777.500000,1818.181818,Speed,0.000000,1818.181818,Speed,Off,On,0.000000,FALSE,0,,,,,0.000000,0.000000
08:59:20.296 PM 04/07/2016,Teleop Enabled,10,FALSE,0,NO ERROR,-0.000000,0.000000,-0.000000,0.000000,FALSE,FALSE,FALSE,FALSE,FALSE,FALSE,Disabled,0.000000,0.000000,0.000000,TRUE,0.152527,-0.895279,0.000000,-0.029663,-0.602646,0.000000,0.017000,-0.062000,0.006000,0.020000,-6.430000,2.460000,-0.010138,Hold,0.617920,0.000000,Hold,-113.000000,2.000000,Suck,-1770.000000,1818.181818,Speed,0.000000,1818.181818,Speed,Off,On,0.000000,FALSE,0,,,,,0.000000,0.000000
08:59:20.397 PM 04/07/2016,Teleop Enabled,9,FALSE,0,NO ERROR,-0.000000,0.000000,-0.000000,0.000000,FALSE,FALSE,FALSE,FALSE,FALSE,FALSE,Disabled,0.000000,0.000000,0.000000,TRUE,0.148636,-0.926971,0.000000,-0.096329,-0.643097,0.000000,0.002000,0.014000,-0.040000,0.020000,-6.420000,2.410000,0.015925,Hold,0.617920,0.000000,Hold,-114.000000,2.000000,Suck,-1777.500000,1818.181818,Speed,0.000000,1818.181818,Speed,Off,On,0.000000,FALSE,0,,,,,0.000000,0.000000
08:59:20.497 PM 04/07/2016,Teleop Enabled,11,FALSE,0,NO ERROR,-0.000000,0.000000,-0.000000,0.000000,FALSE,FALSE,FALSE,FALSE,FALSE,FALSE,Disabled,0.000000,0.000000,0.000000,TRUE,0.143005,-0.958176,0.000000,-0.119537,-0.613358,0.000000,-0.074000,0.054000,-0.055000,0.020000,-6.500000,2.430000,0.011064,Hold,0.617920,0.000000,Hold,-114.000000,2.000000,Suck,-1785.000000,1818.181818,Speed,0.000000,1818.181818,Speed,Off,On,0.000000,FALSE,0,,,,,0.000000,0.000000
08:59:20.598 PM 04/07/2016,Teleop Enabled,9,FALSE,0,NO ERROR,-0.000000,0.000000,-0.000000,0.000000,FALSE,FALSE,FALSE,FALSE,FALSE,FALSE,Disabled,0.000000,0.000000,0.000000,TRUE,0.134399,-0.994141,0.000000,-0.146301,-0.604141,0.000000,0.008000,-0.060000,-0.041000,0.020000,-6.470000,2.340000,0.005388,Hold,0.617920,0.000000,Hold,-116.000000,2.000000,Suck,-1777.500000,1818.181818,Speed,0.000000,1818.181818,Speed,Off,On,0.000000,FALSE,0,,,,,0.000000,0.000000
08:59:20.698 PM 04/07/2016,Teleop Enabled,10,FALSE,0,NO ERROR,-0.000000,0.000000,-0.000000,0.000000,FALSE,FALSE,FALSE,FALSE,FALSE,FALSE,Disabled,0.000000,0.000000,0.000000,TRUE,0.125473,-1.026993,0.000000,-0.194687,-0.709686,0.000000,-0.164000,-0.092000,-0.089000,0.020000,-6.340000,2.360000,0.023905,Hold,0.617920,0.000000,Hold,-118.000000,2.000000,Suck,-1777.500000,1818.181818,Speed,0.000000,1818.181818,Speed,Off,On,0.000000,FALSE,0,,,,,0.000000,0.000000
08:59:20.799 PM 04/07/2016,Teleop Enabled,11,FALSE,0,NO ERROR,-0.000000,0.000000,-0.000000,0.000000,FALSE,FALSE,FALSE,FALSE,FALSE,FALSE,Disabled,0.000000,0.000000,0.000000,TRUE,0.112289,-1.064224,0.000000,-0.289719,-0.746185,0.000000,0.093000,0.066000,0.091000,0.020000,-6.430000,2.350000,0.032298,Hold,0.617920,0.000000,Hold,-119.000000,2.000000,Suck,-1777.500000,1818.181818,Speed,0.000000,1818.181818,Speed,Off,On,0.000000,FALSE,0,,,,,0.000000,0.000000
08:59:20.900 PM 04/07/2016,Teleop Enabled,9,FALSE,0,NO ERROR,-0.000000,0.000000,-0.000000,0.000000,FALSE,FALSE,FALSE,FALSE,FALSE,FALSE,Disabled,0.000000,0.000000,0.000000,TRUE,0.100693,-1.098648,0.000000,-0.188980,-0.644150,0.000000,-0.033000,0.078000,0.014000,0.020000,-6.400000,2.320000,0.047497,Hold,0.617920,0.000000,Hold,-119.000000,2.000000,Suck,-1777.500000,1818.181818,Speed,0.000000,1818.181818,Speed,Off,On,0.000000,FALSE,0,,,,,0.000000,0.000000
08:59:21.001 PM 04/07/2016,Teleop Enabled,10,FALSE,0,NO ERROR,-0.000000,0.000000,-0.000000,0.000000,FALSE,FALSE,FALSE,FALSE,FALSE,FALSE,Disabled,0.000000,0.000000,0.000000,TRUE,0.089020,-1.130386,0.000000,-0.297714,-0.665451,0.000000,0.141000,-0.102000,0.093000,0.020000,-6.420000,2.340000,0.057191,Hold,0.617920,0.000000,Hold,-120.000000,2.000000,Suck,-1785.000000,1818.181818,Speed,0.000000,1818.181818,Speed,Off,On,0.000000,TRUE,0,,,,,0.000000,0.000000
08:59:21.102 PM 04/07/2016,Teleop Enabled,9,FALSE,0,NO ERROR,-0.000000,0.000000,-0.000000,0.000000,FALSE,FALSE,FALSE,FALSE,FALSE,FALSE,Disabled,0.000000,0.000000,0.000000,TRUE,0.076752,-1.165237,0.000000,-0.194885,-0.672668,0.000000,0.059000,0.104000,-0.034000,0.010000,-6.390000,2.300000,0.072882,Hold,0.617920,0.000000,Hold,-120.000000,2.000000,Suck,-1777.500000,1818.181818,Speed,0.000000,1818.181818,Speed,Off,On,0.000000,TRUE,0,,,,,0.000000,0.000000
08:59:21.202 PM 04/07/2016,Teleop Enabled,9,FALSE,0,NO ERROR,-0.000000,0.000000,-0.000000,0.000000,FALSE,FALSE,FALSE,FALSE,FALSE,FALSE,Disabled,0.000000,0.000000,0.000000,TRUE,0.060867,-1.203506,0.000000,-0.345261,-0.664444,0.000000,-0.095000,-0.089000,0.002000,0.030000,-6.420000,2.430000,0.135905,Hold,0.617920,0.000000,Hold,-120.000000,2.000000,Suck,-1777.500000,1818.181818,Speed,0.000000,1818.181818,Speed,Off,On,0.000000,TRUE,0,,,,,0.000000,0.000000
08:59:21.303 PM 04/07/2016,Teleop Enabled,10,FALSE,0,NO ERROR,-0.000000,0.000000,-0.000000,0.000000,FALSE,FALSE,FALSE,FALSE,FALSE,FALSE,Disabled,0.000000,0.000000,0.000000,TRUE,0.044830,-1.235458,0.000000,-0.285950,-0.609833,0.000000,-0.017000,-0.173000,-0.028000,0.030000,-6.440000,2.430000,0.129354,Hold,0.617920,0.000000,Hold,-120.000000,2.000000,Suck,-1777.500000,1818.181818,Speed,0.000000,1818.181818,Speed,Off,On,0.000000,TRUE,0,,,,,0.000000,0.000000
08:59:21.403 PM 04/07/2016,Teleop Enabled,10,FALSE,0,NO ERROR,-0.000000,0.000000,-0.000000,0.000000,FALSE,FALSE,FALSE,FALSE,FALSE,FALSE,Disabled,0.000000,0.000000,0.000000,TRUE,0.042450,-1.268143,0.000000,0.034882,-0.664703,0.000000,0.037000,0.064000,-0.158000,0.020000,-6.420000,2.440000,0.138071,Hold,0.617920,0.000000,Hold,-120.000000,2.000000,Suck,-1777.500000,1818.181818,Speed,0.000000,1818.181818,Speed,Off,On,0.000000,TRUE,0,,,,,0.000000,0.000000
08:59:21.503 PM 04/07/2016,Teleop Enabled,8,FALSE,0,NO ERROR,-0.000000,0.000000,-0.000000,0.000000,FALSE,FALSE,FALSE,FALSE,FALSE,FALSE,Disabled,0.000000,0.000000,0.000000,TRUE,0.042603,-1.300034,0.000000,-0.067108,-0.639053,0.000000,-0.097000,-0.063000,0.079000,0.020000,-6.470000,2.430000,0.128301,Hold,0.617920,0.000000,Hold,-120.000000,2.000000,Suck,-1785.000000,1818.181818,Speed,0.000000,1818.181818,Speed,Off,On,0.000000,TRUE,0,,,,,0.000000,0.000000
08:59:21.604 PM 04/07/2016,Teleop Enabled,7,FALSE,0,NO ERROR,-0.000000,0.000000,-0.000000,0.000000,FALSE,FALSE,FALSE,FALSE,FALSE,FALSE,Disabled,0.000000,0.000000,0.000000,TRUE,0.039734,-1.332321,0.000000,-0.026688,-0.625778,0.000000,-0.043000,-0.096000,-0.152000,0.020000,-6.370000,2.410000,0.138053,Hold,0.617920,0.000000,Hold,-120.000000,2.000000,Suck,-1777.500000,1818.181818,Speed,0.000000,1818.181818,Speed,Off,On,0.000000,TRUE,0,,,,,0.000000,0.000000
08:59:21.703 PM 04/07/2016,Teleop Enabled,10,FALSE,0,NO ERROR,-0.000000,0.000000,-0.000000,0.000000,FALSE,FALSE,FALSE,FALSE,FALSE,FALSE,Disabled,0.000000,0.000000,0.000000,TRUE,0.039398,-1.366089,0.000000,0.036438,-0.704742,0.000000,0.003000,0.162000,-0.003000,0.020000,-6.400000,2.350000,0.132284,Hold,0.617920,0.000000,Hold,-120.000000,2.000000,Suck,-1777.500000,1818.181818,Speed,0.000000,1818.181818,Speed,Off,On,0.000000,FALSE,0,,,,,0.000000,0.000000
08:59:21.804 PM 04/07/2016,Teleop Enabled,11,FALSE,0,NO ERROR,-0.000000,0.000000,-0.000000,0.000000,FALSE,FALSE,FALSE,FALSE,FALSE,FALSE,Disabled,0.000000,0.000000,0.000000,TRUE,0.043457,-1.399338,0.000000,0.059616,-0.675018,0.000000,0.047000,-0.074000,0.183000,0.030000,-6.420000,2.400000,0.151173,Hold,0.617920,0.000000,Hold,-120.000000,2.000000,Suck,-1785.000000,1818.181818,Speed,0.000000,1818.181818,Speed,Off,On,0.000000,FALSE,0,,,,,0.000000,0.000000
08:59:21.904 PM 04/07/2016,Teleop Enabled,10,FALSE,0,NO ERROR,-0.000000,0.000000,-0.000000,0.000000,FALSE,FALSE,FALSE,FALSE,FALSE,FALSE,Disabled,0.000000,0.000000,0.000000,TRUE,0.048126,-1.412628,0.000000,0.002716,0.023926,0.000000,-0.117000,-0.065000,0.036000,0.050000,-6.470000,2.440000,0.108014,Hold,0.617920,0.000000,Hold,-122.000000,2.000000,Suck,-1777.500000,1818.181818,Speed,0.000000,1818.181818,Speed,Off,On,0.000000,FALSE,0,,,,,0.000000,0.000000
08:59:22.005 PM 04/07/2016,Teleop Enabled,8,FALSE,0,NO ERROR,-0.000000,-0.019250,-0.000000,-0.032083,FALSE,FALSE,FALSE,FALSE,FALSE,FALSE,Disabled,0.000000,0.000000,0.000000,TRUE,0.045013,-1.410034,0.000000,-0.077148,0.075378,0.000000,-0.259000,0.054000,0.085000,0.080000,-6.390000,2.350000,0.141944,Hold,0.617920,0.000000,Hold,-127.000000,2.000000,Suck,-1777.500000,1818.181818,Speed,-2362.500000,1818.181818,Speed,Off,On,0.000000,FALSE,0,,,,,0.000000,0.000000
08:59:22.106 PM 04/07/2016,Teleop Enabled,10,FALSE,0,NO ERROR,-0.000000,0.006417,-0.000000,0.051333,FALSE,FALSE,FALSE,FALSE,FALSE,FALSE,Disabled,0.000000,0.000000,0.000000,TRUE,0.039429,-1.407623,0.000000,-0.123032,0.070786,0.000000,0.173000,0.059000,0.022000,0.070000,-6.610000,2.480000,0.137854,Hold,0.617920,0.000000,Hold,-128.000000,2.000000,Suck,-1777.500000,1818.181818,Speed,-4215.000000,1818.181818,Speed,Off,On,0.000000,FALSE,0,,,,,0.000000,0.000000
08:59:22.207 PM 04/07/2016,Teleop Enabled,11,FALSE,0,NO ERROR,-0.000000,-0.019250,-0.000000,0.000000,FALSE,FALSE,FALSE,FALSE,FALSE,FALSE,Disabled,0.000000,0.000000,0.000000,TRUE,0.036697,-1.401398,0.000000,-0.063858,0.116470,0.000000,0.008000,0.037000,-0.035000,0.010000,-6.310000,2.340000,0.157060,Hold,0.617920,0.000000,Hold,-128.000000,2.000000,Suck,-1740.000000,1818.181818,Speed,-2895.000000,1818.181818,Speed,Off,On,0.000000,FALSE,0,,,,,0.000000,0.000000
08:59:22.309 PM 04/07/2016,Teleop Enabled,11,FALSE,0,NO ERROR,-0.000000,-0.025667,-0.000000,-0.006417,FALSE,FALSE,FALSE,FALSE,FALSE,FALSE,Disabled,0.000000,0.000000,0.000000,TRUE,0.035004,-1.393524,0.000000,-0.022842,0.192062,0.000000,0.056000,0.084000,-0.032000,0.010000,-6.400000,2.370000,0.131389,Hold,0.618164,0.000000,Hold,-128.000000,2.000000,Suck,-1732.500000,1818.181818,Speed,-1702.500000,1818.181818,Speed,Off,On,0.000000,FALSE,0,,,,,0.000000,0.000000
08:59:22.410 PM 04/07/2016,Teleop Enabled,11,FALSE,0,NO ERROR,-0.000000,-0.019250,-0.000000,0.006417,FALSE,FALSE,FALSE,FALSE,FALSE,FALSE,Disabled,0.000000,0.000000,0.000000,TRUE,0.034286,-1.383575,0.000000,-0.017349,0.196030,0.000000,0.076000,0.045000,0.028000,0.040000,-6.500000,2.400000,0.196949,Hold,0.618164,0.000000,Hold,-128.000000,2.000000,Suck,-1777.500000,1818.181818,Speed,-1485.000000,1818.181818,Speed,Off,On,0.000000,FALSE,0,,,,,0.000000,0.000000
08:59:22.511 PM 04/07/2016,Teleop Enabled,10,FALSE,0,NO ERROR,-0.000000,-0.025667,-0.000000,0.006417,FALSE,FALSE,FALSE,FALSE,FALSE,FALSE,Disabled,0.000000,0.000000,0.000000,TRUE,0.034027,-1.374344,0.000000,0.000000,0.000000,0.000000,-0.098000,0.025000,0.067000,0.030000,-6.450000,2.350000,0.146508,Hold,0.618164,0.000000,Hold,-128.000000,2.000000,Suck,-1792.500000,1818.181818,Speed,-1762.500000,1818.181818,Speed,Off,On,0.000000,FALSE,0,,,,,0.000000,0.000000
08:59:22.611 PM 04/07/2016,Teleop Enabled,11,FALSE,0,NO ERROR,-0.000000,-0.025667,-0.000000,0.006417,FALSE,FALSE,FALSE,FALSE,FALSE,FALSE,Disabled,0.000000,0.000000,0.000000,TRUE,0.033630,-1.374100,0.000000,-0.010681,-0.004166,0.000000,-0.020000,-0.118000,0.104000,0.050000,-6.520000,2.390000,0.183027,Hold,0.618164,0.000000,Hold,-128.000000,2.000000,Suck,-1785.000000,1818.181818,Speed,-1882.500000,1818.181818,Speed,Off,On,0.000000,FALSE,0,,,,,0.000000,0.000000
08:59:22.711 PM 04/07/2016,Teleop Enabled,9,FALSE,0,NO ERROR,-0.000000,-0.025667,-0.000000,0.006417,FALSE,FALSE,FALSE,FALSE,FALSE,FALSE,Disabled,0.000000,0.000000,0.000000,TRUE,0.033051,-1.374954,0.000000,-0.009918,0.000015,0.000000,-0.010000,-0.036000,0.032000,0.030000,-6.440000,2.400000,0.161904,Hold,0.618164,0.000000,Hold,-128.000000,2.000000,Suck,-1792.500000,1818.181818,Speed,-1830.000000,1818.181818,Speed,Off,On,0.000000,FALSE,0,,,,,0.000000,0.000000
08:59:22.812 PM 04/07/2016,Teleop Enabled,12,FALSE,0,NO ERROR,-0.000000,-0.025667,-0.000000,0.006417,FALSE,FALSE,FALSE,FALSE,FALSE,FALSE,Disabled,0.000000,0.000000,0.000000,TRUE,0.031891,-1.374832,0.000000,-0.040009,0.013474,0.000000,-0.050000,-0.031000,0.066000,0.000000,-6.420000,2.370000,0.175653,Hold,0.618164,0.000000,Hold,-128.000000,2.000000,Suck,-1792.500000,1818.181818,Speed,-1777.500000,1818.181818,Speed,Off,On,0.000000,FALSE,0,,,,,0.000000,0.000000
08:59:22.913 PM 04/07/2016,Teleop Enabled,9,FALSE,0,NO ERROR,-0.000000,-0.025667,-0.000000,0.006417,FALSE,FALSE,FALSE,FALSE,FALSE,FALSE,Disabled,0.000000,0.000000,0.000000,TRUE,0.030121,-1.374863,0.000000,-0.020660,0.000000,0.000000,-0.050000,-0.031000,0.066000,0.040000,-6.450000,2.380000,0.203283,Hold,0.618164,0.000000,Hold,-128.000000,2.000000,Suck,-1792.500000,1818.181818,Speed,-1777.500000,1818.181818,Speed,Off,On,0.000000,FALSE,0,,,,,0.000000,0.000000
08:59:23.015 PM 04/07/2016,Teleop Enabled,10,FALSE,0,NO ERROR,-0.000000,-0.025667,-0.000000,0.006417,FALSE,FALSE,FALSE,FALSE,FALSE,FALSE,Disabled,0.000000,0.000000,0.000000,TRUE,0.029663,-1.374542,0.000000,-0.000885,0.015518,0.000000,-0.031000,0.023000,0.045000,0.030000,-6.350000,2.360000,0.223532,Hold,0.618164,0.000000,Hold,-128.000000,2.000000,Suck,-1792.500000,1818.181818,Speed,-1785.000000,1818.181818,Speed,Off,On,0.000000,FALSE,0,,,,,0.000000,0.000000
08:59:23.115 PM 04/07/2016,Teleop Enabled,10,FALSE,0,NO ERROR,-0.000000,-0.025667,-0.000000,0.006417,FALSE,FALSE,FALSE,FALSE,FALSE,FALSE,Disabled,0.000000,0.000000,0.000000,TRUE,0.029419,-1.373123,0.000000,-0.003769,0.032150,0.000000,-0.082000,-0.013000,-0.049000,0.040000,-6.440000,2.420000,0.230865,Hold,0.618164,0.000000,Hold,-128.000000,2.000000,Suck,-1785.000000,1818.181818,Speed,-1792.500000,1818.181818,Speed,Off,On,0.000000,FALSE,0,,,,,0.000000,0.000000
08:59:23.216 PM 04/07/2016,Teleop Enabled,11,FALSE,0,NO ERROR,-0.000000,-0.025667,-0.000000,0.006417,FALSE,FALSE,FALSE,FALSE,FALSE,FALSE,Disabled,0.000000,0.000000,0.000000,TRUE,0.028854,-1.372726,0.000000,-0.013840,-0.012772,0.000000,-0.026000,0.000000,0.015000,0.030000,-6.400000,2.390000,0.235168,Hold,0.618164,0.000000,Hold,-128.000000,2.000000,Suck,-1792.500000,1818.181818,Speed,-1815.000000,1818.181818,Speed,Off,On,0.000000,FALSE,0,,,,,0.000000,0.000000
08:59:23.316 PM 04/07/2016,Teleop Enabled,9,FALSE,0,NO ERROR,-0.000000,-0.025667,-0.000000,0.006417,FALSE,FALSE,FALSE,FALSE,FALSE,FALSE,Disabled,0.000000,0.000000,0.000000,TRUE,0.027237,-1.372269,0.000000,-0.045975,0.025818,0.000000,-0.044000,0.018000,0.052000,0.030000,-6.440000,2.370000,0.245324,Hold,0.618164,0.000000,Hold,-128.000000,2.000000,Suck,-1792.500000,1818.181818,Speed,-1822.500000,1818.181818,Speed,Off,On,0.000000,FALSE,0,,,,,0.000000,0.000000
08:59:23.416 PM 04/07/2016,Teleop Enabled,11,FALSE,0,NO ERROR,-0.000000,-0.025667,-0.000000,0.006417,FALSE,FALSE,FALSE,FALSE,FALSE,FALSE,Disabled,0.000000,0.000000,0.000000,TRUE,0.024551,-1.370392,0.000000,-0.042450,0.041946,0.000000,0.000000,-0.009000,0.067000,0.030000,-6.420000,2.350000,0.252815,Hold,0.618164,0.000000,Hold,-128.000000,2.000000,Suck,-1792.500000,1818.181818,Speed,-1800.000000,1818.181818,Speed,Off,On,0.000000,FALSE,0,,,,,0.000000,0.000000
08:59:23.516 PM 04/07/2016,Teleop Enabled,10,FALSE,0,NO ERROR,-0.000000,-0.025667,-0.000000,0.006417,FALSE,FALSE,FALSE,FALSE,FALSE,FALSE,Disabled,0.000000,0.000000,0.000000,TRUE,0.023987,-1.370682,0.000000,-0.021332,-0.008179,0.000000,-0.032000,-0.014000,0.041000,0.030000,-6.450000,2.370000,0.263232,Hold,0.618164,0.000000,Hold,-128.000000,2.000000,Suck,-1785.000000,1818.181818,Speed,-1770.000000,1818.181818,Speed,Off,On,0.000000,FALSE,0,,,,,0.000000,0.000000
08:59:23.616 PM 04/07/2016,Teleop Enabled,9,FALSE,0,NO ERROR,-0.000000,-0.025667,-0.000000,0.006417,FALSE,FALSE,FALSE,FALSE,FALSE,FALSE,Disabled,0.000000,0.000000,0.000000,TRUE,0.022552,-1.370651,0.000000,-0.009033,0.025986,0.000000,0.023000,0.069000,0.050000,0.030000,-6.450000,2.370000,0.262743,Hold,0.618164,0.000000,Hold,-128.000000,2.000000,Suck,-1792.500000,1818.181818,Speed,-1800.000000,1818.181818,Speed,Off,On,0.000000,FALSE,0,,,,,0.000000,0.000000
08:59:23.716 PM 04/07/2016,Teleop Enabled,10,FALSE,0,NO ERROR,-0.000000,-0.025667,-0.000000,0.006417,FALSE,FALSE,FALSE,FALSE,FALSE,FALSE,Disabled,0.000000,0.000000,0.000000,TRUE,0.021652,-1.369507,0.000000,-0.023972,-0.001572,0.000000,0.023000,0.069000,0.050000,0.020000,-6.360000,2.380000,0.270385,Hold,0.618164,0.000000,Hold,-128.000000,2.000000,Suck,-1785.000000,1818.181818,Speed,-1815.000000,1818.181818,Speed,Off,On,0.000000,FALSE,0,,,,,0.000000,0.000000
08:59:23.816 PM 04/07/2016,Teleop Enabled,10,FALSE,0,NO ERROR,-0.000000,-0.025667,-0.000000,0.006417,FALSE,FALSE,FALSE,FALSE,FALSE,FALSE,Disabled,0.000000,0.000000,0.000000,TRUE,0.021652,-1.369507,0.000000,-0.023972,-0.001572,0.000000,0.009000,0.007000,0.065000,0.030000,-6.420000,2.380000,0.260405,Hold,0.618164,0.000000,Hold,-128.000000,2.000000,Suck,-1785.000000,1818.181818,Speed,-1815.000000,1818.181818,Speed,Off,On,0.000000,FALSE,0,,,,,0.000000,0.000000
08:59:23.915 PM 04/07/2016,Teleop Enabled,11,FALSE,0,NO ERROR,-0.000000,-0.025667,-0.000000,0.006417,FALSE,FALSE,FALSE,FALSE,FALSE,FALSE,Disabled,0.000000,0.000000,0.000000,TRUE,0.020813,-1.368210,0.000000,-0.021103,0.020325,0.000000,-0.015000,-0.059000,-0.008000,0.030000,-6.360000,2.380000,0.256842,Hold,0.618164,0.000000,Hold,-128.000000,2.000000,Suck,-1785.000000,1818.181818,Speed,-1800.000000,1818.181818,Speed,Off,On,0.000000,FALSE,0,,,,,0.000000,0.000000
08:59:24.016 PM 04/07/2016,Teleop Enabled,10,FALSE,0,NO ERROR,-0.000000,-0.025667,-0.000000,0.006417,FALSE,FALSE,FALSE,FALSE,FALSE,FALSE,Disabled,0.000000,0.000000,0.000000,TRUE,0.019806,-1.367981,0.000000,-0.017334,-0.001984,0.000000,-0.015000,-0.059000,-0.008000,0.030000,-6.360000,2.380000,0.258068,Hold,0.618164,0.000000,Hold,-128.000000,2.000000,Suck,-1792.500000,1818.181818,Speed,-1770.000000,1818.181818,Speed,Off,On,0.000000,FALSE,0,,,,,0.000000,0.000000
08:59:24.116 PM 04/07/2016,Teleop Enabled,11,FALSE,0,NO ERROR,-0.000000,-0.025667,-0.000000,0.006417,FALSE,FALSE,FALSE,FALSE,FALSE,FALSE,Disabled,0.000000,0.000000,0.000000,TRUE,0.016968,-1.367111,0.000000,-0.064774,0.000000,0.000000,-0.081000,0.028000,0.105000,0.020000,-6.360000,2.370000,0.269683,Hold,0.618164,0.000000,Hold,-128.000000,2.000000,Suck,-1792.500000,1818.181818,Speed,-1785.000000,1818.181818,Speed,Off,On,0.000000,FALSE,0,,,,,0.000000,0.000000
08:59:24.216 PM 04/07/2016,Teleop Enabled,10,FALSE,0,NO ERROR,-0.000000,-0.025667,-0.000000,0.006417,FALSE,FALSE,FALSE,FALSE,FALSE,FALSE,Disabled,0.000000,0.000000,0.000000,TRUE,0.016968,-1.367111,0.000000,-0.064774,0.000000,0.000000,-0.028000,0.019000,-0.030000,0.020000,-6.430000,2.340000,0.284868,Hold,0.618164,0.000000,Hold,-128.000000,2.000000,Suck,-1792.500000,1818.181818,Speed,-1792.500000,1818.181818,Speed,Off,On,0.000000,FALSE,0,,,,,0.000000,0.000000
08:59:24.316 PM 04/07/2016,Teleop Enabled,9,FALSE,0,NO ERROR,-0.000000,-0.025667,-0.000000,0.006417,FALSE,FALSE,FALSE,FALSE,FALSE,FALSE,Disabled,0.000000,0.000000,0.000000,TRUE,0.013260,-1.367691,0.000000,-0.024673,0.008118,0.000000,0.032000,-0.036000,-0.028000,0.020000,-6.390000,2.350000,0.288059,Hold,0.618164,0.000000,Hold,-128.000000,2.000000,Suck,-1792.500000,1818.181818,Speed,-1792.500000,1818.181818,Speed,Off,On,0.000000,FALSE,0,,,,,0.000000,0.000000
08:59:24.416 PM 04/07/2016,Teleop Enabled,9,FALSE,0,NO ERROR,-0.000000,-0.025667,-0.000000,0.006417,FALSE,FALSE,FALSE,FALSE,FALSE,FALSE,Disabled,0.000000,0.000000,0.000000,TRUE,0.011368,-1.365585,0.000000,-0.033569,0.038010,0.000000,0.022000,0.006000,0.061000,0.020000,-6.410000,2.340000,0.294535,Hold,0.618164,0.000000,Hold,-128.000000,2.000000,Suck,-1792.500000,1818.181818,Speed,-1785.000000,1818.181818,Speed,Off,On,0.000000,FALSE,0,,,,,0.000000,0.000000
08:59:24.516 PM 04/07/2016,Teleop Enabled,10,FALSE,0,NO ERROR,-0.000000,-0.025667,-0.000000,0.006417,FALSE,FALSE,FALSE,FALSE,FALSE,FALSE,Disabled,0.000000,0.000000,0.000000,TRUE,0.009598,-1.364655,0.000000,-0.023788,0.000702,0.000000,0.118000,-0.024000,0.007000,0.020000,-6.410000,2.340000,0.299589,Hold,0.618164,0.000000,Hold,-128.000000,2.000000,Suck,-1792.500000,1818.181818,Speed,-1785.000000,1818.181818,Speed,Off,On,0.000000,FALSE,0,,,,,0.000000,0.000000
08:59:24.617 PM 04/07/2016,Teleop Enabled,9,FALSE,0,NO ERROR,-0.000000,-0.025667,-0.000000,0.006417,FALSE,FALSE,FALSE,FALSE,FALSE,FALSE,Disabled,0.000000,0.000000,0.000000,TRUE,0.007874,-1.364044,0.000000,-0.047333,0.013214,0.000000,0.030000,0.057000,0.062000,0.020000,-6.360000,2.340000,0.304883,Hold,0.618164,0.000000,Hold,-128.000000,2.000000,Suck,-1792.500000,1818.181818,Speed,-1815.000000,1818.181818,Speed,Off,On,0.000000,FALSE,0,,,,,0.000000,0.000000
08:59:24.717 PM 04/07/2016,Teleop Enabled,10,FALSE,0,NO ERROR,-0.000000,-0.025667,-0.000000,0.006417,FALSE,FALSE,FALSE,FALSE,FALSE,FALSE,Disabled,0.000000,0.000000,0.000000,TRUE,0.006058,-1.363556,0.000000,-0.031982,0.012497,0.000000,0.029000,-0.005000,0.082000,0.020000,-6.410000,2.350000,0.310918,Hold,0.618164,0.000000,Hold,-128.000000,2.000000,Suck,-1785.000000,1818.181818,Speed,-1785.000000,1818.181818,Speed,Off,On,0.000000,FALSE,0,,,,,0.000000,0.000000
08:59:24.818 PM 04/07/2016,Teleop Enabled,10,FALSE,0,NO ERROR,-0.000000,-0.025667,-0.000000,0.006417,FALSE,FALSE,FALSE,FALSE,FALSE,FALSE,Disabled,0.000000,0.000000,0.000000,TRUE,0.006058,-1.363556,0.000000,-0.031982,0.012497,0.000000,0.025000,0.001000,-0.026000,0.020000,-6.340000,2.380000,0.317610,Hold,0.618164,0.000000,Hold,-128.000000,2.000000,Suck,-1792.500000,1818.181818,Speed,-1792.500000,1818.181818,Speed,Off,On,0.000000,FALSE,0,,,,,0.000000,0.000000
08:59:24.918 PM 04/07/2016,Teleop Enabled,11,FALSE,0,NO ERROR,-0.000000,-0.025667,-0.000000,0.006417,FALSE,FALSE,FALSE,FALSE,FALSE,FALSE,Disabled,0.000000,0.000000,0.000000,TRUE,0.004868,-1.364059,0.000000,0.002289,-0.025360,0.000000,0.068000,0.007000,0.027000,0.020000,-6.350000,2.370000,0.317610,Hold,0.618164,0.000000,Hold,-128.000000,2.000000,Suck,-1800.000000,1818.181818,Speed,-1800.000000,1818.181818,Speed,Off,On,0.000000,FALSE,0,,,,,0.000000,0.000000
08:59:25.018 PM 04/07/2016,Teleop Enabled,9,FALSE,0,NO ERROR,-0.000000,-0.025667,-0.000000,0.006417,FALSE,FALSE,FALSE,FALSE,FALSE,FALSE,Disabled,0.000000,0.000000,0.000000,TRUE,0.006195,-1.365173,0.000000,0.000000,0.002350,0.000000,0.034000,-0.018000,0.103000,0.030000,-6.370000,2.380000,0.329432,Hold,0.618164,0.000000,Hold,-128.000000,2.000000,Suck,-1792.500000,1818.181818,Speed,-1800.000000,1818.181818,Speed,Off,On,0.000000,FALSE,0,,,,,0.000000,0.000000
08:59:25.119 PM 04/07/2016,Teleop Enabled,9,FALSE,0,NO ERROR,-0.000000,-0.025667,-0.000000,0.006417,FALSE,FALSE,FALSE,FALSE,FALSE,FALSE,Disabled,0.000000,0.000000,0.000000,TRUE,0.005737,-1.364548,0.000000,-0.018204,0.020294,0.000000,0.016000,-0.053000,0.038000,0.020000,-6.320000,2.370000,0.348707,Hold,0.618164,0.000000,Hold,-128.000000,2.000000,Suck,-1792.500000,1818.181818,Speed,-1792.500000,1818.181818,Speed,Off,On,0.000000,FALSE,0,,,,,0.000000,0.000000
08:59:25.220 PM 04/07/2016,Teleop Enabled,10,FALSE,0,NO ERROR,-0.000000,-0.025667,-0.000000,0.006417,FALSE,FALSE,FALSE,FALSE,FALSE,FALSE,Disabled,0.000000,0.000000,0.000000,TRUE,0.004654,-1.364716,0.000000,-0.035172,-0.020401,0.000000,0.108000,-0.015000,-0.002000,0.020000,-6.360000,2.360000,0.357183,Hold,0.618164,0.000000,Hold,-128.000000,2.000000,Suck,-1792.500000,1818.181818,Speed,-1785.000000,1818.181818,Speed,Off,On,0.000000,FALSE,0,,,,,0.000000,0.000000
08:59:25.320 PM 04/07/2016,Teleop Enabled,10,FALSE,0,NO ERROR,-0.000000,-0.025667,-0.000000,0.006417,FALSE,FALSE,FALSE,FALSE,FALSE,FALSE,Disabled,0.000000,0.000000,0.000000,TRUE,0.003571,-1.365814,0.000000,-0.016541,0.003723,0.000000,-0.086000,0.038000,0.084000,0.020000,-6.310000,2.370000,0.372499,Hold,0.618164,0.000000,Hold,-128.000000,2.000000,Suck,-1800.000000,1818.181818,Speed,-1792.500000,1818.181818,Speed,Off,On,0.000000,FALSE,0,,,,,0.000000,0.000000
08:59:25.421 PM 04/07/2016,Teleop Enabled,9,FALSE,0,NO ERROR,-0.000000,-0.025667,-0.000000,0.006417,FALSE,FALSE,FALSE,FALSE,FALSE,FALSE,Disabled,0.000000,0.000000,0.000000,TRUE,0.002167,-1.365402,0.000000,-0.032944,0.013870,0.000000,0.008000,0.016000,0.040000,0.030000,-6.370000,2.380000,0.380003,Hold,0.618164,0.000000,Hold,-128.000000,2.000000,Suck,-1792.500000,1818.181818,Speed,-1800.000000,1818.181818,Speed,Off,On,0.000000,FALSE,0,,,,,0.000000,0.000000
08:59:25.521 PM 04/07/2016,Teleop Enabled,9,FALSE,0,NO ERROR,-0.000000,-0.025667,-0.000000,0.006417,FALSE,FALSE,FALSE,FALSE,FALSE,FALSE,Disabled,0.000000,0.000000,0.000000,TRUE,0.000732,-1.364594,0.000000,-0.010956,0.004105,0.000000,-0.046000,0.033000,-0.026000,0.020000,-6.320000,2.390000,0.374977,Hold,0.618164,0.000000,Hold,-128.000000,2.000000,Suck,-1792.500000,1818.181818,Speed,-1800.000000,1818.181818,Speed,Off,On,0.000000,FALSE,0,,,,,0.000000,0.000000
08:59:25.621 PM 04/07/2016,Teleop Enabled,9,FALSE,0,NO ERROR,-0.000000,-0.025667,-0.000000,0.006417,FALSE,FALSE,FALSE,FALSE,FALSE,FALSE,Disabled,0.000000,0.000000,0.000000,TRUE,-0.000107,-1.364990,0.000000,-0.011963,-0.021088,0.000000,0.053000,-0.002000,0.003000,0.020000,-6.260000,2.390000,0.358305,Hold,0.618164,0.000000,Hold,-128.000000,2.000000,Suck,-1792.500000,1818.181818,Speed,-1792.500000,1818.181818,Speed,Off,On,0.000000,FALSE,0,,,,,0.000000,0.000000
08:59:25.720 PM 04/07/2016,Teleop Enabled,10,FALSE,0,NO ERROR,-0.000000,-0.025667,-0.000000,0.006417,FALSE,FALSE,FALSE,FALSE,FALSE,FALSE,Disabled,0.000000,0.000000,0.000000,TRUE,-0.001633,-1.365768,0.000000,-0.048843,-0.010635,0.000000,0.033000,0.031000,-0.020000,0.020000,-6.360000,2.370000,0.361183,Hold,0.618164,0.000000,Hold,-128.000000,2.000000,Suck,-1792.500000,1818.181818,Speed,-1792.500000,1818.181818,Speed,Off,On,0.000000,FALSE,0,,,,,0.000000,0.000000
08:59:25.821 PM 04/07/2016,Teleop Enabled,11,FALSE,0,NO ERROR,-0.000000,-0.025667,-0.000000,0.006417,FALSE,FALSE,FALSE,FALSE,FALSE,FALSE,Disabled,0.000000,0.000000,0.000000,TRUE,-0.004227,-1.366013,0.000000,-0.062347,-0.007263,0.000000,0.044000,-0.108000,0.071000,0.020000,-6.320000,2.410000,0.351045,Hold,0.618164,0.000000,Hold,-128.000000,2.000000,Suck,-1792.500000,1818.181818,Speed,-1785.000000,1818.181818,Speed,Off,On,0.000000,FALSE,0,,,,,0.000000,0.000000
08:59:25.921 PM 04/07/2016,Teleop Enabled,10,FALSE,0,NO ERROR,-0.000000,-0.025667,-0.000000,0.006417,FALSE,FALSE,FALSE,FALSE,FALSE,FALSE,Disabled,0.000000,0.000000,0.000000,TRUE,-0.009445,-1.367538,0.000000,-0.100128,-0.003906,0.000000,0.021000,0.018000,0.061000,0.020000,-6.410000,2.390000,0.341922,Hold,0.618164,0.000000,Hold,-128.000000,2.000000,Suck,-1792.500000,1818.181818,Speed,-1777.500000,1818.181818,Speed,Off,On,0.000000,FALSE,0,,,,,0.000000,0.000000
08:59:26.021 PM 04/07/2016,Teleop Enabled,10,FALSE,0,NO ERROR,-0.000000,-0.025667,-0.000000,0.006417,FALSE,FALSE,FALSE,FALSE,FALSE,FALSE,Disabled,0.000000,0.000000,0.000000,TRUE,-0.013474,-1.366776,0.000000,-0.077179,0.040802,0.000000,-0.105000,0.048000,0.064000,0.020000,-6.320000,2.390000,0.358453,Hold,0.618164,0.000000,Hold,-128.000000,2.000000,Suck,-1792.500000,1818.181818,Speed,-1792.500000,1818.181818,Speed,Off,On,0.000000,FALSE,0,,,,,0.000000,0.000000
08:59:26.120 PM 04/07/2016,Teleop Enabled,11,FALSE,0,NO ERROR,-0.000000,-0.025667,-0.000000,0.006417,FALSE,FALSE,FALSE,FALSE,FALSE,FALSE,Disabled,0.000000,0.000000,0.000000,TRUE,-0.017548,-1.364273,0.000000,-0.085587,0.042877,0.000000,-0.089000,-0.042000,-0.009000,0.020000,-6.400000,2.400000,0.362677,Hold,0.618164,0.000000,Hold,-128.000000,2.000000,Suck,-1792.500000,1818.181818,Speed,-1800.000000,1818.181818,Speed,Off,On,0.000000,FALSE,0,,,,,0.000000,0.000000
08:59:26.221 PM 04/07/2016,Teleop Enabled,9,FALSE,0,NO ERROR,-0.000000,-0.025667,-0.000000,0.006417,FALSE,FALSE,FALSE,FALSE,FALSE,FALSE,Disabled,0.000000,0.000000,0.000000,TRUE,-0.020233,-1.363449,0.000000,-0.060028,0.008575,0.000000,-0.128000,0.074000,0.051000,0.020000,-6.330000,2.400000,0.352848,Hold,0.618164,0.000000,Hold,-128.000000,2.000000,Suck,-1792.500000,1818.181818,Speed,-1792.500000,1818.181818,Speed,Off,On,0.000000,FALSE,0,,,,,0.000000,0.000000
08:59:26.322 PM 04/07/2016,Teleop Enabled,11,FALSE,0,NO ERROR,-0.000000,-0.025667,-0.000000,0.006417,FALSE,FALSE,FALSE,FALSE,FALSE,FALSE,Disabled,0.000000,0.000000,0.000000,TRUE,-0.025589,-1.361160,0.000000,-0.106552,0.061615,0.000000,0.004000,0.038000,0.019000,0.030000,-6.350000,2.400000,0.370770,Hold,0.618164,0.000000,Hold,-128.000000,2.000000,Suck,-1792.500000,1818.181818,Speed,-1792.500000,1818.181818,Speed,Off,On,0.000000,FALSE,0,,,,,0.000000,0.000000
08:59:26.422 PM 04/07/2016,Teleop Enabled,11,FALSE,0,NO ERROR,-0.000000,-0.025667,-0.000000,0.006417,FALSE,FALSE,FALSE,FALSE,FALSE,FALSE,Disabled,0.000000,0.000000,0.000000,TRUE,-0.025620,-1.357956,0.000000,-0.009018,0.024094,0.000000,-0.058000,-0.041000,-0.025000,0.030000,-6.330000,2.410000,0.361296,Hold,0.618164,0.000000,Hold,-128.000000,2.000000,Suck,-1792.500000,1818.181818,Speed,-1785.000000,1818.181818,Speed,Off,On,0.000000,FALSE,0,,,,,0.000000,0.000000
08:59:26.524 PM 04/07/2016,Teleop Enabled,8,FALSE,0,NO ERROR,-0.000000,-0.025667,-0.000000,0.006417,FALSE,FALSE,FALSE,FALSE,FALSE,FALSE,Disabled,0.000000,0.000000,0.000000,TRUE,-0.026932,-1.357544,0.000000,-0.029343,0.004318,0.000000,-0.043000,0.015000,0.030000,0.030000,-6.380000,2.400000,0.382100,Hold,0.618652,0.000000,Hold,-128.000000,2.000000,Suck,-1770.000000,1818.181818,Speed,-1785.000000,1818.181818,Speed,Off,On,0.000000,FALSE,0,,,,,0.000000,0.000000
08:59:26.624 PM 04/07/2016,Teleop Enabled,10,FALSE,0,NO ERROR,-0.000000,-0.025667,-0.000000,0.006417,FALSE,FALSE,FALSE,FALSE,FALSE,FALSE,Disabled,0.000000,0.000000,0.000000,TRUE,-0.028076,-1.357254,0.000000,-0.014175,0.018829,0.000000,0.015000,-0.116000,0.122000,0.010000,-6.410000,2.340000,0.368474,Hold,0.618896,0.000000,Hold,-128.000000,2.000000,Suck,-1672.500000,1818.181818,Speed,-1785.000000,1818.181818,Speed,Off,On,0.000000,FALSE,0,,,,,0.000000,0.000000
08:59:26.726 PM 04/07/2016,Teleop Enabled,11,FALSE,0,NO ERROR,-0.000000,-0.025667,-0.000000,0.006417,FALSE,FALSE,FALSE,FALSE,FALSE,FALSE,Disabled,0.000000,0.000000,0.000000,TRUE,-0.027267,-1.358597,0.000000,0.032318,-0.023926,0.000000,-0.086000,0.231000,0.179000,0.030000,-6.380000,2.320000,0.391760,Hold,0.619141,0.000000,Hold,-128.000000,2.000000,Suck,-1642.500000,1818.181818,Speed,-1785.000000,1818.181818,Speed,Off,On,0.000000,FALSE,0,,,,,0.000000,0.000000
08:59:26.826 PM 04/07/2016,Teleop Enabled,10,FALSE,0,NO ERROR,-0.000000,-0.025667,-0.000000,0.006417,FALSE,FALSE,FALSE,FALSE,FALSE,FALSE,Disabled,0.000000,0.000000,0.000000,TRUE,-0.027161,-1.358063,0.000000,-0.010284,0.039886,0.000000,0.058000,-0.021000,0.086000,0.020000,-6.460000,2.300000,0.377580,Hold,0.619385,0.000000,Hold,-128.000000,2.000000,Suck,-1687.500000,1818.181818,Speed,-1777.500000,1818.181818,Speed,Off,On,0.000000,FALSE,0,,,,,0.000000,0.000000
08:59:26.926 PM 04/07/2016,Teleop Enabled,11,FALSE,0,NO ERROR,-0.000000,-0.025667,-0.000000,0.006417,FALSE,FALSE,FALSE,FALSE,FALSE,FALSE,Disabled,0.000000,0.000000,0.000000,TRUE,-0.027084,-1.355713,0.000000,0.013962,0.068024,0.000000,0.046000,0.000000,0.108000,0.030000,-6.510000,2.330000,0.387694,Hold,0.619385,0.000000,Hold,-128.000000,2.000000,Suck,-1770.000000,1818.181818,Speed,-1770.000000,1818.181818,Speed,Off,On,0.000000,FALSE,0,,,,,0.000000,0.000000
08:59:27.028 PM 04/07/2016,Teleop Enabled,10,FALSE,0,NO ERROR,-0.000000,-0.025667,-0.000000,0.006417,FALSE,FALSE,FALSE,FALSE,FALSE,FALSE,Disabled,0.000000,0.000000,0.000000,TRUE,-0.025986,-1.351608,0.000000,0.028198,0.089478,0.000000,0.018000,0.059000,0.029000,0.030000,-6.460000,2.320000,0.394669,Hold,0.619385,0.000000,Hold,-128.000000,2.000000,Suck,-1807.500000,1818.181818,Speed,-1785.000000,1818.181818,Speed,Off,On,0.000000,FALSE,0,,,,,0.000000,0.000000
08:59:27.129 PM 04/07/2016,Teleop Enabled,10,FALSE,0,NO ERROR,-0.000000,-0.025667,-0.000000,0.006417,FALSE,FALSE,FALSE,FALSE,FALSE,FALSE,Disabled,0.000000,0.000000,0.000000,TRUE,-0.024170,-1.348511,0.000000,0.032593,0.000000,0.000000,0.049000,-0.066000,0.009000,0.020000,-6.460000,2.340000,0.388465,Hold,0.619385,0.000000,Hold,-128.000000,2.000000,Suck,-1792.500000,1818.181818,Speed,-1792.500000,1818.181818,Speed,Off,On,0.000000,FALSE,0,,,,,0.000000,0.000000
08:59:27.229 PM 04/07/2016,Teleop Enabled,9,FALSE,0,NO ERROR,-0.000000,-0.025667,-0.000000,0.006417,FALSE,FALSE,FALSE,FALSE,FALSE,FALSE,Disabled,0.000000,0.000000,0.000000,TRUE,-0.023514,-1.349411,0.000000,-0.007797,-0.021500,0.000000,-0.067000,0.034000,0.034000,0.020000,-6.430000,2.320000,0.398734,Hold,0.619385,0.000000,Hold,-128.000000,2.000000,Suck,-1777.500000,1818.181818,Speed,-1785.000000,1818.181818,Speed,Off,On,0.000000,FALSE,0,,,,,0.000000,0.000000
08:59:27.330 PM 04/07/2016,Teleop Enabled,9,FALSE,0,NO ERROR,-0.000000,-0.025667,-0.000000,0.006417,FALSE,FALSE,FALSE,FALSE,FALSE,FALSE,Disabled,0.000000,0.000000,0.000000,TRUE,-0.023605,-1.349365,0.000000,0.012253,0.011353,0.000000,0.069000,-0.063000,0.003000,0.030000,-6.450000,2.290000,0.386269,Hold,0.619385,0.000000,Hold,-128.000000,2.000000,Suck,-1785.000000,1818.181818,Speed,-1792.500000,1818.181818,Speed,Off,On,0.000000,FALSE,0,,,,,0.000000,0.000000
08:59:27.431 PM 04/07/2016,Teleop Enabled,11,FALSE,0,NO ERROR,-0.000000,-0.025667,-0.000000,0.006417,FALSE,FALSE,FALSE,FALSE,FALSE,FALSE,Disabled,0.000000,0.000000,0.000000,TRUE,-0.021988,-1.348831,0.000000,0.042328,0.022980,0.000000,-0.042000,0.112000,0.019000,0.020000,-6.400000,2.310000,0.379325,Hold,0.619385,0.000000,Hold,-128.000000,2.000000,Suck,-1785.000000,1818.181818,Speed,-1807.500000,1818.181818,Speed,Off,On,0.000000,FALSE,0,,,,,0.000000,0.000000
08:59:27.532 PM 04/07/2016,Teleop Enabled,9,FALSE,0,NO ERROR,-0.000000,-0.025667,-0.000000,0.006417,FALSE,FALSE,FALSE,FALSE,FALSE,FALSE,Disabled,0.000000,0.000000,0.000000,TRUE,-0.019821,-1.346252,0.000000,0.044754,0.063934,0.000000,-0.054000,0.046000,0.072000,0.020000,-6.390000,2.300000,0.381219,Hold,0.619385,0.000000,Hold,-128.000000,2.000000,Suck,-1785.000000,1818.181818,Speed,-1807.500000,1818.181818,Speed,Off,On,0.000000,FALSE,0,,,,,0.000000,0.000000
08:59:27.631 PM 04/07/2016,Teleop Enabled,11,FALSE,0,NO ERROR,-0.000000,-0.025667,-0.000000,0.006417,FALSE,FALSE,FALSE,FALSE,FALSE,FALSE,Disabled,0.000000,0.000000,0.000000,TRUE,-0.017838,-1.344833,0.000000,0.034851,-0.007172,0.000000,0.027000,0.003000,-0.082000,0.030000,-6.400000,2.360000,0.387591,Hold,0.619385,0.000000,Hold,-128.000000,2.000000,Suck,-1792.500000,1818.181818,Speed,-1792.500000,1818.181818,Speed,Off,On,0.000000,FALSE,0,,,,,0.000000,0.000000
08:59:27.732 PM 04/07/2016,Teleop Enabled,10,FALSE,0,NO ERROR,-0.000000,-0.025667,-0.000000,0.006417,FALSE,FALSE,FALSE,FALSE,FALSE,FALSE,Disabled,0.000000,0.000000,0.000000,TRUE,-0.016281,-1.345306,0.000000,0.000000,-0.000488,0.000000,0.027000,0.008000,0.086000,0.020000,-6.340000,2.380000,0.387291,Hold,0.619385,0.000000,Hold,-128.000000,2.000000,Suck,-1785.000000,1818.181818,Speed,-1785.000000,1818.181818,Speed,Off,On,0.000000,FALSE,0,,,,,0.000000,0.000000
08:59:27.832 PM 04/07/2016,Teleop Enabled,10,FALSE,0,NO ERROR,-0.000000,-0.025667,-0.000000,0.006417,FALSE,FALSE,FALSE,FALSE,FALSE,FALSE,Disabled,0.000000,0.000000,0.000000,TRUE,-0.016006,-1.344681,0.000000,-0.003265,0.013123,0.000000,0.014000,-0.045000,0.026000,0.020000,-6.310000,2.380000,0.384513,Hold,0.619385,0.000000,Hold,-128.000000,2.000000,Suck,-1785.000000,1818.181818,Speed,-1785.000000,1818.181818,Speed,Off,On,0.000000,FALSE,0,,,,,0.000000,0.000000
08:59:27.932 PM 04/07/2016,Teleop Enabled,10,FALSE,0,NO ERROR,-0.000000,-0.025667,-0.000000,0.006417,FALSE,FALSE,FALSE,FALSE,FALSE,FALSE,Disabled,0.000000,0.000000,0.000000,TRUE,-0.016251,-1.345535,0.000000,0.001740,-0.019531,0.000000,-0.043000,0.105000,0.022000,0.020000,-6.380000,2.360000,0.375397,Hold,0.619385,0.000000,Hold,-128.000000,2.000000,Suck,-1785.000000,1818.181818,Speed,-1800.000000,1818.181818,Speed,Off,On,0.000000,FALSE,0,,,,,0.000000,0.000000
08:59:28.032 PM 04/07/2016,Teleop Enabled,12,FALSE,0,NO ERROR,-0.000000,-0.025667,-0.000000,0.006417,FALSE,FALSE,FALSE,FALSE,FALSE,FALSE,Disabled,0.000000,0.000000,0.000000,TRUE,-0.016434,-1.344315,0.000000,-0.006042,0.051025,0.000000,-0.093000,0.016000,-0.075000,0.020000,-6.440000,2.380000,0.377266,Hold,0.619385,0.000000,Hold,-128.000000,2.000000,Suck,-1785.000000,1818.181818,Speed,-1785.000000,1818.181818,Speed,Off,On,0.000000,FALSE,0,,,,,0.000000,0.000000
08:59:28.134 PM 04/07/2016,Teleop Enabled,11,FALSE,0,NO ERROR,-0.000000,-0.025667,-0.000000,0.006417,FALSE,FALSE,FALSE,FALSE,FALSE,FALSE,Disabled,0.000000,0.000000,0.000000,TRUE,-0.016525,-1.342209,0.000000,0.016220,0.034851,0.000000,0.070000,0.022000,0.044000,0.020000,-6.430000,2.370000,0.373449,Hold,0.619385,0.000000,Hold,-128.000000,2.000000,Suck,-1785.000000,1818.181818,Speed,-1785.000000,1818.181818,Speed,Off,On,0.000000,FALSE,0,,,,,0.000000,0.000000
08:59:28.234 PM 04/07/2016,Teleop Enabled,11,FALSE,0,NO ERROR,-0.000000,-0.025667,-0.000000,0.006417,FALSE,FALSE,FALSE,FALSE,FALSE,FALSE,Disabled,0.000000,0.000000,0.000000,TRUE,-0.015121,-1.339706,0.000000,0.019028,0.072083,0.000000,-0.052000,0.096000,0.096000,0.020000,-6.430000,2.370000,0.386527,Hold,0.619385,0.000000,Hold,-128.000000,2.000000,Suck,-1785.000000,1818.181818,Speed,-1785.000000,1818.181818,Speed,Off,On,0.000000,FALSE,0,,,,,0.000000,0.000000
08:59:28.334 PM 04/07/2016,Teleop Enabled,10,FALSE,0,NO ERROR,-0.000000,-0.025667,-0.000000,0.006417,FALSE,FALSE,FALSE,FALSE,FALSE,FALSE,Disabled,0.000000,0.000000,0.000000,TRUE,-0.013565,-1.334991,0.000000,0.048004,0.096741,0.000000,-0.023000,0.057000,0.068000,0.020000,-6.410000,2.380000,0.398091,Hold,0.619385,0.000000,Hold,-128.000000,2.000000,Suck,-1777.500000,1818.181818,Speed,-1800.000000,1818.181818,Speed,Off,On,0.000000,FALSE,0,,,,,0.000000,0.000000
08:59:28.433 PM 04/07/2016,Teleop Enabled,11,FALSE,0,NO ERROR,-0.000000,-0.025667,-0.000000,0.006417,FALSE,FALSE,FALSE,FALSE,FALSE,FALSE,Disabled,0.000000,0.000000,0.000000,TRUE,-0.010773,-1.329529,0.000000,0.059219,0.105057,0.000000,-0.029000,0.076000,0.000000,0.010000,-6.380000,2.410000,0.399950,Hold,0.619385,0.000000,Hold,-128.000000,2.000000,Suck,-1755.000000,1818.181818,Speed,-1800.000000,1818.181818,Speed,Off,On,0.000000,FALSE,0,,,,,0.000000,0.000000
08:59:28.534 PM 04/07/2016,Teleop Enabled,11,FALSE,0,NO ERROR,-0.000000,-0.025667,-0.000000,0.006417,FALSE,FALSE,FALSE,FALSE,FALSE,FALSE,Disabled,0.000000,0.000000,0.000000,TRUE,-0.010773,-1.329529,0.000000,0.059219,0.105057,0.000000,-0.029000,0.076000,0.000000,0.010000,-6.380000,2.410000,0.379122,Hold,0.619385,0.000000,Hold,-128.000000,2.000000,Suck,-1755.000000,1818.181818,Speed,-1792.500000,1818.181818,Speed,Off,On,0.000000,FALSE,0,,,,,0.000000,0.000000
08:59:28.634 PM 04/07/2016,Teleop Enabled,11,FALSE,0,NO ERROR,-0.000000,-0.025667,-0.000000,0.006417,FALSE,FALSE,FALSE,FALSE,FALSE,FALSE,Disabled,0.000000,0.000000,0.000000,TRUE,-0.002304,-1.313004,0.000000,0.093674,0.167526,0.000000,-0.100000,0.040000,-0.012000,0.010000,-6.300000,2.430000,0.373339,Hold,0.619385,0.000000,Hold,-128.000000,2.000000,Suck,-1770.000000,1818.181818,Speed,-1785.000000,1818.181818,Speed,Off,On,0.000000,FALSE,0,,,,,0.000000,0.000000
08:59:28.736 PM 04/07/2016,Teleop Enabled,10,FALSE,0,NO ERROR,-0.000000,-0.025667,-0.000000,0.006417,FALSE,FALSE,FALSE,FALSE,FALSE,FALSE,Disabled,0.000000,0.000000,0.000000,TRUE,0.002853,-1.304169,0.000000,0.067184,0.141846,0.000000,0.065000,-0.019000,-0.003000,0.010000,-6.300000,2.430000,0.384764,Hold,0.619385,0.000000,Hold,-128.000000,2.000000,Suck,-1792.500000,1818.181818,Speed,-1792.500000,1818.181818,Speed,Off,On,0.000000,FALSE,0,,,,,0.000000,0.000000
08:59:28.836 PM 04/07/2016,Teleop Enabled,10,FALSE,0,NO ERROR,-0.000000,-0.025667,-0.000000,0.006417,FALSE,FALSE,FALSE,FALSE,FALSE,FALSE,Disabled,0.000000,0.000000,0.000000,TRUE,0.003601,-1.297974,0.000000,0.000000,0.151642,0.000000,0.060000,0.005000,0.081000,0.010000,-6.270000,2.410000,0.382644,Hold,0.619385,0.000000,Hold,-128.000000,2.000000,Suck,-1785.000000,1818.181818,Speed,-1792.500000,1818.181818,Speed,Off,On,0.000000,FALSE,0,,,,,0.000000,0.000000
08:59:28.936 PM 04/07/2016,Teleop Enabled,10,FALSE,0,NO ERROR,-0.000000,-0.025667,-0.000000,0.006417,FALSE,FALSE,FALSE,FALSE,FALSE,FALSE,Disabled,0.000000,0.000000,0.000000,TRUE,0.003601,-1.297974,0.000000,0.000000,0.151642,0.000000,-0.029000,0.037000,0.012000,0.010000,-6.270000,2.410000,0.387357,Hold,0.619385,0.000000,Hold,-128.000000,2.000000,Suck,-1770.000000,1818.181818,Speed,-1792.500000,1818.181818,Speed,Off,On,0.000000,FALSE,0,,,,,0.000000,0.000000
08:59:29.036 PM 04/07/2016,Teleop Enabled,9,FALSE,0,NO ERROR,-0.000000,-0.025667,-0.000000,0.006417,FALSE,FALSE,FALSE,FALSE,FALSE,FALSE,Disabled,0.000000,0.000000,0.000000,TRUE,-0.002502,-1.288498,0.000000,-0.118042,0.053238,0.000000,-0.182000,-0.058000,-0.079000,0.010000,-6.290000,2.350000,0.396369,Hold,0.619385,0.000000,Hold,-128.000000,2.000000,Suck,-1747.500000,1818.181818,Speed,-1785.000000,1818.181818,Speed,Off,On,0.000000,FALSE,0,,,,,0.000000,0.000000
08:59:29.137 PM 04/07/2016,Teleop Enabled,11,FALSE,0,NO ERROR,-0.000000,-0.025667,-0.000000,0.006417,FALSE,FALSE,FALSE,FALSE,FALSE,FALSE,Disabled,0.000000,0.000000,0.000000,TRUE,-0.005142,-1.285248,0.000000,0.018051,0.080521,0.000000,-0.121000,0.037000,0.100000,0.010000,-6.290000,2.350000,0.399626,Hold,0.619385,0.000000,Hold,-128.000000,2.000000,Suck,-1702.500000,1818.181818,Speed,-1785.000000,1818.181818,Speed,Off,On,0.000000,FALSE,0,,,,,0.000000,0.000000
08:59:29.237 PM 04/07/2016,Teleop Enabled,10,FALSE,0,NO ERROR,-0.000000,-0.025667,-0.000000,0.006417,FALSE,FALSE,FALSE,FALSE,FALSE,FALSE,Disabled,0.000000,0.000000,0.000000,TRUE,-0.000641,-1.278137,0.000000,0.080017,0.116119,0.000000,0.104000,0.064000,-0.059000,0.010000,-6.270000,2.350000,0.405368,Hold,0.619385,0.000000,Hold,-128.000000,2.000000,Suck,-1725.000000,1818.181818,Speed,-1770.000000,1818.181818,Speed,Off,On,0.000000,FALSE,0,,,,,0.000000,0.000000
08:59:29.338 PM 04/07/2016,Teleop Enabled,10,FALSE,0,NO ERROR,-0.000000,-0.025667,-0.000000,0.006417,FALSE,FALSE,FALSE,FALSE,FALSE,FALSE,Disabled,0.000000,0.000000,0.000000,TRUE,-0.000641,-1.278137,0.000000,0.080017,0.116119,0.000000,-0.044000,-0.052000,-0.051000,0.010000,-6.240000,2.390000,0.419118,Hold,0.619385,0.000000,Hold,-128.000000,2.000000,Suck,-1732.500000,1818.181818,Speed,-1770.000000,1818.181818,Speed,Off,On,0.000000,FALSE,0,,,,,0.000000,0.000000
08:59:29.438 PM 04/07/2016,Teleop Enabled,9,FALSE,0,NO ERROR,-0.000000,-0.025667,-0.000000,0.006417,FALSE,FALSE,FALSE,FALSE,FALSE,FALSE,Disabled,0.000000,0.000000,0.000000,TRUE,0.000076,-1.269165,0.000000,-0.048920,0.073853,0.000000,-0.068000,-0.030000,0.025000,0.010000,-6.210000,2.410000,0.437418,Hold,0.619385,0.000000,Hold,-128.000000,2.000000,Suck,-1740.000000,1818.181818,Speed,-1785.000000,1818.181818,Speed,Off,On,0.000000,FALSE,0,,,,,0.000000,0.000000
08:59:29.539 PM 04/07/2016,Teleop Enabled,10,FALSE,0,NO ERROR,-0.000000,-0.025667,-0.000000,0.006417,FALSE,FALSE,FALSE,FALSE,FALSE,FALSE,Disabled,0.000000,0.000000,0.000000,TRUE,-0.002899,-1.265747,0.000000,-0.053589,0.070297,0.000000,-0.125000,0.008000,0.017000,0.010000,-6.180000,2.410000,0.445918,Hold,0.619385,0.000000,Hold,-128.000000,2.000000,Suck,-1770.000000,1818.181818,Speed,-1785.000000,1818.181818,Speed,Off,On,0.000000,FALSE,0,,,,,0.000000,0.000000
08:59:29.638 PM 04/07/2016,Teleop Enabled,10,FALSE,0,NO ERROR,-0.000000,-0.025667,-0.000000,0.006417,FALSE,FALSE,FALSE,FALSE,FALSE,FALSE,Disabled,0.000000,0.000000,0.000000,TRUE,-0.004425,-1.262985,0.000000,0.000000,0.048492,0.000000,-0.089000,-0.009000,0.046000,0.020000,-6.240000,2.440000,0.451347,Hold,0.619385,0.000000,Hold,-128.000000,2.000000,Suck,-1800.000000,1818.181818,Speed,-1755.000000,1818.181818,Speed,Off,On,0.000000,FALSE,0,,,,,0.000000,0.000000
08:59:29.739 PM 04/07/2016,Teleop Enabled,11,FALSE,0,NO ERROR,-0.000000,-0.025667,-0.000000,0.006417,FALSE,FALSE,FALSE,FALSE,FALSE,FALSE,Disabled,0.000000,0.000000,0.000000,TRUE,-0.003159,-1.261475,0.000000,0.014374,0.021423,0.000000,0.165000,-0.067000,0.027000,0.020000,-6.300000,2.440000,0.450414,Hold,0.619385,0.000000,Hold,-128.000000,2.000000,Suck,-1792.500000,1818.181818,Speed,-1792.500000,1818.181818,Speed,Off,On,0.000000,FALSE,0,,,,,0.000000,0.000000
08:59:29.839 PM 04/07/2016,Teleop Enabled,9,FALSE,0,NO ERROR,-0.000000,-0.025667,-0.000000,0.006417,FALSE,FALSE,FALSE,FALSE,FALSE,FALSE,Disabled,0.000000,0.000000,0.000000,TRUE,-0.003189,-1.260010,0.000000,-0.007874,0.019150,0.000000,0.043000,0.032000,0.059000,0.020000,-6.270000,2.420000,0.456528,Hold,0.619385,0.000000,Hold,-128.000000,2.000000,Suck,-1785.000000,1818.181818,Speed,-1815.000000,1818.181818,Speed,Off,On,0.000000,FALSE,0,,,,,0.000000,0.000000
08:59:29.940 PM 04/07/2016,Teleop Enabled,10,FALSE,0,NO ERROR,-0.000000,-0.025667,-0.000000,0.006417,FALSE,FALSE,FALSE,FALSE,FALSE,FALSE,Disabled,0.000000,0.000000,0.000000,TRUE,-0.003189,-1.260010,0.000000,-0.007874,0.019150,0.000000,0.011000,-0.048000,-0.101000,0.020000,-6.300000,2.410000,0.462876,Hold,0.619385,0.000000,Hold,-128.000000,2.000000,Suck,-1785.000000,1818.181818,Speed,-1807.500000,1818.181818,Speed,Off,On,0.000000,FALSE,0,,,,,0.000000,0.000000
08:59:30.040 PM 04/07/2016,Teleop Enabled,10,FALSE,0,NO ERROR,-0.000000,-0.025667,-0.000000,0.006417,FALSE,FALSE,FALSE,FALSE,FALSE,FALSE,Disabled,0.000000,0.000000,0.000000,TRUE,-0.002396,-1.260208,0.000000,0.037796,-0.014038,0.000000,0.000000,-0.020000,0.074000,0.020000,-6.280000,2.410000,0.462876,Hold,0.619385,0.000000,Hold,-128.000000,2.000000,Suck,-1792.500000,1818.181818,Speed,-1792.500000,1818.181818,Speed,Off,On,0.000000,FALSE,0,,,,,0.000000,0.000000
08:59:30.140 PM 04/07/2016,Teleop Enabled,10,FALSE,0,NO ERROR,-0.000000,-0.025667,-0.000000,0.006417,FALSE,FALSE,FALSE,FALSE,FALSE,FALSE,Disabled,0.000000,0.000000,0.000000,TRUE,-0.001740,-1.261139,0.000000,-0.003174,-0.019775,0.000000,-0.056000,0.055000,-0.014000,0.020000,-6.360000,2.370000,0.467148,Hold,0.619385,0.000000,Hold,-128.000000,2.000000,Suck,-1785.000000,1818.181818,Speed,-1777.500000,1818.181818,Speed,Off,On,0.000000,FALSE,0,,,,,0.000000,0.000000
08:59:30.239 PM 04/07/2016,Teleop Enabled,11,FALSE,0,NO ERROR,-0.000000,-0.025667,-0.000000,0.006417,FALSE,FALSE,FALSE,FALSE,FALSE,FALSE,Disabled,0.000000,0.000000,0.000000,TRUE,-0.002945,-1.261658,0.000000,-0.039474,-0.003540,0.000000,0.073000,-0.047000,0.004000,0.020000,-6.340000,2.400000,0.472006,Hold,0.619385,0.000000,Hold,-128.000000,2.000000,Suck,-1777.500000,1818.181818,Speed,-1785.000000,1818.181818,Speed,Off,On,0.000000,FALSE,0,,,,,0.000000,0.000000
08:59:30.341 PM 04/07/2016,Teleop Enabled,10,FALSE,0,NO ERROR,-0.000000,-0.025667,-0.000000,0.006417,FALSE,FALSE,FALSE,FALSE,FALSE,FALSE,Disabled,0.000000,0.000000,0.000000,TRUE,-0.004059,-1.261871,0.000000,-0.011536,0.002335,0.000000,-0.022000,-0.037000,-0.046000,0.020000,-6.290000,2.370000,0.464212,Hold,0.619385,0.000000,Hold,-128.000000,2.000000,Suck,-1777.500000,1818.181818,Speed,-1792.500000,1818.181818,Speed,Off,On,0.000000,FALSE,0,,,,,0.000000,0.000000
08:59:30.441 PM 04/07/2016,Teleop Enabled,10,FALSE,0,NO ERROR,-0.000000,-0.025667,-0.000000,0.006417,FALSE,FALSE,FALSE,FALSE,FALSE,FALSE,Disabled,0.000000,0.000000,0.000000,TRUE,-0.004288,-1.262436,0.000000,0.001236,-0.011551,0.000000,0.026000,-0.061000,-0.035000,0.020000,-6.250000,2.400000,0.455781,Hold,0.619385,0.000000,Hold,-128.000000,2.000000,Suck,-1792.500000,1818.181818,Speed,-1785.000000,1818.181818,Speed,Off,On,0.000000,FALSE,0,,,,,0.000000,0.000000
