Time,Robot Mode,Loop Time,Error Status,Error Code,Error Source,Left Motor Output,Left Motor Encoder,Right Motor Output,Right Motor Encoder,Is Level,Is Stalled,Ball Detector Photoeye,Vision Enabled,Vision Teleop Control,Vision Auto Control,Vision Current State,Vision X Output,Vision NavX Error,Vision NavX Target,NavX Connection Status,NavX Displacement X,NavX Displacement Y,NavX Displacement Z,NavX Velocity X,NavX Velocity Y,NavX Velocity Z,NavX Acceleration X,NavX Acceleration Y,NavX Acceleration Z,NavX Pitch,NavX Yaw,NavX Roll,Gyro Angle,Roller Arm State,Roller Arm Actual,Roller Arm Desired,Shooter Arm State,Shooter Arm Actual,Shooter Arm Desired,Shooter State,Actual RPM Left,Desired RPM Left,Control Mode Left,Actual RPM Right,Desired RPM Right,Control Mode Right,Ball Shooter Cylinder,Ball Halo Cylinder,Scaler Motor Output,Scaler Solenoid Fire,Auto To Run,Auto Current File,Auto File Status,Auto Current Command,Auto Trimmed Command,Shooter Amps Left,Shooter Amps Right
12:21:17.063 PM 04/09/2016,Teleop Enabled,10,TRUE,-44005,<LOCATION>WPI_CameraWait for Raw Image String.vi:6640001<CALLSTACK>WPI_CameraWait for Raw Image String.vi:6640001< <WPI_CameraGet Image.vi< <Vision Processing.vi< <Robot Main.vi,-0.000000,0.000000,-0.000000,0.000000,TRUE,FALSE,FALSE,FALSE,FALSE,FALSE,Disabled,0.000000,0.000000,0.000000,TRUE,0.001038,-0.002335,0.000000,0.000000,0.000000,0.000000,-0.001000,0.000000,0.028000,2.130000,-0.070000,-0.200000,1.417253,ResetBack,0.000000,-0.000049,ResetBack,0.000000,-0.250000,Suck,0.000000,1818.181818,Speed,0.000000,1818.181818,Speed,Off,On,0.000000,FALSE,10,,,,,0.000000,0.000000
12:21:17.163 PM 04/09/2016,Teleop Enabled,10,TRUE,-1074396154,,-0.000000,0.000000,-0.000000,0.012833,TRUE,FALSE,FALSE,FALSE,FALSE,FALSE,Disabled,0.000000,0.000000,0.000000,TRUE,0.001038,-0.002335,0.000000,0.000000,0.000000,0.000000,-0.001000,0.000000,0.028000,2.130000,-0.070000,-0.200000,1.436944,ResetBack,-0.599121,-0.000049,ResetBack,0.000000,-0.250000,Suck,0.000000,1818.181818,Speed,0.000000,1818.181818,Speed,Off,On,0.000000,FALSE,10,,,,,0.000000,0.000000
12:21:17.263 PM 04/09/2016,Teleop Enabled,11,TRUE,-44005,<LOCATION>WPI_CameraWait for Raw Image String.vi:6640001<CALLSTACK>WPI_CameraWait for Raw Image String.vi:6640001< <WPI_CameraGet Image.vi< <Vision Processing.vi< <Robot Main.vi,-0.000000,0.006417,-0.000000,0.012833,TRUE,FALSE,FALSE,FALSE,FALSE,FALSE,Disabled,0.000000,0.000000,0.000000,TRUE,0.001038,-0.002335,0.000000,0.000000,0.000000,0.000000,-0.001000,0.000000,0.028000,2.130000,-0.070000,-0.200000,1.490934,ResetBack,-0.981934,-0.000049,ResetBack,662.000000,-0.250000,Suck,-277.500000,1818.181818,Speed,-180.000000,1818.181818,Speed,Off,On,0.000000,FALSE,10,,,,,0.000000,0.000000
12:21:17.363 PM 04/09/2016,Teleop Enabled,10,TRUE,-1074396154,,-0.000000,0.006417,-0.000000,0.012833,TRUE,FALSE,FALSE,FALSE,FALSE,FALSE,Disabled,0.000000,0.000000,0.000000,TRUE,0.001038,-0.002335,0.000000,0.000000,0.000000,0.000000,-0.001000,0.000000,0.028000,2.130000,-0.070000,-0.200000,1.513786,ResetBack,-0.981934,-0.000049,ResetBack,709.000000,-0.250000,Suck,-862.500000,1818.181818,Speed,-592.500000,1818.181818,Speed,Off,On,0.000000,FALSE,10,,,,,0.000000,0.000000
12:21:17.463 PM 04/09/2016,Teleop Enabled,11,TRUE,-44005,<LOCATION>WPI_CameraWait for Raw Image String.vi:6640001<CALLSTACK>WPI_CameraWait for Raw Image String.vi:6640001< <WPI_CameraGet Image.vi< <Vision Processing.vi< <Robot Main.vi,-0.000000,0.006417,-0.000000,0.012833,TRUE,FALSE,FALSE,FALSE,FALSE,FALSE,Disabled,0.000000,0.000000,0.000000,TRUE,0.001038,-0.002335,0.000000,0.000000,0.000000,0.000000,-0.001000,0.000000,0.028000,2.130000,-0.070000,-0.200000,1.543543,Reset,-0.985352,0.000000,ResetBack,709.000000,-0.250000,Suck,-1492.500000,1818.181818,Speed,-1072.500000,1818.181818,Speed,Off,On,0.000000,FALSE,10,,,,,0.000000,0.000000
12:21:17.564 PM 04/09/2016,Teleop Enabled,10,TRUE,-1074396154,,-0.000000,0.006417,-0.000000,0.012833,TRUE,FALSE,FALSE,FALSE,FALSE,FALSE,Disabled,0.000000,0.000000,0.000000,TRUE,0.001038,-0.002335,0.000000,0.000000,0.000000,0.000000,-0.001000,0.000000,0.028000,2.130000,-0.070000,-0.200000,1.583157,Hold,0.747314,0.000000,ResetBack,725.000000,-0.250000,Suck,-1875.000000,1818.181818,Speed,-1642.500000,1818.181818,Speed,Off,On,0.000000,FALSE,10,,,,,0.000000,0.000000
12:21:17.665 PM 04/09/2016,Teleop Enabled,10,FALSE,0,NO ERROR,-0.000000,0.006417,-0.000000,0.012833,TRUE,FALSE,FALSE,FALSE,FALSE,FALSE,Disabled,0.000000,0.000000,0.000000,TRUE,0.001038,-0.002335,0.000000,0.000000,0.000000,0.000000,-0.001000,0.000000,0.028000,2.130000,-0.070000,-0.200000,1.586575,Hold,0.800049,0.000000,ResetBack,1185.000000,-0.250000,Suck,-1867.500000,1818.181818,Speed,-1875.000000,1818.181818,Speed,Off,On,0.000000,FALSE,10,,,,,0.000000,0.000000
12:21:17.765 PM 04/09/2016,Teleop Enabled,11,FALSE,0,NO ERROR,-0.000000,0.006417,-0.000000,0.012833,TRUE,FALSE,FALSE,FALSE,FALSE,FALSE,Disabled,0.000000,0.000000,0.000000,TRUE,0.001038,-0.002335,0.000000,0.000000,0.000000,0.000000,-0.001000,0.000000,0.028000,2.130000,-0.070000,-0.200000,1.623607,Hold,0.800049,0.000000,ResetBack,2141.000000,-0.250000,Suck,-1777.500000,1818.181818,Speed,-1792.500000,1818.181818,Speed,Off,On,0.000000,FALSE,10,,,,,0.000000,0.000000
12:21:17.865 PM 04/09/2016,Teleop Enabled,10,FALSE,0,NO ERROR,-0.000000,0.006417,-0.000000,0.012833,TRUE,FALSE,FALSE,FALSE,FALSE,FALSE,Disabled,0.000000,0.000000,0.000000,TRUE,0.001038,-0.002335,0.000000,0.000000,0.000000,0.000000,-0.001000,0.000000,0.028000,2.130000,-0.070000,-0.200000,1.653526,Hold,0.800049,0.000000,ResetBack,2397.000000,-0.250000,Suck,-1740.000000,1818.181818,Speed,-1650.000000,1818.181818,Speed,Off,On,0.000000,FALSE,10,,,,,0.000000,0.000000
12:21:17.965 PM 04/09/2016,Teleop Enabled,10,FALSE,0,NO ERROR,-0.000000,0.006417,-0.000000,0.012833,TRUE,FALSE,FALSE,FALSE,FALSE,FALSE,Disabled,0.000000,0.000000,0.000000,TRUE,0.001038,-0.002335,0.000000,0.000000,0.000000,0.000000,-0.001000,0.000000,0.028000,2.130000,-0.070000,-0.200000,1.684698,Hold,0.800049,0.000000,ResetBack,2401.000000,-0.250000,Suck,-1762.500000,1818.181818,Speed,-1582.500000,1818.181818,Speed,Off,On,0.000000,FALSE,10,,,,,0.000000,0.000000
12:21:18.065 PM 04/09/2016,Teleop Enabled,10,FALSE,0,NO ERROR,-0.000000,0.006417,-0.000000,0.012833,TRUE,FALSE,FALSE,FALSE,FALSE,FALSE,Disabled,0.000000,0.000000,0.000000,TRUE,0.001038,-0.002335,0.000000,0.000000,0.000000,0.000000,-0.001000,0.000000,0.028000,2.130000,-0.070000,-0.200000,1.713478,Hold,0.800049,0.000000,ResetBack,2406.000000,-0.250000,Suck,-1770.000000,1818.181818,Speed,-1725.000000,1818.181818,Speed,Off,On,0.000000,FALSE,10,,,,,0.000000,0.000000
12:21:18.165 PM 04/09/2016,Teleop Enabled,10,FALSE,0,NO ERROR,-0.000000,0.006417,-0.000000,0.012833,TRUE,FALSE,FALSE,FALSE,FALSE,FALSE,Disabled,0.000000,0.000000,0.000000,TRUE,0.001038,-0.002335,0.000000,0.000000,0.000000,0.000000,-0.001000,0.000000,0.028000,2.130000,-0.070000,-0.200000,1.759195,Hold,0.800049,0.000000,ResetBack,2406.000000,-0.250000,Suck,-1770.000000,1818.181818,Speed,-1725.000000,1818.181818,Speed,Off,On,0.000000,FALSE,10,,,,,0.000000,0.000000
12:21:18.266 PM 04/09/2016,Teleop Enabled,9,FALSE,0,NO ERROR,-0.000000,0.006417,-0.000000,0.012833,TRUE,FALSE,FALSE,FALSE,FALSE,FALSE,Disabled,0.000000,0.000000,0.000000,TRUE,0.001038,-0.002335,0.000000,0.000000,0.000000,0.000000,-0.001000,0.000000,0.028000,2.130000,-0.070000,-0.200000,1.783417,Hold,0.800049,0.000000,ResetBack,2416.000000,-0.250000,Suck,-1777.500000,1818.181818,Speed,-1717.500000,1818.181818,Speed,Off,On,0.000000,FALSE,10,,,,,0.000000,0.000000
12:21:18.367 PM 04/09/2016,Teleop Enabled,11,FALSE,0,NO ERROR,-0.000000,0.006417,-0.000000,0.012833,TRUE,FALSE,FALSE,FALSE,FALSE,FALSE,Disabled,0.000000,0.000000,0.000000,TRUE,0.001038,-0.002335,0.000000,0.000000,0.000000,0.000000,-0.001000,0.000000,0.028000,2.130000,-0.070000,-0.200000,1.798520,Hold,0.800049,0.000000,Reset,2674.000000,2.000000,Suck,-1777.500000,1818.181818,Speed,-1620.000000,1818.181818,Speed,Off,On,0.000000,FALSE,10,,,,,0.000000,0.000000
12:21:18.468 PM 04/09/2016,Teleop Enabled,11,FALSE,0,NO ERROR,-0.000000,0.006417,-0.000000,0.012833,TRUE,FALSE,FALSE,FALSE,FALSE,FALSE,Disabled,0.000000,0.000000,0.000000,TRUE,0.001038,-0.002335,0.000000,0.000000,0.000000,0.000000,-0.001000,0.000000,0.028000,2.130000,-0.070000,-0.200000,1.815929,Hold,0.800049,0.000000,Hold,-150.000000,2.000000,Suck,-1777.500000,1818.181818,Speed,-1747.500000,1818.181818,Speed,Off,On,0.000000,FALSE,10,,,,,0.000000,0.000000
12:21:18.567 PM 04/09/2016,Teleop Enabled,9,FALSE,0,NO ERROR,-0.000000,0.006417,-0.000000,0.012833,TRUE,FALSE,FALSE,FALSE,FALSE,FALSE,Disabled,0.000000,0.000000,0.000000,TRUE,0.001038,-0.002335,0.000000,0.000000,0.000000,0.000000,-0.001000,0.000000,0.028000,2.130000,-0.070000,-0.200000,1.842189,Hold,0.800049,0.000000,Hold,-150.000000,2.000000,Suck,-1777.500000,1818.181818,Speed,-1725.000000,1818.181818,Speed,Off,On,0.000000,FALSE,10,,,,,0.000000,0.000000
12:21:18.667 PM 04/09/2016,Teleop Enabled,10,FALSE,0,NO ERROR,-0.000000,0.006417,-0.000000,0.012833,TRUE,FALSE,FALSE,FALSE,FALSE,FALSE,Disabled,0.000000,0.000000,0.000000,TRUE,0.001038,-0.002335,0.000000,0.000000,0.000000,0.000000,-0.001000,0.000000,0.028000,2.130000,-0.070000,-0.200000,1.878425,Hold,0.800049,0.000000,Hold,-150.000000,2.000000,Suck,-1785.000000,1818.181818,Speed,-1710.000000,1818.181818,Speed,Off,On,0.000000,FALSE,10,,,,,0.000000,0.000000
12:21:18.767 PM 04/09/2016,Teleop Enabled,10,FALSE,0,NO ERROR,-0.000000,0.006417,-0.000000,0.012833,TRUE,FALSE,FALSE,FALSE,FALSE,FALSE,Disabled,0.000000,0.000000,0.000000,TRUE,0.001038,-0.002335,0.000000,0.000000,0.000000,0.000000,-0.001000,0.000000,0.028000,2.130000,-0.070000,-0.200000,1.910912,Hold,0.800049,0.000000,Hold,-150.000000,2.000000,Suck,-1792.500000,1818.181818,Speed,-1695.000000,1818.181818,Speed,Off,On,0.000000,FALSE,10,,,,,0.000000,0.000000
12:21:18.867 PM 04/09/2016,Teleop Enabled,9,FALSE,0,NO ERROR,-0.000000,0.006417,-0.000000,0.012833,TRUE,FALSE,FALSE,FALSE,FALSE,FALSE,Disabled,0.000000,0.000000,0.000000,TRUE,0.001038,-0.002335,0.000000,0.000000,0.000000,0.000000,-0.001000,0.000000,0.028000,2.130000,-0.070000,-0.200000,1.934687,Hold,0.800049,0.000000,Hold,-150.000000,2.000000,Suck,-1792.500000,1818.181818,Speed,-1725.000000,1818.181818,Speed,Off,On,0.000000,FALSE,10,,,,,0.000000,0.000000
12:21:18.967 PM 04/09/2016,Teleop Enabled,9,FALSE,0,NO ERROR,-0.000000,0.006417,-0.000000,0.012833,TRUE,FALSE,FALSE,FALSE,FALSE,FALSE,Disabled,0.000000,0.000000,0.000000,TRUE,0.001038,-0.002335,0.000000,0.000000,0.000000,0.000000,-0.001000,0.000000,0.028000,2.130000,-0.070000,-0.200000,1.966678,Hold,0.800049,0.000000,Hold,-150.000000,2.000000,Suck,-1800.000000,1818.181818,Speed,-1807.500000,1818.181818,Speed,Off,On,0.000000,FALSE,10,,,,,0.000000,0.000000
12:21:19.067 PM 04/09/2016,Teleop Enabled,10,FALSE,0,NO ERROR,-0.000000,0.006417,-0.000000,0.012833,TRUE,FALSE,FALSE,FALSE,FALSE,FALSE,Disabled,0.000000,0.000000,0.000000,TRUE,0.001038,-0.002335,0.000000,0.000000,0.000000,0.000000,-0.001000,0.000000,0.028000,2.130000,-0.070000,-0.200000,1.999937,Hold,0.800049,0.000000,Hold,-150.000000,2.000000,Suck,-1792.500000,1818.181818,Speed,-1680.000000,1818.181818,Speed,Off,On,0.000000,FALSE,10,,,,,0.000000,0.000000
12:21:19.169 PM 04/09/2016,Teleop Enabled,11,FALSE,0,NO ERROR,-0.000000,0.006417,-0.000000,0.012833,TRUE,FALSE,FALSE,FALSE,FALSE,FALSE,Disabled,0.000000,0.000000,0.000000,TRUE,0.001038,-0.002335,0.000000,0.000000,0.000000,0.000000,-0.001000,0.000000,0.028000,2.130000,-0.070000,-0.200000,2.050718,Hold,0.800049,0.000000,Hold,-150.000000,2.000000,Suck,-1777.500000,1818.181818,Speed,-1725.000000,1818.181818,Speed,Off,On,0.000000,FALSE,10,,,,,0.000000,0.000000
12:21:19.269 PM 04/09/2016,Teleop Enabled,9,FALSE,0,NO ERROR,-0.000000,0.006417,-0.000000,0.012833,TRUE,FALSE,FALSE,FALSE,FALSE,FALSE,Disabled,0.000000,0.000000,0.000000,TRUE,0.001038,-0.002335,0.000000,0.000000,0.000000,0.000000,-0.001000,0.000000,0.028000,2.130000,-0.070000,-0.200000,2.078968,Hold,0.800049,0.000000,Hold,-150.000000,2.000000,Suck,-1777.500000,1818.181818,Speed,-1740.000000,1818.181818,Speed,Off,On,0.000000,FALSE,10,,,,,0.000000,0.000000
12:21:19.369 PM 04/09/2016,Teleop Enabled,10,FALSE,0,NO ERROR,-0.000000,0.006417,-0.000000,0.012833,TRUE,FALSE,FALSE,FALSE,FALSE,FALSE,Disabled,0.000000,0.000000,0.000000,TRUE,0.001038,-0.002335,0.000000,0.000000,0.000000,0.000000,-0.001000,0.000000,0.028000,2.130000,-0.070000,-0.200000,2.126795,Hold,0.800049,0.000000,Hold,-150.000000,2.000000,Suck,-1777.500000,1818.181818,Speed,-1612.500000,1818.181818,Speed,Off,On,0.000000,FALSE,10,,,,,0.000000,0.000000
12:21:19.469 PM 04/09/2016,Teleop Enabled,9,FALSE,0,NO ERROR,-0.000000,0.006417,-0.000000,0.012833,TRUE,FALSE,FALSE,FALSE,FALSE,FALSE,Disabled,0.000000,0.000000,0.000000,TRUE,0.001038,-0.002335,0.000000,0.000000,0.000000,0.000000,-0.001000,0.000000,0.028000,2.130000,-0.070000,-0.200000,2.146249,Hold,0.800049,0.000000,Hold,-150.000000,2.000000,Suck,-1785.000000,1818.181818,Speed,-1627.500000,1818.181818,Speed,Off,On,0.000000,FALSE,10,,,,,0.000000,0.000000
12:21:19.569 PM 04/09/2016,Teleop Enabled,11,FALSE,0,NO ERROR,-0.000000,0.006417,-0.000000,0.012833,TRUE,FALSE,FALSE,FALSE,FALSE,FALSE,Disabled,0.000000,0.000000,0.000000,TRUE,0.001038,-0.002335,0.000000,0.000000,0.000000,0.000000,-0.001000,0.000000,0.028000,2.130000,-0.070000,-0.200000,2.192961,Hold,0.800049,0.000000,Hold,-150.000000,2.000000,Suck,-1777.500000,1818.181818,Speed,-1830.000000,1818.181818,Speed,Off,On,0.000000,FALSE,10,,,,,0.000000,0.000000
12:21:19.669 PM 04/09/2016,Teleop Enabled,10,FALSE,0,NO ERROR,-0.000000,0.006417,-0.000000,0.012833,TRUE,FALSE,FALSE,FALSE,FALSE,FALSE,Disabled,0.000000,0.000000,0.000000,TRUE,0.001038,-0.002335,0.000000,0.000000,0.000000,0.000000,-0.001000,0.000000,0.028000,2.130000,-0.070000,-0.200000,2.230874,Hold,0.800049,0.000000,Hold,-150.000000,2.000000,Suck,-1792.500000,1818.181818,Speed,-1702.500000,1818.181818,Speed,Off,On,0.000000,FALSE,10,,,,,0.000000,0.000000
12:21:19.769 PM 04/09/2016,Teleop Enabled,10,FALSE,0,NO ERROR,-0.000000,0.006417,-0.000000,0.012833,TRUE,FALSE,FALSE,FALSE,FALSE,FALSE,Disabled,0.000000,0.000000,0.000000,TRUE,0.001038,-0.002335,0.000000,0.000000,0.000000,0.000000,-0.001000,0.000000,0.028000,2.130000,-0.070000,-0.200000,2.272209,Hold,0.800049,0.000000,Hold,-150.000000,2.000000,Suck,-1800.000000,1818.181818,Speed,-1695.000000,1818.181818,Speed,Off,On,0.000000,FALSE,10,,,,,0.000000,0.000000
12:21:19.869 PM 04/09/2016,Teleop Enabled,11,FALSE,0,NO ERROR,-0.000000,0.006417,-0.000000,0.012833,TRUE,FALSE,FALSE,FALSE,FALSE,FALSE,Disabled,0.000000,0.000000,0.000000,TRUE,0.001038,-0.002335,0.000000,0.000000,0.000000,0.000000,-0.001000,0.000000,0.028000,2.130000,-0.070000,-0.200000,2.291783,Hold,0.800049,0.000000,Hold,-150.000000,2.000000,Suck,-1792.500000,1818.181818,Speed,-1732.500000,1818.181818,Speed,Off,On,0.000000,FALSE,10,,,,,0.000000,0.000000
12:21:19.969 PM 04/09/2016,Teleop Enabled,10,FALSE,0,NO ERROR,-0.000000,0.006417,-0.000000,0.012833,TRUE,FALSE,FALSE,FALSE,FALSE,FALSE,Disabled,0.000000,0.000000,0.000000,TRUE,0.001038,-0.002335,0.000000,0.000000,0.000000,0.000000,-0.001000,0.000000,0.028000,2.130000,-0.070000,-0.200000,2.330867,Hold,0.800049,0.000000,Hold,-150.000000,2.000000,Suck,-1785.000000,1818.181818,Speed,-1800.000000,1818.181818,Speed,Off,On,0.000000,FALSE,10,,,,,0.000000,0.000000
12:21:20.070 PM 04/09/2016,Teleop Enabled,10,FALSE,0,NO ERROR,-0.000000,0.006417,-0.000000,0.012833,TRUE,FALSE,FALSE,FALSE,FALSE,FALSE,Disabled,0.000000,0.000000,0.000000,TRUE,0.001038,-0.002335,0.000000,0.000000,0.000000,0.000000,-0.001000,0.000000,0.028000,2.130000,-0.070000,-0.200000,2.361471,Hold,0.800049,0.000000,Hold,-150.000000,2.000000,Suck,-1785.000000,1818.181818,Speed,-1507.500000,1818.181818,Speed,Off,On,0.000000,FALSE,10,,,,,0.000000,0.000000
12:21:20.170 PM 04/09/2016,Teleop Enabled,11,FALSE,0,NO ERROR,-0.000000,0.006417,-0.000000,0.012833,TRUE,FALSE,FALSE,FALSE,FALSE,FALSE,Disabled,0.000000,0.000000,0.000000,TRUE,0.001038,-0.002335,0.000000,0.000000,0.000000,0.000000,-0.001000,0.000000,0.028000,2.130000,-0.070000,-0.200000,2.392743,Hold,0.800049,0.000000,Hold,-150.000000,2.000000,Suck,-1785.000000,1818.181818,Speed,-1845.000000,1818.181818,Speed,Off,On,0.000000,FALSE,10,,,,,0.000000,0.000000
12:21:20.271 PM 04/09/2016,Teleop Enabled,11,FALSE,0,NO ERROR,-0.000000,0.006417,-0.000000,0.012833,TRUE,FALSE,FALSE,FALSE,FALSE,FALSE,Disabled,0.000000,0.000000,0.000000,TRUE,0.001038,-0.002335,0.000000,0.000000,0.000000,0.000000,-0.001000,0.000000,0.028000,2.130000,-0.070000,-0.200000,2.422790,Hold,0.800049,0.000000,Hold,-150.000000,2.000000,Suck,-1777.500000,1818.181818,Speed,-1830.000000,1818.181818,Speed,Off,On,0.000000,FALSE,10,,,,,0.000000,0.000000
12:21:20.371 PM 04/09/2016,Teleop Enabled,10,FALSE,0,NO ERROR,-0.000000,0.006417,-0.000000,0.012833,TRUE,FALSE,FALSE,FALSE,FALSE,FALSE,Disabled,0.000000,0.000000,0.000000,TRUE,0.001038,-0.002335,0.000000,0.000000,0.000000,0.000000,-0.001000,0.000000,0.028000,2.130000,-0.070000,-0.200000,2.459722,Hold,0.800049,0.000000,Hold,-150.000000,2.000000,Suck,-1785.000000,1818.181818,Speed,-1732.500000,1818.181818,Speed,Off,On,0.000000,FALSE,10,,,,,0.000000,0.000000
12:21:20.471 PM 04/09/2016,Teleop Enabled,11,FALSE,0,NO ERROR,-0.000000,0.006417,-0.000000,0.012833,TRUE,FALSE,FALSE,FALSE,FALSE,FALSE,Disabled,0.000000,0.000000,0.000000,TRUE,0.001038,-0.002335,0.000000,0.000000,0.000000,0.000000,-0.001000,0.000000,0.028000,2.130000,-0.070000,-0.200000,2.491496,Hold,0.800049,0.000000,Hold,-150.000000,2.000000,Suck,-1785.000000,1818.181818,Speed,-1680.000000,1818.181818,Speed,Off,On,0.000000,FALSE,10,,,,,0.000000,0.000000
12:21:20.571 PM 04/09/2016,Teleop Enabled,11,FALSE,0,NO ERROR,-0.000000,0.006417,-0.000000,0.012833,TRUE,FALSE,FALSE,FALSE,FALSE,FALSE,Disabled,0.000000,0.000000,0.000000,TRUE,0.001038,-0.002335,0.000000,0.000000,0.000000,0.000000,-0.001000,0.000000,0.028000,2.130000,-0.070000,-0.200000,2.523794,Hold,0.800049,0.000000,Hold,-150.000000,2.000000,Suck,-1777.500000,1818.181818,Speed,-1732.500000,1818.181818,Speed,Off,On,0.000000,FALSE,10,,,,,0.000000,0.000000
12:21:20.671 PM 04/09/2016,Teleop Enabled,11,FALSE,0,NO ERROR,-0.000000,0.006417,-0.000000,0.012833,TRUE,FALSE,FALSE,FALSE,FALSE,FALSE,Disabled,0.000000,0.000000,0.000000,TRUE,0.001038,-0.002335,0.000000,0.000000,0.000000,0.000000,-0.001000,0.000000,0.028000,2.130000,-0.070000,-0.200000,2.573023,Hold,0.800049,0.000000,Hold,-150.000000,2.000000,Suck,-1785.000000,1818.181818,Speed,-1702.500000,1818.181818,Speed,Off,On,0.000000,FALSE,10,,,,,0.000000,0.000000
12:21:20.771 PM 04/09/2016,Teleop Enabled,11,FALSE,0,NO ERROR,-0.000000,0.006417,-0.000000,0.012833,TRUE,FALSE,FALSE,FALSE,FALSE,FALSE,Disabled,0.000000,0.000000,0.000000,TRUE,0.001038,-0.002335,0.000000,0.000000,0.000000,0.000000,-0.001000,0.000000,0.028000,2.130000,-0.070000,-0.200000,2.614764,Hold,0.800049,0.000000,Hold,-150.000000,2.000000,Suck,-1792.500000,1818.181818,Speed,-1747.500000,1818.181818,Speed,Off,On,0.000000,FALSE,10,,,,,0.000000,0.000000
12:21:20.872 PM 04/09/2016,Teleop Enabled,10,FALSE,0,NO ERROR,-0.000000,0.006417,-0.000000,0.012833,TRUE,FALSE,FALSE,FALSE,FALSE,FALSE,Disabled,0.000000,0.000000,0.000000,TRUE,0.001038,-0.002335,0.000000,0.000000,0.000000,0.000000,-0.001000,0.000000,0.028000,2.130000,-0.070000,-0.200000,2.614764,Hold,0.800049,0.000000,Hold,-150.000000,2.000000,Suck,-1785.000000,1818.181818,Speed,-1777.500000,1818.181818,Speed,Off,On,0.000000,FALSE,10,,,,,0.000000,0.000000
12:21:20.973 PM 04/09/2016,Teleop Enabled,9,FALSE,0,NO ERROR,-0.000000,0.006417,-0.000000,0.012833,TRUE,FALSE,FALSE,FALSE,FALSE,FALSE,Disabled,0.000000,0.000000,0.000000,TRUE,0.001038,-0.002335,0.000000,0.000000,0.000000,0.000000,-0.001000,0.000000,0.028000,2.130000,-0.070000,-0.200000,2.645072,Hold,0.800049,0.000000,Hold,-150.000000,2.000000,Suck,-1792.500000,1818.181818,Speed,-1725.000000,1818.181818,Speed,Off,On,0.000000,FALSE,10,,,,,0.000000,0.000000
12:21:21.073 PM 04/09/2016,Teleop Enabled,9,FALSE,0,NO ERROR,-0.000000,0.006417,-0.000000,0.012833,TRUE,FALSE,FALSE,FALSE,FALSE,FALSE,Disabled,0.000000,0.000000,0.000000,TRUE,0.001038,-0.002335,0.000000,0.000000,0.000000,0.000000,-0.001000,0.000000,0.028000,2.130000,-0.070000,-0.200000,2.689939,Hold,0.800049,0.000000,Hold,-150.000000,2.000000,Suck,-1800.000000,1818.181818,Speed,-1770.000000,1818.181818,Speed,Off,On,0.000000,FALSE,10,,,,,0.000000,0.000000
12:21:21.174 PM 04/09/2016,Teleop Enabled,11,FALSE,0,NO ERROR,-0.000000,0.006417,-0.000000,0.012833,TRUE,FALSE,FALSE,FALSE,FALSE,FALSE,Disabled,0.000000,0.000000,0.000000,TRUE,0.001038,-0.002335,0.000000,0.000000,0.000000,0.000000,-0.001000,0.000000,0.028000,2.130000,-0.070000,-0.200000,2.725845,Hold,0.800049,0.000000,Hold,-150.000000,2.000000,Suck,-1800.000000,1818.181818,Speed,-1717.500000,1818.181818,Speed,Off,On,0.000000,FALSE,10,,,,,0.000000,0.000000
12:21:21.275 PM 04/09/2016,Teleop Enabled,10,FALSE,0,NO ERROR,-0.000000,0.006417,-0.000000,0.012833,TRUE,FALSE,FALSE,FALSE,FALSE,FALSE,Disabled,0.000000,0.000000,0.000000,TRUE,0.001038,-0.002335,0.000000,0.000000,0.000000,0.000000,-0.001000,0.000000,0.028000,2.130000,-0.070000,-0.200000,2.742214,Hold,0.800049,0.000000,Hold,-150.000000,2.000000,Suck,-1792.500000,1818.181818,Speed,-1695.000000,1818.181818,Speed,Off,On,0.000000,FALSE,10,,,,,0.000000,0.000000
12:21:21.375 PM 04/09/2016,Teleop Enabled,10,FALSE,0,NO ERROR,-0.000000,0.006417,-0.000000,0.012833,TRUE,FALSE,FALSE,FALSE,FALSE,FALSE,Disabled,0.000000,0.000000,0.000000,TRUE,0.001038,-0.002335,0.000000,0.000000,0.000000,0.000000,-0.001000,0.000000,0.028000,2.130000,-0.070000,-0.200000,2.774574,Hold,0.800049,0.000000,Hold,-150.000000,2.000000,Suck,-1800.000000,1818.181818,Speed,-1740.000000,1818.181818,Speed,Off,On,0.000000,FALSE,10,,,,,0.000000,0.000000
12:21:21.475 PM 04/09/2016,Teleop Enabled,10,FALSE,0,NO ERROR,-0.000000,0.006417,-0.000000,0.012833,TRUE,FALSE,FALSE,FALSE,FALSE,FALSE,Disabled,0.000000,0.000000,0.000000,TRUE,0.001038,-0.002335,0.000000,0.000000,0.000000,0.000000,-0.001000,0.000000,0.028000,2.130000,-0.070000,-0.200000,2.805351,Hold,0.800049,0.000000,Hold,-150.000000,2.000000,Suck,-1792.500000,1818.181818,Speed,-1650.000000,1818.181818,Speed,Off,On,0.000000,FALSE,10,,,,,0.000000,0.000000
12:21:21.575 PM 04/09/2016,Teleop Enabled,9,FALSE,0,NO ERROR,-0.000000,0.006417,-0.000000,0.012833,TRUE,FALSE,FALSE,FALSE,FALSE,FALSE,Disabled,0.000000,0.000000,0.000000,TRUE,0.001038,-0.002335,0.000000,0.000000,0.000000,0.000000,-0.001000,0.000000,0.028000,2.130000,-0.070000,-0.200000,2.837232,Hold,0.800049,0.000000,Hold,-150.000000,2.000000,Suck,-1792.500000,1818.181818,Speed,-1402.500000,1818.181818,Speed,Off,On,0.000000,FALSE,10,,,,,0.000000,0.000000
12:21:21.675 PM 04/09/2016,Teleop Enabled,10,FALSE,0,NO ERROR,-0.000000,0.006417,-0.000000,0.012833,TRUE,FALSE,FALSE,FALSE,FALSE,FALSE,Disabled,0.000000,0.000000,0.000000,TRUE,0.001038,-0.002335,0.000000,0.000000,0.000000,0.000000,-0.001000,0.000000,0.028000,2.130000,-0.070000,-0.200000,2.861881,Hold,0.800049,0.000000,Hold,-150.000000,2.000000,Suck,-1785.000000,1818.181818,Speed,-1597.500000,1818.181818,Speed,Off,On,0.000000,FALSE,10,,,,,0.000000,0.000000
12:21:21.775 PM 04/09/2016,Teleop Enabled,10,FALSE,0,NO ERROR,-0.000000,0.006417,-0.000000,0.012833,TRUE,FALSE,FALSE,FALSE,FALSE,FALSE,Disabled,0.000000,0.000000,0.000000,TRUE,0.001038,-0.002335,0.000000,0.000000,0.000000,0.000000,-0.001000,0.000000,0.028000,2.130000,-0.070000,-0.200000,2.892224,Hold,0.800049,0.000000,Hold,-150.000000,2.000000,Suck,-1770.000000,1818.181818,Speed,-2047.500000,1818.181818,Speed,Off,On,0.000000,FALSE,10,,,,,0.000000,0.000000
12:21:21.876 PM 04/09/2016,Teleop Enabled,10,FALSE,0,NO ERROR,-0.000000,0.006417,-0.000000,0.012833,TRUE,FALSE,FALSE,FALSE,FALSE,FALSE,Disabled,0.000000,0.000000,0.000000,TRUE,0.001038,-0.002335,0.000000,0.000000,0.000000,0.000000,-0.001000,0.000000,0.028000,2.130000,-0.070000,-0.200000,2.908277,Hold,0.800049,0.000000,Hold,-150.000000,2.000000,Suck,-1792.500000,1818.181818,Speed,-1972.500000,1818.181818,Speed,Off,On,0.000000,FALSE,10,,,,,0.000000,0.000000
12:21:21.977 PM 04/09/2016,Teleop Enabled,10,FALSE,0,NO ERROR,-0.000000,0.006417,-0.000000,0.012833,TRUE,FALSE,FALSE,FALSE,FALSE,FALSE,Disabled,0.000000,0.000000,0.000000,TRUE,0.001038,-0.002335,0.000000,0.000000,0.000000,0.000000,-0.001000,0.000000,0.028000,2.130000,-0.070000,-0.200000,2.942523,Hold,0.800049,0.000000,Hold,-150.000000,2.000000,Suck,-1792.500000,1818.181818,Speed,-1687.500000,1818.181818,Speed,Off,On,0.000000,FALSE,10,,,,,0.000000,0.000000
12:21:22.077 PM 04/09/2016,Teleop Enabled,10,FALSE,0,NO ERROR,-0.000000,0.006417,-0.000000,0.012833,TRUE,FALSE,FALSE,FALSE,FALSE,FALSE,Disabled,0.000000,0.000000,0.000000,TRUE,0.001038,-0.002335,0.000000,0.000000,0.000000,0.000000,-0.001000,0.000000,0.028000,2.130000,-0.070000,-0.200000,2.965485,Hold,0.800049,0.000000,Hold,-150.000000,2.000000,Suck,-1792.500000,1818.181818,Speed,-1680.000000,1818.181818,Speed,Off,On,0.000000,FALSE,10,,,,,0.000000,0.000000
12:21:22.178 PM 04/09/2016,Teleop Enabled,10,FALSE,0,NO ERROR,-0.000000,0.006417,-0.000000,0.012833,TRUE,FALSE,FALSE,FALSE,FALSE,FALSE,Disabled,0.000000,0.000000,0.000000,TRUE,0.001038,-0.002335,0.000000,0.000000,0.000000,0.000000,-0.001000,0.000000,0.028000,2.130000,-0.070000,-0.200000,3.003632,Hold,0.800049,0.000000,Hold,-150.000000,2.000000,Suck,-1785.000000,1818.181818,Speed,-1725.000000,1818.181818,Speed,Off,On,0.000000,FALSE,10,,,,,0.000000,0.000000
12:21:22.278 PM 04/09/2016,Teleop Enabled,10,FALSE,0,NO ERROR,-0.000000,0.006417,-0.000000,0.012833,TRUE,FALSE,FALSE,FALSE,FALSE,FALSE,Disabled,0.000000,0.000000,0.000000,TRUE,0.001038,-0.002335,0.000000,0.000000,0.000000,0.000000,-0.001000,0.000000,0.028000,2.130000,-0.070000,-0.200000,3.027083,Hold,0.800049,0.000000,Hold,-150.000000,2.000000,Suck,-1785.000000,1818.181818,Speed,-1777.500000,1818.181818,Speed,Off,On,0.000000,FALSE,10,,,,,0.000000,0.000000
12:21:22.378 PM 04/09/2016,Teleop Enabled,9,FALSE,0,NO ERROR,-0.000000,0.006417,-0.000000,0.012833,TRUE,FALSE,FALSE,FALSE,FALSE,FALSE,Disabled,0.000000,0.000000,0.000000,TRUE,0.001038,-0.002335,0.000000,0.000000,0.000000,0.000000,-0.001000,0.000000,0.028000,2.130000,-0.070000,-0.200000,3.038756,Hold,0.800049,0.000000,Hold,-150.000000,2.000000,Suck,-1785.000000,1818.181818,Speed,-1687.500000,1818.181818,Speed,Off,On,0.000000,FALSE,10,,,,,0.000000,0.000000
12:21:22.478 PM 04/09/2016,Teleop Enabled,10,FALSE,0,NO ERROR,-0.000000,0.006417,-0.000000,0.012833,TRUE,FALSE,FALSE,FALSE,FALSE,FALSE,Disabled,0.000000,0.000000,0.000000,TRUE,0.001038,-0.002335,0.000000,0.000000,0.000000,0.000000,-0.001000,0.000000,0.028000,2.130000,-0.070000,-0.200000,3.063598,Hold,0.800049,0.000000,Hold,-150.000000,2.000000,Suck,-1792.500000,1818.181818,Speed,-1695.000000,1818.181818,Speed,Off,On,0.000000,FALSE,10,,,,,0.000000,0.000000
12:21:22.578 PM 04/09/2016,Teleop Enabled,11,FALSE,0,NO ERROR,-0.000000,0.006417,-0.000000,0.012833,TRUE,FALSE,FALSE,FALSE,FALSE,FALSE,Disabled,0.000000,0.000000,0.000000,TRUE,0.001038,-0.002335,0.000000,0.000000,0.000000,0.000000,-0.001000,0.000000,0.028000,2.130000,-0.070000,-0.200000,3.081496,Hold,0.800049,0.000000,Hold,-150.000000,2.000000,Suck,-1800.000000,1818.181818,Speed,-1747.500000,1818.181818,Speed,Off,On,0.000000,FALSE,10,,,,,0.000000,0.000000
12:21:22.679 PM 04/09/2016,Teleop Enabled,10,FALSE,0,NO ERROR,-0.000000,0.006417,-0.000000,0.012833,TRUE,FALSE,FALSE,FALSE,FALSE,FALSE,Disabled,0.000000,0.000000,0.000000,TRUE,0.001038,-0.002335,0.000000,0.000000,0.000000,0.000000,-0.001000,0.000000,0.028000,2.130000,-0.070000,-0.200000,3.126421,Hold,0.800049,0.000000,Hold,-150.000000,2.000000,Suck,-1792.500000,1818.181818,Speed,-1785.000000,1818.181818,Speed,Off,On,0.000000,FALSE,10,,,,,0.000000,0.000000
12:21:22.781 PM 04/09/2016,Teleop Enabled,12,FALSE,0,NO ERROR,-0.000000,0.006417,-0.000000,0.012833,TRUE,FALSE,FALSE,FALSE,FALSE,FALSE,Disabled,0.000000,0.000000,0.000000,TRUE,0.001038,-0.002335,0.000000,0.000000,0.000000,0.000000,-0.001000,0.000000,0.028000,2.130000,-0.070000,-0.200000,3.150946,Hold,0.800049,0.000000,Hold,-150.000000,2.000000,Suck,-1785.000000,1818.181818,Speed,-1695.000000,1818.181818,Speed,Off,On,0.000000,FALSE,10,,,,,0.000000,0.000000
12:21:22.882 PM 04/09/2016,Teleop Enabled,12,FALSE,0,NO ERROR,-0.000000,0.006417,-0.000000,0.012833,TRUE,FALSE,FALSE,FALSE,FALSE,FALSE,Disabled,0.000000,0.000000,0.000000,TRUE,0.001038,-0.002335,0.000000,0.000000,0.000000,0.000000,-0.001000,0.000000,0.028000,2.130000,-0.070000,-0.200000,3.178524,Hold,0.800049,0.000000,Hold,-150.000000,2.000000,Suck,-1785.000000,1818.181818,Speed,-1770.000000,1818.181818,Speed,Off,On,0.000000,FALSE,10,,,,,0.000000,0.000000
12:21:22.984 PM 04/09/2016,Teleop Enabled,11,FALSE,0,NO ERROR,-0.000000,0.006417,-0.000000,0.012833,TRUE,FALSE,FALSE,FALSE,FALSE,FALSE,Disabled,0.000000,0.000000,0.000000,TRUE,0.001038,-0.002335,0.000000,0.000000,0.000000,0.000000,-0.001000,0.000000,0.028000,2.130000,-0.070000,-0.200000,3.188091,Hold,0.800049,0.000000,Hold,-150.000000,2.000000,Suck,-1785.000000,1818.181818,Speed,-1785.000000,1818.181818,Speed,Off,On,0.000000,FALSE,10,,,,,0.000000,0.000000
12:21:23.085 PM 04/09/2016,Teleop Enabled,11,FALSE,0,NO ERROR,-0.000000,0.006417,-0.000000,0.012833,TRUE,FALSE,FALSE,FALSE,FALSE,FALSE,Disabled,0.000000,0.000000,0.000000,TRUE,0.001038,-0.002335,0.000000,0.000000,0.000000,0.000000,-0.001000,0.000000,0.028000,2.130000,-0.070000,-0.200000,3.218623,Hold,0.800049,0.000000,Hold,-150.000000,2.000000,Suck,-1792.500000,1818.181818,Speed,-1725.000000,1818.181818,Speed,Off,On,0.000000,FALSE,10,,,,,0.000000,0.000000
12:21:23.185 PM 04/09/2016,Teleop Enabled,9,FALSE,0,NO ERROR,-0.000000,0.006417,-0.000000,0.012833,TRUE,FALSE,FALSE,FALSE,FALSE,FALSE,Disabled,0.000000,0.000000,0.000000,TRUE,0.001038,-0.002335,0.000000,0.000000,0.000000,0.000000,-0.001000,0.000000,0.028000,2.130000,-0.070000,-0.200000,3.243310,Hold,0.800049,0.000000,Hold,-150.000000,2.000000,Suck,-1792.500000,1818.181818,Speed,-1665.000000,1818.181818,Speed,Off,On,0.000000,FALSE,10,,,,,0.000000,0.000000
12:21:23.285 PM 04/09/2016,Teleop Enabled,9,FALSE,0,NO ERROR,-0.000000,0.006417,-0.000000,0.012833,TRUE,FALSE,FALSE,FALSE,FALSE,FALSE,Disabled,0.000000,0.000000,0.000000,TRUE,0.001038,-0.002335,0.000000,0.000000,0.000000,0.000000,-0.001000,0.000000,0.028000,2.130000,-0.070000,-0.200000,3.265129,Hold,0.800049,0.000000,Hold,-150.000000,2.000000,Suck,-1785.000000,1818.181818,Speed,-1747.500000,1818.181818,Speed,Off,On,0.000000,FALSE,10,,,,,0.000000,0.000000
12:21:23.386 PM 04/09/2016,Teleop Enabled,10,FALSE,0,NO ERROR,-0.000000,0.006417,-0.000000,0.012833,TRUE,FALSE,FALSE,FALSE,FALSE,FALSE,Disabled,0.000000,0.000000,0.000000,TRUE,0.001038,-0.002335,0.000000,0.000000,0.000000,0.000000,-0.001000,0.000000,0.028000,2.130000,-0.070000,-0.200000,3.310574,Hold,0.800049,0.000000,Hold,-150.000000,2.000000,Suck,-1785.000000,1818.181818,Speed,-1792.500000,1818.181818,Speed,Off,On,0.000000,FALSE,10,,,,,0.000000,0.000000
12:21:23.488 PM 04/09/2016,Teleop Enabled,11,FALSE,0,NO ERROR,-0.000000,0.006417,-0.000000,0.012833,TRUE,FALSE,FALSE,FALSE,FALSE,FALSE,Disabled,0.000000,0.000000,0.000000,TRUE,0.001038,-0.002335,0.000000,0.000000,0.000000,0.000000,-0.001000,0.000000,0.028000,2.130000,-0.070000,-0.200000,3.339777,Hold,0.800049,0.000000,Hold,-150.000000,2.000000,Suck,-1792.500000,1818.181818,Speed,-1732.500000,1818.181818,Speed,Off,On,0.000000,FALSE,10,,,,,0.000000,0.000000
12:21:23.589 PM 04/09/2016,Teleop Enabled,10,FALSE,0,NO ERROR,-0.000000,0.006417,-0.000000,0.012833,TRUE,FALSE,FALSE,FALSE,FALSE,FALSE,Disabled,0.000000,0.000000,0.000000,TRUE,0.001038,-0.002335,0.000000,0.000000,0.000000,0.000000,-0.001000,0.000000,0.028000,2.130000,-0.070000,-0.200000,3.339512,Hold,0.800049,0.000000,Hold,-150.000000,2.000000,Suck,-1792.500000,1818.181818,Speed,-1702.500000,1818.181818,Speed,Off,On,0.000000,FALSE,10,,,,,0.000000,0.000000
12:21:23.690 PM 04/09/2016,Teleop Enabled,11,FALSE,0,NO ERROR,-0.000000,0.006417,-0.000000,0.012833,TRUE,FALSE,FALSE,FALSE,FALSE,FALSE,Disabled,0.000000,0.000000,0.000000,TRUE,0.001038,-0.002335,0.000000,0.000000,0.000000,0.000000,-0.001000,0.000000,0.028000,2.130000,-0.070000,-0.200000,3.362908,Hold,0.800049,0.000000,Hold,-150.000000,2.000000,Suck,-1792.500000,1818.181818,Speed,-1770.000000,1818.181818,Speed,Off,On,0.000000,FALSE,10,,,,,0.000000,0.000000
12:21:23.790 PM 04/09/2016,Teleop Enabled,10,FALSE,0,NO ERROR,-0.000000,0.006417,-0.000000,0.012833,TRUE,FALSE,FALSE,FALSE,FALSE,FALSE,Disabled,0.000000,0.000000,0.000000,TRUE,0.001038,-0.002335,0.000000,0.000000,0.000000,0.000000,-0.001000,0.000000,0.028000,2.130000,-0.070000,-0.200000,3.418894,Hold,0.800049,0.000000,Hold,-150.000000,2.000000,Suck,-1800.000000,1818.181818,Speed,-1755.000000,1818.181818,Speed,Off,On,0.000000,FALSE,10,,,,,0.000000,0.000000
12:21:23.891 PM 04/09/2016,Teleop Enabled,10,FALSE,0,NO ERROR,-0.000000,0.006417,-0.000000,0.012833,TRUE,FALSE,FALSE,FALSE,FALSE,FALSE,Disabled,0.000000,0.000000,0.000000,TRUE,0.001038,-0.002335,0.000000,0.000000,0.000000,0.000000,-0.001000,0.000000,0.028000,2.130000,-0.070000,-0.200000,3.436220,Hold,0.800049,0.000000,Hold,-150.000000,2.000000,Suck,-1800.000000,1818.181818,Speed,-1747.500000,1818.181818,Speed,Off,On,0.000000,FALSE,10,,,,,0.000000,0.000000
12:21:23.991 PM 04/09/2016,Teleop Enabled,11,FALSE,0,NO ERROR,-0.000000,0.006417,-0.000000,0.012833,TRUE,FALSE,FALSE,FALSE,FALSE,FALSE,Disabled,0.000000,0.000000,0.000000,TRUE,0.001038,-0.002335,0.000000,0.000000,0.000000,0.000000,-0.001000,0.000000,0.028000,2.130000,-0.070000,-0.200000,3.457640,Hold,0.800049,0.000000,Hold,-150.000000,2.000000,Suck,-1807.500000,1818.181818,Speed,-1695.000000,1818.181818,Speed,Off,On,0.000000,FALSE,10,,,,,0.000000,0.000000
12:21:24.091 PM 04/09/2016,Teleop Enabled,9,FALSE,0,NO ERROR,-0.000000,0.006417,-0.000000,0.012833,TRUE,FALSE,FALSE,FALSE,FALSE,FALSE,Disabled,0.000000,0.000000,0.000000,TRUE,0.001038,-0.002335,0.000000,0.000000,0.000000,0.000000,-0.001000,0.000000,0.028000,2.130000,-0.070000,-0.200000,3.491952,Hold,0.800049,0.000000,Hold,-150.000000,2.000000,Suck,-1800.000000,1818.181818,Speed,-1695.000000,1818.181818,Speed,Off,On,0.000000,FALSE,10,,,,,0.000000,0.000000
12:21:24.191 PM 04/09/2016,Teleop Enabled,11,FALSE,0,NO ERROR,-0.000000,0.006417,-0.000000,0.012833,TRUE,FALSE,FALSE,FALSE,FALSE,FALSE,Disabled,0.000000,0.000000,0.000000,TRUE,0.001038,-0.002335,0.000000,0.000000,0.000000,0.000000,-0.001000,0.000000,0.028000,2.130000,-0.070000,-0.200000,3.520577,Hold,0.800049,0.000000,Hold,-150.000000,2.000000,Suck,-1800.000000,1818.181818,Speed,-1732.500000,1818.181818,Speed,Off,On,0.000000,FALSE,10,,,,,0.000000,0.000000
12:21:24.291 PM 04/09/2016,Teleop Enabled,11,FALSE,0,NO ERROR,-0.000000,0.006417,-0.000000,0.012833,TRUE,FALSE,FALSE,FALSE,FALSE,FALSE,Disabled,0.000000,0.000000,0.000000,TRUE,0.001038,-0.002335,0.000000,0.000000,0.000000,0.000000,-0.001000,0.000000,0.028000,2.130000,-0.070000,-0.200000,3.551360,Hold,0.800049,0.000000,Hold,-150.000000,2.000000,Suck,-1785.000000,1818.181818,Speed,-1822.500000,1818.181818,Speed,Off,On,0.000000,FALSE,10,,,,,0.000000,0.000000
12:21:24.393 PM 04/09/2016,Teleop Enabled,10,FALSE,0,NO ERROR,-0.000000,0.006417,-0.000000,0.012833,TRUE,FALSE,FALSE,FALSE,FALSE,FALSE,Disabled,0.000000,0.000000,0.000000,TRUE,0.001038,-0.002335,0.000000,0.000000,0.000000,0.000000,-0.001000,0.000000,0.028000,2.130000,-0.070000,-0.200000,3.587689,Hold,0.800049,0.000000,Hold,-150.000000,2.000000,Suck,-1792.500000,1818.181818,Speed,-1755.000000,1818.181818,Speed,Off,On,0.000000,FALSE,10,,,,,0.000000,0.000000
12:21:24.498 PM 04/09/2016,Teleop Enabled,9,FALSE,0,NO ERROR,-0.000000,0.006417,-0.000000,0.012833,TRUE,FALSE,FALSE,FALSE,FALSE,FALSE,Disabled,0.000000,0.000000,0.000000,TRUE,0.001038,-0.002335,0.000000,0.000000,0.000000,0.000000,-0.001000,0.000000,0.028000,2.130000,-0.070000,-0.200000,3.609987,Hold,0.800049,0.000000,Hold,-150.000000,2.000000,Suck,-1792.500000,1818.181818,Speed,-1657.500000,1818.181818,Speed,Off,On,0.000000,FALSE,10,,,,,0.000000,0.000000
12:21:24.597 PM 04/09/2016,Teleop Enabled,11,FALSE,0,NO ERROR,-0.000000,0.006417,-0.000000,0.012833,TRUE,FALSE,FALSE,FALSE,FALSE,FALSE,Disabled,0.000000,0.000000,0.000000,TRUE,0.001038,-0.002335,0.000000,0.000000,0.000000,0.000000,-0.001000,0.000000,0.028000,2.130000,-0.070000,-0.200000,3.649394,Hold,0.800049,0.000000,Hold,-150.000000,2.000000,Suck,-1785.000000,1818.181818,Speed,-1732.500000,1818.181818,Speed,Off,On,0.000000,FALSE,10,,,,,0.000000,0.000000
12:21:24.697 PM 04/09/2016,Teleop Enabled,10,FALSE,0,NO ERROR,-0.000000,0.006417,-0.000000,0.012833,TRUE,FALSE,FALSE,FALSE,FALSE,FALSE,Disabled,0.000000,0.000000,0.000000,TRUE,0.001038,-0.002335,0.000000,0.000000,0.000000,0.000000,-0.001000,0.000000,0.028000,2.130000,-0.070000,-0.200000,3.663309,Hold,0.800049,0.000000,Hold,-150.000000,2.000000,Suck,-1785.000000,1818.181818,Speed,-1822.500000,1818.181818,Speed,Off,On,0.000000,FALSE,10,,,,,0.000000,0.000000
12:21:24.797 PM 04/09/2016,Teleop Enabled,10,FALSE,0,NO ERROR,-0.000000,0.006417,-0.000000,0.012833,TRUE,FALSE,FALSE,FALSE,FALSE,FALSE,Disabled,0.000000,0.000000,0.000000,TRUE,0.001038,-0.002335,0.000000,0.000000,0.000000,0.000000,-0.001000,0.000000,0.028000,2.130000,-0.070000,-0.200000,3.690539,Hold,0.800049,0.000000,Hold,-150.000000,2.000000,Suck,-1792.500000,1818.181818,Speed,-1770.000000,1818.181818,Speed,Off,On,0.000000,FALSE,10,,,,,0.000000,0.000000
12:21:24.898 PM 04/09/2016,Teleop Enabled,11,FALSE,0,NO ERROR,-0.000000,0.006417,-0.000000,0.012833,TRUE,FALSE,FALSE,FALSE,FALSE,FALSE,Disabled,0.000000,0.000000,0.000000,TRUE,0.001038,-0.002335,0.000000,0.000000,0.000000,0.000000,-0.001000,0.000000,0.028000,2.130000,-0.070000,-0.200000,3.719085,Hold,0.800049,0.000000,Hold,-150.000000,2.000000,Suck,-1792.500000,1818.181818,Speed,-1695.000000,1818.181818,Speed,Off,On,0.000000,FALSE,10,,,,,0.000000,0.000000
12:21:24.998 PM 04/09/2016,Teleop Enabled,10,FALSE,0,NO ERROR,-0.000000,0.006417,-0.000000,0.012833,TRUE,FALSE,FALSE,FALSE,FALSE,FALSE,Disabled,0.000000,0.000000,0.000000,TRUE,0.001038,-0.002335,0.000000,0.000000,0.000000,0.000000,-0.001000,0.000000,0.028000,2.130000,-0.070000,-0.200000,3.753841,Hold,0.800049,0.000000,Hold,-150.000000,2.000000,Suck,-1792.500000,1818.181818,Speed,-1717.500000,1818.181818,Speed,Off,On,0.000000,FALSE,10,,,,,0.000000,0.000000
12:21:25.098 PM 04/09/2016,Teleop Enabled,10,FALSE,0,NO ERROR,-0.000000,0.006417,-0.000000,0.012833,TRUE,FALSE,FALSE,FALSE,FALSE,FALSE,Disabled,0.000000,0.000000,0.000000,TRUE,0.001038,-0.002335,0.000000,0.000000,0.000000,0.000000,-0.001000,0.000000,0.028000,2.130000,-0.070000,-0.200000,3.791313,Hold,0.800049,0.000000,Hold,-150.000000,2.000000,Suck,-1800.000000,1818.181818,Speed,-1777.500000,1818.181818,Speed,Off,On,0.000000,FALSE,10,,,,,0.000000,0.000000
12:21:25.198 PM 04/09/2016,Teleop Enabled,9,FALSE,0,NO ERROR,-0.000000,0.006417,-0.000000,0.012833,TRUE,FALSE,FALSE,FALSE,FALSE,FALSE,Disabled,0.000000,0.000000,0.000000,TRUE,0.001038,-0.002335,0.000000,0.000000,0.000000,0.000000,-0.001000,0.000000,0.028000,2.130000,-0.070000,-0.200000,3.819370,Hold,0.800049,0.000000,Hold,-150.000000,2.000000,Suck,-1800.000000,1818.181818,Speed,-1755.000000,1818.181818,Speed,Off,On,0.000000,FALSE,10,,,,,0.000000,0.000000
12:21:25.298 PM 04/09/2016,Teleop Enabled,10,FALSE,0,NO ERROR,-0.000000,0.006417,-0.000000,0.012833,TRUE,FALSE,FALSE,FALSE,FALSE,FALSE,Disabled,0.000000,0.000000,0.000000,TRUE,0.001038,-0.002335,0.000000,0.000000,0.000000,0.000000,-0.001000,0.000000,0.028000,2.130000,-0.070000,-0.200000,3.845771,Hold,0.800049,0.000000,Hold,-150.000000,2.000000,Suck,-1807.500000,1818.181818,Speed,-1665.000000,1818.181818,Speed,Off,On,0.000000,FALSE,10,,,,,0.000000,0.000000
12:21:25.398 PM 04/09/2016,Teleop Enabled,11,FALSE,0,NO ERROR,-0.000000,0.006417,-0.000000,0.012833,TRUE,FALSE,FALSE,FALSE,FALSE,FALSE,Disabled,0.000000,0.000000,0.000000,TRUE,0.001038,-0.002335,0.000000,0.000000,0.000000,0.000000,-0.001000,0.000000,0.028000,2.130000,-0.070000,-0.200000,3.881859,Hold,0.800049,0.000000,Hold,-150.000000,2.000000,Suck,-1807.500000,1818.181818,Speed,-1762.500000,1818.181818,Speed,Off,On,0.000000,FALSE,10,,,,,0.000000,0.000000
12:21:25.499 PM 04/09/2016,Teleop Enabled,11,FALSE,0,NO ERROR,-0.000000,0.006417,-0.000000,0.012833,TRUE,FALSE,FALSE,FALSE,FALSE,FALSE,Disabled,0.000000,0.000000,0.000000,TRUE,0.001038,-0.002335,0.000000,0.000000,0.000000,0.000000,-0.001000,0.000000,0.028000,2.130000,-0.070000,-0.200000,3.913689,Hold,0.800049,0.000000,Hold,-150.000000,2.000000,Suck,-1800.000000,1818.181818,Speed,-1830.000000,1818.181818,Speed,Off,On,0.000000,FALSE,10,,,,,0.000000,0.000000
12:21:25.600 PM 04/09/2016,Teleop Enabled,11,FALSE,0,NO ERROR,-0.000000,0.006417,-0.000000,0.012833,TRUE,FALSE,FALSE,FALSE,FALSE,FALSE,Disabled,0.000000,0.000000,0.000000,TRUE,0.001038,-0.002335,0.000000,0.000000,0.000000,0.000000,-0.001000,0.000000,0.028000,2.130000,-0.070000,-0.200000,3.936269,Hold,0.800049,0.000000,Hold,-150.000000,2.000000,Suck,-1800.000000,1818.181818,Speed,-1777.500000,1818.181818,Speed,Off,On,0.000000,FALSE,10,,,,,0.000000,0.000000
12:21:25.700 PM 04/09/2016,Teleop Enabled,10,FALSE,0,NO ERROR,-0.000000,0.006417,-0.000000,0.012833,TRUE,FALSE,FALSE,FALSE,FALSE,FALSE,Disabled,0.000000,0.000000,0.000000,TRUE,0.001038,-0.002335,0.000000,0.000000,0.000000,0.000000,-0.001000,0.000000,0.028000,2.130000,-0.070000,-0.200000,3.965851,Hold,0.800049,0.000000,Hold,-150.000000,2.000000,Suck,-1800.000000,1818.181818,Speed,-1725.000000,1818.181818,Speed,Off,On,0.000000,FALSE,10,,,,,0.000000,0.000000
12:21:25.801 PM 04/09/2016,Teleop Enabled,10,FALSE,0,NO ERROR,-0.000000,0.006417,-0.000000,0.012833,TRUE,FALSE,FALSE,FALSE,FALSE,FALSE,Disabled,0.000000,0.000000,0.000000,TRUE,0.001038,-0.002335,0.000000,0.000000,0.000000,0.000000,-0.001000,0.000000,0.028000,2.130000,-0.070000,-0.200000,3.991804,Hold,0.800049,0.000000,Hold,-150.000000,2.000000,Suck,-1800.000000,1818.181818,Speed,-1747.500000,1818.181818,Speed,Off,On,0.000000,FALSE,10,,,,,0.000000,0.000000
12:21:25.901 PM 04/09/2016,Teleop Enabled,9,FALSE,0,NO ERROR,-0.000000,0.006417,-0.000000,0.012833,TRUE,FALSE,FALSE,FALSE,FALSE,FALSE,Disabled,0.000000,0.000000,0.000000,TRUE,0.001038,-0.002335,0.000000,0.000000,0.000000,0.000000,-0.001000,0.000000,0.028000,2.130000,-0.070000,-0.200000,3.994090,Hold,0.800049,0.000000,Hold,-150.000000,2.000000,Suck,-1800.000000,1818.181818,Speed,-1740.000000,1818.181818,Speed,Off,On,0.000000,FALSE,10,,,,,0.000000,0.000000
12:21:26.002 PM 04/09/2016,Teleop Enabled,10,FALSE,0,NO ERROR,-0.000000,0.006417,-0.000000,0.012833,TRUE,FALSE,FALSE,FALSE,FALSE,FALSE,Disabled,0.000000,0.000000,0.000000,TRUE,0.001038,-0.002335,0.000000,0.000000,0.000000,0.000000,-0.001000,0.000000,0.028000,2.130000,-0.070000,-0.200000,4.017403,Hold,0.800049,0.000000,Hold,-150.000000,2.000000,Suck,-1792.500000,1818.181818,Speed,-1740.000000,1818.181818,Speed,Off,On,0.000000,FALSE,10,,,,,0.000000,0.000000
12:21:26.103 PM 04/09/2016,Teleop Enabled,10,FALSE,0,NO ERROR,-0.000000,0.006417,-0.000000,0.012833,TRUE,FALSE,FALSE,FALSE,FALSE,FALSE,Disabled,0.000000,0.000000,0.000000,TRUE,0.001038,-0.002335,0.000000,0.000000,0.000000,0.000000,-0.001000,0.000000,0.028000,2.130000,-0.070000,-0.200000,4.075066,Hold,0.800049,0.000000,Hold,-150.000000,2.000000,Suck,-1785.000000,1818.181818,Speed,-1755.000000,1818.181818,Speed,Off,On,0.000000,FALSE,10,,,,,0.000000,0.000000
12:21:26.204 PM 04/09/2016,Teleop Enabled,10,FALSE,0,NO ERROR,-0.000000,0.006417,-0.000000,0.012833,TRUE,FALSE,FALSE,FALSE,FALSE,FALSE,Disabled,0.000000,0.000000,0.000000,TRUE,0.001038,-0.002335,0.000000,0.000000,0.000000,0.000000,-0.001000,0.000000,0.028000,2.130000,-0.070000,-0.200000,4.103130,Hold,0.800049,0.000000,Hold,-150.000000,2.000000,Suck,-1785.000000,1818.181818,Speed,-1747.500000,1818.181818,Speed,Off,On,0.000000,FALSE,10,,,,,0.000000,0.000000
12:21:26.305 PM 04/09/2016,Teleop Enabled,11,FALSE,0,NO ERROR,-0.000000,0.006417,-0.000000,0.012833,TRUE,FALSE,FALSE,FALSE,FALSE,FALSE,Disabled,0.000000,0.000000,0.000000,TRUE,0.001038,-0.002335,0.000000,0.000000,0.000000,0.000000,-0.001000,0.000000,0.028000,2.130000,-0.070000,-0.200000,4.131972,Hold,0.800049,0.000000,Hold,-150.000000,2.000000,Suck,-1792.500000,1818.181818,Speed,-1725.000000,1818.181818,Speed,Off,On,0.000000,FALSE,10,,,,,0.000000,0.000000
12:21:26.405 PM 04/09/2016,Teleop Enabled,9,FALSE,0,NO ERROR,-0.000000,0.006417,-0.000000,0.012833,TRUE,FALSE,FALSE,FALSE,FALSE,FALSE,Disabled,0.000000,0.000000,0.000000,TRUE,0.001038,-0.002335,0.000000,0.000000,0.000000,0.000000,-0.001000,0.000000,0.028000,2.130000,-0.070000,-0.200000,4.159705,Hold,0.800049,0.000000,Hold,-150.000000,2.000000,Suck,-1800.000000,1818.181818,Speed,-1740.000000,1818.181818,Speed,Off,On,0.000000,FALSE,10,,,,,0.000000,0.000000
12:21:26.506 PM 04/09/2016,Teleop Enabled,10,FALSE,0,NO ERROR,-0.000000,0.006417,-0.000000,0.012833,TRUE,FALSE,FALSE,FALSE,FALSE,FALSE,Disabled,0.000000,0.000000,0.000000,TRUE,0.001038,-0.002335,0.000000,0.000000,0.000000,0.000000,-0.001000,0.000000,0.028000,2.130000,-0.070000,-0.200000,4.196248,Hold,0.800049,0.000000,Hold,-150.000000,2.000000,Suck,-1800.000000,1818.181818,Speed,-1785.000000,1818.181818,Speed,Off,On,0.000000,FALSE,10,,,,,0.000000,0.000000
12:21:26.607 PM 04/09/2016,Teleop Enabled,11,FALSE,0,NO ERROR,-0.000000,0.006417,-0.000000,0.012833,TRUE,FALSE,FALSE,FALSE,FALSE,FALSE,Disabled,0.000000,0.000000,0.000000,TRUE,0.001038,-0.002335,0.000000,0.000000,0.000000,0.000000,-0.001000,0.000000,0.028000,2.130000,-0.070000,-0.200000,4.225795,Hold,0.800049,0.000000,Hold,-150.000000,2.000000,Suck,-1807.500000,1818.181818,Speed,-1770.000000,1818.181818,Speed,Off,On,0.000000,FALSE,10,,,,,0.000000,0.000000
12:21:26.708 PM 04/09/2016,Teleop Enabled,11,FALSE,0,NO ERROR,-0.000000,0.006417,-0.000000,0.012833,TRUE,FALSE,FALSE,FALSE,FALSE,FALSE,Disabled,0.000000,0.000000,0.000000,TRUE,0.001038,-0.002335,0.000000,0.000000,0.000000,0.000000,-0.001000,0.000000,0.028000,2.130000,-0.070000,-0.200000,4.263261,Hold,0.800049,0.000000,Hold,-150.000000,2.000000,Suck,-1815.000000,1818.181818,Speed,-1702.500000,1818.181818,Speed,Off,On,0.000000,FALSE,10,,,,,0.000000,0.000000
12:21:26.811 PM 04/09/2016,Teleop Enabled,11,FALSE,0,NO ERROR,-0.000000,0.006417,-0.000000,0.012833,TRUE,FALSE,FALSE,FALSE,FALSE,FALSE,Disabled,0.000000,0.000000,0.000000,TRUE,0.001038,-0.002335,0.000000,0.000000,0.000000,0.000000,-0.001000,0.000000,0.028000,2.130000,-0.070000,-0.200000,4.303552,Hold,0.800049,0.000000,Hold,-150.000000,2.000000,Suck,-1807.500000,1818.181818,Speed,-1762.500000,1818.181818,Speed,Off,On,0.000000,FALSE,10,,,,,0.000000,0.000000
12:21:26.912 PM 04/09/2016,Teleop Enabled,10,FALSE,0,NO ERROR,-0.000000,0.006417,-0.000000,0.012833,TRUE,FALSE,FALSE,FALSE,FALSE,FALSE,Disabled,0.000000,0.000000,0.000000,TRUE,0.001038,-0.002335,0.000000,0.000000,0.000000,0.000000,-0.001000,0.000000,0.028000,2.130000,-0.070000,-0.200000,4.355253,Hold,0.800049,0.000000,Hold,-150.000000,2.000000,Suck,-1792.500000,1818.181818,Speed,-1740.000000,1818.181818,Speed,Off,On,0.000000,FALSE,10,,,,,0.000000,0.000000
12:21:27.012 PM 04/09/2016,Teleop Enabled,10,FALSE,0,NO ERROR,-0.000000,0.006417,-0.000000,0.012833,TRUE,FALSE,FALSE,FALSE,FALSE,FALSE,Disabled,0.000000,0.000000,0.000000,TRUE,0.001038,-0.002335,0.000000,0.000000,0.000000,0.000000,-0.001000,0.000000,0.028000,2.130000,-0.070000,-0.200000,4.395613,Hold,0.800049,0.000000,Hold,-150.000000,2.000000,Suck,-1792.500000,1818.181818,Speed,-1762.500000,1818.181818,Speed,Off,On,0.000000,FALSE,10,,,,,0.000000,0.000000
12:21:27.112 PM 04/09/2016,Teleop Enabled,10,FALSE,0,NO ERROR,-0.000000,0.006417,-0.000000,0.012833,TRUE,FALSE,FALSE,FALSE,FALSE,FALSE,Disabled,0.000000,0.000000,0.000000,TRUE,0.001038,-0.002335,0.000000,0.000000,0.000000,0.000000,-0.001000,0.000000,0.028000,2.130000,-0.070000,-0.200000,4.412409,Hold,0.800049,0.000000,Hold,-150.000000,2.000000,Suck,-1792.500000,1818.181818,Speed,-1770.000000,1818.181818,Speed,Off,On,0.000000,FALSE,10,,,,,0.000000,0.000000
12:21:27.212 PM 04/09/2016,Teleop Enabled,11,FALSE,0,NO ERROR,-0.000000,0.006417,-0.000000,0.012833,TRUE,FALSE,FALSE,FALSE,FALSE,FALSE,Disabled,0.000000,0.000000,0.000000,TRUE,0.001038,-0.002335,0.000000,0.000000,0.000000,0.000000,-0.001000,0.000000,0.028000,2.130000,-0.070000,-0.200000,4.461542,Hold,0.800049,0.000000,Hold,-150.000000,2.000000,Suck,-1800.000000,1818.181818,Speed,-1717.500000,1818.181818,Speed,Off,On,0.000000,FALSE,10,,,,,0.000000,0.000000
12:21:27.312 PM 04/09/2016,Teleop Enabled,10,FALSE,0,NO ERROR,-0.000000,0.006417,-0.000000,0.012833,TRUE,FALSE,FALSE,FALSE,FALSE,FALSE,Disabled,0.000000,0.000000,0.000000,TRUE,0.001038,-0.002335,0.000000,0.000000,0.000000,0.000000,-0.001000,0.000000,0.028000,2.130000,-0.070000,-0.200000,4.461542,Hold,0.800049,0.000000,Hold,-150.000000,2.000000,Suck,-1800.000000,1818.181818,Speed,-1755.000000,1818.181818,Speed,Off,On,0.000000,FALSE,10,,,,,0.000000,0.000000
12:21:27.413 PM 04/09/2016,Teleop Enabled,11,FALSE,0,NO ERROR,-0.000000,0.006417,-0.000000,0.012833,TRUE,FALSE,FALSE,FALSE,FALSE,FALSE,Disabled,0.000000,0.000000,0.000000,TRUE,0.001038,-0.002335,0.000000,0.000000,0.000000,0.000000,-0.001000,0.000000,0.028000,2.130000,-0.070000,-0.200000,4.492445,Hold,0.800049,0.000000,Hold,-150.000000,2.000000,Suck,-1792.500000,1818.181818,Speed,-1732.500000,1818.181818,Speed,Off,On,0.000000,FALSE,10,,,,,0.000000,0.000000
12:21:27.518 PM 04/09/2016,Teleop Enabled,9,FALSE,0,NO ERROR,-0.000000,0.006417,-0.000000,0.012833,TRUE,FALSE,FALSE,FALSE,FALSE,FALSE,Disabled,0.000000,0.000000,0.000000,TRUE,0.001038,-0.002335,0.000000,0.000000,0.000000,0.000000,-0.001000,0.000000,0.028000,2.130000,-0.070000,-0.200000,4.551671,Hold,0.800049,0.000000,Hold,-150.000000,2.000000,Suck,-1800.000000,1818.181818,Speed,-1777.500000,1818.181818,Speed,Off,On,0.000000,FALSE,10,,,,,0.000000,0.000000
12:21:27.618 PM 04/09/2016,Teleop Enabled,9,FALSE,0,NO ERROR,-0.000000,0.006417,-0.000000,0.012833,TRUE,FALSE,FALSE,FALSE,FALSE,FALSE,Disabled,0.000000,0.000000,0.000000,TRUE,0.001038,-0.002335,0.000000,0.000000,0.000000,0.000000,-0.001000,0.000000,0.028000,2.130000,-0.070000,-0.200000,4.584737,Hold,0.800049,0.000000,Hold,-150.000000,2.000000,Suck,-1800.000000,1818.181818,Speed,-1777.500000,1818.181818,Speed,Off,On,0.000000,FALSE,10,,,,,0.000000,0.000000
12:21:27.719 PM 04/09/2016,Teleop Enabled,10,FALSE,0,NO ERROR,-0.000000,0.006417,-0.000000,0.012833,TRUE,FALSE,FALSE,FALSE,FALSE,FALSE,Disabled,0.000000,0.000000,0.000000,TRUE,0.001038,-0.002335,0.000000,0.000000,0.000000,0.000000,-0.001000,0.000000,0.028000,2.130000,-0.070000,-0.200000,4.620743,Hold,0.800049,0.000000,Hold,-150.000000,2.000000,Suck,-1800.000000,1818.181818,Speed,-1777.500000,1818.181818,Speed,Off,On,0.000000,FALSE,10,,,,,0.000000,0.000000
12:21:27.819 PM 04/09/2016,Teleop Enabled,9,FALSE,0,NO ERROR,-0.000000,0.006417,-0.000000,0.012833,TRUE,FALSE,FALSE,FALSE,FALSE,FALSE,Disabled,0.000000,0.000000,0.000000,TRUE,0.001038,-0.002335,0.000000,0.000000,0.000000,0.000000,-0.001000,0.000000,0.028000,2.130000,-0.070000,-0.200000,4.665544,Hold,0.800049,0.000000,Hold,-150.000000,2.000000,Suck,-1800.000000,1818.181818,Speed,-1732.500000,1818.181818,Speed,Off,On,0.000000,FALSE,10,,,,,0.000000,0.000000
12:21:27.919 PM 04/09/2016,Teleop Enabled,9,FALSE,0,NO ERROR,-0.000000,0.006417,-0.000000,0.012833,TRUE,FALSE,FALSE,FALSE,FALSE,FALSE,Disabled,0.000000,0.000000,0.000000,TRUE,0.001038,-0.002335,0.000000,0.000000,0.000000,0.000000,-0.001000,0.000000,0.028000,2.130000,-0.070000,-0.200000,4.665544,Hold,0.800049,0.000000,Hold,-150.000000,2.000000,Suck,-1800.000000,1818.181818,Speed,-1747.500000,1818.181818,Speed,Off,On,0.000000,FALSE,10,,,,,0.000000,0.000000
12:21:28.019 PM 04/09/2016,Teleop Enabled,9,FALSE,0,NO ERROR,-0.000000,0.006417,-0.000000,0.012833,TRUE,FALSE,FALSE,FALSE,FALSE,FALSE,Disabled,0.000000,0.000000,0.000000,TRUE,0.001038,-0.002335,0.000000,0.000000,0.000000,0.000000,-0.001000,0.000000,0.028000,2.130000,-0.070000,-0.200000,4.706476,Hold,0.800049,0.000000,Hold,-150.000000,2.000000,Suck,-1807.500000,1818.181818,Speed,-1747.500000,1818.181818,Speed,Off,On,0.000000,FALSE,10,,,,,0.000000,0.000000
12:21:28.120 PM 04/09/2016,Teleop Enabled,9,FALSE,0,NO ERROR,-0.000000,0.006417,-0.000000,0.012833,TRUE,FALSE,FALSE,FALSE,FALSE,FALSE,Disabled,0.000000,0.000000,0.000000,TRUE,0.001038,-0.002335,0.000000,0.000000,0.000000,0.000000,-0.001000,0.000000,0.028000,2.130000,-0.070000,-0.200000,4.733944,Hold,0.800049,0.000000,Hold,-150.000000,2.000000,Suck,-1807.500000,1818.181818,Speed,-1710.000000,1818.181818,Speed,Off,On,0.000000,FALSE,10,,,,,0.000000,0.000000
12:21:28.220 PM 04/09/2016,Teleop Enabled,10,FALSE,0,NO ERROR,-0.000000,0.006417,-0.000000,0.012833,TRUE,FALSE,FALSE,FALSE,FALSE,FALSE,Disabled,0.000000,0.000000,0.000000,TRUE,0.001038,-0.002335,0.000000,0.000000,0.000000,0.000000,-0.001000,0.000000,0.028000,2.130000,-0.070000,-0.200000,4.760118,Hold,0.800049,0.000000,Hold,-150.000000,2.000000,Suck,-1807.500000,1818.181818,Speed,-1762.500000,1818.181818,Speed,Off,On,0.000000,FALSE,10,,,,,0.000000,0.000000
12:21:28.321 PM 04/09/2016,Teleop Enabled,9,FALSE,0,NO ERROR,-0.000000,0.006417,-0.000000,0.012833,TRUE,FALSE,FALSE,FALSE,FALSE,FALSE,Disabled,0.000000,0.000000,0.000000,TRUE,0.001038,-0.002335,0.000000,0.000000,0.000000,0.000000,-0.001000,0.000000,0.028000,2.130000,-0.070000,-0.200000,4.793745,Hold,0.800049,0.000000,Hold,-150.000000,2.000000,Suck,-1807.500000,1818.181818,Speed,-1755.000000,1818.181818,Speed,Off,On,0.000000,FALSE,10,,,,,0.000000,0.000000
12:21:28.421 PM 04/09/2016,Teleop Enabled,9,FALSE,0,NO ERROR,-0.000000,0.006417,-0.000000,0.012833,TRUE,FALSE,FALSE,FALSE,FALSE,FALSE,Disabled,0.000000,0.000000,0.000000,TRUE,0.001038,-0.002335,0.000000,0.000000,0.000000,0.000000,-0.001000,0.000000,0.028000,2.130000,-0.070000,-0.200000,4.830635,Hold,0.800049,0.000000,Hold,-150.000000,2.000000,Suck,-1815.000000,1818.181818,Speed,-1777.500000,1818.181818,Speed,Off,On,0.000000,FALSE,10,,,,,0.000000,0.000000
12:21:28.521 PM 04/09/2016,Teleop Enabled,9,FALSE,0,NO ERROR,-0.000000,0.006417,-0.000000,0.012833,TRUE,FALSE,FALSE,FALSE,FALSE,FALSE,Disabled,0.000000,0.000000,0.000000,TRUE,0.001038,-0.002335,0.000000,0.000000,0.000000,0.000000,-0.001000,0.000000,0.028000,2.130000,-0.070000,-0.200000,4.853318,Hold,0.800049,0.000000,Hold,-150.000000,2.000000,Suck,-1815.000000,1818.181818,Speed,-1717.500000,1818.181818,Speed,Off,On,0.000000,FALSE,10,,,,,0.000000,0.000000
12:21:28.622 PM 04/09/2016,Teleop Enabled,9,FALSE,0,NO ERROR,-0.000000,0.006417,-0.000000,0.012833,TRUE,FALSE,FALSE,FALSE,FALSE,FALSE,Disabled,0.000000,0.000000,0.000000,TRUE,0.001038,-0.002335,0.000000,0.000000,0.000000,0.000000,-0.001000,0.000000,0.028000,2.130000,-0.070000,-0.200000,4.878160,Hold,0.800049,0.000000,Hold,-150.000000,2.000000,Suck,-1807.500000,1818.181818,Speed,-1762.500000,1818.181818,Speed,Off,On,0.000000,FALSE,10,,,,,0.000000,0.000000
12:21:28.721 PM 04/09/2016,Teleop Enabled,9,FALSE,0,NO ERROR,-0.000000,0.006417,-0.000000,0.012833,TRUE,FALSE,FALSE,FALSE,FALSE,FALSE,Disabled,0.000000,0.000000,0.000000,TRUE,0.001038,-0.002335,0.000000,0.000000,0.000000,0.000000,-0.001000,0.000000,0.028000,2.130000,-0.070000,-0.200000,4.908320,Hold,0.800049,0.000000,Hold,-150.000000,2.000000,Suck,-1807.500000,1818.181818,Speed,-1785.000000,1818.181818,Speed,Off,On,0.000000,FALSE,10,,,,,0.000000,0.000000
12:21:28.821 PM 04/09/2016,Teleop Enabled,9,FALSE,0,NO ERROR,-0.000000,0.006417,-0.000000,0.012833,TRUE,FALSE,FALSE,FALSE,FALSE,FALSE,Disabled,0.000000,0.000000,0.000000,TRUE,0.001038,-0.002335,0.000000,0.000000,0.000000,0.000000,-0.001000,0.000000,0.028000,2.130000,-0.070000,-0.200000,4.924128,Hold,0.800049,0.000000,Hold,-150.000000,2.000000,Suck,-1807.500000,1818.181818,Speed,-1732.500000,1818.181818,Speed,Off,On,0.000000,FALSE,10,,,,,0.000000,0.000000
12:21:28.922 PM 04/09/2016,Teleop Enabled,10,FALSE,0,NO ERROR,-0.000000,0.006417,-0.000000,0.012833,TRUE,FALSE,FALSE,FALSE,FALSE,FALSE,Disabled,0.000000,0.000000,0.000000,TRUE,0.001038,-0.002335,0.000000,0.000000,0.000000,0.000000,-0.001000,0.000000,0.028000,2.130000,-0.070000,-0.200000,4.946963,Hold,0.800049,0.000000,Hold,-150.000000,2.000000,Suck,-1815.000000,1818.181818,Speed,-1755.000000,1818.181818,Speed,Off,On,0.000000,FALSE,10,,,,,0.000000,0.000000
12:21:29.023 PM 04/09/2016,Teleop Enabled,9,FALSE,0,NO ERROR,-0.000000,0.006417,-0.000000,0.012833,TRUE,FALSE,FALSE,FALSE,FALSE,FALSE,Disabled,0.000000,0.000000,0.000000,TRUE,0.001038,-0.002335,0.000000,0.000000,0.000000,0.000000,-0.001000,0.000000,0.028000,2.130000,-0.070000,-0.200000,4.974872,Hold,0.800049,0.000000,Hold,-150.000000,2.000000,Suck,-1807.500000,1818.181818,Speed,-1770.000000,1818.181818,Speed,Off,On,0.000000,FALSE,10,,,,,0.000000,0.000000
12:21:29.123 PM 04/09/2016,Teleop Enabled,9,FALSE,0,NO ERROR,-0.000000,0.006417,-0.000000,0.012833,TRUE,FALSE,FALSE,FALSE,FALSE,FALSE,Disabled,0.000000,0.000000,0.000000,TRUE,0.001038,-0.002335,0.000000,0.000000,0.000000,0.000000,-0.001000,0.000000,0.028000,2.130000,-0.070000,-0.200000,5.018902,Hold,0.800049,0.000000,Hold,-150.000000,2.000000,Suck,-1807.500000,1818.181818,Speed,-1702.500000,1818.181818,Speed,Off,On,0.000000,FALSE,10,,,,,0.000000,0.000000
12:21:29.223 PM 04/09/2016,Teleop Enabled,9,FALSE,0,NO ERROR,-0.000000,0.006417,-0.000000,0.012833,TRUE,FALSE,FALSE,FALSE,FALSE,FALSE,Disabled,0.000000,0.000000,0.000000,TRUE,0.001038,-0.002335,0.000000,0.000000,0.000000,0.000000,-0.001000,0.000000,0.028000,2.130000,-0.070000,-0.200000,5.063304,Hold,0.800049,0.000000,Hold,-150.000000,2.000000,Suck,-1815.000000,1818.181818,Speed,-1740.000000,1818.181818,Speed,Off,On,0.000000,FALSE,10,,,,,0.000000,0.000000
12:21:29.323 PM 04/09/2016,Teleop Enabled,9,FALSE,0,NO ERROR,-0.000000,0.006417,-0.000000,0.012833,TRUE,FALSE,FALSE,FALSE,FALSE,FALSE,Disabled,0.000000,0.000000,0.000000,TRUE,0.001038,-0.002335,0.000000,0.000000,0.000000,0.000000,-0.001000,0.000000,0.028000,2.130000,-0.070000,-0.200000,5.092249,Hold,0.800049,0.000000,Hold,-150.000000,2.000000,Suck,-1807.500000,1818.181818,Speed,-1747.500000,1818.181818,Speed,Off,On,0.000000,FALSE,10,,,,,0.000000,0.000000
12:21:29.423 PM 04/09/2016,Teleop Enabled,10,FALSE,0,NO ERROR,-0.000000,0.006417,-0.000000,0.012833,TRUE,FALSE,FALSE,FALSE,FALSE,FALSE,Disabled,0.000000,0.000000,0.000000,TRUE,0.001038,-0.002335,0.000000,0.000000,0.000000,0.000000,-0.001000,0.000000,0.028000,2.130000,-0.070000,-0.200000,5.115800,Hold,0.800049,0.000000,Hold,-150.000000,2.000000,Suck,-1815.000000,1818.181818,Speed,-1762.500000,1818.181818,Speed,Off,On,0.000000,FALSE,10,,,,,0.000000,0.000000
12:21:29.523 PM 04/09/2016,Teleop Enabled,9,FALSE,0,NO ERROR,-0.000000,0.006417,-0.000000,0.012833,TRUE,FALSE,FALSE,FALSE,FALSE,FALSE,Disabled,0.000000,0.000000,0.000000,TRUE,0.001038,-0.002335,0.000000,0.000000,0.000000,0.000000,-0.001000,0.000000,0.028000,2.130000,-0.070000,-0.200000,5.134059,Hold,0.800049,0.000000,Hold,-150.000000,2.000000,Suck,-1807.500000,1818.181818,Speed,-1770.000000,1818.181818,Speed,Off,On,0.000000,FALSE,10,,,,,0.000000,0.000000
12:21:29.623 PM 04/09/2016,Teleop Enabled,8,FALSE,0,NO ERROR,-0.000000,0.006417,-0.000000,0.012833,TRUE,FALSE,FALSE,FALSE,FALSE,FALSE,Disabled,0.000000,0.000000,0.000000,TRUE,0.001038,-0.002335,0.000000,0.000000,0.000000,0.000000,-0.001000,0.000000,0.028000,2.130000,-0.070000,-0.200000,5.166223,Hold,0.800049,0.000000,Hold,-150.000000,2.000000,Suck,-1800.000000,1818.181818,Speed,-1755.000000,1818.181818,Speed,Off,On,0.000000,FALSE,10,,,,,0.000000,0.000000
12:21:29.723 PM 04/09/2016,Teleop Enabled,8,FALSE,0,NO ERROR,-0.000000,0.006417,-0.000000,0.012833,TRUE,FALSE,FALSE,FALSE,FALSE,FALSE,Disabled,0.000000,0.000000,0.000000,TRUE,0.001038,-0.002335,0.000000,0.000000,0.000000,0.000000,-0.001000,0.000000,0.028000,2.130000,-0.070000,-0.200000,5.201227,Hold,0.800049,0.000000,Hold,-150.000000,2.000000,Suck,-1792.500000,1818.181818,Speed,-1740.000000,1818.181818,Speed,Off,On,0.000000,FALSE,10,,,,,0.000000,0.000000
