Time,Robot Mode,Loop Time,Error Status,Error Code,Error Source,Left Motor Output,Left Motor Encoder,Right Motor Output,Right Motor Encoder,Is Level,Is Stalled,Ball Detector Photoeye,Vision Enabled,Vision Teleop Control,Vision Auto Control,Vision Current State,Vision X Output,Vision NavX Error,Vision NavX Target,NavX Connection Status,NavX Displacement X,NavX Displacement Y,NavX Displacement Z,NavX Velocity X,NavX Velocity Y,NavX Velocity Z,NavX Acceleration X,NavX Acceleration Y,NavX Acceleration Z,NavX Pitch,NavX Yaw,NavX Roll,Gyro Angle,Roller Arm State,Roller Arm Actual,Roller Arm Desired,Shooter Arm State,Shooter Arm Actual,Shooter Arm Desired,Shooter State,Actual RPM Left,Desired RPM Left,Control Mode Left,Actual RPM Right,Desired RPM Right,Control Mode Right,Ball Shooter Cylinder,Ball Halo Cylinder,Scaler Motor Output,Scaler Solenoid Fire,Auto To Run,Auto Current File,Auto File Status,Auto Current Command,Auto Trimmed Command,Shooter Amps Left,Shooter Amps Right
07:59:47.103 PM 04/05/2016,Teleop Enabled,10,FALSE,0,NO ERROR,-0.000000,1.341080,-0.000000,1.341080,TRUE,FALSE,FALSE,FALSE,FALSE,FALSE,Disabled,0.000000,0.000000,0.000000,TRUE,0.251724,0.002319,0.000000,0.000000,0.000000,0.000000,-0.002000,0.000000,0.027000,-162.040000,0.130000,2.330000,-99.773281,ResetBack,-64.361084,-0.000049,ResetBack,108165.000000,-0.250000,Suck,0.000000,1818.181818,Speed,0.000000,1818.181818,Speed,Off,On,0.000000,FALSE,30,,,,,0.000000,0.000000
07:59:47.204 PM 04/05/2016,Teleop Enabled,10,FALSE,0,NO ERROR,-0.000000,1.341080,-0.000000,1.341080,TRUE,FALSE,FALSE,FALSE,FALSE,FALSE,Disabled,0.000000,0.000000,0.000000,TRUE,0.251694,0.003357,0.000000,-0.004028,0.057266,0.000000,-0.069000,-0.028000,0.017000,-162.030000,0.150000,2.210000,-99.954294,ResetBack,-64.500000,-0.000049,ResetBack,108165.000000,-0.250000,Suck,0.000000,1818.181818,Speed,0.000000,1818.181818,Speed,Off,On,0.000000,FALSE,30,,,,,0.000000,0.000000
07:59:47.305 PM 04/05/2016,Teleop Enabled,10,FALSE,0,NO ERROR,-0.000000,1.341080,-0.000000,1.341080,TRUE,FALSE,FALSE,FALSE,FALSE,FALSE,Disabled,0.000000,0.000000,0.000000,TRUE,0.252823,0.005386,0.000000,0.043594,0.022385,0.000000,-0.089000,0.058000,-0.008000,-162.030000,0.090000,2.250000,-100.185569,ResetBack,-66.894531,-0.000049,ResetBack,110474.000000,-0.250000,Suck,-435.000000,1818.181818,Speed,-105.000000,1818.181818,Speed,Off,On,0.000000,FALSE,30,,,,,0.000000,0.000000
07:59:47.405 PM 04/05/2016,Teleop Enabled,10,FALSE,0,NO ERROR,-0.000000,1.341080,-0.000000,1.341080,TRUE,FALSE,FALSE,FALSE,FALSE,FALSE,Disabled,0.000000,0.000000,0.000000,TRUE,0.254089,0.006317,0.000000,0.000000,0.022354,0.000000,0.042000,0.036000,-0.031000,-162.040000,0.150000,2.230000,-100.442976,ResetBack,-67.557617,-0.000049,ResetBack,114401.000000,-0.250000,Suck,-1185.000000,1818.181818,Speed,-562.500000,1818.181818,Speed,Off,On,0.000000,FALSE,30,,,,,0.000000,0.000000
07:59:47.506 PM 04/05/2016,Teleop Enabled,11,FALSE,0,NO ERROR,-0.000000,1.341080,-0.000000,1.341080,TRUE,FALSE,FALSE,FALSE,FALSE,FALSE,Disabled,0.000000,0.000000,0.000000,TRUE,0.254257,0.006668,0.000000,0.000717,-0.031128,0.000000,0.042000,0.036000,-0.031000,-162.040000,0.150000,2.230000,-100.681273,Reset,-67.573242,0.000000,ResetBack,114401.000000,-0.250000,Suck,-1762.500000,1818.181818,Speed,-1170.000000,1818.181818,Speed,Off,On,0.000000,FALSE,30,,,,,0.000000,0.000000
07:59:47.607 PM 04/05/2016,Teleop Enabled,10,FALSE,0,NO ERROR,-0.000000,1.347497,-0.000000,1.341080,TRUE,FALSE,FALSE,FALSE,FALSE,FALSE,Disabled,0.000000,0.000000,0.000000,TRUE,0.254654,0.006470,0.000000,0.031448,0.007980,0.000000,-0.128000,0.083000,0.020000,-162.030000,0.150000,2.200000,-100.914138,Hold,0.632812,0.000000,ResetBack,118558.000000,-0.250000,Suck,-1920.000000,1818.181818,Speed,-1972.500000,1818.181818,Speed,Off,On,0.000000,FALSE,30,,,,,0.000000,0.000000
07:59:47.707 PM 04/05/2016,Teleop Enabled,10,FALSE,0,NO ERROR,-0.000000,1.366747,-0.000000,1.353914,TRUE,FALSE,FALSE,FALSE,FALSE,FALSE,Disabled,0.000000,0.000000,0.000000,TRUE,0.256226,0.003098,0.000000,0.009079,-0.065567,0.000000,-0.053000,-0.173000,0.047000,-162.030000,0.150000,2.200000,-101.114898,Hold,0.777588,0.000000,ResetBack,124043.000000,-0.250000,Suck,-1830.000000,1818.181818,Speed,-1972.500000,1818.181818,Speed,Off,On,0.000000,FALSE,30,,,,,0.000000,0.000000
07:59:47.807 PM 04/05/2016,Teleop Enabled,10,FALSE,0,NO ERROR,-0.000000,1.353914,-0.000000,1.353914,TRUE,FALSE,FALSE,FALSE,FALSE,FALSE,Disabled,0.000000,0.000000,0.000000,TRUE,0.256180,-0.000748,0.000000,0.004700,-0.079788,0.000000,0.015000,0.039000,0.131000,-161.980000,0.210000,2.260000,-101.427327,Hold,0.777588,0.000000,ResetBack,128816.000000,-0.250000,Suck,-1777.500000,1818.181818,Speed,-1702.500000,1818.181818,Speed,Off,On,0.000000,FALSE,30,,,,,0.000000,0.000000
07:59:47.907 PM 04/05/2016,Teleop Enabled,11,FALSE,0,NO ERROR,-0.000000,1.353914,-0.000000,1.353914,TRUE,FALSE,FALSE,FALSE,FALSE,FALSE,Disabled,0.000000,0.000000,0.000000,TRUE,0.255890,-0.004120,0.000000,-0.007523,-0.070175,0.000000,-0.011000,-0.013000,0.068000,-162.030000,0.170000,2.230000,-101.660199,Hold,0.777588,0.000000,ResetBack,130580.000000,-0.250000,Suck,-1792.500000,1818.181818,Speed,-1642.500000,1818.181818,Speed,Off,On,0.000000,FALSE,30,,,,,0.000000,0.000000
07:59:48.008 PM 04/05/2016,Teleop Enabled,8,FALSE,0,NO ERROR,-0.000000,1.353914,-0.000000,1.353914,TRUE,FALSE,FALSE,FALSE,FALSE,FALSE,Disabled,0.000000,0.000000,0.000000,TRUE,0.255325,-0.003586,0.000000,-0.018784,0.020721,0.000000,0.029000,0.012000,-0.024000,-162.020000,0.170000,2.250000,-101.859650,Hold,0.777588,0.000000,ResetBack,131935.000000,-0.250000,Suck,-1807.500000,1818.181818,Speed,-1747.500000,1818.181818,Speed,Off,On,0.000000,FALSE,30,,,,,0.000000,0.000000
07:59:48.108 PM 04/05/2016,Teleop Enabled,9,FALSE,0,NO ERROR,-0.000000,1.353914,-0.000000,1.353914,TRUE,FALSE,FALSE,FALSE,FALSE,FALSE,Disabled,0.000000,0.000000,0.000000,TRUE,0.255325,-0.003586,0.000000,-0.018784,0.020721,0.000000,0.123000,0.042000,-0.067000,-162.010000,0.190000,2.240000,-102.073406,Hold,0.777588,0.000000,ResetBack,133132.000000,-0.250000,Suck,-1807.500000,1818.181818,Speed,-1770.000000,1818.181818,Speed,Off,On,0.000000,FALSE,30,,,,,0.000000,0.000000
07:59:48.208 PM 04/05/2016,Teleop Enabled,10,FALSE,0,NO ERROR,0.220472,1.315414,0.220472,1.321830,TRUE,FALSE,FALSE,FALSE,FALSE,FALSE,Disabled,0.000000,0.000000,0.000000,TRUE,0.254135,-0.002014,0.000000,-0.025757,0.000000,0.000000,0.134000,0.020000,0.004000,-162.010000,0.240000,2.180000,-102.291922,Hold,0.777588,0.000000,ResetBack,133937.000000,-0.250000,Suck,-1792.500000,1818.181818,Speed,-1672.500000,1818.181818,Speed,Off,On,0.000000,FALSE,30,,,,,0.000000,0.000000
07:59:48.308 PM 04/05/2016,Teleop Enabled,10,FALSE,0,NO ERROR,0.370079,1.180664,0.370079,1.950662,TRUE,FALSE,FALSE,FALSE,FALSE,FALSE,Disabled,0.000000,0.000000,0.000000,TRUE,0.253326,-0.002518,0.000000,-0.019119,-0.023453,0.000000,0.076000,-0.038000,0.032000,-162.030000,0.250000,2.160000,-102.577031,Hold,0.777588,0.000000,ResetBack,133937.000000,-0.250000,Suck,-1792.500000,1818.181818,Speed,-1642.500000,1818.181818,Speed,Off,On,0.000000,FALSE,30,,,,,0.000000,0.000000
07:59:48.409 PM 04/05/2016,Teleop Enabled,9,FALSE,0,NO ERROR,0.519685,1.180664,0.519685,1.950662,TRUE,FALSE,FALSE,FALSE,FALSE,FALSE,Disabled,0.000000,0.000000,0.000000,TRUE,0.252182,-0.004318,0.000000,-0.021271,-0.061539,0.000000,0.445000,0.086000,0.101000,-162.020000,0.030000,2.210000,-102.577031,Hold,0.777588,0.000000,Reset,133985.000000,2.000000,Suck,-1807.500000,1818.181818,Speed,-1815.000000,1818.181818,Speed,Off,On,0.000000,FALSE,30,,,,,0.000000,0.000000
07:59:48.510 PM 04/05/2016,Teleop Enabled,10,FALSE,0,NO ERROR,0.566929,-0.609582,0.566929,3.708825,TRUE,FALSE,FALSE,FALSE,FALSE,FALSE,Disabled,0.000000,0.000000,0.000000,TRUE,0.260391,-0.003159,0.000000,0.189331,0.074341,0.000000,0.056000,0.069000,-0.286000,-167.000000,-0.250000,1.750000,-108.172142,Hold,0.777832,0.000000,Hold,-66.000000,2.000000,Suck,-1807.500000,1818.181818,Speed,-1792.500000,1818.181818,Speed,Off,On,0.000000,FALSE,30,,,,,0.000000,0.000000
07:59:48.611 PM 04/05/2016,Teleop Enabled,11,FALSE,0,NO ERROR,-0.000000,-3.586908,-0.000000,6.596318,TRUE,FALSE,FALSE,FALSE,FALSE,FALSE,Disabled,0.000000,0.000000,0.000000,TRUE,0.274429,0.010117,0.000000,0.239075,0.379074,0.000000,-0.032000,0.309000,-0.054000,179.870000,-1.080000,0.320000,-118.889503,Hold,0.777832,0.000000,Hold,-69.000000,2.000000,Suck,-1792.500000,1818.181818,Speed,-1732.500000,1818.181818,Speed,Off,On,0.000000,FALSE,30,,,,,0.000000,0.000000
07:59:48.711 PM 04/05/2016,Teleop Enabled,10,FALSE,0,NO ERROR,-0.000000,-7.019817,-0.000000,9.804644,TRUE,FALSE,FALSE,FALSE,FALSE,FALSE,Disabled,0.000000,0.000000,0.000000,TRUE,0.283981,0.028946,0.000000,0.139923,0.315445,0.000000,-0.085000,-0.089000,0.012000,165.710000,-0.810000,0.650000,-132.662414,Hold,0.779053,0.000000,Hold,-70.000000,2.000000,Suck,-1800.000000,1818.181818,Speed,-1612.500000,1818.181818,Speed,Off,On,0.000000,FALSE,30,,,,,0.000000,0.000000
07:59:48.811 PM 04/05/2016,Teleop Enabled,9,FALSE,0,NO ERROR,-0.000000,-8.219731,-0.000000,11.049474,TRUE,FALSE,FALSE,FALSE,FALSE,FALSE,Disabled,0.000000,0.000000,0.000000,TRUE,0.284775,0.036957,0.000000,-0.087036,0.023285,0.000000,-0.090000,-0.138000,-0.100000,157.090000,0.190000,1.380000,-142.241132,Hold,0.808105,0.000000,Hold,-71.000000,2.000000,Suck,-1815.000000,1818.181818,Speed,-1642.500000,1818.181818,Speed,Off,On,0.000000,FALSE,30,,,,,0.000000,0.000000
07:59:48.910 PM 04/05/2016,Teleop Enabled,11,FALSE,0,NO ERROR,-0.000000,-8.219731,-0.000000,11.055891,TRUE,FALSE,FALSE,FALSE,FALSE,FALSE,Disabled,0.000000,0.000000,0.000000,TRUE,0.279251,0.033081,0.000000,-0.109253,-0.128571,0.000000,0.000000,0.124000,-0.024000,157.320000,0.840000,2.160000,-142.508319,Hold,0.808105,0.000000,Hold,-71.000000,2.000000,Suck,-1815.000000,1818.181818,Speed,-1875.000000,1818.181818,Speed,Off,On,0.000000,FALSE,30,,,,,0.000000,0.000000
07:59:49.011 PM 04/05/2016,Teleop Enabled,10,FALSE,0,NO ERROR,-0.433071,-8.181231,-0.433071,11.043058,TRUE,FALSE,FALSE,FALSE,FALSE,FALSE,Disabled,0.000000,0.000000,0.000000,TRUE,0.273849,0.029190,0.000000,-0.104141,-0.056686,0.000000,0.087000,-0.023000,0.013000,157.830000,0.620000,1.910000,-142.047041,Hold,0.808105,0.000000,Hold,-72.000000,2.000000,Suck,-1822.500000,1818.181818,Speed,-1800.000000,1818.181818,Speed,Off,On,0.000000,FALSE,30,,,,,0.000000,0.000000
07:59:49.111 PM 04/05/2016,Teleop Enabled,10,FALSE,0,NO ERROR,-0.464567,-7.295733,-0.464567,10.305143,TRUE,FALSE,FALSE,FALSE,FALSE,FALSE,Disabled,0.000000,0.000000,0.000000,TRUE,0.269379,0.023666,0.000000,-0.093658,-0.181931,0.000000,-0.209000,-0.295000,0.057000,162.180000,1.350000,2.990000,-141.221729,Hold,0.809082,0.000000,Hold,-72.000000,2.000000,Suck,-1822.500000,1818.181818,Speed,-1740.000000,1818.181818,Speed,Off,On,0.000000,FALSE,30,,,,,0.000000,0.000000
07:59:49.211 PM 04/05/2016,Teleop Enabled,10,FALSE,0,NO ERROR,-0.362205,-4.992155,-0.362205,8.258231,TRUE,FALSE,FALSE,FALSE,FALSE,FALSE,Disabled,0.000000,0.000000,0.000000,TRUE,0.258011,0.000671,0.000000,-0.167816,-0.373779,0.000000,-0.086000,-0.085000,0.019000,165.790000,1.420000,2.970000,-133.461717,Hold,0.809326,0.000000,Hold,-73.000000,2.000000,Suck,-1807.500000,1818.181818,Speed,-1590.000000,1818.181818,Speed,Off,On,0.000000,FALSE,30,,,,,0.000000,0.000000
07:59:49.310 PM 04/05/2016,Teleop Enabled,10,FALSE,0,NO ERROR,-0.236220,-2.213745,0.236220,5.851986,FALSE,FALSE,FALSE,FALSE,FALSE,FALSE,Disabled,0.000000,0.000000,0.000000,TRUE,0.248322,-0.018402,0.000000,-0.210495,-0.340256,0.000000,0.253000,0.242000,0.039000,-177.490000,1.020000,3.340000,-123.400356,Hold,0.809326,0.000000,Hold,-73.000000,2.000000,Suck,-1800.000000,1818.181818,Speed,-1755.000000,1818.181818,Speed,Off,On,0.000000,FALSE,30,,,,,0.000000,0.000000
07:59:49.411 PM 04/05/2016,Teleop Enabled,10,FALSE,0,NO ERROR,-0.401575,-1.174247,0.401575,4.517323,TRUE,FALSE,FALSE,FALSE,FALSE,FALSE,Disabled,0.000000,0.000000,0.000000,TRUE,0.241638,-0.026901,0.000000,-0.100021,0.000763,0.000000,0.215000,-0.075000,0.515000,-173.380000,1.520000,2.030000,-114.973449,Hold,0.809082,0.000000,Hold,-74.000000,2.000000,Suck,-1800.000000,1818.181818,Speed,-1777.500000,1818.181818,Speed,Off,On,0.000000,FALSE,30,,,,,0.000000,0.000000
07:59:49.510 PM 04/05/2016,Teleop Enabled,8,FALSE,0,NO ERROR,-0.448819,-2.573077,0.448819,3.259659,FALSE,FALSE,FALSE,FALSE,FALSE,FALSE,Disabled,0.000000,0.000000,0.000000,TRUE,0.224258,-0.027969,0.000000,-0.485001,-0.062531,0.000000,0.215000,-0.075000,0.515000,-174.850000,3.710000,1.940000,-115.683931,Hold,0.809326,0.000000,Hold,-74.000000,2.000000,Suck,-1807.500000,1818.181818,Speed,-1740.000000,1818.181818,Speed,Off,On,0.000000,FALSE,30,,,,,0.000000,0.000000
07:59:49.611 PM 04/05/2016,Teleop Enabled,9,FALSE,0,NO ERROR,-0.354461,-4.966488,0.574673,1.212747,FALSE,FALSE,FALSE,FALSE,FALSE,FALSE,Disabled,0.000000,0.000000,0.000000,TRUE,0.200256,-0.028793,0.000000,-0.642197,-0.012512,0.000000,0.047000,0.016000,0.094000,-175.210000,3.220000,2.010000,-116.411423,Hold,0.809326,0.000000,Hold,-74.000000,2.000000,Suck,-1800.000000,1818.181818,Speed,-1762.500000,1818.181818,Speed,Off,On,0.000000,FALSE,30,,,,,0.000000,0.000000
07:59:49.711 PM 04/05/2016,Teleop Enabled,9,FALSE,0,NO ERROR,-0.405580,-8.527730,0.665286,-1.430913,FALSE,FALSE,FALSE,FALSE,FALSE,FALSE,Disabled,0.000000,0.000000,0.000000,TRUE,0.174149,-0.029282,0.000000,-0.666275,-0.011398,0.000000,0.118000,-0.123000,0.084000,-177.400000,3.360000,1.940000,-117.562858,Hold,0.809326,0.000000,Hold,-75.000000,2.000000,Suck,-1807.500000,1818.181818,Speed,-1657.500000,1818.181818,Speed,Off,On,0.000000,FALSE,30,,,,,0.000000,0.000000
07:59:49.811 PM 04/05/2016,Teleop Enabled,9,FALSE,0,NO ERROR,-0.447331,-12.788387,0.733771,-4.247823,FALSE,FALSE,FALSE,FALSE,FALSE,FALSE,Disabled,0.000000,0.000000,0.000000,TRUE,0.133911,-0.032684,0.000000,-0.684418,-0.087753,0.000000,-0.121000,-0.006000,0.050000,-179.720000,3.780000,1.940000,-120.245413,Hold,0.809326,0.000000,Hold,-75.000000,2.000000,Suck,-1807.500000,1818.181818,Speed,-1627.500000,1818.181818,Speed,Off,On,0.000000,FALSE,30,,,,,0.000000,0.000000
07:59:49.911 PM 04/05/2016,Teleop Enabled,10,FALSE,0,NO ERROR,-0.465224,-17.620125,0.763122,-7.372733,FALSE,FALSE,FALSE,FALSE,FALSE,FALSE,Disabled,0.000000,0.000000,0.000000,TRUE,0.096893,-0.036789,0.000000,-0.779037,-0.106873,0.000000,-0.118000,-0.090000,0.074000,176.870000,4.120000,1.810000,-123.455175,Hold,0.809570,0.000000,Hold,-75.000000,2.000000,Suck,-1807.500000,1818.181818,Speed,-1837.500000,1818.181818,Speed,Off,On,0.000000,FALSE,30,,,,,0.000000,0.000000
07:59:50.011 PM 04/05/2016,Teleop Enabled,11,FALSE,0,NO ERROR,-0.498648,-23.093529,0.808438,-10.901891,FALSE,FALSE,FALSE,FALSE,FALSE,FALSE,Disabled,0.000000,0.000000,0.000000,TRUE,0.055664,-0.044861,0.000000,-0.852448,-0.205902,0.000000,0.046000,-0.085000,0.109000,172.280000,4.030000,1.940000,-127.867447,Hold,0.809570,0.000000,Hold,-75.000000,2.000000,Suck,-1800.000000,1818.181818,Speed,-1845.000000,1818.181818,Speed,Off,On,0.000000,FALSE,30,,,,,0.000000,0.000000
07:59:50.111 PM 04/05/2016,Teleop Enabled,10,FALSE,0,NO ERROR,-0.577568,-28.964766,0.745266,-14.674882,FALSE,FALSE,FALSE,FALSE,FALSE,FALSE,Disabled,0.000000,0.000000,0.000000,TRUE,0.012711,-0.057175,0.000000,-0.864838,-0.264359,0.000000,0.060000,-0.086000,0.034000,168.880000,3.830000,1.890000,-131.964928,Hold,0.809570,0.000000,Hold,-76.000000,2.000000,Suck,-1807.500000,1818.181818,Speed,-1710.000000,1818.181818,Speed,Off,On,0.000000,FALSE,30,,,,,0.000000,0.000000
07:59:50.211 PM 04/05/2016,Teleop Enabled,10,FALSE,0,NO ERROR,-0.669291,-35.156834,0.669291,-18.749456,FALSE,FALSE,FALSE,FALSE,FALSE,FALSE,Disabled,0.000000,0.000000,0.000000,TRUE,-0.037781,-0.076706,0.000000,-0.826508,-0.379501,0.000000,0.033000,-0.181000,0.020000,164.400000,3.790000,2.030000,-136.390642,Hold,0.809570,0.000000,Hold,-76.000000,2.000000,Suck,-1815.000000,1818.181818,Speed,-1612.500000,1818.181818,Speed,Off,On,0.000000,FALSE,30,,,,,0.000000,0.000000
07:59:50.311 PM 04/05/2016,Teleop Enabled,10,FALSE,0,NO ERROR,-0.661417,-41.008821,0.661417,-23.549112,FALSE,FALSE,FALSE,FALSE,FALSE,FALSE,Disabled,0.000000,0.000000,0.000000,TRUE,-0.062332,-0.090012,0.000000,-0.804565,-0.463654,0.000000,-0.049000,-0.084000,0.058000,161.490000,3.800000,2.400000,-139.061135,Hold,0.809570,0.000000,Hold,-76.000000,2.000000,Suck,-1807.500000,1818.181818,Speed,-1822.500000,1818.181818,Speed,Off,On,0.000000,FALSE,30,,,,,0.000000,0.000000
07:59:50.411 PM 04/05/2016,Teleop Enabled,11,FALSE,0,NO ERROR,-0.741621,-46.597724,0.581214,-28.592600,FALSE,FALSE,FALSE,FALSE,FALSE,FALSE,Disabled,0.000000,0.000000,0.000000,TRUE,-0.094269,-0.119934,0.000000,0.005585,-0.521164,0.000000,0.021000,-0.095000,0.067000,160.380000,4.040000,2.560000,-140.332430,Hold,0.809570,0.000000,Hold,-76.000000,2.000000,Suck,-1807.500000,1818.181818,Speed,-1845.000000,1818.181818,Speed,Off,On,0.000000,FALSE,30,,,,,0.000000,0.000000
07:59:50.511 PM 04/05/2016,Teleop Enabled,12,FALSE,0,NO ERROR,-0.838986,-51.929962,0.499597,-34.053170,FALSE,FALSE,FALSE,FALSE,FALSE,FALSE,Disabled,0.000000,0.000000,0.000000,TRUE,-0.093613,-0.141525,0.000000,0.012512,-0.561646,0.000000,-0.025000,0.043000,-0.067000,160.180000,3.790000,2.680000,-140.693241,Hold,0.809814,0.000000,Hold,-76.000000,2.000000,Suck,-1815.000000,1818.181818,Speed,-1732.500000,1818.181818,Speed,Off,On,0.000000,FALSE,30,,,,,0.000000,0.000000
07:59:50.611 PM 04/05/2016,Teleop Enabled,10,FALSE,0,NO ERROR,-0.898010,-56.768117,0.440573,-40.136156,FALSE,FALSE,FALSE,FALSE,FALSE,FALSE,Disabled,0.000000,0.000000,0.000000,TRUE,-0.095581,-0.175278,0.000000,-0.068848,-0.553848,0.000000,0.112000,-0.053000,-0.022000,161.750000,3.510000,2.820000,-139.343538,Hold,0.809814,50.000000,Hold,-77.000000,143360.000000,Suck,-1815.000000,1818.181818,Speed,-1710.000000,1818.181818,Speed,Off,On,0.000000,FALSE,30,,,,,0.000000,0.000000
07:59:50.711 PM 04/05/2016,Teleop Enabled,11,FALSE,0,NO ERROR,-0.879565,-61.362440,0.459018,-46.655474,FALSE,FALSE,FALSE,FALSE,FALSE,FALSE,Disabled,0.000000,0.000000,0.000000,TRUE,-0.097153,-0.202316,0.000000,-0.012177,-0.513016,0.000000,0.051000,0.112000,0.201000,165.760000,3.310000,2.890000,-136.329596,Hold,5.304688,50.000000,Hold,-5321.000000,143360.000000,Suck,-1815.000000,1818.181818,Speed,-1665.000000,1818.181818,Speed,Off,On,0.000000,FALSE,30,,,,,0.000000,0.000000
07:59:50.811 PM 04/05/2016,Teleop Enabled,11,FALSE,0,NO ERROR,-0.685039,-65.879763,0.685039,-53.546958,FALSE,FALSE,FALSE,FALSE,FALSE,FALSE,Disabled,0.000000,0.000000,0.000000,TRUE,-0.095413,-0.226212,0.000000,0.064224,-0.445847,0.000000,0.163000,0.296000,0.093000,170.340000,3.320000,2.670000,-132.052623,Hold,5.304688,50.000000,Hold,-21572.000000,143360.000000,Suck,-1807.500000,1818.181818,Speed,-1710.000000,1818.181818,Speed,Off,On,0.000000,FALSE,30,,,,,0.000000,0.000000
07:59:50.912 PM 04/05/2016,Teleop Enabled,12,FALSE,0,NO ERROR,-0.618823,-70.846251,0.798500,-59.514444,TRUE,FALSE,FALSE,FALSE,FALSE,FALSE,Disabled,0.000000,0.000000,0.000000,TRUE,-0.086533,-0.242905,0.000000,0.201721,-0.192795,0.000000,0.260000,-0.077000,0.250000,173.280000,2.730000,2.110000,-128.679491,Hold,8.346436,50.000000,Hold,-35021.000000,143360.000000,Suck,-1807.500000,1818.181818,Speed,-1777.500000,1818.181818,Speed,Off,On,0.000000,FALSE,30,,,,,0.000000,0.000000
07:59:51.012 PM 04/05/2016,Teleop Enabled,10,FALSE,0,NO ERROR,-0.542761,-76.403071,0.890309,-64.647765,TRUE,FALSE,FALSE,FALSE,FALSE,FALSE,Disabled,0.000000,0.000000,0.000000,TRUE,-0.076843,-0.250320,0.000000,0.256149,-0.173050,0.000000,-0.043000,-0.035000,0.020000,172.860000,2.530000,1.830000,-128.469778,Hold,13.797852,50.000000,Hold,-35021.000000,143360.000000,Suck,-1807.500000,1818.181818,Speed,-1777.500000,1818.181818,Speed,Off,On,0.000000,FALSE,30,,,,,0.000000,0.000000
07:59:51.112 PM 04/05/2016,Teleop Enabled,10,FALSE,0,NO ERROR,-0.542761,-82.922389,0.890309,-69.370421,TRUE,FALSE,FALSE,FALSE,FALSE,FALSE,Disabled,0.000000,0.000000,0.000000,TRUE,-0.064713,-0.259399,0.000000,0.241806,-0.200775,0.000000,0.019000,-0.038000,0.024000,170.060000,2.190000,1.600000,-130.871616,Hold,20.808105,50.000000,Hold,-49134.000000,143360.000000,Suck,-1800.000000,1818.181818,Speed,-1695.000000,1818.181818,Speed,Off,On,0.000000,FALSE,30,,,,,0.000000,0.000000
07:59:51.212 PM 04/05/2016,Teleop Enabled,10,FALSE,0,NO ERROR,-0.621750,-89.916540,0.811321,-74.060993,TRUE,FALSE,FALSE,FALSE,FALSE,FALSE,Disabled,0.000000,0.000000,0.000000,TRUE,-0.048767,-0.264984,0.000000,0.274933,-0.068939,0.000000,0.173000,-0.184000,0.077000,165.580000,2.200000,1.650000,-135.006252,Hold,26.134033,50.000000,Hold,-64513.000000,143360.000000,Suck,-1792.500000,1818.181818,Speed,-1552.500000,1818.181818,Speed,Off,On,0.000000,FALSE,30,,,,,0.000000,0.000000
07:59:51.313 PM 04/05/2016,Teleop Enabled,13,FALSE,0,NO ERROR,-0.622047,-96.750274,0.622047,-78.796482,TRUE,FALSE,FALSE,FALSE,FALSE,FALSE,Disabled,0.000000,0.000000,0.000000,TRUE,-0.042892,-0.272278,0.000000,0.008652,-0.165741,0.000000,-0.003000,-0.082000,0.182000,160.990000,1.220000,1.860000,-139.523601,Hold,33.852295,50.000000,Hold,-81858.000000,143360.000000,Suck,-1792.500000,1818.181818,Speed,-1732.500000,1818.181818,Speed,Off,On,0.000000,FALSE,30,,,,,0.000000,0.000000
07:59:51.415 PM 04/05/2016,Teleop Enabled,9,FALSE,0,NO ERROR,-0.000000,-102.968009,-0.000000,-84.109470,TRUE,FALSE,FALSE,FALSE,FALSE,FALSE,Disabled,0.000000,0.000000,0.000000,TRUE,-0.042755,-0.281281,0.000000,-0.007172,-0.293640,0.000000,0.036000,-0.181000,0.190000,157.520000,0.960000,2.530000,-143.269572,Hold,42.395264,50.000000,Hold,-81858.000000,143360.000000,Suck,-1792.500000,1818.181818,Speed,-1882.500000,1818.181818,Speed,Off,On,0.000000,FALSE,30,,,,,0.000000,0.000000
07:59:51.515 PM 04/05/2016,Teleop Enabled,9,FALSE,0,NO ERROR,-0.000000,-105.804169,-0.000000,-86.721047,FALSE,FALSE,FALSE,FALSE,FALSE,FALSE,Disabled,0.000000,0.000000,0.000000,TRUE,-0.026321,-0.294724,0.000000,0.751724,-0.151749,0.000000,0.081000,0.191000,-0.210000,157.200000,-5.680000,3.150000,-144.145211,Hold,52.050293,50.000000,Hold,-101583.000000,143360.000000,Suck,-1807.500000,1818.181818,Speed,-1815.000000,1818.181818,Speed,Off,On,0.000000,FALSE,30,,,,,0.000000,0.000000
07:59:51.615 PM 04/05/2016,Teleop Enabled,10,FALSE,0,NO ERROR,-0.000000,-106.946333,-0.000000,-87.927378,FALSE,FALSE,FALSE,FALSE,FALSE,FALSE,Disabled,0.000000,0.000000,0.000000,TRUE,0.031906,-0.295135,0.000000,1.121841,0.059967,0.000000,0.323000,0.137000,-0.683000,157.490000,-8.380000,3.030000,-143.824668,Hold,54.270508,50.000000,Hold,-123720.000000,143360.000000,Suck,-1800.000000,1818.181818,Speed,-1815.000000,1818.181818,Speed,Off,On,0.000000,FALSE,30,,,,,0.000000,0.000000
07:59:51.716 PM 04/05/2016,Teleop Enabled,9,FALSE,0,NO ERROR,-0.000000,-107.427582,-0.000000,-88.427877,FALSE,FALSE,FALSE,FALSE,FALSE,FALSE,Disabled,0.000000,0.000000,0.000000,TRUE,0.095810,-0.293961,0.000000,1.325226,-0.043167,0.000000,-0.186000,-0.581000,1.014000,157.860000,-3.560000,3.760000,-143.836462,Hold,54.312500,50.000000,Hold,-123720.000000,143360.000000,Suck,-1777.500000,1818.181818,Speed,-1507.500000,1818.181818,Speed,Off,On,0.000000,FALSE,30,,,,,0.000000,0.000000
07:59:51.817 PM 04/05/2016,Teleop Enabled,10,FALSE,0,NO ERROR,-0.000000,-107.215833,-0.000000,-88.273877,FALSE,FALSE,FALSE,FALSE,FALSE,FALSE,Disabled,0.000000,0.000000,0.000000,TRUE,0.158966,-0.298721,0.000000,1.197693,-0.025284,0.000000,0.125000,-0.215000,-0.413000,157.920000,-4.970000,2.470000,-143.567774,Hold,54.077881,50.000000,Hold,-145310.000000,143360.000000,Suck,-1770.000000,1818.181818,Speed,-1530.000000,1818.181818,Speed,Off,On,0.000000,FALSE,30,,,,,0.000000,0.000000
07:59:51.917 PM 04/05/2016,Teleop Enabled,10,FALSE,0,NO ERROR,-0.212598,-107.215833,0.212598,-88.267460,FALSE,FALSE,FALSE,FALSE,FALSE,FALSE,Disabled,0.000000,0.000000,0.000000,TRUE,0.220062,-0.304749,0.000000,1.240067,-0.174683,0.000000,-0.061000,0.091000,-0.266000,157.790000,-3.750000,2.850000,-143.920195,Hold,52.920898,50.000000,Hold,-143567.000000,143360.000000,Suck,-1785.000000,1818.181818,Speed,-1530.000000,1818.181818,Speed,Off,On,0.000000,FALSE,30,,,,,0.000000,0.000000
07:59:52.018 PM 04/05/2016,Teleop Enabled,10,FALSE,0,NO ERROR,-0.307087,-107.722748,0.307087,-88.742292,TRUE,FALSE,FALSE,FALSE,FALSE,FALSE,Disabled,0.000000,0.000000,0.000000,TRUE,0.287720,-0.317169,0.000000,0.989059,-0.284882,0.000000,-0.190000,-0.276000,0.422000,157.870000,-2.470000,2.680000,-143.850063,Hold,53.298828,50.000000,Hold,-143413.000000,143360.000000,Suck,-1785.000000,1818.181818,Speed,-1942.500000,1818.181818,Speed,Off,On,0.000000,FALSE,30,,,,,0.000000,0.000000
07:59:52.120 PM 04/05/2016,Teleop Enabled,11,FALSE,0,NO ERROR,-0.433071,-109.230661,0.433071,-90.160372,TRUE,FALSE,FALSE,FALSE,FALSE,FALSE,Disabled,0.000000,0.000000,0.000000,TRUE,0.328644,-0.334396,0.000000,0.689651,-0.376968,0.000000,-0.343000,-0.196000,-0.254000,157.600000,-1.130000,2.460000,-144.073355,Hold,53.358643,50.000000,Hold,-143413.000000,143360.000000,Suck,-1807.500000,1818.181818,Speed,-1845.000000,1818.181818,Speed,Off,On,0.000000,FALSE,30,,,,,0.000000,0.000000
07:59:52.221 PM 04/05/2016,Teleop Enabled,11,FALSE,0,NO ERROR,-0.433071,-111.701072,0.433071,-92.528117,TRUE,FALSE,FALSE,FALSE,FALSE,FALSE,Disabled,0.000000,0.000000,0.000000,TRUE,0.355896,-0.357132,0.000000,0.455948,-0.472290,0.000000,-0.098000,-0.054000,-0.094000,157.300000,-0.510000,2.610000,-144.408463,Hold,53.355957,50.000000,Hold,-143413.000000,143360.000000,Suck,-1800.000000,1818.181818,Speed,-1717.500000,1818.181818,Speed,Off,On,0.000000,FALSE,30,,,,,0.000000,0.000000
07:59:52.323 PM 04/05/2016,Teleop Enabled,11,FALSE,0,NO ERROR,-0.320882,-114.902981,0.545260,-95.409194,TRUE,FALSE,FALSE,FALSE,FALSE,FALSE,Disabled,0.000000,0.000000,0.000000,TRUE,0.376450,-0.381119,0.000000,0.400040,-0.495514,0.000000,0.021000,-0.036000,-0.183000,156.850000,-0.280000,2.570000,-144.965462,Hold,53.356689,50.000000,Hold,-143413.000000,143360.000000,Suck,-1777.500000,1818.181818,Speed,-1710.000000,1818.181818,Speed,Off,On,0.000000,FALSE,30,,,,,0.000000,0.000000
07:59:52.423 PM 04/05/2016,Teleop Enabled,10,FALSE,0,NO ERROR,-0.366235,-118.624639,0.499907,-98.194020,TRUE,FALSE,FALSE,FALSE,FALSE,FALSE,Disabled,0.000000,0.000000,0.000000,TRUE,0.394989,-0.406189,0.000000,0.353302,-0.509003,0.000000,-0.150000,-0.030000,0.082000,155.540000,0.240000,2.520000,-146.353863,Hold,53.359375,50.000000,Hold,-143413.000000,143360.000000,Suck,-1785.000000,1818.181818,Speed,-1695.000000,1818.181818,Speed,Off,On,0.000000,FALSE,30,,,,,0.000000,0.000000
07:59:52.524 PM 04/05/2016,Teleop Enabled,10,FALSE,0,NO ERROR,-0.000000,-122.468214,-0.000000,-101.030180,TRUE,FALSE,FALSE,FALSE,FALSE,FALSE,Disabled,0.000000,0.000000,0.000000,TRUE,0.410828,-0.430374,0.000000,0.315338,-0.469879,0.000000,0.097000,-0.064000,0.063000,153.460000,-0.080000,2.430000,-148.438002,Hold,53.354736,50.000000,Hold,-143413.000000,143360.000000,Suck,-1792.500000,1818.181818,Speed,-1755.000000,1818.181818,Speed,Off,On,0.000000,FALSE,30,,,,,0.000000,0.000000
07:59:52.624 PM 04/05/2016,Teleop Enabled,11,FALSE,0,NO ERROR,-0.000000,-124.540792,-0.000000,-102.897426,FALSE,FALSE,FALSE,FALSE,FALSE,FALSE,Disabled,0.000000,0.000000,0.000000,TRUE,0.432693,-0.451767,0.000000,0.636963,-0.326218,0.000000,0.378000,0.126000,-0.342000,152.030000,-2.700000,3.020000,-149.798091,Hold,53.355469,50.000000,Hold,-143413.000000,143360.000000,Suck,-1807.500000,1818.181818,Speed,-1725.000000,1818.181818,Speed,Off,On,0.000000,FALSE,30,,,,,0.000000,0.000000
07:59:52.725 PM 04/05/2016,Teleop Enabled,11,FALSE,0,NO ERROR,-0.000000,-125.323624,-0.000000,-103.802174,FALSE,FALSE,FALSE,FALSE,FALSE,FALSE,Disabled,0.000000,0.000000,0.000000,TRUE,0.473694,-0.465805,0.000000,0.900970,-0.257980,0.000000,0.154000,0.310000,-0.063000,152.420000,-3.550000,3.070000,-149.534990,Hold,53.346191,50.000000,Hold,-143413.000000,143360.000000,Suck,-1800.000000,1818.181818,Speed,-1770.000000,1818.181818,Speed,Off,On,0.000000,FALSE,30,,,,,0.000000,0.000000
07:59:52.826 PM 04/05/2016,Teleop Enabled,10,FALSE,0,NO ERROR,-0.000000,-125.439123,-0.000000,-103.994673,TRUE,FALSE,FALSE,FALSE,FALSE,FALSE,Disabled,0.000000,0.000000,0.000000,TRUE,0.501877,-0.474365,0.000000,0.003128,-0.144653,0.000000,0.002000,0.006000,0.005000,152.630000,-2.920000,2.900000,-149.392689,Hold,53.681641,50.000000,Hold,-143413.000000,143360.000000,Suck,-1792.500000,1818.181818,Speed,-1732.500000,1818.181818,Speed,Off,On,0.000000,FALSE,30,,,,,0.000000,0.000000
07:59:52.927 PM 04/05/2016,Teleop Enabled,9,FALSE,0,NO ERROR,-0.000000,-125.439123,-0.000000,-103.943340,FALSE,FALSE,FALSE,FALSE,FALSE,FALSE,Disabled,0.000000,0.000000,0.000000,TRUE,0.501770,-0.474258,0.000000,-0.024460,-0.014542,0.000000,-0.169000,-0.063000,0.085000,152.380000,-3.130000,2.930000,-149.647407,Hold,53.278320,50.000000,Hold,-143413.000000,143360.000000,Suck,-1800.000000,1818.181818,Speed,-1740.000000,1818.181818,Speed,Off,On,0.000000,FALSE,30,,,,,0.000000,0.000000
07:59:53.028 PM 04/05/2016,Teleop Enabled,11,FALSE,0,NO ERROR,-0.000000,-125.439123,-0.000000,-103.924090,TRUE,FALSE,FALSE,FALSE,FALSE,FALSE,Disabled,0.000000,0.000000,0.000000,TRUE,0.499161,-0.476089,0.000000,-0.061951,-0.034653,0.000000,-0.069000,0.034000,-0.098000,152.380000,-2.900000,2.870000,-149.735392,Hold,53.410889,50.000000,Hold,-143413.000000,143360.000000,Suck,-1822.500000,1818.181818,Speed,-1792.500000,1818.181818,Speed,Off,On,0.000000,FALSE,30,,,,,0.000000,0.000000
07:59:53.128 PM 04/05/2016,Teleop Enabled,10,FALSE,0,NO ERROR,0.236220,-125.439123,0.236220,-103.917674,TRUE,FALSE,FALSE,FALSE,FALSE,FALSE,Disabled,0.000000,0.000000,0.000000,TRUE,0.493683,-0.477829,0.000000,-0.113983,0.000000,0.000000,-0.069000,0.034000,-0.098000,152.380000,-2.900000,2.870000,-149.794821,Hold,53.400391,50.000000,Hold,-143413.000000,143360.000000,Suck,-1815.000000,1818.181818,Speed,-1807.500000,1818.181818,Speed,Off,On,0.000000,FALSE,30,,,,,0.000000,0.000000
07:59:53.228 PM 04/05/2016,Teleop Enabled,11,FALSE,0,NO ERROR,0.362205,-126.080789,0.362205,-103.404342,TRUE,FALSE,FALSE,FALSE,FALSE,FALSE,Disabled,0.000000,0.000000,0.000000,TRUE,0.487640,-0.475662,0.000000,-0.105820,0.117523,0.000000,0.019000,0.019000,-0.157000,152.420000,-2.660000,2.800000,-150.413183,Hold,53.400635,50.000000,Hold,-143413.000000,143360.000000,Suck,-1807.500000,1818.181818,Speed,-1770.000000,1818.181818,Speed,Off,On,0.000000,FALSE,30,,,,,0.000000,0.000000
07:59:53.328 PM 04/05/2016,Teleop Enabled,10,FALSE,0,NO ERROR,0.440945,-127.453952,0.440945,-101.960595,TRUE,FALSE,FALSE,FALSE,FALSE,FALSE,Disabled,0.000000,0.000000,0.000000,TRUE,0.482697,-0.468307,0.000000,-0.080765,0.190536,0.000000,-0.054000,-0.044000,-0.187000,150.870000,-2.830000,2.180000,-154.661472,Hold,53.401123,50.000000,Hold,-143413.000000,143360.000000,Suck,-1807.500000,1818.181818,Speed,-1680.000000,1818.181818,Speed,Off,On,0.000000,FALSE,30,,,,,0.000000,0.000000
07:59:53.428 PM 04/05/2016,Teleop Enabled,10,FALSE,0,NO ERROR,-0.000000,-128.788616,-0.000000,-100.664431,TRUE,FALSE,FALSE,FALSE,FALSE,FALSE,Disabled,0.000000,0.000000,0.000000,TRUE,0.475800,-0.457077,0.000000,-0.184448,0.182358,0.000000,0.062000,0.256000,-0.130000,146.780000,-2.990000,2.180000,-162.607430,Hold,53.401123,50.000000,Hold,-143413.000000,143360.000000,Suck,-1800.000000,1818.181818,Speed,-1672.500000,1818.181818,Speed,Off,On,0.000000,FALSE,30,,,,,0.000000,0.000000
07:59:53.530 PM 04/05/2016,Teleop Enabled,10,FALSE,0,NO ERROR,-0.000000,-129.289114,-0.000000,-100.260182,FALSE,FALSE,FALSE,FALSE,FALSE,FALSE,Disabled,0.000000,0.000000,0.000000,TRUE,0.473450,-0.458023,0.000000,-0.025864,-0.100586,0.000000,0.019000,-0.568000,-0.155000,135.960000,-1.530000,3.040000,-165.881416,Hold,53.401611,50.000000,Hold,-143413.000000,143360.000000,Suck,-1792.500000,1818.181818,Speed,-1800.000000,1818.181818,Speed,Off,On,0.000000,FALSE,30,,,,,0.000000,0.000000
07:59:53.631 PM 04/05/2016,Teleop Enabled,9,FALSE,0,NO ERROR,-0.362205,-129.205698,-0.362205,-100.350015,FALSE,FALSE,FALSE,FALSE,FALSE,FALSE,Disabled,0.000000,0.000000,0.000000,TRUE,0.473450,-0.458023,0.000000,-0.025864,-0.100586,0.000000,0.108000,-0.070000,0.225000,135.960000,-1.530000,3.040000,-165.236412,Hold,53.382568,50.000000,Hold,-143414.000000,143360.000000,Suck,-1815.000000,1818.181818,Speed,-1792.500000,1818.181818,Speed,Off,On,0.000000,FALSE,30,,,,,0.000000,0.000000
07:59:53.731 PM 04/05/2016,Teleop Enabled,9,FALSE,0,NO ERROR,-0.574803,-127.967284,-0.574803,-101.415180,FALSE,FALSE,FALSE,FALSE,FALSE,FALSE,Disabled,0.000000,0.000000,0.000000,TRUE,0.473236,-0.470139,0.000000,0.049133,-0.278488,0.000000,0.019000,0.063000,0.022000,136.750000,-1.490000,3.160000,-162.759529,Hold,53.382812,50.000000,Hold,-143414.000000,143360.000000,Suck,-1822.500000,1818.181818,Speed,-1702.500000,1818.181818,Speed,Off,On,0.000000,FALSE,30,,,,,0.000000,0.000000
07:59:53.831 PM 04/05/2016,Teleop Enabled,10,FALSE,0,NO ERROR,-0.677165,-124.970708,-0.677165,-104.148673,FALSE,FALSE,FALSE,FALSE,FALSE,FALSE,Disabled,0.000000,0.000000,0.000000,TRUE,0.473236,-0.470139,0.000000,0.049133,-0.278488,0.000000,-0.078000,-0.290000,-0.188000,139.850000,-0.900000,4.000000,-152.763153,Hold,53.382812,50.000000,Hold,-143414.000000,143360.000000,Suck,-1800.000000,1818.181818,Speed,-1672.500000,1818.181818,Speed,Off,On,0.000000,FALSE,30,,,,,0.000000,0.000000
07:59:53.932 PM 04/05/2016,Teleop Enabled,12,FALSE,0,NO ERROR,-0.000000,-121.967715,-0.000000,-107.049000,FALSE,FALSE,FALSE,FALSE,FALSE,FALSE,Disabled,0.000000,0.000000,0.000000,TRUE,0.459824,-0.515137,0.000000,-0.276215,-0.445892,0.000000,-0.096000,-0.153000,0.186000,150.740000,-0.130000,4.130000,-138.834852,Hold,53.382812,50.000000,Hold,-143414.000000,143360.000000,Suck,-1762.500000,1818.181818,Speed,-1620.000000,1818.181818,Speed,Off,On,0.000000,FALSE,30,,,,,0.000000,0.000000
07:59:54.032 PM 04/05/2016,Teleop Enabled,11,FALSE,0,NO ERROR,-0.433071,-120.883301,0.433071,-108.268163,FALSE,FALSE,FALSE,FALSE,FALSE,FALSE,Disabled,0.000000,0.000000,0.000000,TRUE,0.449356,-0.525040,0.000000,-0.129959,-0.028427,0.000000,-0.044000,0.290000,0.028000,165.110000,-0.520000,4.020000,-131.759627,Hold,53.384766,50.000000,Hold,-143414.000000,143360.000000,Suck,-1755.000000,1818.181818,Speed,-1642.500000,1818.181818,Speed,Off,On,0.000000,FALSE,30,,,,,0.000000,0.000000
07:59:54.132 PM 04/05/2016,Teleop Enabled,10,FALSE,0,NO ERROR,-0.480315,-122.429714,0.480315,-110.122576,TRUE,FALSE,FALSE,FALSE,FALSE,FALSE,Disabled,0.000000,0.000000,0.000000,TRUE,0.433960,-0.523926,0.000000,-0.555573,-0.041687,0.000000,-0.026000,0.152000,-0.221000,171.530000,-1.410000,2.250000,-131.946723,Hold,53.389648,50.000000,Hold,-143415.000000,143360.000000,Suck,-1777.500000,1818.181818,Speed,-1860.000000,1818.181818,Speed,Off,On,0.000000,FALSE,30,,,,,0.000000,0.000000
07:59:54.232 PM 04/05/2016,Teleop Enabled,10,FALSE,0,NO ERROR,-0.566929,-125.535373,0.566929,-113.022902,TRUE,FALSE,FALSE,FALSE,FALSE,FALSE,Disabled,0.000000,0.000000,0.000000,TRUE,0.433960,-0.523926,0.000000,-0.555573,-0.041687,0.000000,-0.433000,-0.402000,0.144000,171.120000,1.840000,2.190000,-132.298067,Hold,53.388916,50.000000,Hold,-143415.000000,143360.000000,Suck,-1807.500000,1818.181818,Speed,-1852.500000,1818.181818,Speed,Off,On,0.000000,FALSE,30,,,,,0.000000,0.000000
07:59:54.335 PM 04/05/2016,Teleop Enabled,10,FALSE,0,NO ERROR,-0.574803,-129.353281,0.574803,-116.654727,TRUE,FALSE,FALSE,FALSE,FALSE,FALSE,Disabled,0.000000,0.000000,0.000000,TRUE,0.388199,-0.529663,0.000000,-0.878677,-0.104233,0.000000,-0.130000,-0.175000,0.271000,170.740000,2.600000,1.920000,-132.752667,Hold,53.311768,50.000000,Hold,-143415.000000,143360.000000,Suck,-1807.500000,1818.181818,Speed,-1747.500000,1818.181818,Speed,Off,On,0.000000,FALSE,30,,,,,0.000000,0.000000
07:59:54.436 PM 04/05/2016,Teleop Enabled,9,FALSE,0,NO ERROR,-0.614173,-129.353281,0.614173,-116.654727,TRUE,FALSE,FALSE,FALSE,FALSE,FALSE,Disabled,0.000000,0.000000,0.000000,TRUE,0.339951,-0.537018,0.000000,-0.977570,-0.132523,0.000000,0.000000,0.010000,-0.170000,170.330000,1.740000,2.130000,-132.752667,Hold,53.593506,50.000000,Hold,-143415.000000,143360.000000,Suck,-1807.500000,1818.181818,Speed,-1605.000000,1818.181818,Speed,Off,On,0.000000,FALSE,30,,,,,0.000000,0.000000
07:59:54.536 PM 04/05/2016,Teleop Enabled,11,FALSE,0,NO ERROR,-0.457096,-133.934770,0.724006,-120.960300,TRUE,FALSE,FALSE,FALSE,FALSE,FALSE,Disabled,0.000000,0.000000,0.000000,TRUE,0.289734,-0.542557,0.000000,-1.011215,0.000000,0.000000,0.052000,-0.015000,0.353000,169.790000,2.410000,2.180000,-133.299198,Hold,53.539062,50.000000,Hold,-143415.000000,143360.000000,Suck,-1800.000000,1818.181818,Speed,-1680.000000,1818.181818,Speed,Off,On,0.000000,FALSE,30,,,,,0.000000,0.000000
07:59:54.637 PM 04/05/2016,Teleop Enabled,9,FALSE,0,NO ERROR,-0.374977,-138.760092,0.727385,-125.285124,TRUE,FALSE,FALSE,FALSE,FALSE,FALSE,Disabled,0.000000,0.000000,0.000000,TRUE,0.238815,-0.541489,0.000000,-1.033020,0.060104,0.000000,0.102000,0.056000,-0.151000,168.890000,2.240000,2.160000,-133.901249,Hold,53.523438,50.000000,Hold,-143415.000000,143360.000000,Suck,-1800.000000,1818.181818,Speed,-1762.500000,1818.181818,Speed,Off,On,0.000000,FALSE,30,,,,,0.000000,0.000000
07:59:54.739 PM 04/05/2016,Teleop Enabled,9,FALSE,0,NO ERROR,-0.374977,-144.214246,0.727385,-129.244198,TRUE,FALSE,FALSE,FALSE,FALSE,FALSE,Disabled,0.000000,0.000000,0.000000,TRUE,0.188171,-0.537933,0.000000,-0.994232,0.051422,0.000000,0.278000,0.104000,0.117000,166.840000,1.870000,2.160000,-135.743676,Hold,53.507568,50.000000,Hold,-143415.000000,143360.000000,Suck,-1800.000000,1818.181818,Speed,-1755.000000,1818.181818,Speed,Off,On,0.000000,FALSE,30,,,,,0.000000,0.000000
07:59:54.840 PM 04/05/2016,Teleop Enabled,11,FALSE,0,NO ERROR,-0.374977,-149.822400,0.727385,-133.100605,TRUE,FALSE,FALSE,FALSE,FALSE,FALSE,Disabled,0.000000,0.000000,0.000000,TRUE,0.143585,-0.534485,0.000000,-0.841797,0.054977,0.000000,0.023000,-0.102000,0.293000,163.370000,1.480000,2.160000,-138.806674,Hold,53.508057,50.000000,Hold,-143415.000000,143360.000000,Suck,-1807.500000,1818.181818,Speed,-1732.500000,1818.181818,Speed,Off,On,0.000000,FALSE,30,,,,,0.000000,0.000000
07:59:54.941 PM 04/05/2016,Teleop Enabled,11,FALSE,0,NO ERROR,-0.362825,-155.469053,0.739537,-136.693930,TRUE,FALSE,FALSE,FALSE,FALSE,FALSE,Disabled,0.000000,0.000000,0.000000,TRUE,0.104980,-0.534821,0.000000,-0.755020,-0.038635,0.000000,-0.096000,-0.003000,-0.226000,159.380000,1.230000,2.210000,-143.479024,Hold,53.508057,50.000000,Hold,-143415.000000,143360.000000,Suck,-1807.500000,1818.181818,Speed,-1732.500000,1818.181818,Speed,Off,On,0.000000,FALSE,30,,,,,0.000000,0.000000
07:59:55.041 PM 04/05/2016,Teleop Enabled,10,FALSE,0,NO ERROR,-0.362825,-161.231206,0.739537,-140.158922,TRUE,FALSE,FALSE,FALSE,FALSE,FALSE,Disabled,0.000000,0.000000,0.000000,TRUE,0.066940,-0.537643,0.000000,-0.739990,-0.074875,0.000000,-0.040000,-0.017000,0.041000,154.830000,1.260000,2.370000,-147.951028,Hold,53.508057,50.000000,Hold,-143415.000000,143360.000000,Suck,-1807.500000,1818.181818,Speed,-1740.000000,1818.181818,Speed,Off,On,0.000000,FALSE,30,,,,,0.000000,0.000000
07:59:55.142 PM 04/05/2016,Teleop Enabled,10,FALSE,0,NO ERROR,-0.371939,-167.057526,0.730423,-143.604664,TRUE,FALSE,FALSE,FALSE,FALSE,FALSE,Disabled,0.000000,0.000000,0.000000,TRUE,0.030121,-0.543671,0.000000,-0.715790,-0.148056,0.000000,0.184000,-0.121000,0.029000,151.040000,1.220000,2.500000,-152.636332,Hold,53.508057,50.000000,Hold,-143415.000000,143360.000000,Suck,-1807.500000,1818.181818,Speed,-1732.500000,1818.181818,Speed,Off,On,0.000000,FALSE,30,,,,,0.000000,0.000000
07:59:55.243 PM 04/05/2016,Teleop Enabled,10,FALSE,0,NO ERROR,-0.551181,-172.838929,0.551181,-146.934906,TRUE,FALSE,FALSE,FALSE,FALSE,FALSE,Disabled,0.000000,0.000000,0.000000,TRUE,-0.004242,-0.553864,0.000000,-0.658661,-0.215912,0.000000,-0.072000,0.062000,-0.082000,145.210000,1.310000,2.700000,-157.422373,Hold,53.508057,50.000000,Hold,-143416.000000,143360.000000,Suck,-1807.500000,1818.181818,Speed,-1702.500000,1818.181818,Speed,Off,On,0.000000,FALSE,30,,,,,0.000000,0.000000
07:59:55.343 PM 04/05/2016,Teleop Enabled,10,FALSE,0,NO ERROR,-0.551181,-178.491999,0.551181,-150.387065,TRUE,FALSE,FALSE,FALSE,FALSE,FALSE,Disabled,0.000000,0.000000,0.000000,TRUE,-0.041580,-0.567383,0.000000,-0.579910,-0.278793,0.000000,0.223000,-0.114000,0.112000,140.420000,1.160000,2.730000,-162.142209,Hold,53.508057,50.000000,Hold,-143416.000000,143360.000000,Suck,-1807.500000,1818.181818,Speed,-1710.000000,1818.181818,Speed,Off,On,0.000000,FALSE,30,,,,,0.000000,0.000000
07:59:55.443 PM 04/05/2016,Teleop Enabled,11,FALSE,0,NO ERROR,-0.551181,-183.618904,0.551181,-154.512972,FALSE,FALSE,FALSE,FALSE,FALSE,FALSE,Disabled,0.000000,0.000000,0.000000,TRUE,-0.068619,-0.586090,0.000000,-0.537842,-0.445786,0.000000,0.017000,-0.188000,0.021000,137.260000,1.290000,3.310000,-165.314726,Hold,53.508057,50.000000,Hold,-143416.000000,143360.000000,Suck,-1815.000000,1818.181818,Speed,-1747.500000,1818.181818,Speed,Off,On,0.000000,FALSE,30,,,,,0.000000,0.000000
07:59:55.544 PM 04/05/2016,Teleop Enabled,10,FALSE,0,NO ERROR,-0.551181,-188.386476,0.551181,-158.722296,FALSE,FALSE,FALSE,FALSE,FALSE,FALSE,Disabled,0.000000,0.000000,0.000000,TRUE,-0.095032,-0.610046,0.000000,-0.507263,-0.480835,0.000000,0.040000,0.019000,0.009000,136.000000,1.410000,3.480000,-166.478662,Hold,53.508057,50.000000,Hold,-143416.000000,143360.000000,Suck,-1815.000000,1818.181818,Speed,-1747.500000,1818.181818,Speed,Off,On,0.000000,FALSE,30,,,,,0.000000,0.000000
07:59:55.644 PM 04/05/2016,Teleop Enabled,10,FALSE,0,NO ERROR,-0.551181,-192.993632,0.551181,-163.047119,FALSE,FALSE,FALSE,FALSE,FALSE,FALSE,Disabled,0.000000,0.000000,0.000000,TRUE,-0.119614,-0.609039,0.000000,-0.489105,0.042389,0.000000,-0.010000,-0.054000,-0.022000,135.350000,1.020000,3.500000,-167.177460,Hold,53.508301,50.000000,Hold,-143416.000000,143360.000000,Suck,-1815.000000,1818.181818,Speed,-1747.500000,1818.181818,Speed,Off,On,0.000000,FALSE,30,,,,,0.000000,0.000000
07:59:55.744 PM 04/05/2016,Teleop Enabled,11,FALSE,0,NO ERROR,-0.551181,-197.729121,0.551181,-167.468192,FALSE,FALSE,FALSE,FALSE,FALSE,FALSE,Disabled,0.000000,0.000000,0.000000,TRUE,-0.118134,-0.606583,0.000000,0.058640,0.057510,0.000000,0.064000,0.069000,0.000000,134.800000,0.680000,3.590000,-167.788962,Hold,53.508301,50.000000,Hold,-143416.000000,143360.000000,Suck,-1815.000000,1818.181818,Speed,-1702.500000,1818.181818,Speed,Off,On,0.000000,FALSE,30,,,,,0.000000,0.000000
07:59:55.844 PM 04/05/2016,Teleop Enabled,10,FALSE,0,NO ERROR,-0.651435,-202.349110,0.450927,-171.818682,FALSE,FALSE,FALSE,FALSE,FALSE,FALSE,Disabled,0.000000,0.000000,0.000000,TRUE,-0.114639,-0.603683,0.000000,0.072418,0.077972,0.000000,0.005000,0.081000,0.017000,134.230000,0.360000,3.500000,-168.492173,Hold,53.508301,50.000000,Hold,-143416.000000,143360.000000,Suck,-1800.000000,1818.181818,Speed,-1762.500000,1818.181818,Speed,Off,On,0.000000,FALSE,30,,,,,0.000000,0.000000
07:59:55.945 PM 04/05/2016,Teleop Enabled,11,FALSE,0,NO ERROR,-0.736499,-206.930599,0.365863,-176.233338,FALSE,FALSE,FALSE,FALSE,FALSE,FALSE,Disabled,0.000000,0.000000,0.000000,TRUE,-0.109634,-0.599045,0.000000,0.104797,0.081406,0.000000,0.024000,0.037000,-0.052000,133.630000,0.230000,3.680000,-169.138555,Hold,53.508301,50.000000,Hold,-143416.000000,143360.000000,Suck,-1807.500000,1818.181818,Speed,-1792.500000,1818.181818,Speed,Off,On,0.000000,FALSE,30,,,,,0.000000,0.000000
07:59:56.045 PM 04/05/2016,Teleop Enabled,11,FALSE,0,NO ERROR,-0.815488,-211.101423,0.286875,-181.289659,FALSE,FALSE,FALSE,FALSE,FALSE,FALSE,Disabled,0.000000,0.000000,0.000000,TRUE,-0.104492,-0.597351,0.000000,0.130280,0.025604,0.000000,-0.128000,-0.177000,-0.101000,134.360000,0.790000,3.900000,-168.812889,Hold,53.508301,50.000000,Hold,-143416.000000,143360.000000,Suck,-1807.500000,1818.181818,Speed,-1747.500000,1818.181818,Speed,Off,On,0.000000,FALSE,30,,,,,0.000000,0.000000
07:59:56.147 PM 04/05/2016,Teleop Enabled,5,FALSE,0,NO ERROR,-0.864096,-214.810248,0.238266,-186.987646,FALSE,FALSE,FALSE,FALSE,FALSE,FALSE,Disabled,0.000000,0.000000,0.000000,TRUE,-0.098587,-0.598389,0.000000,0.098068,-0.024719,0.000000,-0.014000,0.150000,0.229000,137.830000,0.890000,3.920000,-165.922569,Hold,53.510254,50.000000,Hold,-143416.000000,143360.000000,Suck,-1815.000000,1818.181818,Speed,-1717.500000,1818.181818,Speed,Off,On,0.000000,FALSE,30,,,,,0.000000,0.000000
07:59:56.247 PM 04/05/2016,Teleop Enabled,10,FALSE,0,NO ERROR,-0.681319,-218.089157,0.184822,-192.948715,FALSE,FALSE,FALSE,FALSE,FALSE,FALSE,Disabled,0.000000,0.000000,0.000000,TRUE,-0.095245,-0.597366,0.000000,0.041946,0.035217,0.000000,0.126000,0.093000,-0.012000,142.720000,1.010000,3.650000,-161.442262,Hold,53.510742,50.000000,Hold,-143417.000000,143360.000000,Suck,-1807.500000,1818.181818,Speed,-1762.500000,1818.181818,Speed,Off,On,0.000000,FALSE,30,,,,,0.000000,0.000000
07:59:56.347 PM 04/05/2016,Teleop Enabled,10,FALSE,0,NO ERROR,-0.609120,-220.938150,0.162533,-198.627452,FALSE,FALSE,FALSE,FALSE,FALSE,FALSE,Disabled,0.000000,0.000000,0.000000,TRUE,-0.092911,-0.592560,0.000000,0.044113,0.165039,0.000000,0.186000,0.260000,0.014000,149.390000,0.010000,3.050000,-156.026174,Hold,53.510742,50.000000,Hold,-143417.000000,143360.000000,Suck,-1800.000000,1818.181818,Speed,-1657.500000,1818.181818,Speed,Off,On,0.000000,FALSE,30,,,,,0.000000,0.000000
07:59:56.447 PM 04/05/2016,Teleop Enabled,10,FALSE,0,NO ERROR,-0.826772,-223.408561,-0.826772,-203.664524,TRUE,FALSE,FALSE,FALSE,FALSE,FALSE,Disabled,0.000000,0.000000,0.000000,TRUE,-0.087524,-0.579941,0.000000,0.130707,0.305817,0.000000,0.171000,0.190000,0.116000,153.440000,-0.580000,2.620000,-151.016058,Hold,53.511230,50.000000,Hold,-143417.000000,143360.000000,Suck,-1800.000000,1818.181818,Speed,-1800.000000,1818.181818,Speed,Off,On,0.000000,FALSE,30,,,,,0.000000,0.000000
07:59:56.548 PM 04/05/2016,Teleop Enabled,10,FALSE,0,NO ERROR,-0.826772,-223.241728,-0.826772,-208.124097,FALSE,FALSE,FALSE,FALSE,FALSE,FALSE,Disabled,0.000000,0.000000,0.000000,TRUE,-0.076462,-0.560059,0.000000,0.342529,0.410416,0.000000,0.033000,-0.073000,-0.501000,161.560000,-2.540000,3.270000,-146.076675,Hold,53.506104,50.000000,Hold,-143417.000000,143360.000000,Suck,-1792.500000,1818.181818,Speed,-1860.000000,1818.181818,Speed,Off,On,0.000000,FALSE,30,,,,,0.000000,0.000000
07:59:56.648 PM 04/05/2016,Teleop Enabled,9,FALSE,0,NO ERROR,-0.826772,-220.078319,-0.826772,-212.923752,FALSE,FALSE,FALSE,FALSE,FALSE,FALSE,Disabled,0.000000,0.000000,0.000000,TRUE,-0.052124,-0.547211,0.000000,0.522247,0.181152,0.000000,0.159000,0.364000,-0.896000,176.040000,-2.380000,3.210000,-134.155988,Hold,53.809082,50.000000,Hold,-143417.000000,143360.000000,Suck,-1762.500000,1818.181818,Speed,-1732.500000,1818.181818,Speed,Off,On,0.000000,FALSE,30,,,,,0.000000,0.000000
07:59:56.748 PM 04/05/2016,Teleop Enabled,10,FALSE,0,NO ERROR,-0.748031,-215.586663,-0.748031,-217.749074,TRUE,FALSE,FALSE,FALSE,FALSE,FALSE,Disabled,0.000000,0.000000,0.000000,TRUE,-0.024811,-0.525360,0.000000,0.364395,0.584381,0.000000,-0.217000,0.380000,-0.258000,-165.850000,-0.770000,1.690000,-117.762127,Hold,53.703125,50.000000,Hold,-143417.000000,143360.000000,Suck,-1747.500000,1818.181818,Speed,-1642.500000,1818.181818,Speed,Off,On,0.000000,FALSE,30,,,,,0.000000,0.000000
07:59:56.849 PM 04/05/2016,Teleop Enabled,9,FALSE,0,NO ERROR,-0.559055,-210.774174,-0.559055,-222.542313,TRUE,FALSE,FALSE,FALSE,FALSE,FALSE,Disabled,0.000000,0.000000,0.000000,TRUE,-0.014343,-0.490585,0.000000,0.123123,0.680847,0.000000,0.054000,0.009000,0.074000,-149.960000,-0.610000,2.090000,-98.876667,Hold,53.530762,50.000000,Hold,-143417.000000,143360.000000,Suck,-1762.500000,1818.181818,Speed,-1702.500000,1818.181818,Speed,Off,On,0.000000,FALSE,30,,,,,0.000000,0.000000
07:59:56.951 PM 04/05/2016,Teleop Enabled,10,FALSE,0,NO ERROR,-0.000000,-206.346684,-0.000000,-226.835053,TRUE,FALSE,FALSE,FALSE,FALSE,FALSE,Disabled,0.000000,0.000000,0.000000,TRUE,-0.008453,-0.452682,0.000000,0.176666,0.828522,0.000000,0.267000,-0.012000,-0.084000,-127.810000,-0.630000,1.310000,-80.387128,Hold,53.115234,50.000000,Hold,-143417.000000,143360.000000,Suck,-1710.000000,1818.181818,Speed,-1755.000000,1818.181818,Speed,Off,On,0.000000,FALSE,30,,,,,0.000000,0.000000
07:59:57.051 PM 04/05/2016,Teleop Enabled,14,FALSE,0,NO ERROR,-0.000000,-204.421689,-0.000000,-228.901215,TRUE,FALSE,FALSE,FALSE,FALSE,FALSE,Disabled,0.000000,0.000000,0.000000,TRUE,0.022964,-0.396164,0.000000,0.899658,1.008331,0.000000,-0.117000,-0.202000,0.304000,-117.180000,-0.610000,-1.050000,-64.897771,Hold,51.717773,50.000000,Hold,-143417.000000,143360.000000,Suck,-930.000000,1818.181818,Speed,-1695.000000,1818.181818,Speed,Off,On,0.000000,FALSE,30,,,,,0.000000,0.000000
07:59:57.150 PM 04/05/2016,Teleop Enabled,9,FALSE,0,NO ERROR,-0.000000,-203.908357,-0.000000,-229.453047,TRUE,FALSE,FALSE,FALSE,FALSE,FALSE,Disabled,0.000000,0.000000,0.000000,TRUE,0.058578,-0.360092,0.000000,0.866501,0.829559,0.000000,-0.058000,-0.046000,-0.058000,-115.510000,-1.240000,-0.290000,-62.605923,Hold,51.276855,50.000000,Hold,-143417.000000,143360.000000,Suck,-1125.000000,1818.181818,Speed,-1695.000000,1818.181818,Speed,Off,On,0.000000,FALSE,30,,,,,0.000000,0.000000
07:59:57.252 PM 04/05/2016,Teleop Enabled,10,FALSE,0,NO ERROR,-0.173228,-203.908357,-0.173228,-229.478713,TRUE,FALSE,FALSE,FALSE,FALSE,FALSE,Disabled,0.000000,0.000000,0.000000,TRUE,0.110275,-0.310928,0.000000,0.888901,0.840820,0.000000,-0.047000,-0.039000,0.115000,-115.610000,-1.610000,-0.560000,-62.742279,Hold,51.276855,50.000000,Hold,-143417.000000,143360.000000,Suck,-1807.500000,1818.181818,Speed,-1830.000000,1818.181818,Speed,Off,On,0.000000,FALSE,30,,,,,0.000000,0.000000
07:59:57.352 PM 04/05/2016,Teleop Enabled,11,FALSE,0,NO ERROR,-0.196850,-203.491274,-0.196850,-229.895796,TRUE,FALSE,FALSE,FALSE,FALSE,FALSE,Disabled,0.000000,0.000000,0.000000,TRUE,0.150757,-0.271500,0.000000,0.728348,0.747025,0.000000,0.041000,-0.040000,-0.202000,-115.510000,-1.540000,0.250000,-62.821513,Hold,53.357422,50.000000,Hold,-143417.000000,143360.000000,Suck,-2002.500000,1818.181818,Speed,-1770.000000,1818.181818,Speed,Off,On,0.000000,FALSE,30,,,,,0.000000,0.000000
07:59:57.453 PM 04/05/2016,Teleop Enabled,9,FALSE,0,NO ERROR,-0.338583,-202.811109,-0.338583,-230.454044,TRUE,FALSE,FALSE,FALSE,FALSE,FALSE,Disabled,0.000000,0.000000,0.000000,TRUE,0.186066,-0.232544,0.000000,0.693329,0.811035,0.000000,-0.062000,0.069000,0.059000,-113.160000,-0.940000,0.360000,-60.775928,Hold,53.357422,50.000000,Hold,-143417.000000,143360.000000,Suck,-1852.500000,1818.181818,Speed,-1717.500000,1818.181818,Speed,Off,On,0.000000,FALSE,30,,,,,0.000000,0.000000
07:59:57.553 PM 04/05/2016,Teleop Enabled,9,FALSE,0,NO ERROR,-0.000000,-201.508529,-0.000000,-231.557709,TRUE,FALSE,FALSE,FALSE,FALSE,FALSE,Disabled,0.000000,0.000000,0.000000,TRUE,0.216141,-0.191299,0.000000,0.567886,0.850647,0.000000,-0.026000,0.001000,-0.024000,-108.380000,-0.670000,0.940000,-56.594521,Hold,53.356934,50.000000,Hold,-143417.000000,143360.000000,Suck,-1770.000000,1818.181818,Speed,-1665.000000,1818.181818,Speed,Off,On,0.000000,FALSE,30,,,,,0.000000,0.000000
07:59:57.654 PM 04/05/2016,Teleop Enabled,11,FALSE,0,NO ERROR,-0.000000,-200.565281,-0.000000,-232.481706,TRUE,FALSE,FALSE,FALSE,FALSE,FALSE,Disabled,0.000000,0.000000,0.000000,TRUE,0.246170,-0.150269,0.000000,0.637207,0.792892,0.000000,-0.037000,0.179000,0.146000,-102.980000,-0.760000,0.710000,-51.193412,Hold,53.356934,50.000000,Hold,-143417.000000,143360.000000,Suck,-1792.500000,1818.181818,Speed,-1717.500000,1818.181818,Speed,Off,On,0.000000,FALSE,30,,,,,0.000000,0.000000
07:59:57.755 PM 04/05/2016,Teleop Enabled,10,FALSE,0,NO ERROR,-0.000000,-200.359948,-0.000000,-232.603623,TRUE,FALSE,FALSE,FALSE,FALSE,FALSE,Disabled,0.000000,0.000000,0.000000,TRUE,0.273361,-0.119415,0.000000,0.716324,0.747986,0.000000,-0.020000,0.133000,0.069000,-101.620000,-1.140000,0.530000,-49.350711,Hold,53.356934,50.000000,Hold,-143417.000000,143360.000000,Suck,-1815.000000,1818.181818,Speed,-1792.500000,1818.181818,Speed,Off,On,0.000000,FALSE,30,,,,,0.000000,0.000000
07:59:57.856 PM 04/05/2016,Teleop Enabled,9,FALSE,0,NO ERROR,0.220472,-200.443365,0.220472,-232.552290,TRUE,FALSE,FALSE,FALSE,FALSE,FALSE,Disabled,0.000000,0.000000,0.000000,TRUE,0.316925,-0.073502,0.000000,0.715225,0.776001,0.000000,-0.105000,-0.043000,0.004000,-102.290000,-1.010000,0.450000,-50.014433,Hold,53.356934,50.000000,Hold,-143417.000000,143360.000000,Suck,-1815.000000,1818.181818,Speed,-1875.000000,1818.181818,Speed,Off,On,0.000000,FALSE,30,,,,,0.000000,0.000000
07:59:57.957 PM 04/05/2016,Teleop Enabled,9,FALSE,0,NO ERROR,0.401575,-201.027280,0.401575,-232.115957,TRUE,FALSE,FALSE,FALSE,FALSE,FALSE,Disabled,0.000000,0.000000,0.000000,TRUE,0.350342,-0.035675,0.000000,0.709412,0.727371,0.000000,0.464000,0.080000,-0.174000,-102.490000,-1.410000,0.740000,-50.552467,Hold,53.356934,50.000000,Hold,-143417.000000,143360.000000,Suck,-1815.000000,1818.181818,Speed,-1875.000000,1818.181818,Speed,Off,On,0.000000,FALSE,30,,,,,0.000000,0.000000
07:59:58.057 PM 04/05/2016,Teleop Enabled,10,FALSE,0,NO ERROR,-0.000000,-202.573693,-0.000000,-230.665794,TRUE,FALSE,FALSE,FALSE,FALSE,FALSE,Disabled,0.000000,0.000000,0.000000,TRUE,0.393890,0.000854,0.000000,0.889496,0.716309,0.000000,-0.156000,0.035000,0.083000,-107.850000,-1.700000,-0.040000,-56.257622,Hold,53.357910,50.000000,Hold,-143417.000000,143360.000000,Suck,-1815.000000,1818.181818,Speed,-1777.500000,1818.181818,Speed,Off,On,0.000000,FALSE,30,,,,,0.000000,0.000000
07:59:58.157 PM 04/05/2016,Teleop Enabled,9,FALSE,0,NO ERROR,-0.000000,-203.799273,-0.000000,-229.568547,TRUE,FALSE,FALSE,FALSE,FALSE,FALSE,Disabled,0.000000,0.000000,0.000000,TRUE,0.435242,0.038879,0.000000,0.771133,0.786530,0.000000,-0.458000,0.009000,0.126000,-116.580000,-1.600000,0.700000,-63.527551,Hold,53.356689,50.000000,Hold,-143417.000000,143360.000000,Suck,-1792.500000,1818.181818,Speed,-1725.000000,1818.181818,Speed,Off,On,0.000000,FALSE,30,,,,,0.000000,0.000000
07:59:58.258 PM 04/05/2016,Teleop Enabled,9,FALSE,0,NO ERROR,-0.000000,-204.145773,-0.000000,-229.478713,TRUE,FALSE,FALSE,FALSE,FALSE,FALSE,Disabled,0.000000,0.000000,0.000000,TRUE,0.465240,0.041138,0.000000,0.514297,0.074203,0.000000,-0.311000,-0.005000,0.223000,-117.170000,-0.950000,1.530000,-64.719795,Hold,53.356934,50.000000,Hold,-143417.000000,143360.000000,Suck,-1800.000000,1818.181818,Speed,-1672.500000,1818.181818,Speed,Off,On,0.000000,FALSE,30,,,,,0.000000,0.000000
07:59:58.358 PM 04/05/2016,Teleop Enabled,9,FALSE,0,NO ERROR,-0.000000,-204.126523,-0.000000,-229.504380,TRUE,FALSE,FALSE,FALSE,FALSE,FALSE,Disabled,0.000000,0.000000,0.000000,TRUE,0.494507,0.041626,0.000000,0.528641,-0.007233,0.000000,0.148000,-0.068000,0.123000,-116.460000,-1.030000,1.380000,-64.036588,Hold,53.356934,50.000000,Hold,-143417.000000,143360.000000,Suck,-1822.500000,1818.181818,Speed,-1747.500000,1818.181818,Speed,Off,On,0.000000,FALSE,30,,,,,0.000000,0.000000
07:59:58.460 PM 04/05/2016,Teleop Enabled,12,FALSE,0,NO ERROR,-0.000000,-204.126523,-0.000000,-229.504380,TRUE,FALSE,FALSE,FALSE,FALSE,FALSE,Disabled,0.000000,0.000000,0.000000,TRUE,0.520538,0.039902,0.000000,0.486084,-0.015213,0.000000,-0.079000,0.145000,0.046000,-116.590000,-1.060000,1.510000,-64.171770,Hold,53.356934,50.000000,Hold,-143417.000000,143360.000000,Suck,-1830.000000,1818.181818,Speed,-1815.000000,1818.181818,Speed,Off,On,0.000000,FALSE,30,,,,,0.000000,0.000000
07:59:58.561 PM 04/05/2016,Teleop Enabled,9,FALSE,0,NO ERROR,-0.000000,-204.126523,-0.000000,-229.504380,TRUE,FALSE,FALSE,FALSE,FALSE,FALSE,Disabled,0.000000,0.000000,0.000000,TRUE,0.539780,0.039276,0.000000,0.487411,-0.020035,0.000000,-0.057000,0.073000,-0.123000,-116.530000,-1.070000,1.580000,-64.174132,Hold,53.356934,50.000000,Hold,-143417.000000,143360.000000,Suck,-1815.000000,1818.181818,Speed,-1807.500000,1818.181818,Speed,Off,On,0.000000,FALSE,30,,,,,0.000000,0.000000
07:59:58.662 PM 04/05/2016,Teleop Enabled,9,FALSE,0,NO ERROR,-0.000000,-204.126523,-0.000000,-229.504380,TRUE,FALSE,FALSE,FALSE,FALSE,FALSE,Disabled,0.000000,0.000000,0.000000,TRUE,0.563126,0.038727,0.000000,0.462646,-0.003281,0.000000,-0.080000,0.054000,-0.134000,-116.540000,-1.030000,1.660000,-64.208599,Hold,53.356934,50.000000,Hold,-143417.000000,143360.000000,Suck,-1815.000000,1818.181818,Speed,-1740.000000,1818.181818,Speed,Off,On,0.000000,FALSE,30,,,,,0.000000,0.000000
07:59:58.763 PM 04/05/2016,Teleop Enabled,10,FALSE,0,NO ERROR,-0.000000,-204.126523,-0.000000,-229.504380,TRUE,FALSE,FALSE,FALSE,FALSE,FALSE,Disabled,0.000000,0.000000,0.000000,TRUE,0.590027,0.038223,0.000000,0.454803,-0.015915,0.000000,0.030000,0.109000,0.102000,-116.540000,-1.000000,1.760000,-64.246708,Hold,53.356934,50.000000,Hold,-143417.000000,143360.000000,Suck,-1822.500000,1818.181818,Speed,-1695.000000,1818.181818,Speed,Off,On,0.000000,FALSE,30,,,,,0.000000,0.000000
07:59:58.863 PM 04/05/2016,Teleop Enabled,10,FALSE,0,NO ERROR,-0.913386,-203.703024,-0.913386,-229.831629,TRUE,FALSE,FALSE,FALSE,FALSE,FALSE,Disabled,0.000000,0.000000,0.000000,TRUE,0.612473,0.036270,0.000000,0.436996,-0.071243,0.000000,-0.036000,-0.339000,0.150000,-116.490000,-1.110000,1.900000,-64.245809,Hold,53.356934,50.000000,Hold,-143417.000000,143360.000000,Suck,-1822.500000,1818.181818,Speed,-1785.000000,1818.181818,Speed,Off,On,0.000000,FALSE,30,,,,,0.000000,0.000000
07:59:58.962 PM 04/05/2016,Teleop Enabled,11,FALSE,0,NO ERROR,-1.000000,-200.603781,-1.000000,-232.847456,FALSE,FALSE,FALSE,FALSE,FALSE,FALSE,Disabled,0.000000,0.000000,0.000000,TRUE,0.621140,0.031509,0.000000,-0.092682,-0.000748,0.000000,-0.036000,-0.339000,0.150000,-107.680000,0.840000,3.700000,-56.784282,Hold,53.310059,50.000000,Hold,-143417.000000,143360.000000,Suck,-1582.500000,1818.181818,Speed,-1725.000000,1818.181818,Speed,Off,On,0.000000,FALSE,30,,,,,0.000000,0.000000
07:59:59.064 PM 04/05/2016,Teleop Enabled,11,FALSE,0,NO ERROR,-0.299213,-195.566709,-0.299213,-237.711277,FALSE,FALSE,FALSE,FALSE,FALSE,FALSE,Disabled,0.000000,0.000000,0.000000,TRUE,0.614426,0.044510,0.000000,-0.141098,0.384308,0.000000,-0.074000,0.558000,0.061000,-107.680000,0.840000,3.700000,-38.452233,Hold,53.239746,50.000000,Hold,-143417.000000,143360.000000,Suck,-1417.500000,1818.181818,Speed,-1687.500000,1818.181818,Speed,Off,On,0.000000,FALSE,30,,,,,0.000000,0.000000
07:59:59.164 PM 04/05/2016,Teleop Enabled,10,FALSE,0,NO ERROR,-0.000000,-192.781883,-0.000000,-240.592354,FALSE,FALSE,TRUE,FALSE,FALSE,FALSE,Disabled,0.000000,0.000000,0.000000,TRUE,0.616394,0.063629,0.000000,0.243835,0.311646,0.000000,0.512000,-0.765000,-0.071000,-69.810000,0.200000,3.140000,-20.009017,Hold,53.348633,50.000000,Hold,-143417.000000,143360.000000,Suck,-1282.500000,1818.181818,Speed,-982.500000,1818.181818,Speed,Off,On,0.000000,FALSE,30,,,,,0.000000,0.000000
07:59:59.264 PM 04/05/2016,Teleop Enabled,11,FALSE,0,NO ERROR,-0.000000,-191.812968,-0.000000,-241.721685,FALSE,FALSE,TRUE,FALSE,FALSE,FALSE,Disabled,0.000000,0.000000,0.000000,TRUE,0.639771,0.063217,0.000000,0.569748,-0.138229,0.000000,0.512000,-0.765000,-0.071000,-69.810000,0.200000,3.140000,-14.588665,Hold,53.611572,50.000000,Hold,-143417.000000,143360.000000,Suck,-967.500000,1818.181818,Speed,-757.500000,1818.181818,Speed,Off,On,0.000000,FALSE,30,,,,,0.000000,0.000000
07:59:59.364 PM 04/05/2016,Teleop Enabled,9,FALSE,0,NO ERROR,-0.000000,-191.761635,-0.000000,-241.811518,TRUE,FALSE,TRUE,FALSE,FALSE,FALSE,Disabled,0.000000,0.000000,0.000000,TRUE,0.639771,0.063217,0.000000,0.569748,-0.138229,0.000000,-0.202000,-0.047000,-0.065000,-64.920000,-0.450000,1.570000,-14.228101,Hold,53.513916,50.000000,Hold,-143417.000000,143360.000000,Suck,-1567.500000,1818.181818,Speed,-1455.000000,1818.181818,Speed,Off,On,0.000000,FALSE,30,,,,,0.000000,0.000000
