Time,Robot Mode,Loop Time,Error Status,Error Code,Error Source,Left Motor Output,Left Motor Encoder,Right Motor Output,Right Motor Encoder,Is Level,Is Stalled,Ball Detector Photoeye,Vision Enabled,Vision Teleop Control,Vision Auto Control,Vision Current State,Vision X Output,Vision NavX Error,Vision NavX Target,NavX Connection Status,NavX Displacement X,NavX Displacement Y,NavX Displacement Z,NavX Velocity X,NavX Velocity Y,NavX Velocity Z,NavX Acceleration X,NavX Acceleration Y,NavX Acceleration Z,NavX Pitch,NavX Yaw,NavX Roll,Gyro Angle,Roller Arm State,Roller Arm Actual,Roller Arm Desired,Shooter Arm State,Shooter Arm Actual,Shooter Arm Desired,Shooter State,Actual RPM Left,Desired RPM Left,Control Mode Left,Actual RPM Right,Desired RPM Right,Control Mode Right,Ball Shooter Cylinder,Ball Halo Cylinder,Scaler Motor Output,Scaler Solenoid Fire,Auto To Run,Auto Current File,Auto File Status,Auto Current Command,Auto Trimmed Command,Shooter Amps Left,Shooter Amps Right
11:01:38.218 AM 04/09/2016,Teleop Enabled,10,TRUE,-44003,<LOCATION>WPI_CameraIssue HTTP Request with Authentication.vi<CALLSTACK>WPI_CameraIssue HTTP Request with Authentication.vi< <WPI_CameraIssue Get.vi< <WPI_CameraSet Image Appearance Property.vi< <WPI_CameraSet Image Size.vi< <Vision Processing.vi< <Robot Main.vi,-0.000000,0.000000,-0.000000,0.006417,TRUE,FALSE,FALSE,FALSE,FALSE,FALSE,Disabled,0.000000,0.000000,0.000000,TRUE,-7.988480,-0.278732,0.000000,0.000000,0.000000,0.000000,0.000000,0.002000,0.016000,2.470000,-0.050000,-0.200000,-0.012889,ResetBack,1.185059,-0.000049,ResetBack,-26047.000000,-0.250000,Suck,0.000000,1818.181818,Speed,0.000000,1818.181818,Speed,Off,On,0.000000,FALSE,0,,,,,0.000000,0.000000
11:01:38.319 AM 04/09/2016,Teleop Enabled,10,TRUE,-44005,<LOCATION>WPI_CameraWait for Raw Image String.vi:6640001<CALLSTACK>WPI_CameraWait for Raw Image String.vi:6640001< <WPI_CameraGet Image.vi< <Vision Processing.vi< <Robot Main.vi,-0.000000,0.000000,-0.000000,-0.134750,TRUE,FALSE,FALSE,FALSE,FALSE,FALSE,Disabled,0.000000,0.000000,0.000000,TRUE,-7.989029,-0.278091,0.000000,-0.042801,0.038620,0.000000,-0.003000,0.050000,0.096000,2.520000,-0.050000,-0.220000,0.028969,ResetBack,0.372070,-0.000049,ResetBack,-25698.000000,-0.250000,Suck,0.000000,1818.181818,Speed,-45.000000,1818.181818,Speed,Off,On,0.000000,FALSE,0,,,,,0.000000,0.000000
11:01:38.420 AM 04/09/2016,Teleop Enabled,10,FALSE,0,NO ERROR,-0.000000,-0.025667,-0.000000,-0.154000,TRUE,FALSE,FALSE,FALSE,FALSE,FALSE,Disabled,0.000000,0.000000,0.000000,TRUE,-7.989029,-0.278091,0.000000,-0.042801,0.038620,0.000000,0.114000,-0.023000,-0.019000,2.610000,-0.020000,-0.230000,0.024360,ResetBack,0.356689,-0.000049,ResetBack,-22087.000000,-0.250000,Suck,-345.000000,1818.181818,Speed,-607.500000,1818.181818,Speed,Off,On,0.000000,FALSE,0,,,,,0.000000,0.000000
11:01:38.520 AM 04/09/2016,Teleop Enabled,10,FALSE,0,NO ERROR,-0.000000,-0.025667,-0.000000,-0.154000,TRUE,FALSE,FALSE,FALSE,FALSE,FALSE,Disabled,0.000000,0.000000,0.000000,TRUE,-7.989929,-0.277542,0.000000,-0.003693,-0.008026,0.000000,-0.133000,0.069000,0.033000,2.650000,-0.020000,-0.260000,0.024360,ResetBack,0.356445,-0.000049,ResetBack,-17686.000000,-0.250000,Suck,-1012.500000,1818.181818,Speed,-1087.500000,1818.181818,Speed,Off,On,0.000000,FALSE,0,,,,,0.000000,0.000000
11:01:38.620 AM 04/09/2016,Teleop Enabled,9,FALSE,0,NO ERROR,-0.000000,-0.025667,-0.000000,-0.166833,TRUE,FALSE,FALSE,FALSE,FALSE,FALSE,Disabled,0.000000,0.000000,0.000000,TRUE,-7.991043,-0.274811,0.000000,0.007278,0.071365,0.000000,-0.053000,0.021000,0.066000,2.700000,-0.010000,-0.310000,0.044392,Reset,0.356201,0.000000,ResetBack,-12849.000000,-0.250000,Suck,-1575.000000,1818.181818,Speed,-1192.500000,1818.181818,Speed,Off,On,0.000000,FALSE,0,,,,,0.000000,0.000000
11:01:38.721 AM 04/09/2016,Teleop Enabled,9,FALSE,0,NO ERROR,-0.000000,-0.025667,-0.000000,-0.173250,TRUE,FALSE,FALSE,FALSE,FALSE,FALSE,Disabled,0.000000,0.000000,0.000000,TRUE,-7.991226,-0.271255,0.000000,-0.001663,0.110474,0.000000,-0.013000,0.004000,-0.081000,2.660000,-0.010000,-0.310000,0.037100,Hold,0.719971,0.000000,ResetBack,-12849.000000,-0.250000,Suck,-1882.500000,1818.181818,Speed,-1665.000000,1818.181818,Speed,Off,On,0.000000,FALSE,0,,,,,0.000000,0.000000
11:01:38.821 AM 04/09/2016,Teleop Enabled,9,FALSE,0,NO ERROR,-0.000000,-0.032083,-0.000000,-0.173250,TRUE,FALSE,FALSE,FALSE,FALSE,FALSE,Disabled,0.000000,0.000000,0.000000,TRUE,-7.989502,-0.266663,0.000000,0.062332,0.026108,0.000000,0.085000,0.046000,-0.052000,2.630000,0.000000,-0.310000,0.053962,Hold,0.804443,0.000000,ResetBack,-8221.000000,-0.250000,Suck,-1860.000000,1818.181818,Speed,-2212.500000,1818.181818,Speed,Off,On,0.000000,FALSE,0,,,,,0.000000,0.000000
11:01:38.922 AM 04/09/2016,Teleop Enabled,9,FALSE,0,NO ERROR,-0.000000,-0.038500,-0.000000,-0.179666,TRUE,FALSE,FALSE,FALSE,FALSE,FALSE,Disabled,0.000000,0.000000,0.000000,TRUE,-7.984100,-0.264236,0.000000,0.135849,0.068848,0.000000,0.154000,0.008000,-0.007000,2.610000,-0.020000,-0.290000,0.039070,Hold,0.804443,0.000000,ResetBack,-5300.000000,-0.250000,Suck,-1807.500000,1818.181818,Speed,-2100.000000,1818.181818,Speed,Off,On,0.000000,FALSE,0,,,,,0.000000,0.000000
11:01:39.022 AM 04/09/2016,Teleop Enabled,9,FALSE,0,NO ERROR,-0.000000,-0.038500,-0.000000,-0.192500,TRUE,FALSE,FALSE,FALSE,FALSE,FALSE,Disabled,0.000000,0.000000,0.000000,TRUE,-7.976105,-0.259857,0.000000,0.156464,0.097549,0.000000,0.028000,-0.050000,-0.004000,2.630000,0.000000,-0.310000,0.061949,Hold,0.804443,0.000000,ResetBack,-3267.000000,-0.250000,Suck,-1785.000000,1818.181818,Speed,-1867.500000,1818.181818,Speed,Off,On,0.000000,FALSE,0,,,,,0.000000,0.000000
11:01:39.122 AM 04/09/2016,Teleop Enabled,9,FALSE,0,NO ERROR,-0.000000,-0.038500,-0.000000,-0.192500,TRUE,FALSE,FALSE,FALSE,FALSE,FALSE,Disabled,0.000000,0.000000,0.000000,TRUE,-7.967575,-0.255386,0.000000,0.184616,0.083206,0.000000,-0.042000,0.069000,-0.004000,2.630000,0.000000,-0.300000,0.059002,Hold,0.804443,0.000000,ResetBack,-2183.000000,-0.250000,Suck,-1800.000000,1818.181818,Speed,-1680.000000,1818.181818,Speed,Off,On,0.000000,FALSE,0,,,,,0.000000,0.000000
11:01:39.222 AM 04/09/2016,Teleop Enabled,10,FALSE,0,NO ERROR,-0.000000,-0.038500,-0.000000,-0.192500,TRUE,FALSE,FALSE,FALSE,FALSE,FALSE,Disabled,0.000000,0.000000,0.000000,TRUE,-7.960617,-0.250717,0.000000,0.000000,0.095566,0.000000,-0.057000,0.089000,0.069000,2.610000,0.000000,-0.290000,0.059422,Hold,0.804443,0.000000,ResetBack,-701.000000,-0.250000,Suck,-1800.000000,1818.181818,Speed,-1635.000000,1818.181818,Speed,Off,On,0.000000,FALSE,0,,,,,0.000000,0.000000
11:01:39.322 AM 04/09/2016,Teleop Enabled,10,FALSE,0,NO ERROR,-0.000000,-0.038500,-0.000000,-0.192500,TRUE,FALSE,FALSE,FALSE,FALSE,FALSE,Disabled,0.000000,0.000000,0.000000,TRUE,-7.961685,-0.243942,0.000000,-0.037827,0.150223,0.000000,-0.098000,0.009000,-0.011000,2.610000,0.000000,-0.310000,0.073519,Hold,0.804443,0.000000,ResetBack,-701.000000,-0.250000,Suck,-1792.500000,1818.181818,Speed,-1717.500000,1818.181818,Speed,Off,On,0.000000,FALSE,0,,,,,0.000000,0.000000
11:01:39.422 AM 04/09/2016,Teleop Enabled,9,FALSE,0,NO ERROR,-0.000000,-0.038500,-0.000000,-0.192500,TRUE,FALSE,FALSE,FALSE,FALSE,FALSE,Disabled,0.000000,0.000000,0.000000,TRUE,-7.964310,-0.235992,0.000000,-0.044861,0.158905,0.000000,-0.129000,0.072000,-0.024000,2.610000,0.000000,-0.280000,0.071936,Hold,0.804443,0.000000,ResetBack,-111.000000,-0.250000,Suck,-1792.500000,1818.181818,Speed,-1792.500000,1818.181818,Speed,Off,On,0.000000,FALSE,0,,,,,0.000000,0.000000
11:01:39.522 AM 04/09/2016,Teleop Enabled,10,FALSE,0,NO ERROR,-0.000000,-0.038500,-0.000000,-0.192500,TRUE,FALSE,FALSE,FALSE,FALSE,FALSE,Disabled,0.000000,0.000000,0.000000,TRUE,-7.968506,-0.225433,0.000000,-0.070557,0.183548,0.000000,0.030000,0.019000,0.039000,2.610000,0.000000,-0.310000,0.068128,Hold,0.804443,0.000000,Reset,-69.000000,2.000000,Suck,-1792.500000,1818.181818,Speed,-1815.000000,1818.181818,Speed,Off,On,0.000000,FALSE,0,,,,,0.000000,0.000000
11:01:39.622 AM 04/09/2016,Teleop Enabled,9,FALSE,0,NO ERROR,-0.000000,-0.038500,-0.000000,-0.192500,TRUE,FALSE,FALSE,FALSE,FALSE,FALSE,Disabled,0.000000,0.000000,0.000000,TRUE,-7.972565,-0.219299,0.000000,-0.090240,-0.006836,0.000000,-0.024000,-0.023000,-0.009000,2.590000,0.000000,-0.320000,0.088074,Hold,0.804443,0.000000,Hold,-79.000000,2.000000,Suck,-1800.000000,1818.181818,Speed,-1785.000000,1818.181818,Speed,Off,On,0.000000,FALSE,0,,,,,0.000000,0.000000
11:01:39.722 AM 04/09/2016,Teleop Enabled,10,FALSE,0,NO ERROR,-0.000000,-0.038500,-0.000000,-0.192500,TRUE,FALSE,FALSE,FALSE,FALSE,FALSE,Disabled,0.000000,0.000000,0.000000,TRUE,-7.977005,-0.220795,0.000000,-0.067474,-0.048172,0.000000,-0.040000,-0.068000,-0.030000,2.590000,0.000000,-0.230000,0.080938,Hold,0.804443,0.000000,Hold,-80.000000,2.000000,Suck,-1792.500000,1818.181818,Speed,-1762.500000,1818.181818,Speed,Off,On,0.000000,FALSE,0,,,,,0.000000,0.000000
11:01:39.822 AM 04/09/2016,Teleop Enabled,9,FALSE,0,NO ERROR,-0.000000,-0.044917,-0.000000,-0.192500,TRUE,FALSE,FALSE,FALSE,FALSE,FALSE,Disabled,0.000000,0.000000,0.000000,TRUE,-7.980927,-0.222672,0.000000,-0.088654,0.000000,0.000000,0.090000,-0.016000,0.042000,2.560000,0.000000,-0.280000,0.082893,Hold,0.804443,0.000000,Hold,-80.000000,2.000000,Suck,-1800.000000,1818.181818,Speed,-1762.500000,1818.181818,Speed,Off,On,0.000000,FALSE,0,,,,,0.000000,0.000000
11:01:39.922 AM 04/09/2016,Teleop Enabled,9,FALSE,0,NO ERROR,-0.000000,-0.044917,-0.000000,-0.192500,TRUE,FALSE,FALSE,FALSE,FALSE,FALSE,Disabled,0.000000,0.000000,0.000000,TRUE,-7.984024,-0.223312,0.000000,-0.049118,-0.019653,0.000000,0.000000,0.029000,-0.014000,2.540000,0.000000,-0.200000,0.083916,Hold,0.804443,0.000000,Hold,-80.000000,2.000000,Suck,-1800.000000,1818.181818,Speed,-1740.000000,1818.181818,Speed,Off,On,0.000000,FALSE,0,,,,,0.000000,0.000000
11:01:40.022 AM 04/09/2016,Teleop Enabled,9,FALSE,0,NO ERROR,-0.000000,-0.044917,-0.000000,-0.192500,TRUE,FALSE,FALSE,FALSE,FALSE,FALSE,Disabled,0.000000,0.000000,0.000000,TRUE,-7.986115,-0.223618,0.000000,0.000000,0.008286,0.000000,0.002000,0.039000,0.002000,2.560000,0.000000,-0.200000,0.084959,Hold,0.804443,0.000000,Hold,-80.000000,2.000000,Suck,-1792.500000,1818.181818,Speed,-1747.500000,1818.181818,Speed,Off,On,0.000000,FALSE,0,,,,,0.000000,0.000000
11:01:40.122 AM 04/09/2016,Teleop Enabled,9,FALSE,0,NO ERROR,-0.000000,-0.044917,-0.000000,-0.192500,TRUE,FALSE,FALSE,FALSE,FALSE,FALSE,Disabled,0.000000,0.000000,0.000000,TRUE,-7.986069,-0.223145,0.000000,-0.006912,-0.002396,0.000000,0.046000,-0.065000,0.066000,2.540000,0.000000,-0.190000,0.084105,Hold,0.804443,0.000000,Hold,-80.000000,2.000000,Suck,-1800.000000,1818.181818,Speed,-1777.500000,1818.181818,Speed,Off,On,0.000000,FALSE,0,,,,,0.000000,0.000000
11:01:40.223 AM 04/09/2016,Teleop Enabled,9,FALSE,0,NO ERROR,-0.000000,-0.044917,-0.000000,-0.192500,TRUE,FALSE,FALSE,FALSE,FALSE,FALSE,Disabled,0.000000,0.000000,0.000000,TRUE,-7.986267,-0.224716,0.000000,-0.014572,-0.035812,0.000000,0.013000,-0.011000,0.020000,2.540000,-0.010000,-0.170000,0.091538,Hold,0.804443,0.000000,Hold,-80.000000,2.000000,Suck,-1800.000000,1818.181818,Speed,-1785.000000,1818.181818,Speed,Off,On,0.000000,FALSE,0,,,,,0.000000,0.000000
11:01:40.324 AM 04/09/2016,Teleop Enabled,11,FALSE,0,NO ERROR,-0.000000,-0.044917,-0.000000,-0.192500,TRUE,FALSE,FALSE,FALSE,FALSE,FALSE,Disabled,0.000000,0.000000,0.000000,TRUE,-7.986938,-0.225555,0.000000,0.000000,0.002853,0.000000,-0.007000,0.108000,0.049000,2.530000,-0.010000,-0.190000,0.087630,Hold,0.804443,0.000000,Hold,-80.000000,2.000000,Suck,-1800.000000,1818.181818,Speed,-1785.000000,1818.181818,Speed,Off,On,0.000000,FALSE,0,,,,,0.000000,0.000000
11:01:40.424 AM 04/09/2016,Teleop Enabled,10,FALSE,0,NO ERROR,-0.000000,-0.044917,-0.000000,-0.192500,TRUE,FALSE,FALSE,FALSE,FALSE,FALSE,Disabled,0.000000,0.000000,0.000000,TRUE,-7.986771,-0.223526,0.000000,-0.007126,0.044434,0.000000,-0.040000,0.030000,0.020000,2.520000,0.000000,-0.200000,0.086935,Hold,0.804443,0.000000,HighGoal,-80.000000,77824.000000,Suck,-1800.000000,1818.181818,Speed,-1770.000000,1818.181818,Speed,Off,On,0.000000,FALSE,0,,,,,0.000000,0.000000
11:01:40.525 AM 04/09/2016,Teleop Enabled,10,FALSE,0,NO ERROR,-0.000000,-0.044917,-0.000000,-0.192500,TRUE,FALSE,FALSE,FALSE,FALSE,FALSE,Disabled,0.000000,0.000000,0.000000,TRUE,-7.988113,-0.222672,0.000000,-0.036499,-0.011307,0.000000,-0.012000,-0.026000,-0.009000,2.490000,0.000000,-0.190000,0.077072,Hold,0.804443,0.000000,Hold,-8375.000000,77824.000000,Suck,-1800.000000,1818.181818,Speed,-1747.500000,1818.181818,Speed,Off,On,0.000000,FALSE,0,,,,,0.000000,0.000000
11:01:40.625 AM 04/09/2016,Teleop Enabled,10,FALSE,0,NO ERROR,-0.000000,-0.051333,-0.000000,-0.205333,TRUE,FALSE,FALSE,FALSE,FALSE,FALSE,Disabled,0.000000,0.000000,0.000000,TRUE,-7.990265,-0.224686,0.000000,-0.040985,-0.059860,0.000000,-0.084000,-0.036000,-0.002000,2.490000,-0.010000,-0.210000,0.043586,Hold,0.804443,0.000000,Hold,-23945.000000,77824.000000,Suck,-1792.500000,1818.181818,Speed,-1740.000000,1818.181818,Speed,Off,On,0.000000,FALSE,0,,,,,0.000000,0.000000
11:01:40.725 AM 04/09/2016,Teleop Enabled,10,FALSE,0,NO ERROR,-0.000000,-0.025667,-0.000000,-0.166833,TRUE,FALSE,FALSE,FALSE,FALSE,FALSE,Disabled,0.000000,0.000000,0.000000,TRUE,-7.993011,-0.228790,0.000000,-0.059387,-0.098877,0.000000,0.000000,0.032000,0.015000,2.520000,0.040000,-0.200000,0.095159,Hold,0.804443,0.000000,Hold,-23945.000000,77824.000000,Suck,-1792.500000,1818.181818,Speed,-1732.500000,1818.181818,Speed,Off,On,0.000000,FALSE,0,,,,,0.000000,0.000000
11:01:40.825 AM 04/09/2016,Teleop Enabled,11,FALSE,0,NO ERROR,-0.000000,0.006417,-0.000000,-0.121916,TRUE,FALSE,FALSE,FALSE,FALSE,FALSE,Disabled,0.000000,0.000000,0.000000,TRUE,-7.995346,-0.231583,0.000000,-0.021652,0.000000,0.000000,0.070000,-0.022000,0.005000,2.500000,0.110000,-0.190000,0.159611,Hold,0.804443,0.000000,Hold,-36730.000000,77824.000000,Suck,-1800.000000,1818.181818,Speed,-1762.500000,1818.181818,Speed,Off,On,0.000000,FALSE,0,,,,,0.000000,0.000000
11:01:40.926 AM 04/09/2016,Teleop Enabled,10,FALSE,0,NO ERROR,-0.000000,-0.012833,-0.000000,-0.121916,TRUE,FALSE,FALSE,FALSE,FALSE,FALSE,Disabled,0.000000,0.000000,0.000000,TRUE,-7.994827,-0.232269,0.000000,0.016525,-0.008804,0.000000,-0.044000,0.015000,0.005000,2.500000,0.000000,-0.200000,0.058458,Hold,0.804443,0.000000,Hold,-52559.000000,77824.000000,Suck,-1800.000000,1818.181818,Speed,-1717.500000,1818.181818,Speed,Off,On,0.000000,FALSE,0,,,,,0.000000,0.000000
11:01:41.026 AM 04/09/2016,Teleop Enabled,10,FALSE,0,NO ERROR,-0.000000,-0.044917,-0.000000,-0.147583,TRUE,FALSE,FALSE,FALSE,FALSE,FALSE,Disabled,0.000000,0.000000,0.000000,TRUE,-7.993546,-0.232895,0.000000,0.029251,-0.041321,0.000000,0.029000,-0.025000,0.085000,2.550000,-0.020000,-0.250000,0.060620,Hold,0.804443,0.000000,Hold,-69423.000000,77824.000000,Suck,-1792.500000,1818.181818,Speed,-1762.500000,1818.181818,Speed,Off,On,0.000000,FALSE,0,,,,,0.000000,0.000000
11:01:41.127 AM 04/09/2016,Teleop Enabled,10,FALSE,0,NO ERROR,-0.000000,-0.154000,-0.000000,-0.166833,TRUE,FALSE,FALSE,FALSE,FALSE,FALSE,Disabled,0.000000,0.000000,0.000000,TRUE,-7.992508,-0.235077,0.000000,0.017319,-0.035095,0.000000,0.190000,0.016000,0.130000,2.510000,-0.020000,-0.320000,0.039734,Hold,0.804443,0.000000,Hold,-77758.000000,77824.000000,Suck,-1785.000000,1818.181818,Speed,-1657.500000,1818.181818,Speed,Off,On,0.000000,FALSE,0,,,,,0.000000,0.000000
11:01:41.226 AM 04/09/2016,Teleop Enabled,10,FALSE,0,NO ERROR,-0.000000,-0.320833,-0.000000,-0.269499,TRUE,FALSE,FALSE,FALSE,FALSE,FALSE,Disabled,0.000000,0.000000,0.000000,TRUE,-7.992447,-0.235535,0.000000,-0.042084,0.004990,0.000000,-0.103000,-0.031000,0.287000,2.550000,-0.070000,-0.140000,-0.026707,Hold,0.804443,0.000000,Hold,-77785.000000,77824.000000,Suck,-1732.500000,1818.181818,Speed,-1710.000000,1818.181818,Speed,Off,On,0.000000,FALSE,0,,,,,0.000000,0.000000
11:01:41.327 AM 04/09/2016,Teleop Enabled,10,FALSE,0,NO ERROR,-0.000000,-0.256666,-0.000000,-0.128333,TRUE,FALSE,FALSE,FALSE,FALSE,FALSE,Disabled,0.000000,0.000000,0.000000,TRUE,-7.996704,-0.234512,0.000000,-0.097855,0.052521,0.000000,-0.009000,0.185000,-0.038000,2.470000,-0.040000,-0.560000,0.002857,Hold,0.804443,0.000000,Hold,-77785.000000,77824.000000,Suck,-1785.000000,1818.181818,Speed,-1785.000000,1818.181818,Speed,Off,On,0.000000,FALSE,0,,,,,0.000000,0.000000
11:01:41.427 AM 04/09/2016,Teleop Enabled,10,FALSE,0,NO ERROR,-0.000000,-0.224583,-0.000000,-0.115500,TRUE,FALSE,FALSE,FALSE,FALSE,FALSE,Disabled,0.000000,0.000000,0.000000,TRUE,-8.001114,-0.228058,0.000000,-0.080673,0.149582,0.000000,-0.061000,-0.044000,-0.024000,2.510000,-0.050000,-0.360000,-0.008176,Hold,0.804443,0.000000,Hold,-77821.000000,77824.000000,Suck,-1822.500000,1818.181818,Speed,-1747.500000,1818.181818,Speed,Off,On,0.000000,FALSE,0,,,,,0.000000,0.000000
11:01:41.527 AM 04/09/2016,Teleop Enabled,11,FALSE,0,NO ERROR,-0.000000,-0.192500,-0.000000,-0.115500,TRUE,FALSE,FALSE,FALSE,FALSE,FALSE,Disabled,0.000000,0.000000,0.000000,TRUE,-8.004822,-0.222855,0.000000,-0.077194,0.084229,0.000000,0.023000,0.011000,0.076000,2.540000,-0.040000,-0.270000,0.000933,Hold,0.804443,0.000000,Hold,-77922.000000,77824.000000,Suck,-1822.500000,1818.181818,Speed,-1635.000000,1818.181818,Speed,Off,On,0.000000,FALSE,0,,,,,0.000000,0.000000
11:01:41.627 AM 04/09/2016,Teleop Enabled,10,FALSE,0,NO ERROR,-0.000000,-0.179666,-0.000000,-0.115500,TRUE,FALSE,FALSE,FALSE,FALSE,FALSE,Disabled,0.000000,0.000000,0.000000,TRUE,-8.006088,-0.217407,0.000000,0.007217,0.148041,0.000000,-0.016000,0.112000,-0.055000,2.500000,-0.060000,-0.240000,-0.027413,Hold,0.804443,0.000000,Hold,-77922.000000,77824.000000,Suck,-1807.500000,1818.181818,Speed,-1605.000000,1818.181818,Speed,Off,On,0.000000,FALSE,0,,,,,0.000000,0.000000
11:01:41.727 AM 04/09/2016,Teleop Enabled,9,FALSE,0,NO ERROR,-0.000000,-0.192500,-0.000000,-0.160416,TRUE,FALSE,FALSE,FALSE,FALSE,FALSE,Disabled,0.000000,0.000000,0.000000,TRUE,-8.006226,-0.207001,0.000000,-0.025070,0.236053,0.000000,-0.149000,0.064000,0.044000,2.460000,-0.050000,-0.160000,-0.011897,Hold,0.804443,0.000000,Hold,-77922.000000,77824.000000,Suck,-1800.000000,1818.181818,Speed,-1837.500000,1818.181818,Speed,Off,On,0.000000,FALSE,0,,,,,0.000000,0.000000
11:01:41.827 AM 04/09/2016,Teleop Enabled,8,FALSE,0,NO ERROR,-0.000000,-0.192500,-0.000000,-0.160416,TRUE,FALSE,FALSE,FALSE,FALSE,FALSE,Disabled,0.000000,0.000000,0.000000,TRUE,-8.010101,-0.196671,0.000000,-0.092300,0.000000,0.000000,-0.149000,0.064000,0.044000,2.470000,-0.040000,-0.360000,0.001708,Hold,0.804443,0.000000,Hold,-77922.000000,77824.000000,Suck,-1807.500000,1818.181818,Speed,-1965.000000,1818.181818,Speed,Off,On,0.000000,FALSE,0,,,,,0.000000,0.000000
11:01:41.927 AM 04/09/2016,Teleop Enabled,10,FALSE,0,NO ERROR,-0.000000,-0.192500,-0.000000,-0.160416,TRUE,FALSE,FALSE,FALSE,FALSE,FALSE,Disabled,0.000000,0.000000,0.000000,TRUE,-8.014771,-0.197342,0.000000,-0.096344,-0.040039,0.000000,0.005000,-0.085000,0.176000,2.500000,-0.050000,-0.270000,0.001904,Hold,0.804443,0.000000,Hold,-77922.000000,77824.000000,Suck,-1815.000000,1818.181818,Speed,-1912.500000,1818.181818,Speed,Off,On,0.000000,FALSE,0,,,,,0.000000,0.000000
11:01:42.027 AM 04/09/2016,Teleop Enabled,9,FALSE,0,NO ERROR,-0.000000,-0.192500,-0.000000,-0.141166,TRUE,FALSE,FALSE,FALSE,FALSE,FALSE,Disabled,0.000000,0.000000,0.000000,TRUE,-8.019974,-0.201324,0.000000,-0.090622,-0.058609,0.000000,0.005000,-0.085000,0.176000,2.530000,-0.030000,-0.360000,0.021729,Hold,0.804443,0.000000,Hold,-77922.000000,77824.000000,Suck,-1807.500000,1818.181818,Speed,-1755.000000,1818.181818,Speed,Off,On,0.000000,FALSE,0,,,,,0.000000,0.000000
11:01:42.128 AM 04/09/2016,Teleop Enabled,10,FALSE,0,NO ERROR,-0.000000,-0.192500,-0.000000,-0.141166,TRUE,FALSE,FALSE,FALSE,FALSE,FALSE,Disabled,0.000000,0.000000,0.000000,TRUE,-8.024536,-0.205170,0.000000,-0.114243,-0.078903,0.000000,0.082000,-0.097000,-0.009000,2.520000,-0.050000,-0.290000,0.003935,Hold,0.804443,0.000000,Hold,-77922.000000,77824.000000,Suck,-1807.500000,1818.181818,Speed,-1672.500000,1818.181818,Speed,Off,On,0.000000,FALSE,0,,,,,0.000000,0.000000
11:01:42.228 AM 04/09/2016,Teleop Enabled,10,FALSE,0,NO ERROR,-0.000000,-0.192500,-0.000000,-0.141166,TRUE,FALSE,FALSE,FALSE,FALSE,FALSE,Disabled,0.000000,0.000000,0.000000,TRUE,-8.029388,-0.209625,0.000000,0.000000,-0.111649,0.000000,-0.066000,0.005000,0.031000,2.520000,-0.050000,-0.290000,0.026941,Hold,0.804443,0.000000,Hold,-77921.000000,77824.000000,Suck,-1800.000000,1818.181818,Speed,-1515.000000,1818.181818,Speed,Off,On,0.000000,FALSE,0,,,,,0.000000,0.000000
11:01:42.329 AM 04/09/2016,Teleop Enabled,9,FALSE,0,NO ERROR,-0.000000,-0.192500,-0.000000,-0.141166,TRUE,FALSE,FALSE,FALSE,FALSE,FALSE,Disabled,0.000000,0.000000,0.000000,TRUE,-8.030289,-0.208252,0.000000,-0.044189,0.072342,0.000000,0.000000,-0.019000,0.085000,2.530000,-0.030000,-0.350000,0.020855,Hold,0.804443,0.000000,Hold,-77921.000000,77824.000000,Suck,-1800.000000,1818.181818,Speed,-1777.500000,1818.181818,Speed,Off,On,0.000000,FALSE,0,,,,,0.000000,0.000000
11:01:42.430 AM 04/09/2016,Teleop Enabled,11,FALSE,0,NO ERROR,-0.000000,-0.192500,-0.000000,-0.141166,TRUE,FALSE,FALSE,FALSE,FALSE,FALSE,Disabled,0.000000,0.000000,0.000000,TRUE,-8.035522,-0.201233,0.000000,-0.144913,0.186371,0.000000,-0.109000,0.122000,-0.038000,2.530000,-0.050000,-0.270000,0.043173,Hold,0.804443,50.000000,Hold,-77921.000000,143360.000000,Suck,-1800.000000,1818.181818,Speed,-1695.000000,1818.181818,Speed,Off,On,0.000000,FALSE,0,,,,,0.000000,0.000000
11:01:42.531 AM 04/09/2016,Teleop Enabled,11,FALSE,0,NO ERROR,-0.000000,-0.179666,-0.000000,-0.121916,TRUE,FALSE,FALSE,FALSE,FALSE,FALSE,Disabled,0.000000,0.000000,0.000000,TRUE,-8.043808,-0.190292,0.000000,-0.181320,0.230194,0.000000,-0.029000,0.067000,-0.018000,2.530000,-0.040000,-0.260000,0.051215,Hold,3.561035,50.000000,Hold,-87468.000000,143360.000000,Suck,-1807.500000,1818.181818,Speed,-1552.500000,1818.181818,Speed,Off,On,0.000000,FALSE,0,,,,,0.000000,0.000000
11:01:42.632 AM 04/09/2016,Teleop Enabled,10,FALSE,0,NO ERROR,-0.000000,-0.038500,-0.000000,-0.057750,TRUE,FALSE,FALSE,FALSE,FALSE,FALSE,Disabled,0.000000,0.000000,0.000000,TRUE,-8.054214,-0.180405,0.000000,-0.211319,0.144196,0.000000,-0.041000,-0.028000,0.068000,2.490000,-0.010000,-0.420000,0.060981,Hold,7.168457,50.000000,Hold,-87468.000000,143360.000000,Suck,-1687.500000,1818.181818,Speed,-1440.000000,1818.181818,Speed,Off,On,0.000000,FALSE,0,,,,,0.000000,0.000000
11:01:42.733 AM 04/09/2016,Teleop Enabled,11,FALSE,0,NO ERROR,-0.000000,-0.032083,-0.000000,-0.070583,TRUE,FALSE,FALSE,FALSE,FALSE,FALSE,Disabled,0.000000,0.000000,0.000000,TRUE,-8.062454,-0.174240,0.000000,-0.140915,0.100983,0.000000,0.118000,0.054000,0.217000,2.320000,0.000000,-0.260000,0.033090,Hold,11.733643,50.000000,Hold,-103786.000000,143360.000000,Suck,-1485.000000,1818.181818,Speed,-1852.500000,1818.181818,Speed,Off,On,0.000000,FALSE,0,,,,,0.000000,0.000000
11:01:42.833 AM 04/09/2016,Teleop Enabled,10,FALSE,0,NO ERROR,-0.000000,-0.077000,-0.000000,-0.154000,TRUE,FALSE,FALSE,FALSE,FALSE,FALSE,Disabled,0.000000,0.000000,0.000000,TRUE,-8.070480,-0.169174,0.000000,-0.177109,0.151306,0.000000,-0.023000,-0.145000,-0.044000,2.440000,-0.060000,-0.090000,-0.019829,Hold,17.164551,50.000000,Hold,-123803.000000,143360.000000,Suck,-1770.000000,1818.181818,Speed,-2302.500000,1818.181818,Speed,Off,On,0.000000,FALSE,0,,,,,0.000000,0.000000
11:01:42.934 AM 04/09/2016,Teleop Enabled,10,FALSE,0,NO ERROR,-0.000000,-0.102666,-0.000000,-0.192500,TRUE,FALSE,FALSE,FALSE,FALSE,FALSE,Disabled,0.000000,0.000000,0.000000,TRUE,-8.079773,-0.159836,0.000000,-0.267212,0.201096,0.000000,0.072000,0.011000,-0.060000,2.350000,-0.030000,-0.190000,-0.052933,Hold,17.164551,50.000000,Hold,-143550.000000,143360.000000,Suck,-1890.000000,1818.181818,Speed,-1912.500000,1818.181818,Speed,Off,On,0.000000,FALSE,0,,,,,0.000000,0.000000
11:01:43.035 AM 04/09/2016,Teleop Enabled,9,FALSE,0,NO ERROR,-0.000000,-0.102666,-0.000000,-0.192500,TRUE,FALSE,FALSE,FALSE,FALSE,FALSE,Disabled,0.000000,0.000000,0.000000,TRUE,-8.079773,-0.159836,0.000000,-0.267212,0.201096,0.000000,-0.064000,-0.064000,-0.012000,2.350000,-0.030000,-0.190000,-0.067082,Hold,29.478271,50.000000,Hold,-143141.000000,143360.000000,Suck,-1837.500000,1818.181818,Speed,-1590.000000,1818.181818,Speed,Off,On,0.000000,FALSE,0,,,,,0.000000,0.000000
11:01:43.135 AM 04/09/2016,Teleop Enabled,10,FALSE,0,NO ERROR,-0.000000,-0.102666,-0.000000,-0.179666,TRUE,FALSE,FALSE,FALSE,FALSE,FALSE,Disabled,0.000000,0.000000,0.000000,TRUE,-8.101379,-0.151306,0.000000,-0.341827,0.000000,0.000000,0.128000,0.154000,0.095000,2.300000,-0.040000,-0.440000,-0.091985,Hold,29.478271,50.000000,Hold,-143374.000000,143360.000000,Suck,-1777.500000,1818.181818,Speed,-1470.000000,1818.181818,Speed,Off,On,0.000000,FALSE,0,,,,,0.000000,0.000000
11:01:43.237 AM 04/09/2016,Teleop Enabled,10,FALSE,0,NO ERROR,-0.000000,-0.102666,-0.000000,-0.186083,TRUE,FALSE,FALSE,FALSE,FALSE,FALSE,Disabled,0.000000,0.000000,0.000000,TRUE,-8.134491,-0.150970,0.000000,-0.327957,-0.013794,0.000000,0.032000,-0.020000,-0.064000,2.380000,-0.050000,-0.480000,-0.103941,Hold,47.992920,50.000000,Hold,-143386.000000,143360.000000,Suck,-1777.500000,1818.181818,Speed,-1582.500000,1818.181818,Speed,Off,On,0.000000,FALSE,0,,,,,0.000000,0.000000
11:01:43.337 AM 04/09/2016,Teleop Enabled,10,FALSE,0,NO ERROR,-0.000000,-0.128333,-0.000000,-0.192500,TRUE,FALSE,FALSE,FALSE,FALSE,FALSE,Disabled,0.000000,0.000000,0.000000,TRUE,-8.134491,-0.150970,0.000000,-0.327957,-0.013794,0.000000,0.013000,0.094000,0.112000,2.380000,-0.050000,-0.550000,-0.081530,Hold,47.992920,50.000000,Hold,-143386.000000,143360.000000,Suck,-1792.500000,1818.181818,Speed,-1440.000000,1818.181818,Speed,Off,On,0.000000,FALSE,0,,,,,0.000000,0.000000
11:01:43.438 AM 04/09/2016,Teleop Enabled,10,FALSE,0,NO ERROR,-0.000000,-0.128333,-0.000000,-0.192500,TRUE,FALSE,FALSE,FALSE,FALSE,FALSE,Disabled,0.000000,0.000000,0.000000,TRUE,-8.137329,-0.152130,0.000000,0.092056,-0.077576,0.000000,0.155000,-0.129000,-0.024000,2.460000,-0.050000,-0.710000,-0.059615,Hold,54.383301,50.000000,Hold,-143406.000000,143360.000000,Suck,-1785.000000,1818.181818,Speed,-1890.000000,1818.181818,Speed,Off,On,0.000000,FALSE,0,,,,,0.000000,0.000000
11:01:43.537 AM 04/09/2016,Teleop Enabled,10,FALSE,0,NO ERROR,-0.000000,-0.109083,-0.000000,-0.154000,TRUE,FALSE,FALSE,FALSE,FALSE,FALSE,Disabled,0.000000,0.000000,0.000000,TRUE,-8.137329,-0.152130,0.000000,0.092056,-0.077576,0.000000,0.021000,-0.060000,-0.001000,2.380000,-0.020000,-0.660000,-0.081881,Hold,55.423584,50.000000,Hold,-143406.000000,143360.000000,Suck,-1792.500000,1818.181818,Speed,-1890.000000,1818.181818,Speed,Off,On,0.000000,FALSE,0,,,,,0.000000,0.000000
11:01:43.638 AM 04/09/2016,Teleop Enabled,10,FALSE,0,NO ERROR,-0.000000,-0.102666,-0.000000,-0.134750,TRUE,FALSE,FALSE,FALSE,FALSE,FALSE,Disabled,0.000000,0.000000,0.000000,TRUE,-8.132706,-0.155029,0.000000,0.076004,-0.001709,0.000000,0.039000,0.079000,-0.033000,2.440000,-0.050000,-0.630000,-0.049322,Hold,55.117676,50.000000,Hold,-143408.000000,143360.000000,Suck,-1800.000000,1818.181818,Speed,-1927.500000,1818.181818,Speed,Off,On,0.000000,FALSE,0,,,,,0.000000,0.000000
11:01:43.739 AM 04/09/2016,Teleop Enabled,11,FALSE,0,NO ERROR,-0.000000,-0.102666,-0.000000,-0.128333,TRUE,FALSE,FALSE,FALSE,FALSE,FALSE,Disabled,0.000000,0.000000,0.000000,TRUE,-8.127747,-0.154205,0.000000,0.101639,0.008606,0.000000,0.020000,-0.037000,-0.008000,2.420000,-0.030000,-0.460000,-0.077606,Hold,55.117188,50.000000,Hold,-143409.000000,143360.000000,Suck,-1800.000000,1818.181818,Speed,-1927.500000,1818.181818,Speed,Off,On,0.000000,FALSE,0,,,,,0.000000,0.000000
11:01:43.840 AM 04/09/2016,Teleop Enabled,10,FALSE,0,NO ERROR,-0.000000,-0.102666,-0.000000,-0.128333,TRUE,FALSE,FALSE,FALSE,FALSE,FALSE,Disabled,0.000000,0.000000,0.000000,TRUE,-8.122498,-0.154144,0.000000,0.101624,0.005692,0.000000,0.036000,0.027000,-0.007000,2.460000,-0.050000,-0.510000,-0.065219,Hold,55.117188,50.000000,Hold,-143410.000000,143360.000000,Suck,-1800.000000,1818.181818,Speed,-1627.500000,1818.181818,Speed,Off,On,0.000000,FALSE,0,,,,,0.000000,0.000000
11:01:43.941 AM 04/09/2016,Teleop Enabled,10,FALSE,0,NO ERROR,-0.000000,-0.102666,-0.000000,-0.128333,TRUE,FALSE,FALSE,FALSE,FALSE,FALSE,Disabled,0.000000,0.000000,0.000000,TRUE,-8.117081,-0.154327,0.000000,0.100250,0.000000,0.000000,-0.063000,-0.057000,0.038000,2.460000,-0.050000,-0.510000,-0.074321,Hold,55.117188,50.000000,Hold,-143410.000000,143360.000000,Suck,-1785.000000,1818.181818,Speed,-1567.500000,1818.181818,Speed,Off,On,0.000000,FALSE,0,,,,,0.000000,0.000000
11:01:44.042 AM 04/09/2016,Teleop Enabled,10,FALSE,0,NO ERROR,-0.000000,-0.102666,-0.000000,-0.128333,TRUE,FALSE,FALSE,FALSE,FALSE,FALSE,Disabled,0.000000,0.000000,0.000000,TRUE,-8.111847,-0.154984,0.000000,0.132935,-0.021255,0.000000,-0.086000,-0.005000,-0.018000,2.440000,-0.060000,-0.460000,-0.065849,Hold,55.117188,50.000000,Hold,-143411.000000,143360.000000,Suck,-1785.000000,1818.181818,Speed,-1695.000000,1818.181818,Speed,Off,On,0.000000,FALSE,0,,,,,0.000000,0.000000
11:01:44.144 AM 04/09/2016,Teleop Enabled,11,FALSE,0,NO ERROR,-0.000000,-0.102666,-0.000000,-0.128333,TRUE,FALSE,FALSE,FALSE,FALSE,FALSE,Disabled,0.000000,0.000000,0.000000,TRUE,-8.105637,-0.156494,0.000000,0.122070,-0.044220,0.000000,0.018000,-0.034000,0.025000,2.450000,-0.050000,-0.500000,-0.052637,Hold,55.117188,50.000000,Hold,-143411.000000,143360.000000,Suck,-1785.000000,1818.181818,Speed,-1905.000000,1818.181818,Speed,Off,On,0.000000,FALSE,0,,,,,0.000000,0.000000
11:01:44.245 AM 04/09/2016,Teleop Enabled,11,FALSE,0,NO ERROR,-0.000000,-0.102666,-0.000000,-0.128333,TRUE,FALSE,FALSE,FALSE,FALSE,FALSE,Disabled,0.000000,0.000000,0.000000,TRUE,-8.097809,-0.158585,0.000000,0.125076,0.000000,0.000000,-0.058000,-0.020000,-0.034000,2.430000,-0.060000,-0.400000,-0.069120,Hold,55.117188,50.000000,Hold,-143411.000000,143360.000000,Suck,-1800.000000,1818.181818,Speed,-1762.500000,1818.181818,Speed,Off,On,0.000000,FALSE,0,,,,,0.000000,0.000000
11:01:44.345 AM 04/09/2016,Teleop Enabled,11,FALSE,0,NO ERROR,-0.000000,-0.102666,-0.000000,-0.128333,TRUE,FALSE,FALSE,FALSE,FALSE,FALSE,Disabled,0.000000,0.000000,0.000000,TRUE,-8.093002,-0.158371,0.000000,0.000000,0.021988,0.000000,0.012000,0.011000,0.062000,2.390000,-0.060000,-0.370000,-0.069120,Hold,55.117188,50.000000,Hold,-143412.000000,143360.000000,Suck,-1800.000000,1818.181818,Speed,-1762.500000,1818.181818,Speed,Off,On,0.000000,FALSE,0,,,,,0.000000,0.000000
11:01:44.446 AM 04/09/2016,Teleop Enabled,11,FALSE,0,NO ERROR,-0.000000,-0.102666,-0.000000,-0.128333,TRUE,FALSE,FALSE,FALSE,FALSE,FALSE,Disabled,0.000000,0.000000,0.000000,TRUE,-8.093506,-0.157028,0.000000,-0.001907,0.014252,0.000000,-0.163000,0.077000,0.066000,2.400000,-0.060000,-0.430000,-0.075072,Hold,55.116943,50.000000,Hold,-143412.000000,143360.000000,Suck,-1792.500000,1818.181818,Speed,-1545.000000,1818.181818,Speed,Off,On,0.000000,FALSE,0,,,,,0.000000,0.000000
11:01:44.547 AM 04/09/2016,Teleop Enabled,11,FALSE,0,NO ERROR,-0.000000,-0.102666,-0.000000,-0.128333,TRUE,FALSE,FALSE,FALSE,FALSE,FALSE,Disabled,0.000000,0.000000,0.000000,TRUE,-8.094376,-0.154846,0.000000,-0.037933,0.061676,0.000000,-0.038000,-0.109000,0.014000,2.460000,-0.050000,-0.430000,-0.079619,Hold,55.116943,50.000000,Hold,-143413.000000,143360.000000,Suck,-1792.500000,1818.181818,Speed,-1747.500000,1818.181818,Speed,Off,On,0.000000,FALSE,0,,,,,0.000000,0.000000
11:01:44.648 AM 04/09/2016,Teleop Enabled,10,FALSE,0,NO ERROR,-0.000000,-0.102666,-0.000000,-0.128333,TRUE,FALSE,FALSE,FALSE,FALSE,FALSE,Disabled,0.000000,0.000000,0.000000,TRUE,-8.096039,-0.152252,0.000000,-0.001205,0.040665,0.000000,-0.011000,-0.079000,-0.045000,2.490000,-0.050000,-0.450000,-0.081492,Hold,55.116943,50.000000,Hold,-143413.000000,143360.000000,Suck,-1792.500000,1818.181818,Speed,-1890.000000,1818.181818,Speed,Off,On,0.000000,FALSE,0,,,,,0.000000,0.000000
11:01:44.749 AM 04/09/2016,Teleop Enabled,10,FALSE,0,NO ERROR,-0.000000,-0.102666,-0.000000,-0.128333,TRUE,FALSE,FALSE,FALSE,FALSE,FALSE,Disabled,0.000000,0.000000,0.000000,TRUE,-8.096375,-0.152237,0.000000,-0.016815,-0.011993,0.000000,0.033000,0.008000,-0.096000,2.510000,-0.050000,-0.480000,-0.086388,Hold,55.116943,50.000000,Hold,-143413.000000,143360.000000,Suck,-1800.000000,1818.181818,Speed,-1837.500000,1818.181818,Speed,Off,On,0.000000,FALSE,0,,,,,0.000000,0.000000
11:01:44.850 AM 04/09/2016,Teleop Enabled,10,FALSE,0,NO ERROR,-0.000000,-0.102666,-0.000000,-0.128333,TRUE,FALSE,FALSE,FALSE,FALSE,FALSE,Disabled,0.000000,0.000000,0.000000,TRUE,-8.096848,-0.152969,0.000000,-0.010925,-0.008102,0.000000,-0.104000,0.073000,-0.004000,2.480000,-0.050000,-0.460000,-0.089025,Hold,55.110840,50.000000,Hold,-143414.000000,143360.000000,Suck,-1807.500000,1818.181818,Speed,-1725.000000,1818.181818,Speed,Off,On,0.000000,FALSE,0,,,,,0.000000,0.000000
11:01:44.951 AM 04/09/2016,Teleop Enabled,10,FALSE,0,NO ERROR,-0.000000,-0.102666,-0.000000,-0.128333,TRUE,FALSE,FALSE,FALSE,FALSE,FALSE,Disabled,0.000000,0.000000,0.000000,TRUE,-8.097763,-0.152191,0.000000,-0.020111,0.025711,0.000000,0.020000,0.033000,-0.008000,2.480000,-0.050000,-0.510000,-0.092350,Hold,55.110840,50.000000,Hold,-143414.000000,143360.000000,Suck,-1800.000000,1818.181818,Speed,-1530.000000,1818.181818,Speed,Off,On,0.000000,FALSE,0,,,,,0.000000,0.000000
11:01:45.052 AM 04/09/2016,Teleop Enabled,10,FALSE,0,NO ERROR,-0.000000,-0.102666,-0.000000,-0.128333,TRUE,FALSE,FALSE,FALSE,FALSE,FALSE,Disabled,0.000000,0.000000,0.000000,TRUE,-8.097961,-0.151245,0.000000,-0.006653,0.000351,0.000000,-0.116000,-0.092000,-0.042000,2.550000,-0.060000,-0.530000,-0.107859,Hold,55.110840,50.000000,Hold,-143415.000000,143360.000000,Suck,-1792.500000,1818.181818,Speed,-1740.000000,1818.181818,Speed,Off,On,0.000000,FALSE,0,,,,,0.000000,0.000000
11:01:45.152 AM 04/09/2016,Teleop Enabled,10,FALSE,0,NO ERROR,-0.000000,-0.102666,-0.000000,-0.128333,TRUE,FALSE,FALSE,FALSE,FALSE,FALSE,Disabled,0.000000,0.000000,0.000000,TRUE,-8.098221,-0.152573,0.000000,0.022141,-0.032608,0.000000,0.043000,0.028000,-0.001000,2.550000,-0.060000,-0.580000,-0.113119,Hold,55.110840,50.000000,Hold,-143415.000000,143360.000000,Suck,-1792.500000,1818.181818,Speed,-1912.500000,1818.181818,Speed,Off,On,0.000000,FALSE,0,,,,,0.000000,0.000000
11:01:45.252 AM 04/09/2016,Teleop Enabled,10,FALSE,0,NO ERROR,-0.000000,-0.102666,-0.000000,-0.128333,TRUE,FALSE,FALSE,FALSE,FALSE,FALSE,Disabled,0.000000,0.000000,0.000000,TRUE,-8.096817,-0.152954,0.000000,0.017471,0.014709,0.000000,-0.085000,0.048000,0.129000,2.590000,-0.050000,-0.650000,-0.115026,Hold,55.110840,50.000000,Hold,-143415.000000,143360.000000,Suck,-1800.000000,1818.181818,Speed,-1837.500000,1818.181818,Speed,Off,On,0.000000,FALSE,0,,,,,0.000000,0.000000
11:01:45.352 AM 04/09/2016,Teleop Enabled,10,FALSE,0,NO ERROR,-0.000000,-0.102666,-0.000000,-0.128333,TRUE,FALSE,FALSE,FALSE,FALSE,FALSE,Disabled,0.000000,0.000000,0.000000,TRUE,-8.097107,-0.150620,0.000000,-0.001282,0.032135,0.000000,0.036000,-0.038000,0.048000,2.550000,-0.060000,-0.620000,-0.114382,Hold,55.110840,50.000000,Hold,-143415.000000,143360.000000,Suck,-1807.500000,1818.181818,Speed,-1717.500000,1818.181818,Speed,Off,On,0.000000,FALSE,0,,,,,0.000000,0.000000
11:01:45.452 AM 04/09/2016,Teleop Enabled,10,FALSE,0,NO ERROR,-0.000000,-0.102666,-0.000000,-0.128333,TRUE,FALSE,FALSE,FALSE,FALSE,FALSE,Disabled,0.000000,0.000000,0.000000,TRUE,-8.096573,-0.149124,0.000000,0.020737,0.020508,0.000000,0.075000,-0.015000,-0.026000,2.580000,-0.060000,-0.560000,-0.130635,Hold,55.110840,50.000000,Hold,-143415.000000,143360.000000,Suck,-1800.000000,1818.181818,Speed,-1612.500000,1818.181818,Speed,Off,On,0.000000,FALSE,0,,,,,0.000000,0.000000
11:01:45.552 AM 04/09/2016,Teleop Enabled,10,FALSE,0,NO ERROR,-0.000000,-0.102666,-0.000000,-0.128333,TRUE,FALSE,FALSE,FALSE,FALSE,FALSE,Disabled,0.000000,0.000000,0.000000,TRUE,-8.094513,-0.149612,0.000000,0.055603,-0.028732,0.000000,-0.026000,-0.045000,-0.034000,2.600000,-0.060000,-0.620000,-0.139727,Hold,55.110840,50.000000,Hold,-143415.000000,143360.000000,Suck,-1792.500000,1818.181818,Speed,-1702.500000,1818.181818,Speed,Off,On,0.000000,FALSE,0,,,,,0.000000,0.000000
11:01:45.652 AM 04/09/2016,Teleop Enabled,10,FALSE,0,NO ERROR,-0.000000,-0.102666,-0.000000,-0.128333,TRUE,FALSE,FALSE,FALSE,FALSE,FALSE,Disabled,0.000000,0.000000,0.000000,TRUE,-8.090683,-0.151215,0.000000,0.121170,-0.036179,0.000000,-0.082000,0.214000,0.177000,2.590000,0.000000,-0.480000,-0.108565,Hold,53.324951,50.000000,Hold,-143415.000000,143360.000000,Suck,-1785.000000,1818.181818,Speed,-1972.500000,1818.181818,Speed,Off,On,0.000000,FALSE,0,,,,,0.000000,0.000000
11:01:45.752 AM 04/09/2016,Teleop Enabled,10,FALSE,0,NO ERROR,-0.000000,-0.102666,-0.000000,-0.134750,TRUE,FALSE,TRUE,FALSE,FALSE,FALSE,Disabled,0.000000,0.000000,0.000000,TRUE,-8.083893,-0.145828,0.000000,0.052002,0.152573,0.000000,0.108000,0.081000,0.038000,2.550000,-0.070000,-0.560000,-0.152412,Hold,53.186768,50.000000,Hold,-143417.000000,143360.000000,Suck,-1312.500000,1818.181818,Speed,-1117.500000,1818.181818,Speed,Off,On,0.000000,FALSE,0,,,,,0.000000,0.000000
11:01:45.852 AM 04/09/2016,Teleop Enabled,10,FALSE,0,NO ERROR,-0.000000,-0.089833,-0.000000,-0.115500,TRUE,FALSE,TRUE,FALSE,FALSE,FALSE,Disabled,0.000000,0.000000,0.000000,TRUE,-8.079956,-0.138367,0.000000,0.095840,0.117706,0.000000,-0.017000,-0.029000,-0.116000,2.560000,-0.020000,-0.590000,-0.109663,Hold,53.541260,50.000000,Hold,-143418.000000,143360.000000,Suck,-1147.500000,1818.181818,Speed,-600.000000,1818.181818,Speed,Off,On,0.000000,FALSE,0,,,,,0.000000,0.000000
11:01:45.952 AM 04/09/2016,Teleop Enabled,10,FALSE,0,NO ERROR,-0.000000,-0.096250,-0.000000,-0.115500,TRUE,FALSE,TRUE,FALSE,FALSE,FALSE,Disabled,0.000000,0.000000,0.000000,TRUE,-8.074829,-0.134369,0.000000,0.117722,0.090866,0.000000,-0.041000,0.002000,0.137000,2.620000,-0.040000,-0.590000,-0.153714,Hold,53.541260,50.000000,Hold,-143418.000000,143360.000000,Suck,-1492.500000,1818.181818,Speed,-405.000000,1818.181818,Speed,Off,On,0.000000,FALSE,0,,,,,0.000000,0.000000
11:01:46.052 AM 04/09/2016,Teleop Enabled,10,FALSE,0,NO ERROR,-0.000000,-0.096250,-0.000000,-0.115500,TRUE,FALSE,TRUE,FALSE,FALSE,FALSE,Disabled,0.000000,0.000000,0.000000,TRUE,-8.067291,-0.132874,0.000000,0.128403,-0.023422,0.000000,-0.037000,-0.058000,-0.001000,2.540000,-0.060000,-0.510000,-0.156096,Hold,53.541260,50.000000,Hold,-143419.000000,143360.000000,Hold,-1747.500000,0.000000,Speed,-1342.500000,0.000000,Speed,Off,Off,0.000000,FALSE,0,,,,,0.000000,0.000000
11:01:46.152 AM 04/09/2016,Teleop Enabled,10,FALSE,0,NO ERROR,-0.000000,-0.096250,-0.000000,-0.121916,TRUE,FALSE,TRUE,FALSE,FALSE,FALSE,Disabled,0.000000,0.000000,0.000000,TRUE,-8.059616,-0.137009,0.000000,0.158844,-0.131134,0.000000,-0.134000,-0.060000,-0.085000,2.540000,-0.050000,-0.560000,-0.105504,Hold,53.541260,50.000000,Hold,-143419.000000,143360.000000,Hold,-1710.000000,0.000000,Speed,-1777.500000,0.000000,Speed,Off,Off,0.000000,FALSE,0,,,,,0.000000,0.000000
11:01:46.252 AM 04/09/2016,Teleop Enabled,10,FALSE,0,NO ERROR,-0.000000,-0.096250,-0.000000,-0.121916,TRUE,FALSE,TRUE,FALSE,FALSE,FALSE,Disabled,0.000000,0.000000,0.000000,TRUE,-8.052612,-0.142899,0.000000,0.134827,-0.078079,0.000000,-0.005000,0.108000,0.152000,2.460000,-0.060000,-0.550000,-0.111298,Hold,53.541260,50.000000,Hold,-143419.000000,143360.000000,Hold,-1552.500000,0.000000,Speed,-1642.500000,0.000000,Speed,Off,Off,0.000000,FALSE,0,,,,,0.000000,0.000000
11:01:46.352 AM 04/09/2016,Teleop Enabled,10,FALSE,0,NO ERROR,-0.000000,-0.096250,-0.000000,-0.121916,TRUE,FALSE,TRUE,FALSE,FALSE,FALSE,Disabled,0.000000,0.000000,0.000000,TRUE,-8.045990,-0.146271,0.000000,0.098297,-0.063141,0.000000,-0.099000,0.058000,0.003000,2.470000,-0.050000,-0.440000,-0.120376,Hold,53.541260,50.000000,HighGoal,-143419.000000,77824.000000,HighGoal,-1432.500000,-3272.727273,Speed,-1477.500000,-3272.727273,Speed,Off,Off,0.000000,FALSE,0,,,,,0.000000,0.000000
11:01:46.452 AM 04/09/2016,Teleop Enabled,10,FALSE,0,NO ERROR,-0.000000,-0.096250,-0.000000,-0.121916,TRUE,FALSE,TRUE,FALSE,FALSE,FALSE,Disabled,0.000000,0.000000,0.000000,TRUE,-8.040405,-0.148315,0.000000,0.108521,-0.037323,0.000000,-0.040000,-0.032000,0.051000,2.400000,-0.070000,-0.440000,-0.134941,Hold,53.541260,50.000000,Hold,-141971.000000,77824.000000,HighGoal,-1177.500000,-3272.727273,Speed,-1215.000000,-3272.727273,Speed,Off,Off,0.000000,FALSE,0,,,,,0.000000,0.000000
11:01:46.552 AM 04/09/2016,Teleop Enabled,10,FALSE,0,NO ERROR,-0.000000,-0.096250,-0.000000,-0.141166,TRUE,FALSE,TRUE,FALSE,FALSE,FALSE,Disabled,0.000000,0.000000,0.000000,TRUE,-8.037201,-0.150665,0.000000,-0.007553,0.000000,0.000000,-0.073000,0.001000,0.037000,2.390000,-0.060000,-0.360000,-0.170864,Hold,53.541260,50.000000,HighGoal,-137249.000000,77824.000000,HighGoal,-465.000000,-3272.727273,Speed,-817.500000,-3272.727273,Speed,Off,Off,0.000000,FALSE,0,,,,,0.000000,0.000000
11:01:46.652 AM 04/09/2016,Teleop Enabled,10,FALSE,0,NO ERROR,-0.000000,-0.096250,-0.000000,-0.141166,TRUE,FALSE,TRUE,FALSE,FALSE,FALSE,Disabled,0.000000,0.000000,0.000000,TRUE,-8.037323,-0.149780,0.000000,0.000381,0.017868,0.000000,-0.082000,-0.018000,0.029000,2.430000,-0.050000,-0.430000,-0.199407,Hold,53.541260,50.000000,Hold,-130486.000000,77824.000000,HighGoal,517.500000,-3272.727273,Speed,-487.500000,-3272.727273,Speed,Off,Off,0.000000,FALSE,0,,,,,0.000000,0.000000
11:01:46.753 AM 04/09/2016,Teleop Enabled,9,FALSE,0,NO ERROR,-0.000000,-0.096250,-0.000000,-0.141166,TRUE,FALSE,TRUE,FALSE,FALSE,FALSE,Disabled,0.000000,0.000000,0.000000,TRUE,-8.037292,-0.149857,0.000000,-0.003891,0.002380,0.000000,0.160000,0.014000,0.044000,2.390000,-0.060000,-0.390000,-0.230304,Hold,53.541260,50.000000,HighGoal,-130486.000000,77824.000000,HighGoal,997.500000,-3272.727273,Speed,-255.000000,-3272.727273,Speed,Off,Off,0.000000,FALSE,0,,,,,0.000000,0.000000
11:01:46.853 AM 04/09/2016,Teleop Enabled,10,FALSE,0,NO ERROR,-0.000000,-0.096250,-0.000000,-0.141166,TRUE,FALSE,TRUE,FALSE,FALSE,FALSE,Disabled,0.000000,0.000000,0.000000,TRUE,-8.035660,-0.148987,0.000000,0.040588,0.022079,0.000000,-0.021000,0.137000,0.056000,2.410000,-0.060000,-0.340000,-0.259865,Hold,53.541260,50.000000,Hold,-123692.000000,77824.000000,HighGoal,1507.500000,-3272.727273,Speed,285.000000,-3272.727273,Speed,Off,Off,0.000000,FALSE,0,,,,,0.000000,0.000000
11:01:46.954 AM 04/09/2016,Teleop Enabled,10,FALSE,0,NO ERROR,-0.000000,-0.096250,-0.000000,-0.141166,TRUE,FALSE,TRUE,FALSE,FALSE,FALSE,Disabled,0.000000,0.000000,0.000000,TRUE,-8.034271,-0.146637,0.000000,0.000000,0.047409,0.000000,0.061000,-0.123000,0.135000,2.380000,-0.070000,-0.250000,-0.281749,Hold,53.541260,50.000000,Hold,-116093.000000,77824.000000,HighGoal,1942.500000,-3272.727273,Speed,1515.000000,-3272.727273,Speed,Off,Off,0.000000,FALSE,0,,,,,0.000000,0.000000
11:01:47.054 AM 04/09/2016,Teleop Enabled,10,FALSE,0,NO ERROR,-0.000000,-0.096250,-0.000000,-0.141166,TRUE,FALSE,TRUE,FALSE,FALSE,FALSE,Disabled,0.000000,0.000000,0.000000,TRUE,-8.034424,-0.147675,0.000000,-0.026749,-0.061325,0.000000,-0.135000,0.284000,0.045000,2.360000,-0.070000,-0.230000,-0.314598,Hold,53.541260,50.000000,Hold,-107699.000000,77824.000000,HighGoal,2302.500000,-3272.727273,Speed,1830.000000,-3272.727273,Speed,Off,Off,0.000000,FALSE,0,,,,,0.000000,0.000000
11:01:47.154 AM 04/09/2016,Teleop Enabled,10,FALSE,0,NO ERROR,-0.000000,-0.096250,-0.000000,-0.141166,TRUE,FALSE,TRUE,FALSE,FALSE,FALSE,Disabled,0.000000,0.000000,0.000000,TRUE,-8.036423,-0.148743,0.000000,-0.008377,-0.055573,0.000000,-0.232000,0.287000,0.133000,2.380000,-0.070000,-0.250000,-0.343516,Hold,53.541260,50.000000,Hold,-98751.000000,77824.000000,HighGoal,2595.000000,-3272.727273,Speed,2182.500000,-3272.727273,Speed,Off,Off,0.000000,FALSE,0,,,,,0.000000,0.000000
11:01:47.254 AM 04/09/2016,Teleop Enabled,10,FALSE,0,NO ERROR,-0.000000,-0.096250,-0.000000,-0.141166,TRUE,FALSE,TRUE,FALSE,FALSE,FALSE,Disabled,0.000000,0.000000,0.000000,TRUE,-8.038589,-0.149948,0.000000,-0.051758,-0.033539,0.000000,0.080000,0.132000,-0.076000,2.350000,-0.070000,-0.270000,-0.362498,Hold,53.541260,50.000000,Hold,-89318.000000,77824.000000,HighGoal,2707.500000,-3272.727273,Speed,2490.000000,-3272.727273,Speed,Off,Off,0.000000,FALSE,0,,,,,0.000000,0.000000
11:01:47.354 AM 04/09/2016,Teleop Enabled,10,FALSE,0,NO ERROR,-0.000000,-0.096250,-0.000000,-0.141166,TRUE,FALSE,TRUE,FALSE,FALSE,FALSE,Disabled,0.000000,0.000000,0.000000,TRUE,-8.041519,-0.153336,0.000000,-0.030182,-0.155228,0.000000,0.033000,-0.180000,0.195000,2.380000,-0.060000,-0.300000,-0.365362,Hold,53.541260,50.000000,Hold,-79404.000000,77824.000000,HighGoal,2430.000000,-3272.727273,Speed,2700.000000,-3272.727273,Speed,Off,Off,0.000000,FALSE,0,,,,,0.000000,0.000000
11:01:47.454 AM 04/09/2016,Teleop Enabled,10,FALSE,0,NO ERROR,-0.000000,-0.096250,-0.000000,-0.141166,TRUE,FALSE,TRUE,FALSE,FALSE,FALSE,Disabled,0.000000,0.000000,0.000000,TRUE,-8.043488,-0.161606,0.000000,-0.078110,-0.126068,0.000000,-0.022000,0.131000,-0.108000,2.380000,-0.070000,-0.230000,-0.387026,Hold,53.541260,50.000000,Hold,-79404.000000,77824.000000,HighGoal,2370.000000,-3272.727273,Speed,2865.000000,-3272.727273,Speed,Off,Off,0.000000,FALSE,0,,,,,0.000000,0.000000
11:01:47.554 AM 04/09/2016,Teleop Enabled,7,FALSE,0,NO ERROR,-0.000000,-0.057750,-0.000000,-0.051333,TRUE,FALSE,TRUE,FALSE,FALSE,FALSE,Disabled,0.000000,0.000000,0.000000,TRUE,-8.047180,-0.166687,0.000000,-0.053635,-0.091476,0.000000,0.235000,-0.117000,0.106000,2.320000,-0.050000,-0.260000,-0.366660,Hold,53.541260,50.000000,Hold,-77955.000000,77824.000000,HighGoal,2662.500000,-3272.727273,Speed,3030.000000,-3272.727273,Speed,Off,Off,0.000000,FALSE,0,,,,,0.000000,0.000000
11:01:47.654 AM 04/09/2016,Teleop Enabled,9,FALSE,0,NO ERROR,-0.370079,-0.154000,0.370079,-0.256666,TRUE,FALSE,TRUE,FALSE,FALSE,FALSE,Disabled,0.000000,0.000000,0.000000,TRUE,-8.047806,-0.171127,0.000000,0.004105,-0.127182,0.000000,-0.133000,-0.120000,0.077000,2.380000,-0.050000,0.400000,-0.413190,Hold,53.541260,50.000000,Hold,-77921.000000,77824.000000,HighGoal,2970.000000,-3272.727273,Speed,3142.500000,-3272.727273,Speed,Off,Off,0.000000,FALSE,0,,,,,0.000000,0.000000
11:01:47.754 AM 04/09/2016,Teleop Enabled,10,FALSE,0,NO ERROR,-0.377953,-0.853415,0.377953,-0.808498,TRUE,FALSE,TRUE,FALSE,FALSE,FALSE,Disabled,0.000000,0.000000,0.000000,TRUE,-8.045319,-0.179855,0.000000,0.103638,-0.151535,0.000000,0.020000,-0.013000,-0.085000,2.210000,0.280000,1.200000,-0.054079,Hold,53.541260,50.000000,Hold,-77922.000000,77824.000000,HighGoal,3135.000000,-3272.727273,Speed,3157.500000,-3272.727273,Speed,Off,Off,0.000000,FALSE,0,,,,,0.000000,0.000000
11:01:47.854 AM 04/09/2016,Teleop Enabled,10,FALSE,0,NO ERROR,-0.377953,-2.027662,0.377953,-1.950662,TRUE,FALSE,TRUE,FALSE,FALSE,FALSE,Disabled,0.000000,0.000000,0.000000,TRUE,-8.036331,-0.180908,0.000000,0.234634,0.017578,0.000000,0.148000,-0.055000,0.068000,2.290000,0.200000,1.540000,-0.066655,Hold,53.541260,50.000000,Hold,-77920.000000,77824.000000,HighGoal,3217.500000,-3272.727273,Speed,3127.500000,-3272.727273,Speed,Off,Off,0.000000,FALSE,0,,,,,0.000000,0.000000
11:01:47.954 AM 04/09/2016,Teleop Enabled,10,FALSE,0,NO ERROR,-0.377953,-4.068157,0.377953,-3.914158,TRUE,FALSE,TRUE,FALSE,FALSE,FALSE,Disabled,0.000000,0.000000,0.000000,TRUE,-8.021378,-0.180252,0.000000,0.359299,0.021484,0.000000,0.152000,-0.074000,0.156000,2.210000,0.010000,2.200000,-0.264605,Hold,53.541260,50.000000,Hold,-77920.000000,77824.000000,HighGoal,3195.000000,-3272.727273,Speed,3082.500000,-3272.727273,Speed,Off,Off,0.000000,FALSE,0,,,,,0.000000,0.000000
11:01:48.054 AM 04/09/2016,Teleop Enabled,9,FALSE,0,NO ERROR,-0.377953,-6.615568,0.377953,-6.429485,TRUE,FALSE,TRUE,FALSE,FALSE,FALSE,Disabled,0.000000,0.000000,0.000000,TRUE,-7.999252,-0.178345,0.000000,0.498917,0.034225,0.000000,0.015000,0.074000,-0.041000,2.330000,-0.100000,2.360000,-0.391897,Hold,53.541260,50.000000,Hold,-77920.000000,77824.000000,HighGoal,3172.500000,-3272.727273,Speed,3120.000000,-3272.727273,Speed,Off,Off,0.000000,FALSE,0,,,,,0.000000,0.000000
11:01:48.154 AM 04/09/2016,Teleop Enabled,10,FALSE,0,NO ERROR,-0.377953,-9.547978,0.377953,-9.355478,TRUE,FALSE,TRUE,FALSE,FALSE,FALSE,Disabled,0.000000,0.000000,0.000000,TRUE,-7.971436,-0.177719,0.000000,0.556503,0.000610,0.000000,-0.106000,0.134000,0.036000,2.320000,-0.210000,2.710000,-0.512494,Hold,53.541260,50.000000,Hold,-77920.000000,77824.000000,HighGoal,3172.500000,-3272.727273,Speed,3127.500000,-3272.727273,Speed,Off,Off,0.000000,FALSE,0,,,,,0.000000,0.000000
11:01:48.255 AM 04/09/2016,Teleop Enabled,10,FALSE,0,NO ERROR,-0.377953,-12.903886,0.377953,-12.647220,TRUE,FALSE,TRUE,FALSE,FALSE,FALSE,Disabled,0.000000,0.000000,0.000000,TRUE,-7.945435,-0.177307,0.000000,0.513168,0.026443,0.000000,0.172000,-0.066000,0.060000,2.280000,-0.380000,2.860000,-0.659663,Hold,53.541260,50.000000,Hold,-77920.000000,77824.000000,HighGoal,3180.000000,-3272.727273,Speed,3142.500000,-3272.727273,Speed,Off,Off,0.000000,FALSE,0,,,,,0.000000,0.000000
11:01:48.355 AM 04/09/2016,Teleop Enabled,10,FALSE,0,NO ERROR,-0.377953,-16.574211,0.377953,-16.272629,TRUE,FALSE,TRUE,FALSE,FALSE,FALSE,Disabled,0.000000,0.000000,0.000000,TRUE,-7.913696,-0.174622,0.000000,0.503296,0.044479,0.000000,-0.001000,-0.025000,0.000000,2.300000,-0.510000,2.840000,-0.842239,Hold,53.541260,50.000000,Hold,-77920.000000,77824.000000,HighGoal,3195.000000,-3272.727273,Speed,3120.000000,-3272.727273,Speed,Off,Off,0.000000,FALSE,0,,,,,0.000000,0.000000
11:01:48.455 AM 04/09/2016,Teleop Enabled,9,FALSE,0,NO ERROR,-0.480315,-20.507619,0.480315,-20.129036,TRUE,FALSE,TRUE,FALSE,FALSE,FALSE,Disabled,0.000000,0.000000,0.000000,TRUE,-7.889450,-0.171341,0.000000,0.481827,0.080322,0.000000,-0.009000,-0.039000,0.221000,2.230000,-0.720000,2.970000,-1.020639,Hold,53.541260,50.000000,Hold,-77919.000000,77824.000000,HighGoal,3195.000000,-3272.727273,Speed,3135.000000,-3272.727273,Speed,Off,Off,0.000000,FALSE,0,,,,,0.000000,0.000000
11:01:48.555 AM 04/09/2016,Teleop Enabled,10,FALSE,0,NO ERROR,-0.480315,-24.935108,0.480315,-24.434610,FALSE,FALSE,TRUE,FALSE,FALSE,FALSE,Disabled,0.000000,0.000000,0.000000,TRUE,-7.862915,-0.166351,0.000000,0.576263,0.104523,0.000000,0.078000,0.078000,0.359000,2.270000,-1.040000,3.180000,-1.318297,Hold,53.541260,50.000000,Hold,-77919.000000,77824.000000,HighGoal,3180.000000,-3272.727273,Speed,3120.000000,-3272.727273,Speed,Off,Off,0.000000,FALSE,0,,,,,0.000000,0.000000
11:01:48.655 AM 04/09/2016,Teleop Enabled,9,FALSE,0,NO ERROR,-0.488189,-29.766847,0.488189,-29.086682,FALSE,FALSE,TRUE,FALSE,FALSE,FALSE,Disabled,0.000000,0.000000,0.000000,TRUE,-7.831863,-0.161118,0.000000,0.643158,0.082245,0.000000,0.038000,0.144000,0.078000,2.320000,-1.480000,3.140000,-1.746616,Hold,53.541260,50.000000,Hold,-77919.000000,77824.000000,HighGoal,3180.000000,-3272.727273,Speed,3142.500000,-3272.727273,Speed,Off,Off,0.000000,FALSE,0,,,,,0.000000,0.000000
11:01:48.755 AM 04/09/2016,Teleop Enabled,10,FALSE,0,NO ERROR,-0.480315,-34.970752,0.480315,-34.098087,FALSE,FALSE,TRUE,FALSE,FALSE,FALSE,Disabled,0.000000,0.000000,0.000000,TRUE,-7.798813,-0.156708,0.000000,0.667450,0.097183,0.000000,0.055000,-0.130000,-0.175000,2.330000,-1.930000,3.250000,-2.201864,Hold,53.541260,50.000000,Hold,-77919.000000,77824.000000,HighGoal,3180.000000,-3272.727273,Speed,3135.000000,-3272.727273,Speed,Off,Off,0.000000,FALSE,0,,,,,0.000000,0.000000
11:01:48.855 AM 04/09/2016,Teleop Enabled,10,FALSE,0,NO ERROR,-0.480315,-40.418489,0.480315,-39.436741,FALSE,FALSE,TRUE,FALSE,FALSE,FALSE,Disabled,0.000000,0.000000,0.000000,TRUE,-7.765381,-0.151093,0.000000,0.659164,0.134949,0.000000,-0.042000,-0.197000,-0.179000,2.410000,-2.340000,3.430000,-2.609383,Hold,53.541260,50.000000,Hold,-77919.000000,77824.000000,HighGoal,3187.500000,-3272.727273,Speed,3120.000000,-3272.727273,Speed,Off,Off,0.000000,FALSE,0,,,,,0.000000,0.000000
11:01:48.957 AM 04/09/2016,Teleop Enabled,10,FALSE,0,NO ERROR,-0.480315,-46.154975,0.480315,-45.012811,FALSE,FALSE,TRUE,FALSE,FALSE,FALSE,Disabled,0.000000,0.000000,0.000000,TRUE,-7.734589,-0.145203,0.000000,0.589996,0.121597,0.000000,-0.042000,-0.197000,-0.179000,2.420000,-2.680000,3.590000,-3.043063,Hold,53.541260,50.000000,Hold,-77919.000000,77824.000000,HighGoal,3187.500000,-3272.727273,Speed,3135.000000,-3272.727273,Speed,Off,Off,0.000000,FALSE,0,,,,,0.000000,0.000000
11:01:49.056 AM 04/09/2016,Teleop Enabled,9,FALSE,0,NO ERROR,-0.480315,-52.205878,0.480315,-50.864798,FALSE,FALSE,TRUE,FALSE,FALSE,FALSE,Disabled,0.000000,0.000000,0.000000,TRUE,-7.706924,-0.139191,0.000000,0.542542,0.123627,0.000000,-0.060000,0.115000,0.038000,2.390000,-3.130000,3.570000,-3.505973,Hold,53.541260,50.000000,Hold,-77919.000000,77824.000000,HighGoal,3187.500000,-3272.727273,Speed,3142.500000,-3272.727273,Speed,Off,Off,0.000000,FALSE,0,,,,,0.000000,0.000000
11:01:49.157 AM 04/09/2016,Teleop Enabled,10,FALSE,0,NO ERROR,-0.488189,-58.404363,0.488189,-56.870784,FALSE,FALSE,TRUE,FALSE,FALSE,FALSE,Disabled,0.000000,0.000000,0.000000,TRUE,-7.681961,-0.131363,0.000000,0.472122,0.168213,0.000000,-0.147000,-0.022000,-0.253000,2.390000,-3.130000,3.570000,-3.989884,Hold,53.541260,50.000000,Hold,-77919.000000,77824.000000,HighGoal,3195.000000,-3272.727273,Speed,3150.000000,-3272.727273,Speed,Off,Off,0.000000,FALSE,0,,,,,0.000000,0.000000
11:01:49.256 AM 04/09/2016,Teleop Enabled,9,FALSE,0,NO ERROR,-0.488189,-64.564349,0.488189,-62.863936,FALSE,FALSE,TRUE,FALSE,FALSE,FALSE,Disabled,0.000000,0.000000,0.000000,TRUE,-7.661041,-0.122482,0.000000,0.406952,0.172241,0.000000,-0.159000,-0.033000,0.031000,2.490000,-4.040000,3.230000,-4.435991,Hold,53.541260,50.000000,Hold,-77919.000000,77824.000000,HighGoal,3195.000000,-3272.727273,Speed,3120.000000,-3272.727273,Speed,Off,Off,0.000000,FALSE,0,,,,,0.000000,0.000000
11:01:49.356 AM 04/09/2016,Teleop Enabled,10,FALSE,0,NO ERROR,-0.000000,-69.723337,-0.000000,-67.958758,FALSE,FALSE,TRUE,FALSE,FALSE,FALSE,Disabled,0.000000,0.000000,0.000000,TRUE,-7.639740,-0.110596,0.000000,0.189713,0.197769,0.000000,0.027000,0.217000,0.009000,2.490000,-4.040000,3.230000,-4.964988,Hold,53.498047,50.000000,Hold,-77919.000000,77824.000000,HighGoal,3195.000000,-3272.727273,Speed,3157.500000,-3272.727273,Speed,Off,Off,0.000000,FALSE,0,,,,,0.000000,0.000000
11:01:49.456 AM 04/09/2016,Teleop Enabled,9,FALSE,0,NO ERROR,-0.000000,-74.324076,-0.000000,-72.334914,TRUE,FALSE,TRUE,FALSE,FALSE,FALSE,Disabled,0.000000,0.000000,0.000000,TRUE,-7.639740,-0.110596,0.000000,0.189713,0.197769,0.000000,-0.603000,0.267000,-0.141000,2.580000,-4.650000,1.470000,-5.446430,Hold,53.498047,50.000000,Hold,-77919.000000,77824.000000,HighGoal,3202.500000,-3272.727273,Speed,3172.500000,-3272.727273,Speed,Off,Off,0.000000,FALSE,0,,,,,0.000000,0.000000
11:01:49.556 AM 04/09/2016,Teleop Enabled,8,FALSE,0,NO ERROR,-0.000000,-78.071401,-0.000000,-75.941072,TRUE,FALSE,TRUE,FALSE,FALSE,FALSE,Disabled,0.000000,0.000000,0.000000,TRUE,-7.641327,-0.098953,0.000000,-0.154373,0.238754,0.000000,-0.253000,-0.234000,-0.278000,2.600000,-5.060000,-0.950000,-5.744631,Hold,53.629395,50.000000,Hold,-77919.000000,77824.000000,HighGoal,3225.000000,-3272.727273,Speed,3165.000000,-3272.727273,Speed,Off,Off,0.000000,FALSE,0,,,,,0.000000,0.000000
11:01:49.656 AM 04/09/2016,Teleop Enabled,10,FALSE,0,NO ERROR,-0.000000,-80.849811,-0.000000,-78.700233,TRUE,FALSE,TRUE,FALSE,FALSE,FALSE,Disabled,0.000000,0.000000,0.000000,TRUE,-7.658081,-0.089432,0.000000,-0.462158,0.169174,0.000000,-0.402000,-0.139000,0.152000,2.640000,-5.300000,-0.880000,-5.849870,Hold,53.650635,50.000000,Hold,-77925.000000,77824.000000,HighGoal,3225.000000,-3272.727273,Speed,3172.500000,-3272.727273,Speed,Off,Off,0.000000,FALSE,0,,,,,0.000000,0.000000
11:01:49.758 AM 04/09/2016,Teleop Enabled,10,FALSE,0,NO ERROR,-0.000000,-80.849811,-0.000000,-78.700233,TRUE,FALSE,TRUE,FALSE,FALSE,FALSE,Disabled,0.000000,0.000000,0.000000,TRUE,-7.690933,-0.080063,0.000000,-0.750702,0.198013,0.000000,-0.114000,0.229000,-0.069000,2.580000,-5.360000,-1.950000,-5.849870,Hold,53.585205,50.000000,Hold,-77925.000000,77824.000000,HighGoal,3225.000000,-3272.727273,Speed,3187.500000,-3272.727273,Speed,Off,Off,0.000000,FALSE,0,,,,,0.000000,0.000000
11:01:49.857 AM 04/09/2016,Teleop Enabled,10,FALSE,0,NO ERROR,-0.000000,-82.967306,-0.000000,-80.804894,TRUE,FALSE,TRUE,FALSE,FALSE,FALSE,Disabled,0.000000,0.000000,0.000000,TRUE,-7.731674,-0.070251,0.000000,-0.848175,0.172195,0.000000,-0.189000,-0.118000,-0.135000,2.580000,-5.380000,-2.350000,-5.894248,Hold,53.707520,50.000000,Hold,-77925.000000,77824.000000,HighGoal,3217.500000,-3272.727273,Speed,3157.500000,-3272.727273,Speed,Off,Off,0.000000,FALSE,0,,,,,0.000000,0.000000
11:01:49.958 AM 04/09/2016,Teleop Enabled,10,FALSE,0,NO ERROR,0.905512,-84.590719,-0.905512,-82.415474,TRUE,FALSE,TRUE,FALSE,FALSE,FALSE,Disabled,0.000000,0.000000,0.000000,TRUE,-7.778336,-0.061798,0.000000,-1.008148,0.164749,0.000000,-0.051000,-0.013000,0.135000,2.610000,-5.410000,-2.190000,-5.949005,Hold,53.707520,50.000000,Hold,-77925.000000,77824.000000,HighGoal,3217.500000,-3272.727273,Speed,3157.500000,-3272.727273,Speed,Off,Off,0.000000,FALSE,0,,,,,0.000000,0.000000
11:01:50.059 AM 04/09/2016,Teleop Enabled,9,FALSE,0,NO ERROR,0.952756,-84.937218,-0.952756,-82.498890,FALSE,FALSE,TRUE,FALSE,FALSE,FALSE,Disabled,0.000000,0.000000,0.000000,TRUE,-7.850128,-0.052505,0.000000,-1.437332,0.120255,0.000000,-0.528000,-0.002000,0.166000,2.770000,-5.390000,-3.910000,-5.969403,Hold,53.707764,50.000000,Hold,-77924.000000,77824.000000,HighGoal,3150.000000,-3272.727273,Speed,3082.500000,-3272.727273,Speed,Off,Off,0.000000,FALSE,0,,,,,0.000000,0.000000
11:01:50.159 AM 04/09/2016,Teleop Enabled,11,FALSE,0,NO ERROR,-0.000000,-82.980139,-0.000000,-79.290565,FALSE,FALSE,TRUE,FALSE,FALSE,FALSE,Disabled,0.000000,0.000000,0.000000,TRUE,-7.931290,-0.047668,0.000000,-1.723679,0.083267,0.000000,-0.085000,-0.200000,-0.099000,2.740000,-4.990000,-7.390000,-5.575250,Hold,53.879883,50.000000,Hold,-77924.000000,77824.000000,HighGoal,3150.000000,-3272.727273,Speed,2902.500000,-3272.727273,Speed,Off,Off,0.000000,FALSE,0,,,,,0.000000,0.000000
11:01:50.259 AM 04/09/2016,Teleop Enabled,10,FALSE,0,NO ERROR,-0.000000,-79.842397,-0.000000,-75.292991,FALSE,FALSE,TRUE,FALSE,FALSE,FALSE,Disabled,0.000000,0.000000,0.000000,TRUE,-8.023468,-0.045502,0.000000,-1.900284,-0.002518,0.000000,0.143000,0.144000,0.289000,2.460000,-4.340000,-6.630000,-5.066774,Hold,54.337891,50.000000,Hold,-77973.000000,77824.000000,HighGoal,2977.500000,-3272.727273,Speed,2902.500000,-3272.727273,Speed,Off,Off,0.000000,FALSE,0,,,,,0.000000,0.000000
11:01:50.359 AM 04/09/2016,Teleop Enabled,9,FALSE,0,NO ERROR,-0.000000,-77.346319,-0.000000,-72.912413,FALSE,FALSE,TRUE,FALSE,FALSE,FALSE,Disabled,0.000000,0.000000,0.000000,TRUE,-8.111221,-0.046249,0.000000,-1.636673,-0.028198,0.000000,0.247000,-0.023000,-0.471000,2.220000,-4.240000,-3.990000,-4.937850,Hold,54.161133,50.000000,Hold,-77973.000000,77824.000000,HighGoal,3022.500000,-3272.727273,Speed,2932.500000,-3272.727273,Speed,Off,Off,0.000000,FALSE,0,,,,,0.000000,0.000000
11:01:50.459 AM 04/09/2016,Teleop Enabled,10,FALSE,0,NO ERROR,-0.000000,-75.158241,-0.000000,-70.762835,FALSE,FALSE,TRUE,FALSE,FALSE,FALSE,Disabled,0.000000,0.000000,0.000000,TRUE,-8.187485,-0.046143,0.000000,-1.451462,0.037659,0.000000,0.181000,0.038000,-0.040000,2.480000,-4.160000,-3.890000,-4.847487,Hold,54.007812,50.000000,Hold,-77905.000000,77824.000000,HighGoal,3195.000000,-3272.727273,Speed,3105.000000,-3272.727273,Speed,Off,Off,0.000000,FALSE,0,,,,,0.000000,0.000000
