Time,Robot Mode,Loop Time,Error Status,Error Code,Error Source,Left Motor Output,Left Motor Encoder,Right Motor Output,Right Motor Encoder,Is Level,Is Stalled,Ball Detector Photoeye,Vision Enabled,Vision Teleop Control,Vision Auto Control,Vision Current State,Vision X Output,Vision NavX Error,Vision NavX Target,NavX Connection Status,NavX Displacement X,NavX Displacement Y,NavX Displacement Z,NavX Velocity X,NavX Velocity Y,NavX Velocity Z,NavX Acceleration X,NavX Acceleration Y,NavX Acceleration Z,NavX Pitch,NavX Yaw,NavX Roll,Gyro Angle,Roller Arm State,Roller Arm Actual,Roller Arm Desired,Shooter Arm State,Shooter Arm Actual,Shooter Arm Desired,Shooter State,Actual RPM Left,Desired RPM Left,Control Mode Left,Actual RPM Right,Desired RPM Right,Control Mode Right,Ball Shooter Cylinder,Ball Halo Cylinder,Scaler Motor Output,Scaler Solenoid Fire,Auto To Run,Auto Current File,Auto File Status,Auto Current Command,Auto Trimmed Command,Shooter Amps Left,Shooter Amps Right
02:38:56.154 PM 04/02/2016,Autonomous Disabled,10,TRUE,-44087,NetComm_CAN_Receive.vi:5470001<APPEND>  <b>Complete call chain:</b>      NetComm_CAN_Receive.vi:5470001      WPI_CAN_PDPReceive.vi      WPI_Power Get PDP Currents.vi      Periodic Tasks.vi      Robot Main.vi,-0.000000,0.000000,-0.000000,0.000000,TRUE,FALSE,FALSE,FALSE,FALSE,FALSE,Disabled,0.000000,0.000000,0.000000,TRUE,1.264984,-0.991867,0.000000,0.021255,-0.038681,0.000000,0.019000,-0.052000,-0.013000,3.200000,-0.180000,-0.500000,3.743372,Hold,0.950684,0.000000,Hold,-165.000000,2.000000,Suck,-1762.500000,1818.181818,Speed,-1785.000000,1818.181818,Speed,Off,Off,0.000000,FALSE,0,,,,,0.000000,0.000000
02:38:56.254 PM 04/02/2016,Teleop Disabled,10,TRUE,-44087,NetComm_CAN_Receive.vi:5470001<APPEND>  <b>Complete call chain:</b>      NetComm_CAN_Receive.vi:5470001      WPI_CAN_PDPReceive.vi      WPI_Power Get PDP Currents.vi      Periodic Tasks.vi      Robot Main.vi,-0.000000,0.000000,-0.000000,0.000000,TRUE,FALSE,FALSE,TRUE,FALSE,FALSE,Disabled,0.000000,0.000000,0.000000,TRUE,1.279755,-0.996399,0.000000,0.000000,0.000000,0.000000,0.019000,-0.052000,-0.013000,0.000000,-0.170000,-0.700000,0.001501,ResetBack,0.957764,-0.000049,ResetBack,-4179.000000,-0.250000,Empty,0.000000,0.000000,Speed,0.000000,0.000000,Speed,Off,Off,0.000000,FALSE,0,,,,,0.000000,0.000000
02:38:56.356 PM 04/02/2016,Teleop Disabled,10,TRUE,-44087,NetComm_CAN_Receive.vi:5470001<APPEND>  <b>Complete call chain:</b>      NetComm_CAN_Receive.vi:5470001      WPI_CAN_PDPReceive.vi      WPI_Power Get PDP Currents.vi      Periodic Tasks.vi      Robot Main.vi,-0.000000,0.000000,-0.000000,0.000000,TRUE,FALSE,FALSE,TRUE,FALSE,FALSE,Disabled,0.000000,0.000000,0.000000,TRUE,1.279755,-0.996399,0.000000,0.000000,0.000000,0.000000,-0.002000,-0.005000,0.017000,0.000000,-0.170000,-0.690000,0.004444,ResetBack,0.957764,-0.000049,ResetBack,-4179.000000,-0.250000,Empty,0.000000,0.000000,Speed,0.000000,0.000000,Speed,Off,Off,0.000000,FALSE,0,,,,,0.000000,0.000000
02:38:56.457 PM 04/02/2016,Teleop Disabled,9,TRUE,-44087,NetComm_CAN_Receive.vi:5470001<APPEND>  <b>Complete call chain:</b>      NetComm_CAN_Receive.vi:5470001      WPI_CAN_PDPReceive.vi      WPI_Power Get PDP Currents.vi      Periodic Tasks.vi      Robot Main.vi,-0.000000,0.000000,-0.000000,0.000000,TRUE,FALSE,FALSE,TRUE,FALSE,FALSE,Disabled,0.000000,0.000000,0.000000,TRUE,1.279755,-0.996399,0.000000,0.000000,0.000000,0.000000,-0.002000,-0.005000,0.017000,0.000000,-0.190000,-0.660000,0.001422,ResetBack,0.957764,-0.000049,ResetBack,-4179.000000,-0.250000,Empty,0.000000,0.000000,Speed,0.000000,0.000000,Speed,Off,Off,0.000000,FALSE,0,,,,,0.000000,0.000000
02:38:56.561 PM 04/02/2016,Teleop Disabled,9,TRUE,-44087,NetComm_CAN_Receive.vi:5470001<APPEND>  <b>Complete call chain:</b>      NetComm_CAN_Receive.vi:5470001      WPI_CAN_PDPReceive.vi      WPI_Power Get PDP Currents.vi      Periodic Tasks.vi      Robot Main.vi,-0.000000,0.000000,-0.000000,0.000000,TRUE,FALSE,FALSE,TRUE,FALSE,FALSE,Disabled,0.000000,0.000000,0.000000,TRUE,1.279755,-0.996399,0.000000,0.000000,0.000000,0.000000,-0.009000,-0.002000,0.019000,0.000000,-0.200000,-0.620000,-0.011774,ResetBack,0.957764,-0.000049,ResetBack,-4179.000000,-0.250000,Empty,0.000000,0.000000,Speed,0.000000,0.000000,Speed,Off,Off,0.000000,FALSE,0,,,,,0.000000,0.000000
02:38:56.662 PM 04/02/2016,Teleop Disabled,11,TRUE,-44087,NetComm_CAN_Receive.vi:5470001<APPEND>  <b>Complete call chain:</b>      NetComm_CAN_Receive.vi:5470001      WPI_CAN_PDPReceive.vi      WPI_Power Get PDP Currents.vi      Periodic Tasks.vi      Robot Main.vi,-0.000000,0.000000,-0.000000,0.000000,TRUE,FALSE,FALSE,TRUE,FALSE,FALSE,Disabled,0.000000,0.000000,0.000000,TRUE,1.279755,-0.996399,0.000000,0.000000,0.000000,0.000000,0.001000,0.001000,0.004000,0.000000,-0.210000,-0.620000,-0.012741,ResetBack,0.957764,-0.000049,ResetBack,-4179.000000,-0.250000,Empty,0.000000,0.000000,Speed,0.000000,0.000000,Speed,Off,Off,0.000000,FALSE,0,,,,,0.000000,0.000000
02:38:56.762 PM 04/02/2016,Teleop Disabled,10,TRUE,-44087,NetComm_CAN_Receive.vi:5470001<APPEND>  <b>Complete call chain:</b>      NetComm_CAN_Receive.vi:5470001      WPI_CAN_PDPReceive.vi      WPI_Power Get PDP Currents.vi      Periodic Tasks.vi      Robot Main.vi,-0.000000,0.000000,-0.000000,0.000000,TRUE,FALSE,FALSE,TRUE,FALSE,FALSE,Disabled,0.000000,0.000000,0.000000,TRUE,1.279892,-0.996521,0.000000,0.009445,-0.008057,0.000000,0.001000,0.001000,0.004000,0.010000,-0.250000,-0.590000,-0.004637,ResetBack,0.957764,-0.000049,ResetBack,-4179.000000,-0.250000,Empty,0.000000,0.000000,Speed,0.000000,0.000000,Speed,Off,Off,0.000000,FALSE,0,,,,,0.000000,0.000000
02:38:56.862 PM 04/02/2016,Teleop Disabled,9,TRUE,-44087,NetComm_CAN_Receive.vi:5470001<APPEND>  <b>Complete call chain:</b>      NetComm_CAN_Receive.vi:5470001      WPI_CAN_PDPReceive.vi      WPI_Power Get PDP Currents.vi      Periodic Tasks.vi      Robot Main.vi,-0.000000,0.000000,-0.000000,0.000000,TRUE,FALSE,FALSE,TRUE,FALSE,FALSE,Disabled,0.000000,0.000000,0.000000,TRUE,1.279999,-0.996613,0.000000,0.000000,0.000000,0.000000,-0.005000,0.012000,0.005000,0.000000,-0.200000,-0.590000,-0.008107,ResetBack,0.957764,-0.000049,ResetBack,-4179.000000,-0.250000,Empty,0.000000,0.000000,Speed,0.000000,0.000000,Speed,Off,Off,0.000000,FALSE,0,,,,,0.000000,0.000000
02:38:56.963 PM 04/02/2016,Teleop Disabled,10,TRUE,-44087,NetComm_CAN_Receive.vi:5470001<APPEND>  <b>Complete call chain:</b>      NetComm_CAN_Receive.vi:5470001      WPI_CAN_PDPReceive.vi      WPI_Power Get PDP Currents.vi      Periodic Tasks.vi      Robot Main.vi,-0.000000,0.000000,-0.000000,0.000000,TRUE,FALSE,FALSE,TRUE,FALSE,FALSE,Disabled,0.000000,0.000000,0.000000,TRUE,1.279999,-0.996613,0.000000,0.000000,0.000000,0.000000,0.002000,-0.005000,0.012000,0.000000,-0.190000,-0.640000,-0.029155,ResetBack,0.957764,-0.000049,ResetBack,-4179.000000,-0.250000,Empty,0.000000,0.000000,Speed,0.000000,0.000000,Speed,Off,Off,0.000000,FALSE,0,,,,,0.000000,0.000000
02:38:57.067 PM 04/02/2016,Teleop Disabled,9,TRUE,-44087,NetComm_CAN_Receive.vi:5470001<APPEND>  <b>Complete call chain:</b>      NetComm_CAN_Receive.vi:5470001      WPI_CAN_PDPReceive.vi      WPI_Power Get PDP Currents.vi      Periodic Tasks.vi      Robot Main.vi,-0.000000,0.000000,-0.000000,0.000000,TRUE,FALSE,FALSE,TRUE,FALSE,FALSE,Disabled,0.000000,0.000000,0.000000,TRUE,1.279999,-0.996613,0.000000,0.000000,0.000000,0.000000,0.003000,0.004000,0.005000,0.000000,-0.230000,-0.570000,-0.021447,ResetBack,0.957764,-0.000049,ResetBack,-4179.000000,-0.250000,Empty,0.000000,0.000000,Speed,0.000000,0.000000,Speed,Off,Off,0.000000,FALSE,0,,,,,0.000000,0.000000
02:38:57.165 PM 04/02/2016,Teleop Disabled,10,TRUE,-44087,NetComm_CAN_Receive.vi:5470001<APPEND>  <b>Complete call chain:</b>      NetComm_CAN_Receive.vi:5470001      WPI_CAN_PDPReceive.vi      WPI_Power Get PDP Currents.vi      Periodic Tasks.vi      Robot Main.vi,-0.000000,0.000000,-0.000000,0.000000,TRUE,FALSE,FALSE,TRUE,FALSE,FALSE,Disabled,0.000000,0.000000,0.000000,TRUE,1.279861,-0.996613,0.000000,-0.009369,0.000000,0.000000,0.004000,0.003000,0.000000,0.020000,-0.240000,-0.590000,-0.010503,ResetBack,0.957764,-0.000049,ResetBack,-4179.000000,-0.250000,Empty,0.000000,0.000000,Speed,0.000000,0.000000,Speed,Off,Off,0.000000,FALSE,0,,,,,0.000000,0.000000
02:38:57.268 PM 04/02/2016,Teleop Disabled,10,TRUE,-44087,NetComm_CAN_Receive.vi:5470001<APPEND>  <b>Complete call chain:</b>      NetComm_CAN_Receive.vi:5470001      WPI_CAN_PDPReceive.vi      WPI_Power Get PDP Currents.vi      Periodic Tasks.vi      Robot Main.vi,-0.000000,0.000000,-0.000000,0.000000,TRUE,FALSE,FALSE,TRUE,FALSE,FALSE,Disabled,0.000000,0.000000,0.000000,TRUE,1.279770,-0.996613,0.000000,0.000000,0.000000,0.000000,0.007000,0.008000,0.003000,0.010000,-0.210000,-0.570000,-0.020697,ResetBack,0.957764,-0.000049,ResetBack,-4179.000000,-0.250000,Empty,0.000000,0.000000,Speed,0.000000,0.000000,Speed,Off,Off,0.000000,FALSE,0,,,,,0.000000,0.000000
02:38:57.369 PM 04/02/2016,Teleop Disabled,11,TRUE,-44087,NetComm_CAN_Receive.vi:5470001<APPEND>  <b>Complete call chain:</b>      NetComm_CAN_Receive.vi:5470001      WPI_CAN_PDPReceive.vi      WPI_Power Get PDP Currents.vi      Periodic Tasks.vi      Robot Main.vi,-0.000000,0.000000,-0.000000,0.000000,TRUE,FALSE,FALSE,TRUE,FALSE,FALSE,Disabled,0.000000,0.000000,0.000000,TRUE,1.279251,-0.996338,0.000000,-0.018692,0.000000,0.000000,-0.016000,0.009000,0.011000,0.020000,-0.260000,-0.520000,-0.012710,ResetBack,0.957764,-0.000049,ResetBack,-4179.000000,-0.250000,Empty,0.000000,0.000000,Speed,0.000000,0.000000,Speed,Off,Off,0.000000,FALSE,0,,,,,0.000000,0.000000
02:38:57.470 PM 04/02/2016,Teleop Disabled,11,TRUE,-44087,NetComm_CAN_Receive.vi:5470001<APPEND>  <b>Complete call chain:</b>      NetComm_CAN_Receive.vi:5470001      WPI_CAN_PDPReceive.vi      WPI_Power Get PDP Currents.vi      Periodic Tasks.vi      Robot Main.vi,-0.000000,0.000000,-0.000000,0.000000,TRUE,FALSE,FALSE,TRUE,FALSE,FALSE,Disabled,0.000000,0.000000,0.000000,TRUE,1.278900,-0.996262,0.000000,0.002930,0.004135,0.000000,-0.033000,-0.001000,0.004000,0.020000,-0.210000,-0.570000,0.013677,ResetBack,0.957764,-0.000049,ResetBack,-4179.000000,-0.250000,Suck,0.000000,0.000000,Speed,0.000000,0.000000,Speed,Off,Off,0.000000,FALSE,0,,,,,0.000000,0.000000
02:38:57.571 PM 04/02/2016,Teleop Disabled,11,TRUE,-44087,NetComm_CAN_Receive.vi:5470001<APPEND>  <b>Complete call chain:</b>      NetComm_CAN_Receive.vi:5470001      WPI_CAN_PDPReceive.vi      WPI_Power Get PDP Currents.vi      Periodic Tasks.vi      Robot Main.vi,-0.000000,0.000000,-0.000000,0.000000,TRUE,FALSE,FALSE,TRUE,FALSE,FALSE,Disabled,0.000000,0.000000,0.000000,TRUE,1.278885,-0.996216,0.000000,0.000000,0.002899,0.000000,-0.009000,0.023000,0.061000,0.020000,-0.180000,-0.620000,-0.008100,ResetBack,0.957764,-0.000049,ResetBack,-4179.000000,-0.250000,Suck,0.000000,1818.181818,Speed,0.000000,1818.181818,Speed,Off,Off,0.000000,FALSE,0,,,,,0.000000,0.000000
02:38:57.671 PM 04/02/2016,Teleop Disabled,10,TRUE,-44087,NetComm_CAN_Receive.vi:5470001<APPEND>  <b>Complete call chain:</b>      NetComm_CAN_Receive.vi:5470001      WPI_CAN_PDPReceive.vi      WPI_Power Get PDP Currents.vi      Periodic Tasks.vi      Robot Main.vi,-0.000000,0.000000,-0.000000,0.000000,TRUE,FALSE,FALSE,TRUE,FALSE,FALSE,Disabled,0.000000,0.000000,0.000000,TRUE,1.279007,-0.996140,0.000000,0.000000,0.000000,0.000000,0.017000,0.001000,0.003000,0.020000,-0.230000,-0.590000,-0.007068,ResetBack,0.957764,-0.000049,ResetBack,-4179.000000,-0.250000,Suck,0.000000,1818.181818,Speed,0.000000,1818.181818,Speed,Off,Off,0.000000,FALSE,0,,,,,0.000000,0.000000
02:38:57.771 PM 04/02/2016,Teleop Disabled,10,TRUE,-44087,NetComm_CAN_Receive.vi:5470001<APPEND>  <b>Complete call chain:</b>      NetComm_CAN_Receive.vi:5470001      WPI_CAN_PDPReceive.vi      WPI_Power Get PDP Currents.vi      Periodic Tasks.vi      Robot Main.vi,-0.000000,0.000000,-0.000000,0.000000,TRUE,FALSE,FALSE,TRUE,FALSE,FALSE,Disabled,0.000000,0.000000,0.000000,TRUE,1.279007,-0.996567,0.000000,0.000000,-0.017029,0.000000,-0.025000,-0.017000,0.023000,0.020000,-0.250000,-0.540000,-0.015185,ResetBack,0.957764,-0.000049,ResetBack,-4179.000000,-0.250000,Suck,0.000000,1818.181818,Speed,0.000000,1818.181818,Speed,Off,Off,0.000000,FALSE,0,,,,,0.000000,0.000000
02:38:57.872 PM 04/02/2016,Teleop Disabled,10,TRUE,-44087,NetComm_CAN_Receive.vi:5470001<APPEND>  <b>Complete call chain:</b>      NetComm_CAN_Receive.vi:5470001      WPI_CAN_PDPReceive.vi      WPI_Power Get PDP Currents.vi      Periodic Tasks.vi      Robot Main.vi,-0.000000,0.000000,-0.000000,0.000000,TRUE,FALSE,FALSE,TRUE,FALSE,FALSE,Disabled,0.000000,0.000000,0.000000,TRUE,1.278900,-0.996567,0.000000,0.000000,0.000000,0.000000,0.008000,0.000000,0.016000,0.020000,-0.200000,-0.620000,-0.021609,ResetBack,0.957764,-0.000049,ResetBack,-4179.000000,-0.250000,Suck,0.000000,1818.181818,Speed,0.000000,1818.181818,Speed,Off,Off,0.000000,FALSE,0,,,,,0.000000,0.000000
02:38:57.972 PM 04/02/2016,Teleop Disabled,9,TRUE,-44087,NetComm_CAN_Receive.vi:5470001<APPEND>  <b>Complete call chain:</b>      NetComm_CAN_Receive.vi:5470001      WPI_CAN_PDPReceive.vi      WPI_Power Get PDP Currents.vi      Periodic Tasks.vi      Robot Main.vi,-0.000000,0.000000,-0.000000,0.000000,TRUE,FALSE,FALSE,TRUE,FALSE,FALSE,Disabled,0.000000,0.000000,0.000000,TRUE,1.278900,-0.996567,0.000000,0.000000,0.000000,0.000000,-0.010000,-0.003000,0.001000,0.020000,-0.220000,-0.560000,-0.012837,ResetBack,0.957764,-0.000049,ResetBack,-4179.000000,-0.250000,Suck,0.000000,1818.181818,Speed,0.000000,1818.181818,Speed,Off,Off,0.000000,FALSE,0,,,,,0.000000,0.000000
02:38:58.072 PM 04/02/2016,Teleop Disabled,11,TRUE,-44087,NetComm_CAN_Receive.vi:5470001<APPEND>  <b>Complete call chain:</b>      NetComm_CAN_Receive.vi:5470001      WPI_CAN_PDPReceive.vi      WPI_Power Get PDP Currents.vi      Periodic Tasks.vi      Robot Main.vi,-0.000000,0.000000,-0.000000,0.000000,TRUE,TRUE,FALSE,TRUE,FALSE,FALSE,Disabled,0.000000,0.000000,0.000000,TRUE,1.278900,-0.996567,0.000000,0.000000,0.000000,0.000000,0.002000,-0.003000,0.012000,0.020000,-0.210000,-0.560000,-0.025096,ResetBack,0.957764,-0.000049,ResetBack,-4179.000000,-0.250000,Suck,0.000000,1818.181818,Speed,0.000000,1818.181818,Speed,Off,Off,0.000000,FALSE,0,,,,,0.000000,0.000000
02:38:58.173 PM 04/02/2016,Teleop Disabled,11,TRUE,-44087,NetComm_CAN_Receive.vi:5470001<APPEND>  <b>Complete call chain:</b>      NetComm_CAN_Receive.vi:5470001      WPI_CAN_PDPReceive.vi      WPI_Power Get PDP Currents.vi      Periodic Tasks.vi      Robot Main.vi,-0.000000,0.000000,-0.000000,0.000000,TRUE,TRUE,FALSE,TRUE,FALSE,FALSE,Disabled,0.000000,0.000000,0.000000,TRUE,1.278900,-0.996567,0.000000,0.000000,0.000000,0.000000,0.000000,-0.007000,0.017000,0.020000,-0.180000,-0.630000,-0.046691,ResetBack,0.957764,-0.000049,ResetBack,-4179.000000,-0.250000,Suck,0.000000,0.000000,Speed,0.000000,0.000000,Speed,Off,Off,0.000000,FALSE,0,,,,,0.000000,0.000000
02:38:58.272 PM 04/02/2016,Teleop Disabled,9,TRUE,-44087,NetComm_CAN_Receive.vi:5470001<APPEND>  <b>Complete call chain:</b>      NetComm_CAN_Receive.vi:5470001      WPI_CAN_PDPReceive.vi      WPI_Power Get PDP Currents.vi      Periodic Tasks.vi      Robot Main.vi,-0.000000,0.000000,-0.000000,0.000000,TRUE,FALSE,FALSE,TRUE,FALSE,FALSE,Disabled,0.000000,0.000000,0.000000,TRUE,1.278900,-0.996567,0.000000,0.000000,0.000000,0.000000,-0.005000,0.000000,0.008000,0.020000,-0.220000,-0.570000,-0.050826,ResetBack,0.957764,-0.000049,ResetBack,-4179.000000,-0.250000,Suck,0.000000,0.000000,Speed,0.000000,0.000000,Speed,Off,Off,0.000000,FALSE,0,,,,,0.000000,0.000000
02:38:58.373 PM 04/02/2016,Teleop Disabled,9,TRUE,-44087,NetComm_CAN_Receive.vi:5470001<APPEND>  <b>Complete call chain:</b>      NetComm_CAN_Receive.vi:5470001      WPI_CAN_PDPReceive.vi      WPI_Power Get PDP Currents.vi      Periodic Tasks.vi      Robot Main.vi,-0.000000,0.000000,-0.000000,0.000000,TRUE,FALSE,FALSE,TRUE,FALSE,FALSE,Disabled,0.000000,0.000000,0.000000,TRUE,1.278900,-0.996567,0.000000,0.000000,0.000000,0.000000,0.000000,0.000000,0.011000,0.020000,-0.200000,-0.600000,-0.041373,ResetBack,0.957764,-0.000049,ResetBack,-4179.000000,-0.250000,Suck,0.000000,1818.181818,Speed,0.000000,1818.181818,Speed,Off,Off,0.000000,FALSE,0,,,,,0.000000,0.000000
02:38:58.473 PM 04/02/2016,Teleop Disabled,10,TRUE,-44087,NetComm_CAN_Receive.vi:5470001<APPEND>  <b>Complete call chain:</b>      NetComm_CAN_Receive.vi:5470001      WPI_CAN_PDPReceive.vi      WPI_Power Get PDP Currents.vi      Periodic Tasks.vi      Robot Main.vi,-0.000000,0.000000,-0.000000,0.000000,TRUE,FALSE,FALSE,TRUE,FALSE,FALSE,Disabled,0.000000,0.000000,0.000000,TRUE,1.278900,-0.996567,0.000000,0.000000,0.000000,0.000000,0.001000,0.002000,0.011000,0.010000,-0.190000,-0.640000,-0.049198,ResetBack,0.957764,-0.000049,ResetBack,-4179.000000,-0.250000,Suck,0.000000,1818.181818,Speed,0.000000,1818.181818,Speed,Off,Off,0.000000,FALSE,0,,,,,0.000000,0.000000
02:38:58.573 PM 04/02/2016,Teleop Disabled,10,TRUE,-44087,NetComm_CAN_Receive.vi:5470001<APPEND>  <b>Complete call chain:</b>      NetComm_CAN_Receive.vi:5470001      WPI_CAN_PDPReceive.vi      WPI_Power Get PDP Currents.vi      Periodic Tasks.vi      Robot Main.vi,-0.000000,0.000000,-0.000000,0.000000,TRUE,FALSE,FALSE,TRUE,FALSE,FALSE,Disabled,0.000000,0.000000,0.000000,TRUE,1.278900,-0.996567,0.000000,0.000000,0.000000,0.000000,-0.002000,0.001000,0.005000,0.020000,-0.200000,-0.620000,-0.054678,ResetBack,0.957764,-0.000049,ResetBack,-4179.000000,-0.250000,Suck,0.000000,1818.181818,Speed,0.000000,1818.181818,Speed,Off,Off,0.000000,FALSE,0,,,,,0.000000,0.000000
02:38:58.674 PM 04/02/2016,Teleop Disabled,10,TRUE,-44087,NetComm_CAN_Receive.vi:5470001<APPEND>  <b>Complete call chain:</b>      NetComm_CAN_Receive.vi:5470001      WPI_CAN_PDPReceive.vi      WPI_Power Get PDP Currents.vi      Periodic Tasks.vi      Robot Main.vi,-0.000000,0.000000,-0.000000,0.000000,TRUE,FALSE,FALSE,TRUE,FALSE,FALSE,Disabled,0.000000,0.000000,0.000000,TRUE,1.278900,-0.996567,0.000000,0.000000,0.000000,0.000000,0.000000,0.000000,0.015000,0.020000,-0.190000,-0.670000,-0.060926,ResetBack,0.957764,-0.000049,ResetBack,-4179.000000,-0.250000,Suck,0.000000,1818.181818,Speed,0.000000,1818.181818,Speed,Off,Off,0.000000,FALSE,0,,,,,0.000000,0.000000
02:38:58.774 PM 04/02/2016,Teleop Disabled,11,TRUE,-44087,NetComm_CAN_Receive.vi:5470001<APPEND>  <b>Complete call chain:</b>      NetComm_CAN_Receive.vi:5470001      WPI_CAN_PDPReceive.vi      WPI_Power Get PDP Currents.vi      Periodic Tasks.vi      Robot Main.vi,-0.000000,0.000000,-0.000000,0.000000,TRUE,FALSE,FALSE,TRUE,FALSE,FALSE,Disabled,0.000000,0.000000,0.000000,TRUE,1.278900,-0.996567,0.000000,0.000000,0.000000,0.000000,-0.002000,0.001000,0.013000,0.010000,-0.190000,-0.620000,-0.071481,ResetBack,0.957764,-0.000049,ResetBack,-4179.000000,-0.250000,Suck,0.000000,1818.181818,Speed,0.000000,1818.181818,Speed,Off,Off,0.000000,FALSE,0,,,,,0.000000,0.000000
02:38:58.874 PM 04/02/2016,Teleop Disabled,11,TRUE,-44087,NetComm_CAN_Receive.vi:5470001<APPEND>  <b>Complete call chain:</b>      NetComm_CAN_Receive.vi:5470001      WPI_CAN_PDPReceive.vi      WPI_Power Get PDP Currents.vi      Periodic Tasks.vi      Robot Main.vi,-0.000000,0.000000,-0.000000,0.000000,TRUE,TRUE,FALSE,TRUE,FALSE,FALSE,Disabled,0.000000,0.000000,0.000000,TRUE,1.278900,-0.996567,0.000000,0.000000,0.000000,0.000000,0.003000,0.002000,0.012000,0.000000,-0.180000,-0.620000,-0.064486,ResetBack,0.957764,-0.000049,ResetBack,-4179.000000,-0.250000,Suck,0.000000,1818.181818,Speed,0.000000,1818.181818,Speed,Off,Off,0.000000,FALSE,0,,,,,0.000000,0.000000
02:38:58.974 PM 04/02/2016,Teleop Disabled,10,TRUE,-44087,NetComm_CAN_Receive.vi:5470001<APPEND>  <b>Complete call chain:</b>      NetComm_CAN_Receive.vi:5470001      WPI_CAN_PDPReceive.vi      WPI_Power Get PDP Currents.vi      Periodic Tasks.vi      Robot Main.vi,-0.000000,0.000000,-0.000000,0.000000,TRUE,TRUE,FALSE,TRUE,FALSE,FALSE,Disabled,0.000000,0.000000,0.000000,TRUE,1.278900,-0.996567,0.000000,0.000000,0.000000,0.000000,-0.002000,-0.002000,0.014000,0.000000,-0.170000,-0.660000,-0.068421,ResetBack,0.957764,-0.000049,ResetBack,-4179.000000,-0.250000,Suck,0.000000,0.000000,Speed,0.000000,0.000000,Speed,Off,Off,0.000000,FALSE,0,,,,,0.000000,0.000000
02:38:59.074 PM 04/02/2016,Teleop Disabled,9,TRUE,-44087,NetComm_CAN_Receive.vi:5470001<APPEND>  <b>Complete call chain:</b>      NetComm_CAN_Receive.vi:5470001      WPI_CAN_PDPReceive.vi      WPI_Power Get PDP Currents.vi      Periodic Tasks.vi      Robot Main.vi,-0.000000,0.000000,-0.000000,0.000000,TRUE,FALSE,FALSE,TRUE,FALSE,FALSE,Disabled,0.000000,0.000000,0.000000,TRUE,1.278900,-0.996567,0.000000,0.000000,0.000000,0.000000,0.000000,0.000000,0.005000,0.000000,-0.180000,-0.620000,-0.080907,ResetBack,0.957764,-0.000049,ResetBack,-4179.000000,-0.250000,Suck,0.000000,0.000000,Speed,0.000000,0.000000,Speed,Off,Off,0.000000,FALSE,0,,,,,0.000000,0.000000
02:38:59.174 PM 04/02/2016,Teleop Disabled,10,TRUE,-44087,NetComm_CAN_Receive.vi:5470001<APPEND>  <b>Complete call chain:</b>      NetComm_CAN_Receive.vi:5470001      WPI_CAN_PDPReceive.vi      WPI_Power Get PDP Currents.vi      Periodic Tasks.vi      Robot Main.vi,-0.000000,0.000000,-0.000000,0.000000,TRUE,FALSE,FALSE,TRUE,FALSE,FALSE,Disabled,0.000000,0.000000,0.000000,TRUE,1.278900,-0.996460,0.000000,0.000000,0.006577,0.000000,0.000000,0.000000,0.005000,0.000000,-0.180000,-0.620000,-0.100998,ResetBack,0.957764,-0.000049,ResetBack,-4179.000000,-0.250000,Suck,0.000000,1818.181818,Speed,0.000000,1818.181818,Speed,Off,Off,0.000000,FALSE,0,,,,,0.000000,0.000000
02:38:59.274 PM 04/02/2016,Teleop Disabled,10,TRUE,-44087,NetComm_CAN_Receive.vi:5470001<APPEND>  <b>Complete call chain:</b>      NetComm_CAN_Receive.vi:5470001      WPI_CAN_PDPReceive.vi      WPI_Power Get PDP Currents.vi      Periodic Tasks.vi      Robot Main.vi,-0.000000,0.000000,-0.000000,0.000000,TRUE,FALSE,FALSE,TRUE,FALSE,FALSE,Disabled,0.000000,0.000000,0.000000,TRUE,1.278900,-0.996414,0.000000,0.000000,0.000000,0.000000,-0.003000,-0.017000,0.022000,0.000000,-0.180000,-0.640000,-0.098051,ResetBack,0.957764,-0.000049,ResetBack,-4179.000000,-0.250000,Suck,0.000000,1818.181818,Speed,0.000000,1818.181818,Speed,Off,Off,0.000000,FALSE,0,,,,,0.000000,0.000000
02:38:59.374 PM 04/02/2016,Teleop Disabled,9,TRUE,-44087,NetComm_CAN_Receive.vi:5470001<APPEND>  <b>Complete call chain:</b>      NetComm_CAN_Receive.vi:5470001      WPI_CAN_PDPReceive.vi      WPI_Power Get PDP Currents.vi      Periodic Tasks.vi      Robot Main.vi,-0.000000,0.000000,-0.000000,0.000000,TRUE,FALSE,FALSE,TRUE,FALSE,FALSE,Disabled,0.000000,0.000000,0.000000,TRUE,1.278900,-0.996414,0.000000,0.000000,0.000000,0.000000,0.002000,0.000000,0.009000,0.000000,-0.180000,-0.620000,-0.097208,ResetBack,0.957764,-0.000049,ResetBack,-4179.000000,-0.250000,Suck,0.000000,1818.181818,Speed,0.000000,1818.181818,Speed,Off,Off,0.000000,FALSE,0,,,,,0.000000,0.000000
02:38:59.474 PM 04/02/2016,Teleop Disabled,10,TRUE,-44087,NetComm_CAN_Receive.vi:5470001<APPEND>  <b>Complete call chain:</b>      NetComm_CAN_Receive.vi:5470001      WPI_CAN_PDPReceive.vi      WPI_Power Get PDP Currents.vi      Periodic Tasks.vi      Robot Main.vi,-0.000000,0.000000,-0.000000,0.000000,TRUE,FALSE,FALSE,TRUE,FALSE,FALSE,Disabled,0.000000,0.000000,0.000000,TRUE,1.278900,-0.996414,0.000000,0.000000,0.000000,0.000000,-0.001000,-0.001000,0.011000,0.000000,-0.180000,-0.620000,-0.100499,ResetBack,0.957764,-0.000049,ResetBack,-4179.000000,-0.250000,Suck,0.000000,1818.181818,Speed,0.000000,1818.181818,Speed,Off,Off,0.000000,FALSE,0,,,,,0.000000,0.000000
02:38:59.574 PM 04/02/2016,Teleop Disabled,10,TRUE,-44087,NetComm_CAN_Receive.vi:5470001<APPEND>  <b>Complete call chain:</b>      NetComm_CAN_Receive.vi:5470001      WPI_CAN_PDPReceive.vi      WPI_Power Get PDP Currents.vi      Periodic Tasks.vi      Robot Main.vi,-0.000000,0.000000,-0.000000,0.000000,TRUE,FALSE,FALSE,TRUE,FALSE,FALSE,Disabled,0.000000,0.000000,0.000000,TRUE,1.278900,-0.996414,0.000000,0.000000,0.000000,0.000000,0.000000,-0.001000,0.026000,0.000000,-0.160000,-0.640000,-0.111432,ResetBack,0.957764,-0.000049,ResetBack,-4179.000000,-0.250000,Suck,0.000000,1818.181818,Speed,0.000000,1818.181818,Speed,Off,Off,0.000000,FALSE,0,,,,,0.000000,0.000000
02:38:59.675 PM 04/02/2016,Teleop Disabled,9,TRUE,-44087,NetComm_CAN_Receive.vi:5470001<APPEND>  <b>Complete call chain:</b>      NetComm_CAN_Receive.vi:5470001      WPI_CAN_PDPReceive.vi      WPI_Power Get PDP Currents.vi      Periodic Tasks.vi      Robot Main.vi,-0.000000,0.000000,-0.000000,0.000000,TRUE,TRUE,FALSE,TRUE,FALSE,FALSE,Disabled,0.000000,0.000000,0.000000,TRUE,1.278900,-0.996414,0.000000,0.000000,0.000000,0.000000,-0.005000,0.004000,0.002000,0.000000,-0.160000,-0.640000,-0.116537,ResetBack,0.957764,-0.000049,ResetBack,-4179.000000,-0.250000,Suck,0.000000,1818.181818,Speed,0.000000,1818.181818,Speed,Off,Off,0.000000,FALSE,0,,,,,0.000000,0.000000
02:38:59.774 PM 04/02/2016,Teleop Disabled,10,TRUE,-44087,NetComm_CAN_Receive.vi:5470001<APPEND>  <b>Complete call chain:</b>      NetComm_CAN_Receive.vi:5470001      WPI_CAN_PDPReceive.vi      WPI_Power Get PDP Currents.vi      Periodic Tasks.vi      Robot Main.vi,-0.000000,0.000000,-0.000000,0.000000,TRUE,TRUE,FALSE,TRUE,FALSE,FALSE,Disabled,0.000000,0.000000,0.000000,TRUE,1.278900,-0.996414,0.000000,0.000000,0.000000,0.000000,0.002000,0.004000,0.015000,0.000000,-0.170000,-0.620000,-0.111591,ResetBack,0.957764,-0.000049,ResetBack,-4179.000000,-0.250000,Suck,0.000000,0.000000,Speed,0.000000,0.000000,Speed,Off,Off,0.000000,FALSE,0,,,,,0.000000,0.000000
02:38:59.875 PM 04/02/2016,Teleop Disabled,10,TRUE,-44087,NetComm_CAN_Receive.vi:5470001<APPEND>  <b>Complete call chain:</b>      NetComm_CAN_Receive.vi:5470001      WPI_CAN_PDPReceive.vi      WPI_Power Get PDP Currents.vi      Periodic Tasks.vi      Robot Main.vi,-0.000000,0.000000,-0.000000,0.000000,TRUE,FALSE,FALSE,TRUE,FALSE,FALSE,Disabled,0.000000,0.000000,0.000000,TRUE,1.278900,-0.996490,0.000000,0.000000,-0.005112,0.000000,0.000000,0.004000,0.010000,0.000000,-0.180000,-0.590000,-0.123829,ResetBack,0.957764,-0.000049,ResetBack,-4179.000000,-0.250000,Suck,0.000000,0.000000,Speed,0.000000,0.000000,Speed,Off,Off,0.000000,FALSE,0,,,,,0.000000,0.000000
02:38:59.975 PM 04/02/2016,Teleop Disabled,11,TRUE,-44087,NetComm_CAN_Receive.vi:5470001<APPEND>  <b>Complete call chain:</b>      NetComm_CAN_Receive.vi:5470001      WPI_CAN_PDPReceive.vi      WPI_Power Get PDP Currents.vi      Periodic Tasks.vi      Robot Main.vi,-0.000000,0.000000,-0.000000,0.000000,TRUE,FALSE,FALSE,TRUE,FALSE,FALSE,Disabled,0.000000,0.000000,0.000000,TRUE,1.278900,-0.996643,0.000000,0.000000,-0.000519,0.000000,0.002000,0.000000,0.011000,-0.010000,-0.190000,-0.580000,-0.125471,ResetBack,0.957764,-0.000049,ResetBack,-4179.000000,-0.250000,Suck,0.000000,1818.181818,Speed,0.000000,1818.181818,Speed,Off,Off,0.000000,FALSE,0,,,,,0.000000,0.000000
02:39:00.076 PM 04/02/2016,Teleop Disabled,11,TRUE,-44087,NetComm_CAN_Receive.vi:5470001<APPEND>  <b>Complete call chain:</b>      NetComm_CAN_Receive.vi:5470001      WPI_CAN_PDPReceive.vi      WPI_Power Get PDP Currents.vi      Periodic Tasks.vi      Robot Main.vi,-0.000000,0.000000,-0.000000,0.000000,TRUE,FALSE,FALSE,TRUE,FALSE,FALSE,Disabled,0.000000,0.000000,0.000000,TRUE,1.278900,-0.996643,0.000000,0.000000,0.000000,0.000000,0.003000,-0.009000,0.017000,-0.010000,-0.180000,-0.580000,-0.141561,ResetBack,0.957764,-0.000049,ResetBack,-4179.000000,-0.250000,Suck,0.000000,1818.181818,Speed,0.000000,1818.181818,Speed,Off,Off,0.000000,FALSE,0,,,,,0.000000,0.000000
02:39:00.178 PM 04/02/2016,Teleop Disabled,10,TRUE,-44087,NetComm_CAN_Receive.vi:5470001<APPEND>  <b>Complete call chain:</b>      NetComm_CAN_Receive.vi:5470001      WPI_CAN_PDPReceive.vi      WPI_Power Get PDP Currents.vi      Periodic Tasks.vi      Robot Main.vi,-0.000000,0.000000,-0.000000,0.000000,TRUE,FALSE,FALSE,TRUE,FALSE,FALSE,Disabled,0.000000,0.000000,0.000000,TRUE,1.278900,-0.996643,0.000000,0.000000,0.000000,0.000000,0.002000,0.003000,0.015000,-0.020000,-0.180000,-0.570000,-0.127361,ResetBack,0.957764,-0.000049,ResetBack,-4179.000000,-0.250000,Suck,0.000000,1818.181818,Speed,0.000000,1818.181818,Speed,Off,Off,0.000000,FALSE,0,,,,,0.000000,0.000000
02:39:00.278 PM 04/02/2016,Teleop Disabled,10,TRUE,-44087,NetComm_CAN_Receive.vi:5470001<APPEND>  <b>Complete call chain:</b>      NetComm_CAN_Receive.vi:5470001      WPI_CAN_PDPReceive.vi      WPI_Power Get PDP Currents.vi      Periodic Tasks.vi      Robot Main.vi,-0.000000,0.000000,-0.000000,0.000000,TRUE,FALSE,FALSE,TRUE,FALSE,FALSE,Disabled,0.000000,0.000000,0.000000,TRUE,1.278946,-0.996643,0.000000,0.004044,0.000000,0.000000,0.021000,-0.009000,0.017000,-0.010000,-0.190000,-0.570000,-0.133117,ResetBack,0.957764,-0.000049,ResetBack,-4179.000000,-0.250000,Suck,0.000000,1818.181818,Speed,0.000000,1818.181818,Speed,Off,Off,0.000000,FALSE,0,,,,,0.000000,0.000000
02:39:00.380 PM 04/02/2016,Teleop Disabled,10,TRUE,-44087,NetComm_CAN_Receive.vi:5470001<APPEND>  <b>Complete call chain:</b>      NetComm_CAN_Receive.vi:5470001      WPI_CAN_PDPReceive.vi      WPI_Power Get PDP Currents.vi      Periodic Tasks.vi      Robot Main.vi,-0.000000,0.000000,-0.000000,0.000000,TRUE,FALSE,FALSE,TRUE,FALSE,FALSE,Disabled,0.000000,0.000000,0.000000,TRUE,1.279373,-0.996704,0.000000,0.000000,0.000000,0.000000,0.000000,0.015000,0.000000,-0.010000,-0.200000,-0.550000,-0.147335,ResetBack,0.957764,-0.000049,ResetBack,-4179.000000,-0.250000,Suck,0.000000,1818.181818,Speed,0.000000,1818.181818,Speed,Off,Off,0.000000,FALSE,0,,,,,0.000000,0.000000
02:39:00.481 PM 04/02/2016,Teleop Disabled,10,TRUE,-44087,NetComm_CAN_Receive.vi:5470001<APPEND>  <b>Complete call chain:</b>      NetComm_CAN_Receive.vi:5470001      WPI_CAN_PDPReceive.vi      WPI_Power Get PDP Currents.vi      Periodic Tasks.vi      Robot Main.vi,-0.000000,0.000000,-0.000000,0.000000,TRUE,TRUE,FALSE,TRUE,FALSE,FALSE,Disabled,0.000000,0.000000,0.000000,TRUE,1.279373,-0.996704,0.000000,0.000000,0.000000,0.000000,-0.005000,-0.005000,0.024000,-0.010000,-0.200000,-0.560000,-0.164076,ResetBack,0.957764,-0.000049,ResetBack,-4179.000000,-0.250000,Suck,0.000000,1818.181818,Speed,0.000000,1818.181818,Speed,Off,Off,0.000000,FALSE,0,,,,,0.000000,0.000000
02:39:00.581 PM 04/02/2016,Teleop Disabled,11,TRUE,-44087,NetComm_CAN_Receive.vi:5470001<APPEND>  <b>Complete call chain:</b>      NetComm_CAN_Receive.vi:5470001      WPI_CAN_PDPReceive.vi      WPI_Power Get PDP Currents.vi      Periodic Tasks.vi      Robot Main.vi,-0.000000,0.000000,-0.000000,0.000000,TRUE,TRUE,FALSE,TRUE,FALSE,FALSE,Disabled,0.000000,0.000000,0.000000,TRUE,1.279373,-0.996704,0.000000,0.000000,0.000000,0.000000,-0.003000,0.004000,0.008000,-0.010000,-0.200000,-0.570000,-0.178603,ResetBack,0.957764,-0.000049,ResetBack,-4179.000000,-0.250000,Suck,0.000000,1818.181818,Speed,0.000000,1818.181818,Speed,Off,Off,0.000000,FALSE,0,,,,,0.000000,0.000000
02:39:00.682 PM 04/02/2016,Teleop Disabled,11,TRUE,-44087,NetComm_CAN_Receive.vi:5470001<APPEND>  <b>Complete call chain:</b>      NetComm_CAN_Receive.vi:5470001      WPI_CAN_PDPReceive.vi      WPI_Power Get PDP Currents.vi      Periodic Tasks.vi      Robot Main.vi,-0.000000,0.000000,-0.000000,0.000000,TRUE,FALSE,FALSE,TRUE,FALSE,FALSE,Disabled,0.000000,0.000000,0.000000,TRUE,1.279373,-0.996704,0.000000,0.000000,0.000000,0.000000,-0.001000,-0.001000,0.017000,-0.010000,-0.190000,-0.610000,-0.182363,ResetBack,0.957764,-0.000049,ResetBack,-4179.000000,-0.250000,Suck,0.000000,0.000000,Speed,0.000000,0.000000,Speed,Off,Off,0.000000,FALSE,0,,,,,0.000000,0.000000
02:39:00.782 PM 04/02/2016,Teleop Disabled,8,TRUE,-44087,NetComm_CAN_Receive.vi:5470001<APPEND>  <b>Complete call chain:</b>      NetComm_CAN_Receive.vi:5470001      WPI_CAN_PDPReceive.vi      WPI_Power Get PDP Currents.vi      Periodic Tasks.vi      Robot Main.vi,-0.000000,0.000000,-0.000000,0.000000,TRUE,FALSE,FALSE,TRUE,FALSE,FALSE,Disabled,0.000000,0.000000,0.000000,TRUE,1.279373,-0.996704,0.000000,0.000000,0.000000,0.000000,-0.007000,0.000000,-0.010000,-0.010000,-0.200000,-0.570000,-0.178614,ResetBack,0.957764,-0.000049,ResetBack,-4179.000000,-0.250000,Suck,0.000000,0.000000,Speed,0.000000,0.000000,Speed,Off,Off,0.000000,FALSE,0,,,,,0.000000,0.000000
02:39:00.883 PM 04/02/2016,Teleop Disabled,10,TRUE,-44087,NetComm_CAN_Receive.vi:5470001<APPEND>  <b>Complete call chain:</b>      NetComm_CAN_Receive.vi:5470001      WPI_CAN_PDPReceive.vi      WPI_Power Get PDP Currents.vi      Periodic Tasks.vi      Robot Main.vi,-0.000000,0.000000,-0.000000,0.000000,TRUE,FALSE,FALSE,TRUE,FALSE,FALSE,Disabled,0.000000,0.000000,0.000000,TRUE,1.279327,-0.996704,0.000000,-0.004166,0.000000,0.000000,0.022000,0.017000,0.043000,-0.010000,-0.210000,-0.570000,-0.175691,ResetBack,0.957764,-0.000049,ResetBack,-4179.000000,-0.250000,Suck,0.000000,1818.181818,Speed,0.000000,1818.181818,Speed,Off,Off,0.000000,FALSE,0,,,,,0.000000,0.000000
02:39:00.985 PM 04/02/2016,Teleop Disabled,10,TRUE,-44087,NetComm_CAN_Receive.vi:5470001<APPEND>  <b>Complete call chain:</b>      NetComm_CAN_Receive.vi:5470001      WPI_CAN_PDPReceive.vi      WPI_Power Get PDP Currents.vi      Periodic Tasks.vi      Robot Main.vi,-0.000000,0.000000,-0.000000,0.000000,TRUE,FALSE,FALSE,TRUE,FALSE,FALSE,Disabled,0.000000,0.000000,0.000000,TRUE,1.279373,-0.996552,0.000000,0.000000,0.000000,0.000000,-0.011000,-0.004000,0.013000,0.000000,-0.220000,-0.510000,-0.183547,ResetBack,0.957764,-0.000049,ResetBack,-4179.000000,-0.250000,Suck,0.000000,1818.181818,Speed,0.000000,1818.181818,Speed,Off,Off,0.000000,FALSE,0,,,,,0.000000,0.000000
02:39:01.086 PM 04/02/2016,Teleop Disabled,10,TRUE,-44087,NetComm_CAN_Receive.vi:5470001<APPEND>  <b>Complete call chain:</b>      NetComm_CAN_Receive.vi:5470001      WPI_CAN_PDPReceive.vi      WPI_Power Get PDP Currents.vi      Periodic Tasks.vi      Robot Main.vi,-0.000000,0.000000,-0.000000,0.000000,TRUE,FALSE,FALSE,TRUE,FALSE,FALSE,Disabled,0.000000,0.000000,0.000000,TRUE,1.279373,-0.996552,0.000000,0.000000,0.000000,0.000000,0.015000,0.006000,0.015000,-0.010000,-0.220000,-0.550000,-0.183189,ResetBack,0.957764,-0.000049,ResetBack,-4179.000000,-0.250000,Suck,0.000000,1818.181818,Speed,0.000000,1818.181818,Speed,Off,Off,0.000000,FALSE,0,,,,,0.000000,0.000000
02:39:01.187 PM 04/02/2016,Teleop Disabled,9,TRUE,-44087,NetComm_CAN_Receive.vi:5470001<APPEND>  <b>Complete call chain:</b>      NetComm_CAN_Receive.vi:5470001      WPI_CAN_PDPReceive.vi      WPI_Power Get PDP Currents.vi      Periodic Tasks.vi      Robot Main.vi,-0.000000,0.000000,-0.000000,0.000000,TRUE,FALSE,FALSE,TRUE,FALSE,FALSE,Disabled,0.000000,0.000000,0.000000,TRUE,1.279373,-0.996552,0.000000,0.000000,0.000000,0.000000,-0.005000,0.004000,0.004000,0.000000,-0.250000,-0.480000,-0.192504,ResetBack,0.957764,-0.000049,ResetBack,-4179.000000,-0.250000,Suck,0.000000,1818.181818,Speed,0.000000,1818.181818,Speed,Off,Off,0.000000,FALSE,0,,,,,0.000000,0.000000
02:39:01.287 PM 04/02/2016,Teleop Disabled,10,TRUE,-44087,NetComm_CAN_Receive.vi:5470001<APPEND>  <b>Complete call chain:</b>      NetComm_CAN_Receive.vi:5470001      WPI_CAN_PDPReceive.vi      WPI_Power Get PDP Currents.vi      Periodic Tasks.vi      Robot Main.vi,-0.000000,0.000000,-0.000000,0.000000,TRUE,FALSE,FALSE,TRUE,FALSE,FALSE,Disabled,0.000000,0.000000,0.000000,TRUE,1.279373,-0.996552,0.000000,0.000000,0.000000,0.000000,0.001000,-0.002000,0.018000,-0.010000,-0.240000,-0.480000,-0.215404,ResetBack,0.957764,-0.000049,ResetBack,-4179.000000,-0.250000,Suck,0.000000,1818.181818,Speed,0.000000,1818.181818,Speed,Off,Off,0.000000,FALSE,0,,,,,0.000000,0.000000
02:39:01.387 PM 04/02/2016,Teleop Disabled,10,TRUE,-44087,NetComm_CAN_Receive.vi:5470001<APPEND>  <b>Complete call chain:</b>      NetComm_CAN_Receive.vi:5470001      WPI_CAN_PDPReceive.vi      WPI_Power Get PDP Currents.vi      Periodic Tasks.vi      Robot Main.vi,-0.000000,0.000000,-0.000000,0.000000,TRUE,TRUE,FALSE,TRUE,FALSE,FALSE,Disabled,0.000000,0.000000,0.000000,TRUE,1.279373,-0.996552,0.000000,0.000000,0.000000,0.000000,-0.003000,0.001000,0.005000,-0.010000,-0.200000,-0.560000,-0.215404,ResetBack,0.957764,-0.000049,ResetBack,-4179.000000,-0.250000,Suck,0.000000,1818.181818,Speed,0.000000,1818.181818,Speed,Off,Off,0.000000,FALSE,0,,,,,0.000000,0.000000
02:39:01.487 PM 04/02/2016,Teleop Disabled,9,TRUE,-44087,NetComm_CAN_Receive.vi:5470001<APPEND>  <b>Complete call chain:</b>      NetComm_CAN_Receive.vi:5470001      WPI_CAN_PDPReceive.vi      WPI_Power Get PDP Currents.vi      Periodic Tasks.vi      Robot Main.vi,-0.000000,0.000000,-0.000000,0.000000,TRUE,TRUE,FALSE,TRUE,FALSE,FALSE,Disabled,0.000000,0.000000,0.000000,TRUE,1.279373,-0.996552,0.000000,0.000000,0.000000,0.000000,-0.004000,0.000000,0.005000,-0.010000,-0.220000,-0.520000,-0.198519,ResetBack,0.957764,-0.000049,ResetBack,-4179.000000,-0.250000,Suck,0.000000,0.000000,Speed,0.000000,0.000000,Speed,Off,Off,0.000000,FALSE,0,,,,,0.000000,0.000000
02:39:01.588 PM 04/02/2016,Teleop Disabled,10,TRUE,-44087,NetComm_CAN_Receive.vi:5470001<APPEND>  <b>Complete call chain:</b>      NetComm_CAN_Receive.vi:5470001      WPI_CAN_PDPReceive.vi      WPI_Power Get PDP Currents.vi      Periodic Tasks.vi      Robot Main.vi,-0.000000,0.000000,-0.000000,0.000000,TRUE,FALSE,FALSE,TRUE,FALSE,FALSE,Disabled,0.000000,0.000000,0.000000,TRUE,1.279282,-0.996063,0.000000,-0.006836,0.009872,0.000000,0.000000,-0.011000,0.023000,-0.010000,-0.200000,-0.540000,-0.191678,ResetBack,0.957764,-0.000049,ResetBack,-4179.000000,-0.250000,Suck,0.000000,0.000000,Speed,0.000000,0.000000,Speed,Off,Off,0.000000,FALSE,0,,,,,0.000000,0.000000
02:39:01.689 PM 04/02/2016,Teleop Disabled,10,TRUE,-44087,NetComm_CAN_Receive.vi:5470001<APPEND>  <b>Complete call chain:</b>      NetComm_CAN_Receive.vi:5470001      WPI_CAN_PDPReceive.vi      WPI_Power Get PDP Currents.vi      Periodic Tasks.vi      Robot Main.vi,-0.000000,0.000000,-0.000000,0.000000,TRUE,FALSE,FALSE,TRUE,FALSE,FALSE,Disabled,0.000000,0.000000,0.000000,TRUE,1.279205,-0.996063,0.000000,0.000000,0.000000,0.000000,0.014000,-0.022000,0.000000,-0.020000,-0.180000,-0.600000,-0.199820,ResetBack,0.957764,-0.000049,ResetBack,-4179.000000,-0.250000,Suck,0.000000,1818.181818,Speed,0.000000,1818.181818,Speed,Off,Off,0.000000,FALSE,0,,,,,0.000000,0.000000
02:39:01.790 PM 04/02/2016,Teleop Disabled,10,TRUE,-44087,NetComm_CAN_Receive.vi:5470001<APPEND>  <b>Complete call chain:</b>      NetComm_CAN_Receive.vi:5470001      WPI_CAN_PDPReceive.vi      WPI_Power Get PDP Currents.vi      Periodic Tasks.vi      Robot Main.vi,-0.000000,0.000000,-0.000000,0.000000,TRUE,FALSE,FALSE,TRUE,FALSE,FALSE,Disabled,0.000000,0.000000,0.000000,TRUE,1.279205,-0.996277,0.000000,0.000000,0.001770,0.000000,0.007000,0.000000,0.003000,-0.010000,-0.200000,-0.520000,-0.208320,ResetBack,0.957764,-0.000049,ResetBack,-4179.000000,-0.250000,Suck,0.000000,1818.181818,Speed,0.000000,1818.181818,Speed,Off,Off,0.000000,FALSE,0,,,,,0.000000,0.000000
02:39:01.890 PM 04/02/2016,Teleop Disabled,9,TRUE,-44087,NetComm_CAN_Receive.vi:5470001<APPEND>  <b>Complete call chain:</b>      NetComm_CAN_Receive.vi:5470001      WPI_CAN_PDPReceive.vi      WPI_Power Get PDP Currents.vi      Periodic Tasks.vi      Robot Main.vi,-0.000000,0.000000,-0.000000,0.000000,TRUE,FALSE,FALSE,TRUE,FALSE,FALSE,Disabled,0.000000,0.000000,0.000000,TRUE,1.279205,-0.996246,0.000000,0.000000,0.000000,0.000000,-0.001000,-0.002000,0.022000,-0.010000,-0.160000,-0.630000,-0.220069,ResetBack,0.957764,-0.000049,ResetBack,-4179.000000,-0.250000,Suck,0.000000,1818.181818,Speed,0.000000,1818.181818,Speed,Off,Off,0.000000,FALSE,0,,,,,0.000000,0.000000
02:39:01.992 PM 04/02/2016,Teleop Disabled,11,TRUE,-44087,NetComm_CAN_Receive.vi:5470001<APPEND>  <b>Complete call chain:</b>      NetComm_CAN_Receive.vi:5470001      WPI_CAN_PDPReceive.vi      WPI_Power Get PDP Currents.vi      Periodic Tasks.vi      Robot Main.vi,-0.000000,0.000000,-0.000000,0.000000,TRUE,FALSE,FALSE,TRUE,FALSE,FALSE,Disabled,0.000000,0.000000,0.000000,TRUE,1.279205,-0.996246,0.000000,0.000000,0.000000,0.000000,0.003000,-0.009000,0.017000,-0.010000,-0.160000,-0.660000,-0.222375,ResetBack,0.957764,-0.000049,ResetBack,-4179.000000,-0.250000,Suck,0.000000,1818.181818,Speed,0.000000,1818.181818,Speed,Off,Off,0.000000,FALSE,0,,,,,0.000000,0.000000
02:39:02.092 PM 04/02/2016,Teleop Disabled,10,TRUE,-44087,NetComm_CAN_Receive.vi:5470001<APPEND>  <b>Complete call chain:</b>      NetComm_CAN_Receive.vi:5470001      WPI_CAN_PDPReceive.vi      WPI_Power Get PDP Currents.vi      Periodic Tasks.vi      Robot Main.vi,-0.000000,0.000000,-0.000000,0.000000,TRUE,FALSE,FALSE,TRUE,FALSE,FALSE,Disabled,0.000000,0.000000,0.000000,TRUE,1.279205,-0.996155,0.000000,0.000000,0.006256,0.000000,-0.013000,0.017000,-0.018000,-0.010000,-0.210000,-0.520000,-0.242174,ResetBack,0.957764,-0.000049,ResetBack,-4179.000000,-0.250000,Suck,0.000000,1818.181818,Speed,0.000000,1818.181818,Speed,Off,Off,0.000000,FALSE,0,,,,,0.000000,0.000000
02:39:02.193 PM 04/02/2016,Teleop Disabled,10,TRUE,-44087,NetComm_CAN_Receive.vi:5470001<APPEND>  <b>Complete call chain:</b>      NetComm_CAN_Receive.vi:5470001      WPI_CAN_PDPReceive.vi      WPI_Power Get PDP Currents.vi      Periodic Tasks.vi      Robot Main.vi,-0.000000,0.000000,-0.000000,0.000000,TRUE,TRUE,FALSE,TRUE,FALSE,FALSE,Disabled,0.000000,0.000000,0.000000,TRUE,1.278824,-0.996750,0.000000,-0.024887,-0.042328,0.000000,0.036000,0.045000,-0.154000,-0.030000,-0.160000,-0.660000,-0.252050,ResetBack,0.957520,-0.000049,ResetBack,-4179.000000,-0.250000,Suck,0.000000,1818.181818,Speed,0.000000,1818.181818,Speed,Off,Off,0.000000,FALSE,0,,,,,0.000000,0.000000
02:39:02.294 PM 04/02/2016,Teleop Disabled,10,TRUE,-44087,NetComm_CAN_Receive.vi:5470001<APPEND>  <b>Complete call chain:</b>      NetComm_CAN_Receive.vi:5470001      WPI_CAN_PDPReceive.vi      WPI_Power Get PDP Currents.vi      Periodic Tasks.vi      Robot Main.vi,-0.000000,0.000000,-0.000000,0.000000,TRUE,TRUE,FALSE,TRUE,FALSE,FALSE,Disabled,0.000000,0.000000,0.000000,TRUE,1.277924,-0.998108,0.000000,-0.012421,-0.014679,0.000000,0.001000,0.004000,0.036000,-0.020000,-0.180000,-0.610000,-0.231450,ResetBack,0.957520,-0.000049,ResetBack,-4179.000000,-0.250000,Suck,0.000000,0.000000,Speed,0.000000,0.000000,Speed,Off,Off,0.000000,FALSE,0,,,,,0.000000,0.000000
02:39:02.395 PM 04/02/2016,Teleop Disabled,11,TRUE,-44087,NetComm_CAN_Receive.vi:5470001<APPEND>  <b>Complete call chain:</b>      NetComm_CAN_Receive.vi:5470001      WPI_CAN_PDPReceive.vi      WPI_Power Get PDP Currents.vi      Periodic Tasks.vi      Robot Main.vi,-0.000000,0.000000,-0.000000,0.000000,TRUE,FALSE,FALSE,TRUE,FALSE,FALSE,Disabled,0.000000,0.000000,0.000000,TRUE,1.277786,-0.998245,0.000000,0.000000,0.000000,0.000000,-0.003000,-0.053000,-0.035000,-0.020000,-0.120000,-0.730000,-0.228307,ResetBack,0.957520,-0.000049,ResetBack,-4179.000000,-0.250000,Suck,0.000000,0.000000,Speed,0.000000,0.000000,Speed,Off,Off,0.000000,FALSE,0,,,,,0.000000,0.000000
02:39:02.495 PM 04/02/2016,Teleop Disabled,10,TRUE,-44087,NetComm_CAN_Receive.vi:5470001<APPEND>  <b>Complete call chain:</b>      NetComm_CAN_Receive.vi:5470001      WPI_CAN_PDPReceive.vi      WPI_Power Get PDP Currents.vi      Periodic Tasks.vi      Robot Main.vi,-0.000000,0.000000,-0.000000,0.000000,TRUE,FALSE,FALSE,TRUE,FALSE,FALSE,Disabled,0.000000,0.000000,0.000000,TRUE,1.277527,-0.998627,0.000000,0.000000,0.000839,0.000000,-0.003000,0.009000,-0.004000,-0.020000,-0.180000,-0.570000,-0.237567,ResetBack,0.957520,-0.000049,ResetBack,-4179.000000,-0.250000,Suck,0.000000,1818.181818,Speed,0.000000,1818.181818,Speed,Off,Off,0.000000,FALSE,0,,,,,0.000000,0.000000
02:39:02.596 PM 04/02/2016,Teleop Disabled,10,TRUE,-44087,NetComm_CAN_Receive.vi:5470001<APPEND>  <b>Complete call chain:</b>      NetComm_CAN_Receive.vi:5470001      WPI_CAN_PDPReceive.vi      WPI_Power Get PDP Currents.vi      Periodic Tasks.vi      Robot Main.vi,-0.000000,0.000000,-0.000000,0.000000,TRUE,FALSE,FALSE,TRUE,FALSE,FALSE,Disabled,0.000000,0.000000,0.000000,TRUE,1.277527,-0.998383,0.000000,0.000000,0.007874,0.000000,-0.007000,0.073000,-0.125000,-0.030000,-0.190000,-0.590000,-0.223147,ResetBack,0.957520,-0.000049,ResetBack,-4179.000000,-0.250000,Suck,0.000000,1818.181818,Speed,0.000000,1818.181818,Speed,Off,Off,0.000000,FALSE,0,,,,,0.000000,0.000000
02:39:02.697 PM 04/02/2016,Teleop Disabled,10,TRUE,-44087,NetComm_CAN_Receive.vi:5470001<APPEND>  <b>Complete call chain:</b>      NetComm_CAN_Receive.vi:5470001      WPI_CAN_PDPReceive.vi      WPI_Power Get PDP Currents.vi      Periodic Tasks.vi      Robot Main.vi,-0.000000,0.000000,-0.000000,0.000000,TRUE,FALSE,FALSE,TRUE,FALSE,FALSE,Disabled,0.000000,0.000000,0.000000,TRUE,1.277649,-0.998154,0.000000,0.004257,0.000000,0.000000,0.000000,-0.010000,0.021000,-0.030000,-0.120000,-0.770000,-0.231419,ResetBack,0.957520,-0.000049,ResetBack,-4179.000000,-0.250000,Suck,0.000000,1818.181818,Speed,0.000000,1818.181818,Speed,Off,Off,0.000000,FALSE,0,,,,,0.000000,0.000000
02:39:02.797 PM 04/02/2016,Teleop Disabled,10,TRUE,-44087,NetComm_CAN_Receive.vi:5470001<APPEND>  <b>Complete call chain:</b>      NetComm_CAN_Receive.vi:5470001      WPI_CAN_PDPReceive.vi      WPI_Power Get PDP Currents.vi      Periodic Tasks.vi      Robot Main.vi,-0.000000,0.000000,-0.000000,0.000000,TRUE,FALSE,FALSE,TRUE,FALSE,FALSE,Disabled,0.000000,0.000000,0.000000,TRUE,1.277649,-0.998322,0.000000,0.000000,-0.007675,0.000000,0.010000,-0.002000,-0.006000,-0.030000,-0.160000,-0.640000,-0.250164,ResetBack,0.957520,-0.000049,ResetBack,-4179.000000,-0.250000,Suck,0.000000,1818.181818,Speed,0.000000,1818.181818,Speed,Off,Off,0.000000,FALSE,0,,,,,0.000000,0.000000
02:39:02.896 PM 04/02/2016,Teleop Disabled,11,TRUE,-44087,NetComm_CAN_Receive.vi:5470001<APPEND>  <b>Complete call chain:</b>      NetComm_CAN_Receive.vi:5470001      WPI_CAN_PDPReceive.vi      WPI_Power Get PDP Currents.vi      Periodic Tasks.vi      Robot Main.vi,-0.000000,0.000000,-0.000000,0.000000,TRUE,FALSE,FALSE,TRUE,FALSE,FALSE,Disabled,0.000000,0.000000,0.000000,TRUE,1.277649,-0.998199,0.000000,0.000000,0.006439,0.000000,0.000000,-0.004000,0.000000,-0.040000,-0.160000,-0.620000,-0.258051,ResetBack,0.957520,-0.000049,ResetBack,-4179.000000,-0.250000,Suck,0.000000,1818.181818,Speed,0.000000,1818.181818,Speed,Off,Off,0.000000,FALSE,0,,,,,0.000000,0.000000
02:39:02.996 PM 04/02/2016,Teleop Disabled,9,TRUE,-44087,NetComm_CAN_Receive.vi:5470001<APPEND>  <b>Complete call chain:</b>      NetComm_CAN_Receive.vi:5470001      WPI_CAN_PDPReceive.vi      WPI_Power Get PDP Currents.vi      Periodic Tasks.vi      Robot Main.vi,-0.000000,0.000000,-0.000000,0.000000,TRUE,TRUE,FALSE,TRUE,FALSE,FALSE,Disabled,0.000000,0.000000,0.000000,TRUE,1.277649,-0.998199,0.000000,0.000000,0.000000,0.000000,0.000000,-0.004000,0.000000,-0.040000,-0.120000,-0.760000,-0.260808,ResetBack,0.957520,-0.000049,ResetBack,-4179.000000,-0.250000,Suck,0.000000,1818.181818,Speed,0.000000,1818.181818,Speed,Off,Off,0.000000,FALSE,0,,,,,0.000000,0.000000
02:39:03.097 PM 04/02/2016,Teleop Disabled,10,TRUE,-44087,NetComm_CAN_Receive.vi:5470001<APPEND>  <b>Complete call chain:</b>      NetComm_CAN_Receive.vi:5470001      WPI_CAN_PDPReceive.vi      WPI_Power Get PDP Currents.vi      Periodic Tasks.vi      Robot Main.vi,-0.000000,0.000000,-0.000000,0.000000,TRUE,TRUE,FALSE,TRUE,FALSE,FALSE,Disabled,0.000000,0.000000,0.000000,TRUE,1.277649,-0.998199,0.000000,0.000000,0.000000,0.000000,0.001000,0.012000,-0.005000,-0.030000,-0.160000,-0.620000,-0.257527,ResetBack,0.957520,-0.000049,ResetBack,-4179.000000,-0.250000,Suck,0.000000,0.000000,Speed,0.000000,0.000000,Speed,Off,Off,0.000000,FALSE,0,,,,,0.000000,0.000000
02:39:03.197 PM 04/02/2016,Teleop Disabled,11,TRUE,-44087,NetComm_CAN_Receive.vi:5470001<APPEND>  <b>Complete call chain:</b>      NetComm_CAN_Receive.vi:5470001      WPI_CAN_PDPReceive.vi      WPI_Power Get PDP Currents.vi      Periodic Tasks.vi      Robot Main.vi,-0.000000,0.000000,-0.000000,0.000000,TRUE,FALSE,FALSE,TRUE,FALSE,FALSE,Disabled,0.000000,0.000000,0.000000,TRUE,1.277649,-0.998199,0.000000,0.000000,0.000000,0.000000,0.000000,-0.003000,0.007000,-0.040000,-0.150000,-0.690000,-0.261135,ResetBack,0.957520,-0.000049,ResetBack,-4179.000000,-0.250000,Suck,0.000000,0.000000,Speed,0.000000,0.000000,Speed,Off,Off,0.000000,FALSE,0,,,,,0.000000,0.000000
02:39:03.298 PM 04/02/2016,Teleop Disabled,11,TRUE,-44087,NetComm_CAN_Receive.vi:5470001<APPEND>  <b>Complete call chain:</b>      NetComm_CAN_Receive.vi:5470001      WPI_CAN_PDPReceive.vi      WPI_Power Get PDP Currents.vi      Periodic Tasks.vi      Robot Main.vi,-0.000000,0.000000,-0.000000,0.000000,TRUE,FALSE,FALSE,TRUE,FALSE,FALSE,Disabled,0.000000,0.000000,0.000000,TRUE,1.277649,-0.998199,0.000000,0.000000,0.000000,0.000000,0.000000,0.000000,0.013000,-0.040000,-0.140000,-0.710000,-0.267604,ResetBack,0.957520,-0.000049,ResetBack,-4179.000000,-0.250000,Suck,0.000000,1818.181818,Speed,0.000000,1818.181818,Speed,Off,Off,0.000000,FALSE,0,,,,,0.000000,0.000000
02:39:03.398 PM 04/02/2016,Teleop Disabled,11,TRUE,-44087,NetComm_CAN_Receive.vi:5470001<APPEND>  <b>Complete call chain:</b>      NetComm_CAN_Receive.vi:5470001      WPI_CAN_PDPReceive.vi      WPI_Power Get PDP Currents.vi      Periodic Tasks.vi      Robot Main.vi,-0.000000,0.000000,-0.000000,0.000000,TRUE,FALSE,FALSE,TRUE,FALSE,FALSE,Disabled,0.000000,0.000000,0.000000,TRUE,1.277649,-0.998199,0.000000,0.000000,0.000000,0.000000,-0.004000,0.004000,0.004000,-0.040000,-0.170000,-0.620000,-0.267335,ResetBack,0.957520,-0.000049,ResetBack,-4179.000000,-0.250000,Suck,0.000000,1818.181818,Speed,0.000000,1818.181818,Speed,Off,Off,0.000000,FALSE,0,,,,,0.000000,0.000000
02:39:03.498 PM 04/02/2016,Teleop Disabled,11,TRUE,-44087,NetComm_CAN_Receive.vi:5470001<APPEND>  <b>Complete call chain:</b>      NetComm_CAN_Receive.vi:5470001      WPI_CAN_PDPReceive.vi      WPI_Power Get PDP Currents.vi      Periodic Tasks.vi      Robot Main.vi,-0.000000,0.000000,-0.000000,0.000000,TRUE,FALSE,FALSE,TRUE,FALSE,FALSE,Disabled,0.000000,0.000000,0.000000,TRUE,1.277649,-0.998199,0.000000,0.000000,0.000000,0.000000,0.003000,-0.001000,0.014000,-0.040000,-0.140000,-0.700000,-0.286035,ResetBack,0.957520,-0.000049,ResetBack,-4179.000000,-0.250000,Suck,0.000000,1818.181818,Speed,0.000000,1818.181818,Speed,Off,Off,0.000000,FALSE,0,,,,,0.000000,0.000000
02:39:03.599 PM 04/02/2016,Teleop Disabled,11,TRUE,-44087,NetComm_CAN_Receive.vi:5470001<APPEND>  <b>Complete call chain:</b>      NetComm_CAN_Receive.vi:5470001      WPI_CAN_PDPReceive.vi      WPI_Power Get PDP Currents.vi      Periodic Tasks.vi      Robot Main.vi,-0.000000,0.000000,-0.000000,0.000000,TRUE,FALSE,FALSE,TRUE,FALSE,FALSE,Disabled,0.000000,0.000000,0.000000,TRUE,1.277649,-0.998199,0.000000,0.000000,0.000000,0.000000,0.003000,0.005000,0.010000,-0.040000,-0.150000,-0.690000,-0.289302,ResetBack,0.957520,-0.000049,ResetBack,-4179.000000,-0.250000,Suck,0.000000,1818.181818,Speed,0.000000,1818.181818,Speed,Off,Off,0.000000,FALSE,0,,,,,0.000000,0.000000
02:39:03.700 PM 04/02/2016,Teleop Disabled,11,TRUE,-44087,NetComm_CAN_Receive.vi:5470001<APPEND>  <b>Complete call chain:</b>      NetComm_CAN_Receive.vi:5470001      WPI_CAN_PDPReceive.vi      WPI_Power Get PDP Currents.vi      Periodic Tasks.vi      Robot Main.vi,-0.000000,0.000000,-0.000000,0.000000,TRUE,FALSE,FALSE,TRUE,FALSE,FALSE,Disabled,0.000000,0.000000,0.000000,TRUE,1.277649,-0.998199,0.000000,0.000000,0.000000,0.000000,0.003000,0.000000,0.006000,-0.040000,-0.170000,-0.630000,-0.281340,ResetBack,0.957520,-0.000049,ResetBack,-4179.000000,-0.250000,Suck,0.000000,1818.181818,Speed,0.000000,1818.181818,Speed,Off,Off,0.000000,FALSE,0,,,,,0.000000,0.000000
02:39:03.800 PM 04/02/2016,Teleop Disabled,10,TRUE,-44087,NetComm_CAN_Receive.vi:5470001<APPEND>  <b>Complete call chain:</b>      NetComm_CAN_Receive.vi:5470001      WPI_CAN_PDPReceive.vi      WPI_Power Get PDP Currents.vi      Periodic Tasks.vi      Robot Main.vi,-0.000000,0.000000,-0.000000,0.000000,TRUE,TRUE,FALSE,TRUE,FALSE,FALSE,Disabled,0.000000,0.000000,0.000000,TRUE,1.277649,-0.998199,0.000000,0.000000,0.000000,0.000000,-0.003000,-0.007000,0.013000,-0.050000,-0.140000,-0.710000,-0.273384,ResetBack,0.957520,-0.000049,ResetBack,-4179.000000,-0.250000,Suck,0.000000,1818.181818,Speed,0.000000,1818.181818,Speed,Off,Off,0.000000,FALSE,0,,,,,0.000000,0.000000
02:39:03.899 PM 04/02/2016,Teleop Disabled,10,TRUE,-44087,NetComm_CAN_Receive.vi:5470001<APPEND>  <b>Complete call chain:</b>      NetComm_CAN_Receive.vi:5470001      WPI_CAN_PDPReceive.vi      WPI_Power Get PDP Currents.vi      Periodic Tasks.vi      Robot Main.vi,-0.000000,0.000000,-0.000000,0.000000,TRUE,TRUE,FALSE,TRUE,FALSE,FALSE,Disabled,0.000000,0.000000,0.000000,TRUE,1.277649,-0.998199,0.000000,0.000000,0.000000,0.000000,-0.001000,0.006000,0.002000,-0.040000,-0.170000,-0.640000,-0.257720,ResetBack,0.957520,-0.000049,ResetBack,-4179.000000,-0.250000,Suck,0.000000,0.000000,Speed,0.000000,0.000000,Speed,Off,Off,0.000000,FALSE,0,,,,,0.000000,0.000000
02:39:04.001 PM 04/02/2016,Teleop Disabled,10,TRUE,-44087,NetComm_CAN_Receive.vi:5470001<APPEND>  <b>Complete call chain:</b>      NetComm_CAN_Receive.vi:5470001      WPI_CAN_PDPReceive.vi      WPI_Power Get PDP Currents.vi      Periodic Tasks.vi      Robot Main.vi,-0.000000,0.000000,-0.000000,0.000000,TRUE,FALSE,FALSE,TRUE,FALSE,FALSE,Disabled,0.000000,0.000000,0.000000,TRUE,1.277649,-0.998199,0.000000,0.000000,0.000000,0.000000,0.000000,0.000000,0.003000,-0.040000,-0.170000,-0.640000,-0.272812,ResetBack,0.957520,-0.000049,ResetBack,-4179.000000,-0.250000,Suck,0.000000,0.000000,Speed,0.000000,0.000000,Speed,Off,Off,0.000000,FALSE,0,,,,,0.000000,0.000000
02:39:04.102 PM 04/02/2016,Teleop Disabled,9,TRUE,-44087,NetComm_CAN_Receive.vi:5470001<APPEND>  <b>Complete call chain:</b>      NetComm_CAN_Receive.vi:5470001      WPI_CAN_PDPReceive.vi      WPI_Power Get PDP Currents.vi      Periodic Tasks.vi      Robot Main.vi,-0.000000,0.000000,-0.000000,0.000000,TRUE,FALSE,FALSE,TRUE,FALSE,FALSE,Disabled,0.000000,0.000000,0.000000,TRUE,1.277649,-0.998199,0.000000,0.000000,0.000000,0.000000,0.002000,-0.001000,0.013000,-0.050000,-0.160000,-0.690000,-0.263008,ResetBack,0.957520,-0.000049,ResetBack,-4179.000000,-0.250000,Suck,0.000000,0.000000,Speed,0.000000,0.000000,Speed,Off,Off,0.000000,FALSE,0,,,,,0.000000,0.000000
02:39:04.202 PM 04/02/2016,Teleop Disabled,9,TRUE,-44087,NetComm_CAN_Receive.vi:5470001<APPEND>  <b>Complete call chain:</b>      NetComm_CAN_Receive.vi:5470001      WPI_CAN_PDPReceive.vi      WPI_Power Get PDP Currents.vi      Periodic Tasks.vi      Robot Main.vi,-0.000000,0.000000,-0.000000,0.000000,TRUE,FALSE,FALSE,TRUE,FALSE,FALSE,Disabled,0.000000,0.000000,0.000000,TRUE,1.277649,-0.998199,0.000000,0.000000,0.000000,0.000000,-0.003000,0.001000,0.004000,-0.050000,-0.170000,-0.640000,-0.259989,ResetBack,0.957520,-0.000049,ResetBack,-4179.000000,-0.250000,Suck,0.000000,1818.181818,Speed,0.000000,1818.181818,Speed,Off,Off,0.000000,FALSE,0,,,,,0.000000,0.000000
02:39:04.303 PM 04/02/2016,Teleop Disabled,11,TRUE,-44087,NetComm_CAN_Receive.vi:5470001<APPEND>  <b>Complete call chain:</b>      NetComm_CAN_Receive.vi:5470001      WPI_CAN_PDPReceive.vi      WPI_Power Get PDP Currents.vi      Periodic Tasks.vi      Robot Main.vi,-0.000000,0.000000,-0.000000,0.000000,TRUE,FALSE,FALSE,TRUE,FALSE,FALSE,Disabled,0.000000,0.000000,0.000000,TRUE,1.277649,-0.998199,0.000000,0.000000,0.000000,0.000000,0.000000,-0.004000,0.017000,-0.050000,-0.170000,-0.650000,-0.266113,ResetBack,0.957520,-0.000049,ResetBack,-4179.000000,-0.250000,Suck,0.000000,1818.181818,Speed,0.000000,1818.181818,Speed,Off,Off,0.000000,FALSE,0,,,,,0.000000,0.000000
02:39:04.405 PM 04/02/2016,Teleop Disabled,9,TRUE,-44087,NetComm_CAN_Receive.vi:5470001<APPEND>  <b>Complete call chain:</b>      NetComm_CAN_Receive.vi:5470001      WPI_CAN_PDPReceive.vi      WPI_Power Get PDP Currents.vi      Periodic Tasks.vi      Robot Main.vi,-0.000000,0.000000,-0.000000,0.000000,TRUE,FALSE,FALSE,TRUE,FALSE,FALSE,Disabled,0.000000,0.000000,0.000000,TRUE,1.277649,-0.998199,0.000000,0.000000,0.000000,0.000000,0.000000,0.000000,0.015000,-0.060000,-0.160000,-0.680000,-0.257937,ResetBack,0.957520,-0.000049,ResetBack,-4179.000000,-0.250000,Suck,0.000000,1818.181818,Speed,0.000000,1818.181818,Speed,Off,Off,0.000000,FALSE,0,,,,,0.000000,0.000000
02:39:04.505 PM 04/02/2016,Teleop Disabled,10,TRUE,-44087,NetComm_CAN_Receive.vi:5470001<APPEND>  <b>Complete call chain:</b>      NetComm_CAN_Receive.vi:5470001      WPI_CAN_PDPReceive.vi      WPI_Power Get PDP Currents.vi      Periodic Tasks.vi      Robot Main.vi,-0.000000,0.000000,-0.000000,0.000000,TRUE,FALSE,FALSE,TRUE,FALSE,FALSE,Disabled,0.000000,0.000000,0.000000,TRUE,1.277649,-0.998199,0.000000,0.000000,0.000000,0.000000,0.000000,0.002000,0.010000,-0.060000,-0.180000,-0.640000,-0.265163,ResetBack,0.957520,-0.000049,ResetBack,-4179.000000,-0.250000,Suck,0.000000,1818.181818,Speed,0.000000,1818.181818,Speed,Off,Off,0.000000,FALSE,0,,,,,0.000000,0.000000
02:39:04.607 PM 04/02/2016,Teleop Disabled,9,TRUE,-44087,NetComm_CAN_Receive.vi:5470001<APPEND>  <b>Complete call chain:</b>      NetComm_CAN_Receive.vi:5470001      WPI_CAN_PDPReceive.vi      WPI_Power Get PDP Currents.vi      Periodic Tasks.vi      Robot Main.vi,-0.000000,0.000000,-0.000000,0.000000,TRUE,FALSE,FALSE,TRUE,FALSE,FALSE,Disabled,0.000000,0.000000,0.000000,TRUE,1.277649,-0.998199,0.000000,0.000000,0.000000,0.000000,0.002000,-0.001000,0.012000,-0.060000,-0.170000,-0.670000,-0.274127,ResetBack,0.957520,-0.000049,ResetBack,-4179.000000,-0.250000,Suck,0.000000,1818.181818,Speed,0.000000,1818.181818,Speed,Off,Off,0.000000,FALSE,0,,,,,0.000000,0.000000
02:39:04.707 PM 04/02/2016,Teleop Disabled,10,TRUE,-44087,NetComm_CAN_Receive.vi:5470001<APPEND>  <b>Complete call chain:</b>      NetComm_CAN_Receive.vi:5470001      WPI_CAN_PDPReceive.vi      WPI_Power Get PDP Currents.vi      Periodic Tasks.vi      Robot Main.vi,-0.000000,0.000000,-0.000000,0.000000,TRUE,TRUE,FALSE,TRUE,FALSE,FALSE,Disabled,0.000000,0.000000,0.000000,TRUE,1.277649,-0.998199,0.000000,0.000000,0.000000,0.000000,0.000000,0.001000,0.011000,-0.060000,-0.170000,-0.660000,-0.275119,ResetBack,0.957520,-0.000049,ResetBack,-4179.000000,-0.250000,Suck,0.000000,1818.181818,Speed,0.000000,1818.181818,Speed,Off,Off,0.000000,FALSE,0,,,,,0.000000,0.000000
02:39:04.807 PM 04/02/2016,Teleop Disabled,11,TRUE,-44087,NetComm_CAN_Receive.vi:5470001<APPEND>  <b>Complete call chain:</b>      NetComm_CAN_Receive.vi:5470001      WPI_CAN_PDPReceive.vi      WPI_Power Get PDP Currents.vi      Periodic Tasks.vi      Robot Main.vi,-0.000000,0.000000,-0.000000,0.000000,TRUE,TRUE,FALSE,TRUE,FALSE,FALSE,Disabled,0.000000,0.000000,0.000000,TRUE,1.277649,-0.998199,0.000000,0.000000,0.000000,0.000000,0.002000,0.000000,0.006000,-0.060000,-0.180000,-0.640000,-0.255410,ResetBack,0.957520,-0.000049,ResetBack,-4179.000000,-0.250000,Suck,0.000000,0.000000,Speed,0.000000,0.000000,Speed,Off,Off,0.000000,FALSE,0,,,,,0.000000,0.000000
02:39:04.909 PM 04/02/2016,Teleop Disabled,9,TRUE,-44087,NetComm_CAN_Receive.vi:5470001<APPEND>  <b>Complete call chain:</b>      NetComm_CAN_Receive.vi:5470001      WPI_CAN_PDPReceive.vi      WPI_Power Get PDP Currents.vi      Periodic Tasks.vi      Robot Main.vi,-0.000000,0.000000,-0.000000,0.000000,TRUE,FALSE,FALSE,TRUE,FALSE,FALSE,Disabled,0.000000,0.000000,0.000000,TRUE,1.277649,-0.998199,0.000000,0.000000,0.000000,0.000000,0.002000,-0.001000,0.014000,-0.060000,-0.160000,-0.680000,-0.265363,ResetBack,0.957520,-0.000049,ResetBack,-4179.000000,-0.250000,Suck,0.000000,0.000000,Speed,0.000000,0.000000,Speed,Off,Off,0.000000,FALSE,0,,,,,0.000000,0.000000
