Time,Robot Mode,Loop Time,Error Status,Error Code,Error Source,Left Motor Output,Left Motor Encoder,Right Motor Output,Right Motor Encoder,Is Level,Is Stalled,Ball Detector Photoeye,Vision Enabled,Vision Teleop Control,Vision Auto Control,Vision Current State,Vision X Output,Vision NavX Error,Vision NavX Target,NavX Connection Status,NavX Displacement X,NavX Displacement Y,NavX Displacement Z,NavX Velocity X,NavX Velocity Y,NavX Velocity Z,NavX Acceleration X,NavX Acceleration Y,NavX Acceleration Z,NavX Pitch,NavX Yaw,NavX Roll,Gyro Angle,Roller Arm State,Roller Arm Actual,Roller Arm Desired,Shooter Arm State,Shooter Arm Actual,Shooter Arm Desired,Shooter State,Actual RPM Left,Desired RPM Left,Control Mode Left,Actual RPM Right,Desired RPM Right,Control Mode Right,Ball Shooter Cylinder,Ball Halo Cylinder,Scaler Motor Output,Scaler Solenoid Fire,Auto To Run,Auto Current File,Auto File Status,Auto Current Command,Auto Trimmed Command,Shooter Amps Left,Shooter Amps Right
08:34:59.758 PM 04/05/2016,Teleop Enabled,11,TRUE,-44005,<LOCATION>WPI_CameraWait for Raw Image String.vi:6640001<CALLSTACK>WPI_CameraWait for Raw Image String.vi:6640001< <WPI_CameraGet Image.vi< <Vision Processing.vi< <Robot Main.vi,-0.000000,0.000000,-0.000000,0.000000,TRUE,FALSE,TRUE,FALSE,FALSE,FALSE,Disabled,0.000000,0.000000,0.000000,TRUE,0.003769,0.022995,0.000000,0.000000,0.000000,0.000000,0.000000,0.000000,0.020000,-0.050000,0.220000,2.320000,-0.198539,ResetBack,0.000000,-0.000049,ResetBack,0.000000,-0.250000,LowGoal,0.000000,-2181.818182,Speed,0.000000,-2181.818182,Speed,Off,Off,0.000000,FALSE,0,,,,,0.000000,0.000000
08:34:59.860 PM 04/05/2016,Teleop Enabled,11,TRUE,-1074396154,,-0.000000,0.000000,-0.000000,0.000000,TRUE,FALSE,TRUE,FALSE,FALSE,FALSE,Disabled,0.000000,0.000000,0.000000,TRUE,0.003769,0.022995,0.000000,0.000000,0.000000,0.000000,0.119000,0.057000,0.118000,-0.050000,0.220000,2.320000,-0.197486,ResetBack,0.000000,-0.000049,ResetBack,0.000000,-0.250000,LowGoal,0.000000,-2181.818182,Speed,0.000000,-2181.818182,Speed,Off,Off,0.000000,FALSE,0,,,,,0.000000,0.000000
08:34:59.960 PM 04/05/2016,Teleop Enabled,10,TRUE,-44005,<LOCATION>WPI_CameraWait for Raw Image String.vi:6640001<CALLSTACK>WPI_CameraWait for Raw Image String.vi:6640001< <WPI_CameraGet Image.vi< <Vision Processing.vi< <Robot Main.vi,-0.000000,-0.025667,-0.000000,-0.038500,TRUE,FALSE,TRUE,FALSE,FALSE,FALSE,Disabled,0.000000,0.000000,0.000000,TRUE,0.004547,0.024536,0.000000,0.006897,0.051437,0.000000,0.018000,-0.044000,-0.072000,-0.040000,0.260000,2.310000,-0.189138,ResetBack,0.000000,-0.000049,ResetBack,1600.000000,-0.250000,LowGoal,112.500000,-2181.818182,Speed,30.000000,-2181.818182,Speed,Off,Off,0.000000,FALSE,0,,,,,0.000000,0.000000
08:35:00.060 PM 04/05/2016,Teleop Enabled,11,TRUE,-1074396154,,-0.000000,-0.077000,-0.000000,-0.160416,TRUE,FALSE,TRUE,FALSE,FALSE,FALSE,Disabled,0.000000,0.000000,0.000000,TRUE,0.005798,0.026138,0.000000,0.041306,0.019608,0.000000,-0.002000,0.077000,0.011000,0.120000,0.380000,2.340000,-0.052816,ResetBack,0.000000,-0.000049,ResetBack,4973.000000,-0.250000,LowGoal,780.000000,-2181.818182,Speed,592.500000,-2181.818182,Speed,Off,Off,0.000000,FALSE,0,,,,,0.000000,0.000000
08:35:00.160 PM 04/05/2016,Teleop Enabled,12,FALSE,0,NO ERROR,-0.000000,-0.102666,-0.000000,-0.160416,TRUE,FALSE,TRUE,FALSE,FALSE,FALSE,Disabled,0.000000,0.000000,0.000000,TRUE,0.006226,0.028809,0.000000,0.015274,0.043747,0.000000,0.060000,0.039000,-0.059000,0.020000,0.200000,2.310000,-0.113670,Reset,0.000000,0.000000,ResetBack,9491.000000,-0.250000,LowGoal,1440.000000,-2181.818182,Speed,1320.000000,-2181.818182,Speed,Off,Off,0.000000,FALSE,0,,,,,0.000000,0.000000
08:35:00.259 PM 04/05/2016,Teleop Enabled,11,FALSE,0,NO ERROR,-0.000000,-0.115500,-0.000000,-0.160416,TRUE,FALSE,TRUE,FALSE,FALSE,FALSE,Disabled,0.000000,0.000000,0.000000,TRUE,0.006775,0.029633,0.000000,-0.006805,0.001953,0.000000,0.004000,-0.023000,0.040000,0.020000,0.310000,2.280000,-0.125585,Hold,0.000000,0.000000,ResetBack,14018.000000,-0.250000,LowGoal,2062.500000,-2181.818182,Speed,1942.500000,-2181.818182,Speed,Off,Off,0.000000,FALSE,0,,,,,0.000000,0.000000
08:35:00.360 PM 04/05/2016,Teleop Enabled,11,FALSE,0,NO ERROR,-0.000000,-0.115500,-0.000000,-0.160416,TRUE,FALSE,TRUE,FALSE,FALSE,FALSE,Disabled,0.000000,0.000000,0.000000,TRUE,0.006409,0.030289,0.000000,0.016922,0.007874,0.000000,0.068000,-0.044000,0.237000,0.010000,0.330000,2.310000,-0.140332,Hold,0.000000,0.000000,ResetBack,20458.000000,-0.250000,LowGoal,2272.500000,-2181.818182,Speed,2220.000000,-2181.818182,Speed,Off,Off,0.000000,FALSE,0,,,,,0.000000,0.000000
08:35:00.460 PM 04/05/2016,Teleop Enabled,11,FALSE,0,NO ERROR,-0.000000,-0.115500,-0.000000,-0.160416,TRUE,FALSE,TRUE,FALSE,FALSE,FALSE,Disabled,0.000000,0.000000,0.000000,TRUE,0.006836,0.029007,0.000000,0.000000,-0.054291,0.000000,-0.016000,0.018000,0.018000,0.030000,0.310000,2.270000,-0.120910,Hold,0.000000,0.000000,ResetBack,20458.000000,-0.250000,LowGoal,2250.000000,-2181.818182,Speed,2085.000000,-2181.818182,Speed,Off,Off,0.000000,FALSE,0,,,,,0.000000,0.000000
08:35:00.561 PM 04/05/2016,Teleop Enabled,12,FALSE,0,NO ERROR,-0.000000,-0.115500,-0.000000,-0.160416,TRUE,FALSE,TRUE,FALSE,FALSE,FALSE,Disabled,0.000000,0.000000,0.000000,TRUE,0.004852,0.027481,0.000000,-0.078049,-0.028259,0.000000,-0.015000,0.000000,-0.075000,0.010000,0.600000,2.270000,-0.131079,Hold,0.000000,0.000000,ResetBack,27105.000000,-0.250000,LowGoal,2182.500000,-2181.818182,Speed,2122.500000,-2181.818182,Speed,Off,Off,0.000000,FALSE,0,,,,,0.000000,0.000000
08:35:00.661 PM 04/05/2016,Teleop Enabled,10,FALSE,0,NO ERROR,-0.000000,-0.115500,-0.000000,-0.160416,TRUE,FALSE,TRUE,FALSE,FALSE,FALSE,Disabled,0.000000,0.000000,0.000000,TRUE,-0.000519,0.026367,0.000000,-0.121216,-0.024689,0.000000,-0.002000,-0.065000,-0.015000,0.010000,0.560000,2.260000,-0.105700,Hold,0.000000,0.000000,ResetBack,31335.000000,-0.250000,LowGoal,2167.500000,-2181.818182,Speed,2122.500000,-2181.818182,Speed,Off,Off,0.000000,FALSE,0,,,,,0.000000,0.000000
08:35:00.761 PM 04/05/2016,Teleop Enabled,11,FALSE,0,NO ERROR,-0.000000,-0.173250,-0.000000,-0.160416,TRUE,FALSE,TRUE,FALSE,FALSE,FALSE,Disabled,0.000000,0.000000,0.000000,TRUE,-0.006409,0.024429,0.000000,-0.125198,-0.045486,0.000000,0.005000,-0.101000,-0.042000,-0.050000,0.600000,2.230000,-0.152409,Hold,0.000000,0.000000,ResetBack,33063.000000,-0.250000,LowGoal,2182.500000,-2181.818182,Speed,2160.000000,-2181.818182,Speed,Off,Off,0.000000,FALSE,0,,,,,0.000000,0.000000
08:35:00.862 PM 04/05/2016,Teleop Enabled,11,FALSE,0,NO ERROR,-0.000000,-0.179666,-0.000000,-0.160416,TRUE,FALSE,TRUE,FALSE,FALSE,FALSE,Disabled,0.000000,0.000000,0.000000,TRUE,-0.007858,0.020096,0.000000,-0.011581,-0.108032,0.000000,-0.014000,-0.090000,-0.026000,-0.100000,0.770000,2.180000,-0.188170,Hold,0.000000,0.000000,ResetBack,34742.000000,-0.250000,LowGoal,2190.000000,-2181.818182,Speed,2137.500000,-2181.818182,Speed,Off,Off,0.000000,FALSE,0,,,,,0.000000,0.000000
08:35:00.962 PM 04/05/2016,Teleop Enabled,11,FALSE,0,NO ERROR,-0.000000,-0.179666,-0.000000,-0.160416,TRUE,FALSE,TRUE,FALSE,FALSE,FALSE,Disabled,0.000000,0.000000,0.000000,TRUE,-0.010208,0.014267,0.000000,-0.103775,-0.109894,0.000000,-0.161000,0.021000,0.018000,-0.070000,0.610000,2.250000,-0.183395,Hold,0.000000,0.000000,ResetBack,36018.000000,-0.250000,LowGoal,2190.000000,-2181.818182,Speed,2115.000000,-2181.818182,Speed,Off,Off,0.000000,FALSE,0,,,,,0.000000,0.000000
08:35:01.063 PM 04/05/2016,Teleop Enabled,11,FALSE,0,NO ERROR,-0.000000,-0.179666,-0.000000,-0.160416,TRUE,FALSE,TRUE,FALSE,FALSE,FALSE,Disabled,0.000000,0.000000,0.000000,TRUE,-0.017853,0.009674,0.000000,-0.158539,-0.082184,0.000000,0.021000,-0.028000,-0.053000,-0.070000,0.590000,2.300000,-0.198663,Hold,0.000000,0.000000,Reset,36018.000000,2.000000,LowGoal,2182.500000,-2181.818182,Speed,2107.500000,-2181.818182,Speed,Off,Off,0.000000,FALSE,0,,,,,0.000000,0.000000
08:35:01.162 PM 04/05/2016,Teleop Enabled,10,FALSE,0,NO ERROR,-0.000000,-0.179666,-0.000000,-0.160416,TRUE,FALSE,TRUE,FALSE,FALSE,FALSE,Disabled,0.000000,0.000000,0.000000,TRUE,-0.029083,0.005676,0.000000,-0.253220,-0.023651,0.000000,-0.232000,0.154000,0.031000,-0.080000,0.630000,2.330000,-0.196560,Hold,0.000000,0.000000,Hold,36.000000,2.000000,HighGoal,2167.500000,-3272.727273,Speed,2107.500000,-3272.727273,Speed,Off,Off,0.000000,FALSE,0,,,,,0.000000,0.000000
08:35:01.263 PM 04/05/2016,Teleop Enabled,10,FALSE,0,NO ERROR,-0.000000,-0.179666,-0.000000,-0.160416,TRUE,FALSE,TRUE,FALSE,FALSE,FALSE,Disabled,0.000000,0.000000,0.000000,TRUE,-0.047211,0.009445,0.000000,-0.413376,0.147675,0.000000,0.094000,0.166000,0.246000,-0.070000,0.530000,2.370000,-0.190728,Hold,0.000000,0.000000,Hold,-114.000000,2.000000,HighGoal,2175.000000,-3272.727273,Speed,2122.500000,-3272.727273,Speed,Off,Off,0.000000,FALSE,0,,,,,0.000000,0.000000
08:35:01.364 PM 04/05/2016,Teleop Enabled,9,FALSE,0,NO ERROR,-0.000000,-0.179666,-0.000000,-0.160416,TRUE,FALSE,TRUE,FALSE,FALSE,FALSE,Disabled,0.000000,0.000000,0.000000,TRUE,-0.070206,0.022125,0.000000,-0.489029,0.339432,0.000000,0.019000,0.294000,0.016000,-0.070000,0.590000,2.340000,-0.203534,Hold,0.000000,0.000000,Hold,-114.000000,2.000000,HighGoal,2437.500000,-3272.727273,Speed,2332.500000,-3272.727273,Speed,Off,Off,0.000000,FALSE,0,,,,,0.000000,0.000000
08:35:01.464 PM 04/05/2016,Teleop Enabled,7,FALSE,0,NO ERROR,-0.000000,-0.179666,-0.000000,-0.160416,TRUE,FALSE,TRUE,FALSE,FALSE,FALSE,Disabled,0.000000,0.000000,0.000000,TRUE,-0.094116,0.037720,0.000000,-0.514465,0.312668,0.000000,0.200000,-0.422000,-0.217000,-0.070000,0.550000,2.390000,-0.205352,Hold,0.000000,0.000000,Hold,-114.000000,2.000000,HighGoal,2760.000000,-3272.727273,Speed,2632.500000,-3272.727273,Speed,Off,Off,0.000000,FALSE,0,,,,,0.000000,0.000000
08:35:01.564 PM 04/05/2016,Teleop Enabled,10,FALSE,0,NO ERROR,-0.000000,-0.179666,-0.000000,-0.160416,TRUE,FALSE,TRUE,FALSE,FALSE,FALSE,Disabled,0.000000,0.000000,0.000000,TRUE,-0.123459,0.054108,0.000000,-0.504333,0.284683,0.000000,-0.068000,-0.168000,-0.114000,-0.080000,0.660000,2.320000,-0.233357,Hold,0.000000,0.000000,Hold,-114.000000,2.000000,HighGoal,3030.000000,-3272.727273,Speed,2842.500000,-3272.727273,Speed,Off,Off,0.000000,FALSE,0,,,,,0.000000,0.000000
08:35:01.664 PM 04/05/2016,Teleop Enabled,10,FALSE,0,NO ERROR,-0.000000,-0.179666,-0.000000,-0.160416,TRUE,FALSE,TRUE,FALSE,FALSE,FALSE,Disabled,0.000000,0.000000,0.000000,TRUE,-0.142822,0.065277,0.000000,-0.465714,0.277206,0.000000,0.112000,0.216000,0.039000,-0.080000,0.660000,2.320000,-0.244883,Hold,0.000000,0.000000,Hold,-114.000000,2.000000,HighGoal,3232.500000,-3272.727273,Speed,3052.500000,-3272.727273,Speed,Off,Off,0.000000,FALSE,0,,,,,0.000000,0.000000
08:35:01.765 PM 04/05/2016,Teleop Enabled,10,FALSE,0,NO ERROR,-0.000000,-0.179666,-0.000000,-0.160416,TRUE,FALSE,TRUE,FALSE,FALSE,FALSE,Disabled,0.000000,0.000000,0.000000,TRUE,-0.166824,0.078415,0.000000,-0.494034,0.260437,0.000000,0.007000,0.177000,0.087000,-0.080000,0.620000,2.380000,-0.215487,Hold,0.000000,0.000000,Hold,-114.000000,2.000000,HighGoal,3285.000000,-3272.727273,Speed,3157.500000,-3272.727273,Speed,Off,Off,0.000000,FALSE,0,,,,,0.000000,0.000000
08:35:01.866 PM 04/05/2016,Teleop Enabled,10,FALSE,0,NO ERROR,-0.000000,-0.179666,-0.000000,-0.160416,TRUE,FALSE,TRUE,FALSE,FALSE,FALSE,Disabled,0.000000,0.000000,0.000000,TRUE,-0.166824,0.078415,0.000000,-0.494034,0.260437,0.000000,0.007000,0.177000,0.087000,-0.080000,0.590000,2.320000,-0.211752,Hold,0.000000,0.000000,Hold,-114.000000,2.000000,HighGoal,3262.500000,-3272.727273,Speed,3277.500000,-3272.727273,Speed,Off,Off,0.000000,FALSE,0,,,,,0.000000,0.000000
08:35:01.966 PM 04/05/2016,Teleop Enabled,10,FALSE,0,NO ERROR,-0.251969,-0.179666,0.251969,-0.160416,TRUE,FALSE,TRUE,FALSE,FALSE,FALSE,Disabled,0.000000,0.000000,0.000000,TRUE,-0.227417,0.104080,0.000000,-0.504456,0.162750,0.000000,0.052000,0.274000,0.000000,-0.080000,0.580000,2.320000,-0.218289,Hold,0.000000,0.000000,Hold,-114.000000,2.000000,HighGoal,3240.000000,-3272.727273,Speed,3255.000000,-3272.727273,Speed,Off,Off,0.000000,FALSE,0,,,,,0.000000,0.000000
08:35:02.065 PM 04/05/2016,Teleop Enabled,5,FALSE,0,NO ERROR,-0.251969,-0.205333,0.251969,-0.378582,TRUE,FALSE,TRUE,FALSE,FALSE,FALSE,Disabled,0.000000,0.000000,0.000000,TRUE,-0.247940,0.110306,0.000000,-0.498199,0.171127,0.000000,0.137000,0.340000,-0.009000,-0.070000,0.760000,2.300000,-0.190828,Hold,0.000000,0.000000,Hold,-114.000000,2.000000,HighGoal,3255.000000,-3272.727273,Speed,3195.000000,-3272.727273,Speed,Off,Off,0.000000,FALSE,0,,,,,0.000000,0.000000
08:35:02.166 PM 04/05/2016,Teleop Enabled,10,FALSE,0,NO ERROR,-0.000000,-0.295166,-0.000000,-0.949664,TRUE,FALSE,TRUE,FALSE,FALSE,FALSE,Disabled,0.000000,0.000000,0.000000,TRUE,-0.271240,0.119110,0.000000,-0.471268,0.176773,0.000000,-0.315000,-0.350000,0.093000,1.020000,1.480000,2.300000,0.863249,Hold,0.000000,0.000000,Hold,-114.000000,2.000000,HighGoal,3262.500000,-3272.727273,Speed,3195.000000,-3272.727273,Speed,Off,Off,0.000000,FALSE,0,,,,,0.000000,0.000000
08:35:02.266 PM 04/05/2016,Teleop Enabled,9,FALSE,0,NO ERROR,-0.322835,-0.429916,-0.322835,-1.071581,TRUE,FALSE,TRUE,FALSE,FALSE,FALSE,Disabled,0.000000,0.000000,0.000000,TRUE,-0.298386,0.128677,0.000000,-0.571289,0.217285,0.000000,-0.102000,-0.320000,0.044000,1.050000,0.160000,2.460000,0.730521,Hold,0.000000,0.000000,Hold,-114.000000,2.000000,HighGoal,3262.500000,-3272.727273,Speed,3202.500000,-3272.727273,Speed,Off,Off,0.000000,FALSE,0,,,,,0.000000,0.000000
08:35:02.366 PM 04/05/2016,Teleop Enabled,10,FALSE,0,NO ERROR,-0.173228,-0.808498,-0.173228,-1.982745,TRUE,FALSE,TRUE,FALSE,FALSE,FALSE,Disabled,0.000000,0.000000,0.000000,TRUE,-0.322495,0.140305,0.000000,-0.423264,0.223038,0.000000,-0.081000,0.326000,0.033000,1.830000,1.960000,2.360000,1.636630,Hold,0.000000,0.000000,Hold,-114.000000,2.000000,HighGoal,3277.500000,-3272.727273,Speed,3210.000000,-3272.727273,Speed,Off,Off,0.000000,FALSE,0,,,,,0.000000,0.000000
08:35:02.467 PM 04/05/2016,Teleop Enabled,11,FALSE,0,NO ERROR,-0.173228,-0.025667,-0.173228,-2.605161,TRUE,FALSE,TRUE,FALSE,FALSE,FALSE,Disabled,0.000000,0.000000,0.000000,TRUE,-0.350479,0.155914,0.000000,-0.481064,0.333542,0.000000,0.001000,-0.342000,0.070000,4.250000,-0.020000,2.980000,3.992063,Hold,0.000000,0.000000,Hold,-114.000000,2.000000,HighGoal,3277.500000,-3272.727273,Speed,3225.000000,-3272.727273,Speed,Off,Off,0.000000,FALSE,0,,,,,0.000000,0.000000
08:35:02.568 PM 04/05/2016,Teleop Enabled,10,FALSE,0,NO ERROR,-0.000000,0.449166,-0.000000,-3.381575,TRUE,FALSE,TRUE,FALSE,FALSE,FALSE,Disabled,0.000000,0.000000,0.000000,TRUE,-0.370056,0.167862,0.000000,-0.501404,0.260056,0.000000,-0.194000,-0.654000,0.205000,6.910000,0.600000,2.510000,6.586268,Hold,0.000000,0.000000,Hold,-114.000000,2.000000,HighGoal,3277.500000,-3272.727273,Speed,3210.000000,-3272.727273,Speed,Off,Off,0.000000,FALSE,0,,,,,0.000000,0.000000
08:35:02.668 PM 04/05/2016,Teleop Enabled,7,FALSE,0,NO ERROR,-0.173228,0.551832,-0.173228,-3.458575,TRUE,FALSE,TRUE,FALSE,FALSE,FALSE,Disabled,0.000000,0.000000,0.000000,TRUE,-0.399704,0.174835,0.000000,-0.646240,0.154495,0.000000,0.030000,-0.216000,0.098000,8.000000,0.110000,2.570000,7.632788,Hold,0.000000,0.000000,Hold,-114.000000,2.000000,HighGoal,3277.500000,-3272.727273,Speed,3210.000000,-3272.727273,Speed,Off,Off,0.000000,FALSE,0,,,,,0.000000,0.000000
08:35:02.769 PM 04/05/2016,Teleop Enabled,10,FALSE,0,NO ERROR,-0.173228,0.680165,-0.173228,-3.509908,TRUE,FALSE,TRUE,FALSE,FALSE,FALSE,Disabled,0.000000,0.000000,0.000000,TRUE,-0.431366,0.185165,0.000000,-0.601944,0.188629,0.000000,-0.013000,0.278000,-0.036000,7.850000,0.390000,2.260000,7.217055,Hold,0.000000,0.000000,Hold,-114.000000,2.000000,HighGoal,3270.000000,-3272.727273,Speed,3217.500000,-3272.727273,Speed,Off,Off,0.000000,FALSE,0,,,,,0.000000,0.000000
08:35:02.869 PM 04/05/2016,Teleop Enabled,10,FALSE,0,NO ERROR,-0.173228,1.116497,-0.173228,-3.920574,TRUE,FALSE,TRUE,FALSE,FALSE,FALSE,Disabled,0.000000,0.000000,0.000000,TRUE,-0.471725,0.196732,0.000000,-0.574432,0.204926,0.000000,-0.013000,0.278000,-0.036000,7.850000,0.390000,2.260000,8.923620,Hold,0.000000,0.000000,Hold,-114.000000,2.000000,HighGoal,3262.500000,-3272.727273,Speed,3217.500000,-3272.727273,Speed,Off,Off,0.000000,FALSE,0,,,,,0.000000,0.000000
08:35:02.969 PM 04/05/2016,Teleop Enabled,10,FALSE,0,NO ERROR,-0.173228,1.616996,-0.173228,-4.440323,TRUE,FALSE,TRUE,FALSE,FALSE,FALSE,Disabled,0.000000,0.000000,0.000000,TRUE,-0.493683,0.206146,0.000000,-0.534439,0.208649,0.000000,-0.066000,-0.472000,0.154000,11.400000,0.370000,2.650000,10.942223,Hold,0.000000,0.000000,HighGoal,-114.000000,77824.000000,HighGoal,3262.500000,-3272.727273,Speed,3217.500000,-3272.727273,Speed,Off,Off,0.000000,FALSE,0,,,,,0.000000,0.000000
08:35:03.070 PM 04/05/2016,Teleop Enabled,10,FALSE,0,NO ERROR,-0.173228,2.149578,-0.173228,-4.940822,TRUE,FALSE,TRUE,FALSE,FALSE,FALSE,Disabled,0.000000,0.000000,0.000000,TRUE,-0.520782,0.212860,0.000000,-0.546829,0.119690,0.000000,-0.066000,-0.472000,0.154000,13.580000,0.520000,2.410000,13.036912,Hold,0.000000,0.000000,Hold,-114.000000,77824.000000,HighGoal,3270.000000,-3272.727273,Speed,3217.500000,-3272.727273,Speed,Off,Off,0.000000,FALSE,0,,,,,0.000000,0.000000
08:35:03.170 PM 04/05/2016,Teleop Enabled,9,FALSE,0,NO ERROR,-0.173228,2.624411,-0.173228,-5.389987,TRUE,FALSE,TRUE,FALSE,FALSE,FALSE,Disabled,0.000000,0.000000,0.000000,TRUE,-0.546936,0.221695,0.000000,-0.504639,0.196457,0.000000,-0.146000,-0.256000,-0.152000,15.500000,0.330000,2.790000,14.915771,Hold,0.000000,0.000000,Hold,-12721.000000,77824.000000,HighGoal,3277.500000,-3272.727273,Speed,3225.000000,-3272.727273,Speed,Off,Off,0.000000,FALSE,0,,,,,0.000000,0.000000
08:35:03.270 PM 04/05/2016,Teleop Enabled,10,FALSE,0,NO ERROR,-0.000000,3.073576,-0.000000,-5.723653,TRUE,FALSE,TRUE,FALSE,FALSE,FALSE,Disabled,0.000000,0.000000,0.000000,TRUE,-0.573975,0.228271,0.000000,-0.564423,0.088318,0.000000,-0.146000,-0.256000,-0.152000,17.800000,0.560000,2.390000,16.823881,Hold,0.000000,0.000000,Hold,-27686.000000,77824.000000,HighGoal,3285.000000,-3272.727273,Speed,3225.000000,-3272.727273,Speed,Off,Off,0.000000,FALSE,0,,,,,0.000000,0.000000
08:35:03.370 PM 04/05/2016,Teleop Enabled,11,FALSE,0,NO ERROR,-0.000000,3.079993,-0.000000,-5.595320,TRUE,FALSE,TRUE,FALSE,FALSE,FALSE,Disabled,0.000000,0.000000,0.000000,TRUE,-0.603546,0.231735,0.000000,-0.592285,0.067856,0.000000,0.123000,0.105000,0.067000,17.930000,0.300000,2.420000,17.160357,Hold,0.000000,0.000000,Hold,-41309.000000,77824.000000,HighGoal,3277.500000,-3272.727273,Speed,3210.000000,-3272.727273,Speed,Off,Off,0.000000,FALSE,0,,,,,0.000000,0.000000
08:35:03.472 PM 04/05/2016,Teleop Enabled,10,FALSE,0,NO ERROR,-0.000000,3.015826,-0.000000,-5.518320,TRUE,FALSE,TRUE,FALSE,FALSE,FALSE,Disabled,0.000000,0.000000,0.000000,TRUE,-0.632614,0.234177,0.000000,-0.572998,0.048691,0.000000,-0.104000,-0.119000,-0.011000,17.260000,0.250000,2.280000,16.540958,Hold,0.000000,0.000000,Hold,-57552.000000,77824.000000,HighGoal,3270.000000,-3272.727273,Speed,3217.500000,-3272.727273,Speed,Off,Off,0.000000,FALSE,0,,,,,0.000000,0.000000
08:35:03.571 PM 04/05/2016,Teleop Enabled,11,FALSE,0,NO ERROR,-0.000000,3.015826,-0.000000,-5.518320,TRUE,FALSE,TRUE,FALSE,FALSE,FALSE,Disabled,0.000000,0.000000,0.000000,TRUE,-0.661774,0.236481,0.000000,-0.569626,0.041504,0.000000,0.193000,0.180000,-0.030000,17.280000,0.080000,2.210000,16.572826,Hold,0.000000,0.000000,Hold,-75537.000000,77824.000000,HighGoal,3270.000000,-3272.727273,Speed,3217.500000,-3272.727273,Speed,Off,Off,0.000000,FALSE,0,,,,,0.000000,0.000000
08:35:03.674 PM 04/05/2016,Teleop Enabled,10,FALSE,0,NO ERROR,0.291339,2.925993,0.291339,-5.537570,TRUE,FALSE,TRUE,FALSE,FALSE,FALSE,Disabled,0.000000,0.000000,0.000000,TRUE,-0.691422,0.238586,0.000000,-0.612579,0.037262,0.000000,0.193000,0.180000,-0.030000,17.450000,-0.240000,2.280000,16.740671,Hold,0.000000,0.000000,Hold,-78139.000000,77824.000000,HighGoal,3270.000000,-3272.727273,Speed,3210.000000,-3272.727273,Speed,Off,Off,0.000000,FALSE,0,,,,,0.000000,0.000000
08:35:03.775 PM 04/05/2016,Teleop Enabled,11,FALSE,0,NO ERROR,0.488189,1.604163,0.488189,-4.485240,TRUE,FALSE,TRUE,FALSE,FALSE,FALSE,Disabled,0.000000,0.000000,0.000000,TRUE,-0.724457,0.238251,0.000000,-0.776749,-0.029114,0.000000,-0.373000,0.081000,0.088000,17.450000,-0.240000,2.280000,14.776296,Hold,0.000000,0.000000,Hold,-78139.000000,77824.000000,HighGoal,3270.000000,-3272.727273,Speed,3210.000000,-3272.727273,Speed,Off,Off,0.000000,FALSE,0,,,,,0.000000,0.000000
08:35:03.876 PM 04/05/2016,Teleop Enabled,10,FALSE,0,NO ERROR,0.181102,-0.500499,0.181102,-2.335661,TRUE,FALSE,TRUE,FALSE,FALSE,FALSE,Disabled,0.000000,0.000000,0.000000,TRUE,-0.781311,0.234360,0.000000,-0.997101,-0.136414,0.000000,-0.373000,0.081000,0.088000,14.630000,-0.260000,1.780000,6.548097,Hold,0.000000,0.000000,Hold,-77800.000000,77824.000000,HighGoal,3270.000000,-3272.727273,Speed,3202.500000,-3272.727273,Speed,Off,Off,0.000000,FALSE,0,,,,,0.000000,0.000000
08:35:03.977 PM 04/05/2016,Teleop Enabled,10,FALSE,0,NO ERROR,-0.000000,-1.860829,-0.000000,-0.846998,TRUE,FALSE,TRUE,FALSE,FALSE,FALSE,Disabled,0.000000,0.000000,0.000000,TRUE,-0.825439,0.225906,0.000000,-0.777847,-0.164566,0.000000,0.226000,0.107000,0.207000,-2.590000,-0.930000,1.210000,-1.983378,Hold,0.000000,0.000000,Hold,-77814.000000,77824.000000,HighGoal,3247.500000,-3272.727273,Speed,3202.500000,-3272.727273,Speed,Off,Off,0.000000,FALSE,0,,,,,0.000000,0.000000
08:35:04.078 PM 04/05/2016,Teleop Enabled,12,FALSE,0,NO ERROR,-0.000000,-2.553827,-0.000000,-0.481249,TRUE,FALSE,TRUE,FALSE,FALSE,FALSE,Disabled,0.000000,0.000000,0.000000,TRUE,-0.859253,0.226990,0.000000,-0.634933,0.139313,0.000000,0.055000,0.276000,-0.247000,-4.610000,0.050000,2.240000,-4.756713,Hold,0.000000,0.000000,Hold,-77923.000000,77824.000000,HighGoal,3247.500000,-3272.727273,Speed,3217.500000,-3272.727273,Speed,Off,Off,0.000000,FALSE,0,,,,,0.000000,0.000000
08:35:04.178 PM 04/05/2016,Teleop Enabled,11,FALSE,0,NO ERROR,-0.000000,-2.566661,-0.000000,-0.372166,TRUE,FALSE,TRUE,FALSE,FALSE,FALSE,Disabled,0.000000,0.000000,0.000000,TRUE,-0.895966,0.234573,0.000000,-0.561523,0.068130,0.000000,-0.022000,0.041000,0.132000,-4.960000,0.350000,1.840000,-5.038122,Hold,0.000000,0.000000,Hold,-77919.000000,77824.000000,HighGoal,3255.000000,-3272.727273,Speed,3217.500000,-3272.727273,Speed,Off,Off,0.000000,FALSE,0,,,,,0.000000,0.000000
08:35:04.278 PM 04/05/2016,Teleop Enabled,11,FALSE,0,NO ERROR,-0.000000,-2.515327,-0.000000,-0.384999,TRUE,FALSE,TRUE,FALSE,FALSE,FALSE,Disabled,0.000000,0.000000,0.000000,TRUE,-0.916626,0.239120,0.000000,-0.500687,0.144516,0.000000,0.177000,0.160000,0.116000,-4.960000,0.350000,1.840000,-4.736282,Hold,0.000000,0.000000,Hold,-77919.000000,77824.000000,HighGoal,3270.000000,-3272.727273,Speed,3247.500000,-3272.727273,Speed,Off,Off,0.000000,FALSE,0,,,,,0.000000,0.000000
08:35:04.379 PM 04/05/2016,Teleop Enabled,9,FALSE,0,NO ERROR,-0.000000,-2.515327,-0.000000,-0.436332,TRUE,FALSE,TRUE,FALSE,FALSE,FALSE,Disabled,0.000000,0.000000,0.000000,TRUE,-0.930801,0.246094,0.000000,0.004364,0.113480,0.000000,0.043000,0.088000,0.146000,-4.440000,0.190000,1.970000,-4.579036,Hold,0.000000,0.000000,Hold,-77917.000000,77824.000000,HighGoal,3277.500000,-3272.727273,Speed,3262.500000,-3272.727273,Speed,Off,Off,0.000000,FALSE,0,,,,,0.000000,0.000000
08:35:04.482 PM 04/05/2016,Teleop Enabled,11,FALSE,0,NO ERROR,-0.000000,-2.451161,-0.000000,-0.404249,TRUE,FALSE,TRUE,FALSE,FALSE,FALSE,Disabled,0.000000,0.000000,0.000000,TRUE,-0.928314,0.254150,0.000000,0.066071,0.146042,0.000000,0.043000,0.088000,0.146000,-4.400000,0.120000,2.190000,-4.515321,Hold,0.000000,0.000000,Hold,-77917.000000,77824.000000,HighGoal,3285.000000,-3272.727273,Speed,3247.500000,-3272.727273,Speed,Off,Off,0.000000,FALSE,0,,,,,0.000000,0.000000
08:35:04.582 PM 04/05/2016,Teleop Enabled,11,FALSE,0,NO ERROR,-0.000000,-2.451161,-0.000000,-0.384999,TRUE,FALSE,TRUE,FALSE,FALSE,FALSE,Disabled,0.000000,0.000000,0.000000,TRUE,-0.922974,0.260605,0.000000,0.143509,0.130905,0.000000,0.059000,-0.172000,0.100000,-4.400000,0.120000,2.190000,-4.524578,Hold,0.000000,0.000000,Hold,-77915.000000,77824.000000,HighGoal,3285.000000,-3272.727273,Speed,3240.000000,-3272.727273,Speed,Off,Off,0.000000,FALSE,0,,,,,0.000000,0.000000
08:35:04.682 PM 04/05/2016,Teleop Enabled,9,FALSE,0,NO ERROR,-0.299213,-2.111078,-0.299213,-0.680165,TRUE,FALSE,TRUE,FALSE,FALSE,FALSE,Disabled,0.000000,0.000000,0.000000,TRUE,-0.914154,0.266922,0.000000,0.210175,0.126190,0.000000,0.140000,0.062000,-0.019000,-4.390000,0.090000,2.170000,-4.299655,Hold,0.000000,0.000000,Hold,-77914.000000,77824.000000,HighGoal,3277.500000,-3272.727273,Speed,3232.500000,-3272.727273,Speed,Off,Off,0.000000,FALSE,0,,,,,0.000000,0.000000
08:35:04.782 PM 04/05/2016,Teleop Enabled,11,FALSE,0,NO ERROR,-0.307087,-1.039498,-0.307087,-1.758163,TRUE,FALSE,TRUE,FALSE,FALSE,FALSE,Disabled,0.000000,0.000000,0.000000,TRUE,-0.900665,0.276962,0.000000,0.294327,0.212051,0.000000,0.135000,0.177000,0.332000,-4.050000,0.670000,2.310000,-0.353778,Hold,0.000000,0.000000,Hold,-77913.000000,77824.000000,HighGoal,3270.000000,-3272.727273,Speed,3225.000000,-3272.727273,Speed,Off,Off,0.000000,FALSE,0,,,,,0.000000,0.000000
08:35:04.883 PM 04/05/2016,Teleop Enabled,10,FALSE,0,NO ERROR,-0.000000,0.372166,-0.000000,-3.156993,TRUE,FALSE,TRUE,FALSE,FALSE,FALSE,Disabled,0.000000,0.000000,0.000000,TRUE,-0.900665,0.276962,0.000000,0.294327,0.212051,0.000000,-0.040000,0.233000,0.034000,0.370000,0.380000,2.980000,5.751812,Hold,0.000000,0.000000,Hold,-77913.000000,77824.000000,HighGoal,3277.500000,-3272.727273,Speed,3232.500000,-3272.727273,Speed,Off,Off,0.000000,FALSE,0,,,,,0.000000,0.000000
08:35:04.985 PM 04/05/2016,Teleop Enabled,10,FALSE,0,NO ERROR,-0.000000,1.110081,-0.000000,-3.830741,FALSE,FALSE,TRUE,FALSE,FALSE,FALSE,Disabled,0.000000,0.000000,0.000000,TRUE,-0.883087,0.291290,0.000000,0.274643,0.220169,0.000000,-0.040000,-0.271000,0.086000,6.730000,0.400000,3.050000,10.703870,Hold,0.000000,0.000000,Hold,-77913.000000,77824.000000,HighGoal,3285.000000,-3272.727273,Speed,3232.500000,-3272.727273,Speed,Off,Off,0.000000,FALSE,0,,,,,0.000000,0.000000
08:35:05.085 PM 04/05/2016,Teleop Enabled,9,FALSE,0,NO ERROR,-0.000000,1.270497,-0.000000,-3.875658,TRUE,FALSE,TRUE,FALSE,FALSE,FALSE,Disabled,0.000000,0.000000,0.000000,TRUE,-0.868469,0.302917,0.000000,0.102417,0.091034,0.000000,-0.156000,-0.039000,0.091000,11.480000,0.100000,2.590000,11.319227,Hold,0.000000,0.000000,Hold,-77913.000000,77824.000000,HighGoal,3300.000000,-3272.727273,Speed,3232.500000,-3272.727273,Speed,Off,Off,0.000000,FALSE,0,,,,,0.000000,0.000000
08:35:05.185 PM 04/05/2016,Teleop Enabled,10,FALSE,0,NO ERROR,-0.000000,1.270497,-0.000000,-3.875658,TRUE,FALSE,TRUE,FALSE,FALSE,FALSE,Disabled,0.000000,0.000000,0.000000,TRUE,-0.862762,0.305344,0.000000,0.135971,0.016937,0.000000,-0.148000,-0.148000,-0.077000,11.900000,-0.300000,2.440000,11.210095,Hold,0.000000,0.000000,Hold,-77913.000000,77824.000000,HighGoal,3300.000000,-3272.727273,Speed,3232.500000,-3272.727273,Speed,Off,Off,0.000000,FALSE,0,,,,,0.000000,0.000000
08:35:05.286 PM 04/05/2016,Teleop Enabled,10,FALSE,0,NO ERROR,-0.000000,1.270497,-0.000000,-3.875658,TRUE,FALSE,TRUE,FALSE,FALSE,FALSE,Disabled,0.000000,0.000000,0.000000,TRUE,-0.862762,0.305344,0.000000,0.135971,0.016937,0.000000,0.133000,0.048000,-0.119000,11.790000,-0.170000,2.340000,11.200996,Hold,0.000000,0.000000,Hold,-77913.000000,77824.000000,HighGoal,3292.500000,-3272.727273,Speed,3247.500000,-3272.727273,Speed,Off,Off,0.000000,FALSE,0,,,,,0.000000,0.000000
08:35:05.386 PM 04/05/2016,Teleop Enabled,9,FALSE,0,NO ERROR,-0.220472,1.116497,0.220472,-3.971907,TRUE,FALSE,TRUE,FALSE,FALSE,FALSE,Disabled,0.000000,0.000000,0.000000,TRUE,-0.856003,0.306396,0.000000,0.133362,0.031738,0.000000,-0.042000,-0.021000,0.165000,11.780000,-0.140000,2.330000,11.183370,Hold,0.000000,0.000000,Hold,-77912.000000,77824.000000,HighGoal,3292.500000,-3272.727273,Speed,3247.500000,-3272.727273,Speed,Off,Off,0.000000,FALSE,0,,,,,0.000000,0.000000
08:35:05.487 PM 04/05/2016,Teleop Enabled,8,FALSE,0,NO ERROR,-0.269825,1.116497,0.360097,-3.971907,TRUE,FALSE,TRUE,FALSE,FALSE,FALSE,Disabled,0.000000,0.000000,0.000000,TRUE,-0.847672,0.308014,0.000000,0.185364,0.033875,0.000000,0.205000,-0.104000,-0.129000,11.760000,-0.130000,2.350000,11.183370,Hold,0.000000,0.000000,Hold,-77912.000000,77824.000000,HighGoal,3292.500000,-3272.727273,Speed,3255.000000,-3272.727273,Speed,Off,Off,0.000000,FALSE,0,,,,,0.000000,0.000000
08:35:05.590 PM 04/05/2016,Teleop Enabled,10,FALSE,0,NO ERROR,-0.322029,0.378582,0.449625,-4.799655,TRUE,FALSE,TRUE,FALSE,FALSE,FALSE,Disabled,0.000000,0.000000,0.000000,TRUE,-0.830063,0.308289,0.000000,0.394699,0.009232,0.000000,0.035000,0.026000,0.165000,11.350000,1.290000,2.340000,10.835479,Hold,0.000000,0.000000,Hold,-77911.000000,77824.000000,HighGoal,3285.000000,-3272.727273,Speed,3240.000000,-3272.727273,Speed,Off,Off,0.000000,FALSE,0,,,,,0.000000,0.000000
08:35:05.692 PM 04/05/2016,Teleop Enabled,10,FALSE,0,NO ERROR,-0.368033,-1.206331,0.513857,-6.018819,TRUE,FALSE,TRUE,FALSE,FALSE,FALSE,Disabled,0.000000,0.000000,0.000000,TRUE,-0.805069,0.307434,0.000000,0.564713,-0.019211,0.000000,0.220000,0.039000,0.016000,10.870000,2.200000,2.210000,10.250671,Hold,0.000000,0.000000,Hold,-77906.000000,77824.000000,HighGoal,3270.000000,-3272.727273,Speed,3232.500000,-3272.727273,Speed,Off,Off,0.000000,FALSE,0,,,,,0.000000,0.000000
08:35:05.792 PM 04/05/2016,Teleop Enabled,9,FALSE,0,NO ERROR,-0.365602,-3.689575,0.516287,-7.834732,TRUE,FALSE,TRUE,FALSE,FALSE,FALSE,Disabled,0.000000,0.000000,0.000000,TRUE,-0.770966,0.306305,0.000000,0.761322,-0.048920,0.000000,0.162000,-0.081000,-0.051000,9.770000,2.380000,2.010000,9.088412,Hold,0.000000,0.000000,Hold,-77906.000000,77824.000000,HighGoal,3262.500000,-3272.727273,Speed,3225.000000,-3272.727273,Speed,Off,Off,0.000000,FALSE,0,,,,,0.000000,0.000000
08:35:05.892 PM 04/05/2016,Teleop Enabled,10,FALSE,0,NO ERROR,-0.329146,-6.904317,0.552744,-10.086976,TRUE,FALSE,TRUE,FALSE,FALSE,FALSE,Disabled,0.000000,0.000000,0.000000,TRUE,-0.729691,0.302383,0.000000,0.855621,-0.086304,0.000000,-0.164000,0.019000,0.096000,7.550000,2.550000,1.850000,7.256293,Hold,0.000000,0.000000,Hold,-77906.000000,77824.000000,HighGoal,3262.500000,-3272.727273,Speed,3225.000000,-3272.727273,Speed,Off,Off,0.000000,FALSE,0,,,,,0.000000,0.000000
08:35:05.993 PM 04/05/2016,Teleop Enabled,10,FALSE,0,NO ERROR,-0.380185,-10.548975,0.501705,-12.531721,TRUE,FALSE,TRUE,FALSE,FALSE,FALSE,Disabled,0.000000,0.000000,0.000000,TRUE,-0.687164,0.300247,0.000000,0.853363,-0.012665,0.000000,0.109000,0.076000,-0.031000,5.650000,2.740000,2.050000,4.939028,Hold,0.000000,0.000000,Hold,-77906.000000,77824.000000,HighGoal,3277.500000,-3272.727273,Speed,3225.000000,-3272.727273,Speed,Off,Off,0.000000,FALSE,0,,,,,0.000000,0.000000
08:35:06.094 PM 04/05/2016,Teleop Enabled,9,FALSE,0,NO ERROR,-0.440945,-14.347633,0.440945,-14.982882,TRUE,FALSE,TRUE,FALSE,FALSE,FALSE,Disabled,0.000000,0.000000,0.000000,TRUE,-0.638016,0.300873,0.000000,0.782150,0.000000,0.000000,-0.250000,0.078000,0.101000,2.970000,1.730000,1.990000,2.275073,Hold,0.000000,0.000000,Hold,-77905.000000,77824.000000,HighGoal,3277.500000,-3272.727273,Speed,3232.500000,-3272.727273,Speed,Off,Off,0.000000,FALSE,0,,,,,0.000000,0.000000
08:35:06.195 PM 04/05/2016,Teleop Enabled,12,FALSE,0,NO ERROR,-0.440945,-18.043624,0.440945,-17.870375,TRUE,FALSE,TRUE,FALSE,FALSE,FALSE,Disabled,0.000000,0.000000,0.000000,TRUE,-0.607635,0.302765,0.000000,0.784180,0.100327,0.000000,-0.080000,0.241000,0.038000,0.410000,1.750000,2.230000,0.024108,Hold,0.000000,0.000000,Hold,-77904.000000,77824.000000,HighGoal,3270.000000,-3272.727273,Speed,3232.500000,-3272.727273,Speed,Off,Off,0.000000,FALSE,0,,,,,0.000000,0.000000
08:35:06.295 PM 04/05/2016,Teleop Enabled,10,FALSE,0,NO ERROR,-0.440945,-21.508616,0.440945,-21.085117,TRUE,FALSE,TRUE,FALSE,FALSE,FALSE,Disabled,0.000000,0.000000,0.000000,TRUE,-0.564178,0.314926,0.000000,0.690689,0.208679,0.000000,-0.147000,-0.087000,0.329000,-0.410000,1.950000,2.500000,-0.691038,Hold,0.000000,0.000000,Hold,-77904.000000,77824.000000,HighGoal,3262.500000,-3272.727273,Speed,3232.500000,-3272.727273,Speed,Off,Off,0.000000,FALSE,0,,,,,0.000000,0.000000
08:35:06.395 PM 04/05/2016,Teleop Enabled,12,FALSE,0,NO ERROR,-0.440945,-24.915858,0.440945,-24.383276,TRUE,FALSE,TRUE,FALSE,FALSE,FALSE,Disabled,0.000000,0.000000,0.000000,TRUE,-0.532303,0.325211,0.000000,0.615723,0.216461,0.000000,-0.233000,0.041000,0.207000,-0.780000,1.700000,2.480000,-0.968299,Hold,0.000000,0.000000,Hold,-77904.000000,77824.000000,HighGoal,3270.000000,-3272.727273,Speed,3240.000000,-3272.727273,Speed,Off,Off,0.000000,FALSE,0,,,,,0.000000,0.000000
08:35:06.496 PM 04/05/2016,Teleop Enabled,11,FALSE,0,NO ERROR,-0.494414,-28.303850,0.387476,-27.694269,TRUE,FALSE,TRUE,FALSE,FALSE,FALSE,Disabled,0.000000,0.000000,0.000000,TRUE,-0.509247,0.334763,0.000000,0.571686,0.252228,0.000000,-0.147000,-0.084000,0.174000,-1.020000,1.810000,2.440000,-1.209512,Hold,0.000000,0.000000,Hold,-77904.000000,77824.000000,HighGoal,3262.500000,-3272.727273,Speed,3240.000000,-3272.727273,Speed,Off,Off,0.000000,FALSE,0,,,,,0.000000,0.000000
08:35:06.596 PM 04/05/2016,Teleop Enabled,10,FALSE,0,NO ERROR,-0.494414,-31.711093,0.387476,-31.107927,TRUE,FALSE,TRUE,FALSE,FALSE,FALSE,Disabled,0.000000,0.000000,0.000000,TRUE,-0.478088,0.350418,0.000000,0.503983,0.275375,0.000000,-0.032000,-0.141000,0.262000,-1.220000,1.610000,2.410000,-1.455930,Hold,0.000000,0.000000,Hold,-77904.000000,77824.000000,HighGoal,3262.500000,-3272.727273,Speed,3232.500000,-3272.727273,Speed,Off,Off,0.000000,FALSE,0,,,,,0.000000,0.000000
08:35:06.697 PM 04/05/2016,Teleop Enabled,11,FALSE,0,NO ERROR,-0.503243,-34.906585,0.394395,-34.572919,TRUE,FALSE,TRUE,FALSE,FALSE,FALSE,Disabled,0.000000,0.000000,0.000000,TRUE,-0.457626,0.362213,0.000000,0.508179,0.305496,0.000000,0.086000,0.158000,-0.223000,-0.970000,1.590000,2.540000,-1.185534,Hold,0.000000,0.000000,Hold,-77904.000000,77824.000000,HighGoal,3270.000000,-3272.727273,Speed,3225.000000,-3272.727273,Speed,Off,Off,0.000000,FALSE,0,,,,,0.000000,0.000000
08:35:06.798 PM 04/05/2016,Teleop Enabled,10,FALSE,0,NO ERROR,-0.520900,-38.082828,0.408234,-38.146994,TRUE,FALSE,TRUE,FALSE,FALSE,FALSE,Disabled,0.000000,0.000000,0.000000,TRUE,-0.428024,0.380356,0.000000,0.484833,0.283386,0.000000,0.024000,0.030000,0.032000,-0.340000,1.610000,2.490000,-0.570996,Hold,0.000000,0.000000,Hold,-77904.000000,77824.000000,HighGoal,3277.500000,-3272.727273,Speed,3225.000000,-3272.727273,Speed,Off,Off,0.000000,FALSE,0,,,,,0.000000,0.000000
08:35:06.899 PM 04/05/2016,Teleop Enabled,10,FALSE,0,NO ERROR,-0.464567,-41.246237,0.464567,-41.708236,TRUE,FALSE,TRUE,FALSE,FALSE,FALSE,Disabled,0.000000,0.000000,0.000000,TRUE,-0.398575,0.395859,0.000000,0.488693,0.232559,0.000000,-0.103000,-0.211000,0.332000,0.550000,1.530000,2.530000,0.319562,Hold,0.000000,0.000000,Hold,-77904.000000,77824.000000,HighGoal,3277.500000,-3272.727273,Speed,3195.000000,-3272.727273,Speed,Off,Off,0.000000,FALSE,0,,,,,0.000000,0.000000
08:35:07.000 PM 04/05/2016,Teleop Enabled,11,FALSE,0,NO ERROR,-0.488189,-44.602146,0.488189,-45.218144,TRUE,FALSE,TRUE,FALSE,FALSE,FALSE,Disabled,0.000000,0.000000,0.000000,TRUE,-0.379929,0.404755,0.000000,0.445831,0.211105,0.000000,-0.130000,-0.154000,0.112000,1.180000,1.420000,2.390000,0.924427,Hold,0.000000,0.000000,Hold,-77904.000000,77824.000000,HighGoal,3270.000000,-3272.727273,Speed,3210.000000,-3272.727273,Speed,Off,Off,0.000000,FALSE,0,,,,,0.000000,0.000000
08:35:07.101 PM 04/05/2016,Teleop Enabled,10,FALSE,0,NO ERROR,-0.496063,-48.201887,0.496063,-48.779386,TRUE,FALSE,TRUE,FALSE,FALSE,FALSE,Disabled,0.000000,0.000000,0.000000,TRUE,-0.355881,0.417709,0.000000,0.365967,0.215393,0.000000,0.061000,0.047000,-0.338000,1.120000,1.360000,2.360000,0.798639,Hold,0.000000,0.000000,Hold,-77904.000000,77824.000000,HighGoal,3262.500000,-3272.727273,Speed,3285.000000,-3272.727273,Speed,Off,Off,0.000000,FALSE,0,,,,,0.000000,0.000000
08:35:07.201 PM 04/05/2016,Teleop Enabled,10,FALSE,0,NO ERROR,-0.503937,-51.872212,0.503937,-52.282878,TRUE,FALSE,TRUE,FALSE,FALSE,FALSE,Disabled,0.000000,0.000000,0.000000,TRUE,-0.342514,0.426483,0.000000,0.311279,0.221191,0.000000,-0.127000,0.025000,0.224000,0.740000,1.280000,2.330000,0.485993,Hold,0.000000,0.000000,Hold,-77904.000000,77824.000000,HighGoal,3270.000000,-3272.727273,Speed,3270.000000,-3272.727273,Speed,Off,Off,0.000000,FALSE,0,,,,,0.000000,0.000000
08:35:07.301 PM 04/05/2016,Teleop Enabled,11,FALSE,0,NO ERROR,-0.519685,-55.702953,0.519685,-55.940369,TRUE,FALSE,TRUE,FALSE,FALSE,FALSE,Disabled,0.000000,0.000000,0.000000,TRUE,-0.325790,0.440353,0.000000,0.256332,0.213242,0.000000,-0.096000,-0.103000,0.088000,0.420000,1.330000,2.340000,0.068789,Hold,0.000000,0.000000,Hold,-77904.000000,77824.000000,HighGoal,3270.000000,-3272.727273,Speed,3225.000000,-3272.727273,Speed,Off,Off,0.000000,FALSE,0,,,,,0.000000,0.000000
08:35:07.402 PM 04/05/2016,Teleop Enabled,10,FALSE,0,NO ERROR,-0.519685,-59.565777,0.519685,-59.597861,TRUE,FALSE,TRUE,FALSE,FALSE,FALSE,Disabled,0.000000,0.000000,0.000000,TRUE,-0.311462,0.454453,0.000000,0.227417,0.238281,0.000000,0.158000,0.106000,-0.179000,-0.270000,1.120000,2.390000,-0.435976,Hold,0.000000,0.000000,Hold,-77904.000000,77824.000000,HighGoal,3262.500000,-3272.727273,Speed,3232.500000,-3272.727273,Speed,Off,Off,0.000000,FALSE,0,,,,,0.000000,0.000000
08:35:07.502 PM 04/05/2016,Teleop Enabled,10,FALSE,0,NO ERROR,-0.519685,-63.556935,0.519685,-63.435018,TRUE,FALSE,TRUE,FALSE,FALSE,FALSE,Disabled,0.000000,0.000000,0.000000,TRUE,-0.299698,0.466080,0.000000,0.217026,0.228333,0.000000,-0.049000,0.115000,-0.084000,-0.650000,1.210000,2.380000,-0.834528,Hold,0.000000,0.000000,Hold,-77904.000000,77824.000000,HighGoal,3262.500000,-3272.727273,Speed,3247.500000,-3272.727273,Speed,Off,Off,0.000000,FALSE,0,,,,,0.000000,0.000000
08:35:07.602 PM 04/05/2016,Teleop Enabled,12,FALSE,0,NO ERROR,-0.519685,-67.554509,0.519685,-67.317093,TRUE,FALSE,TRUE,FALSE,FALSE,FALSE,Disabled,0.000000,0.000000,0.000000,TRUE,-0.291794,0.474930,0.000000,0.190552,0.216095,0.000000,0.043000,0.225000,-0.248000,-0.910000,1.270000,2.450000,-1.177558,Hold,0.000000,0.000000,Hold,-77904.000000,77824.000000,HighGoal,3262.500000,-3272.727273,Speed,3247.500000,-3272.727273,Speed,Off,Off,0.000000,FALSE,0,,,,,0.000000,0.000000
08:35:07.703 PM 04/05/2016,Teleop Enabled,10,FALSE,0,NO ERROR,-0.527559,-71.596999,0.527559,-71.276167,TRUE,FALSE,TRUE,FALSE,FALSE,FALSE,Disabled,0.000000,0.000000,0.000000,TRUE,-0.283325,0.485214,0.000000,0.134964,0.183533,0.000000,-0.090000,-0.230000,0.187000,-1.180000,1.310000,2.470000,-1.397166,Hold,0.000000,0.000000,Hold,-77904.000000,77824.000000,HighGoal,3247.500000,-3272.727273,Speed,3247.500000,-3272.727273,Speed,Off,Off,0.000000,FALSE,0,,,,,0.000000,0.000000
08:35:07.804 PM 04/05/2016,Teleop Enabled,9,FALSE,0,NO ERROR,-0.405109,-75.677990,0.634261,-75.254491,TRUE,FALSE,TRUE,FALSE,FALSE,FALSE,Disabled,0.000000,0.000000,0.000000,TRUE,-0.278854,0.494934,0.000000,0.074387,0.208847,0.000000,-0.033000,0.163000,0.048000,-1.450000,1.340000,2.380000,-1.664580,Hold,0.000000,0.000000,Hold,-77904.000000,77824.000000,HighGoal,3240.000000,-3272.727273,Speed,3247.500000,-3272.727273,Speed,Off,Off,0.000000,FALSE,0,,,,,0.000000,0.000000
08:35:07.904 PM 04/05/2016,Teleop Enabled,9,FALSE,0,NO ERROR,-0.387922,-79.983563,0.651448,-79.027482,TRUE,FALSE,TRUE,FALSE,FALSE,FALSE,Disabled,0.000000,0.000000,0.000000,TRUE,-0.275864,0.504532,0.000000,0.054916,0.166641,0.000000,0.069000,-0.140000,0.029000,-2.240000,1.240000,2.340000,-2.264539,Hold,0.000000,0.000000,Hold,-77904.000000,77824.000000,HighGoal,3247.500000,-3272.727273,Speed,3232.500000,-3272.727273,Speed,Off,Off,0.000000,FALSE,0,,,,,0.000000,0.000000
08:35:08.004 PM 04/05/2016,Teleop Enabled,9,FALSE,0,NO ERROR,-0.387922,-84.738302,0.651448,-82.306391,TRUE,FALSE,TRUE,FALSE,FALSE,FALSE,Disabled,0.000000,0.000000,0.000000,TRUE,-0.272522,0.513245,0.000000,0.074890,0.179398,0.000000,0.000000,0.123000,0.080000,-4.710000,1.010000,2.160000,-4.429990,Hold,0.000000,0.000000,Hold,-77904.000000,77824.000000,HighGoal,3262.500000,-3272.727273,Speed,3232.500000,-3272.727273,Speed,Off,Off,0.000000,FALSE,0,,,,,0.000000,0.000000
08:35:08.105 PM 04/05/2016,Teleop Enabled,8,FALSE,0,NO ERROR,-0.258231,-89.756123,0.513423,-85.444134,TRUE,FALSE,TRUE,FALSE,FALSE,FALSE,Disabled,0.000000,0.000000,0.000000,TRUE,-0.268097,0.523026,0.000000,0.118774,0.217819,0.000000,0.110000,0.022000,0.024000,-7.750000,0.700000,2.150000,-8.060705,Hold,0.000000,0.000000,Hold,-77904.000000,77824.000000,HighGoal,3255.000000,-3272.727273,Speed,3232.500000,-3272.727273,Speed,Off,Off,0.000000,FALSE,0,,,,,0.000000,0.000000
08:35:08.206 PM 04/05/2016,Teleop Enabled,10,FALSE,0,NO ERROR,0.535433,-94.940778,0.535433,-88.434293,TRUE,FALSE,TRUE,FALSE,FALSE,FALSE,Disabled,0.000000,0.000000,0.000000,TRUE,-0.259842,0.535431,0.000000,0.176025,0.271881,0.000000,-0.163000,0.159000,0.068000,-13.080000,0.540000,2.420000,-12.361214,Hold,0.000000,0.000000,Hold,-77904.000000,77824.000000,HighGoal,3247.500000,-3272.727273,Speed,3240.000000,-3272.727273,Speed,Off,Off,0.000000,FALSE,0,,,,,0.000000,0.000000
08:35:08.306 PM 04/05/2016,Teleop Enabled,10,FALSE,0,NO ERROR,0.535433,-99.387518,0.535433,-87.535962,TRUE,FALSE,TRUE,FALSE,FALSE,FALSE,Disabled,0.000000,0.000000,0.000000,TRUE,-0.258041,0.550949,0.000000,-0.103134,0.186630,0.000000,-0.076000,-0.043000,0.072000,-18.740000,-1.780000,2.300000,-17.566864,Hold,0.000000,0.000000,Hold,-77904.000000,77824.000000,HighGoal,3247.500000,-3272.727273,Speed,3240.000000,-3272.727273,Speed,Off,Off,0.000000,FALSE,0,,,,,0.000000,0.000000
08:35:08.407 PM 04/05/2016,Teleop Enabled,10,FALSE,0,NO ERROR,0.535433,-103.712341,0.535433,-84.924385,TRUE,FALSE,TRUE,FALSE,FALSE,FALSE,Disabled,0.000000,0.000000,0.000000,TRUE,-0.266113,0.557068,0.000000,-0.203659,0.066925,0.000000,-0.132000,0.039000,-0.042000,-27.240000,-2.980000,2.090000,-25.438680,Hold,0.000000,0.000000,Hold,-77904.000000,77824.000000,HighGoal,3232.500000,-3272.727273,Speed,3217.500000,-3272.727273,Speed,Off,Off,0.000000,FALSE,0,,,,,0.000000,0.000000
08:35:08.508 PM 04/05/2016,Teleop Enabled,9,FALSE,0,NO ERROR,0.535433,-108.203997,0.535433,-82.113891,TRUE,FALSE,TRUE,FALSE,FALSE,FALSE,Disabled,0.000000,0.000000,0.000000,TRUE,-0.277359,0.557724,0.000000,-0.352768,-0.009720,0.000000,-0.242000,-0.296000,0.550000,-35.940000,-2.590000,2.470000,-38.282627,Hold,0.000000,0.000000,Hold,-77909.000000,77824.000000,HighGoal,3210.000000,-3272.727273,Speed,3217.500000,-3272.727273,Speed,Off,Off,0.000000,FALSE,0,,,,,0.000000,0.000000
08:35:08.607 PM 04/05/2016,Teleop Enabled,11,FALSE,0,NO ERROR,0.535433,-112.195154,0.535433,-79.065982,FALSE,FALSE,TRUE,FALSE,FALSE,FALSE,Disabled,0.000000,0.000000,0.000000,TRUE,-0.302933,0.549927,0.000000,-0.400848,-0.198166,0.000000,-0.021000,0.071000,0.000000,-52.550000,-3.280000,2.410000,-52.130668,Hold,0.000000,0.000000,Hold,-77909.000000,77824.000000,HighGoal,3240.000000,-3272.727273,Speed,3217.500000,-3272.727273,Speed,Off,Off,0.000000,FALSE,0,,,,,0.000000,0.000000
08:35:08.708 PM 04/05/2016,Teleop Enabled,11,FALSE,0,NO ERROR,0.503937,-116.231228,0.503937,-75.620240,TRUE,FALSE,TRUE,FALSE,FALSE,FALSE,Disabled,0.000000,0.000000,0.000000,TRUE,-0.322372,0.539902,0.000000,-0.376175,-0.181717,0.000000,0.160000,0.044000,0.064000,-67.970000,-2.380000,2.600000,-67.167541,Hold,0.000000,0.000000,Hold,-77909.000000,77824.000000,HighGoal,3240.000000,-3272.727273,Speed,3210.000000,-3272.727273,Speed,Off,Off,0.000000,FALSE,0,,,,,0.000000,0.000000
08:35:08.808 PM 04/05/2016,Teleop Enabled,10,FALSE,0,NO ERROR,-0.000000,-120.151802,-0.000000,-71.930665,TRUE,FALSE,TRUE,FALSE,FALSE,FALSE,Disabled,0.000000,0.000000,0.000000,TRUE,-0.340958,0.537613,0.000000,-0.248489,0.062912,0.000000,0.082000,0.102000,-0.186000,-87.100000,-1.650000,2.180000,-82.647234,Hold,0.000000,0.000000,Hold,-77909.000000,77824.000000,HighGoal,3225.000000,-3272.727273,Speed,3195.000000,-3272.727273,Speed,Off,Off,0.000000,FALSE,0,,,,,0.000000,0.000000
08:35:08.907 PM 04/05/2016,Teleop Enabled,10,FALSE,0,NO ERROR,-0.000000,-122.436130,-0.000000,-69.781087,TRUE,FALSE,TRUE,FALSE,FALSE,FALSE,Disabled,0.000000,0.000000,0.000000,TRUE,-0.353531,0.547043,0.000000,-0.320877,0.338120,0.000000,-0.292000,0.248000,0.047000,-103.180000,0.050000,2.660000,-97.137595,Hold,0.000000,0.000000,Hold,-77909.000000,77824.000000,HighGoal,3232.500000,-3272.727273,Speed,3180.000000,-3272.727273,Speed,Off,Off,0.000000,FALSE,0,,,,,0.000000,0.000000
08:35:09.008 PM 04/05/2016,Teleop Enabled,9,FALSE,0,NO ERROR,-0.000000,-123.443545,-0.000000,-68.863506,FALSE,FALSE,TRUE,FALSE,FALSE,FALSE,Disabled,0.000000,0.000000,0.000000,TRUE,-0.373169,0.559906,0.000000,-0.586121,0.000000,0.000000,0.201000,0.132000,0.093000,-106.110000,0.650000,3.460000,-103.276547,Hold,0.000000,0.000000,Hold,-77909.000000,77824.000000,HighGoal,3240.000000,-3272.727273,Speed,3315.000000,-3272.727273,Speed,Off,Off,0.000000,FALSE,0,,,,,0.000000,0.000000
08:35:09.108 PM 04/05/2016,Teleop Enabled,10,FALSE,0,NO ERROR,-0.188976,-123.591128,-0.188976,-68.805756,FALSE,FALSE,TRUE,FALSE,FALSE,FALSE,Disabled,0.000000,0.000000,0.000000,TRUE,-0.415146,0.562042,0.000000,-0.602859,0.017685,0.000000,0.231000,-0.116000,0.196000,-106.860000,0.780000,3.600000,-103.922570,Hold,0.000000,0.000000,Hold,-77909.000000,77824.000000,HighGoal,3247.500000,-3272.727273,Speed,3300.000000,-3272.727273,Speed,Off,Off,0.000000,FALSE,0,,,,,0.000000,0.000000
08:35:09.208 PM 04/05/2016,Teleop Enabled,8,FALSE,0,NO ERROR,-0.196850,-123.135545,-0.196850,-69.364004,FALSE,FALSE,TRUE,FALSE,FALSE,FALSE,Disabled,0.000000,0.000000,0.000000,TRUE,-0.440628,0.563004,0.000000,-0.651901,0.027328,0.000000,0.194000,-0.064000,0.146000,-105.810000,0.850000,3.840000,-102.602649,Hold,0.000000,0.000000,Hold,-77909.000000,77824.000000,HighGoal,3277.500000,-3272.727273,Speed,3270.000000,-3272.727273,Speed,Off,Off,0.000000,FALSE,0,,,,,0.000000,0.000000
08:35:09.309 PM 04/05/2016,Teleop Enabled,8,FALSE,0,NO ERROR,-0.267717,-122.288547,-0.267717,-70.178919,FALSE,FALSE,TRUE,FALSE,FALSE,FALSE,Disabled,0.000000,0.000000,0.000000,TRUE,-0.472061,0.562866,0.000000,-0.642303,-0.021179,0.000000,0.116000,-0.059000,0.165000,-101.730000,0.740000,3.940000,-99.306575,Hold,0.000000,0.000000,Hold,-77909.000000,77824.000000,HighGoal,3270.000000,-3272.727273,Speed,3247.500000,-3272.727273,Speed,Off,Off,0.000000,FALSE,0,,,,,0.000000,0.000000
08:35:09.409 PM 04/05/2016,Teleop Enabled,11,FALSE,0,NO ERROR,-0.000000,-121.191300,-0.000000,-71.269750,FALSE,FALSE,TRUE,FALSE,FALSE,FALSE,Disabled,0.000000,0.000000,0.000000,TRUE,-0.504990,0.560471,0.000000,-0.659332,-0.053329,0.000000,-0.222000,-0.072000,-0.231000,-96.410000,0.710000,4.010000,-95.307624,Hold,0.000000,0.000000,Hold,-77909.000000,77824.000000,HighGoal,3255.000000,-3272.727273,Speed,3262.500000,-3272.727273,Speed,Off,Off,0.000000,FALSE,0,,,,,0.000000,0.000000
08:35:09.509 PM 04/05/2016,Teleop Enabled,8,FALSE,0,NO ERROR,-0.000000,-120.004219,-0.000000,-72.456831,FALSE,FALSE,TRUE,FALSE,FALSE,FALSE,Disabled,0.000000,0.000000,0.000000,TRUE,-0.536957,0.555695,0.000000,-0.612137,-0.130905,0.000000,-0.138000,-0.067000,-0.273000,-91.740000,0.490000,4.010000,-89.805872,Hold,0.000000,0.000000,Hold,-77909.000000,77824.000000,HighGoal,3262.500000,-3272.727273,Speed,3262.500000,-3272.727273,Speed,Off,Off,0.000000,FALSE,0,,,,,0.000000,0.000000
08:35:09.609 PM 04/05/2016,Teleop Enabled,9,FALSE,0,NO ERROR,-0.000000,-119.580720,-0.000000,-72.758413,FALSE,FALSE,TRUE,FALSE,FALSE,FALSE,Disabled,0.000000,0.000000,0.000000,TRUE,-0.563568,0.545670,0.000000,-0.459793,-0.264191,0.000000,0.208000,-0.251000,0.147000,-88.610000,-0.130000,3.470000,-86.166179,Hold,0.000000,0.000000,Hold,-77909.000000,77824.000000,HighGoal,3270.000000,-3272.727273,Speed,3255.000000,-3272.727273,Speed,Off,Off,0.000000,FALSE,0,,,,,0.000000,0.000000
08:35:09.711 PM 04/05/2016,Teleop Enabled,8,FALSE,0,NO ERROR,-0.000000,-119.574304,-0.000000,-72.719913,FALSE,FALSE,TRUE,FALSE,FALSE,FALSE,Disabled,0.000000,0.000000,0.000000,TRUE,-0.589722,0.526169,0.000000,-0.427673,-0.354630,0.000000,0.160000,-0.121000,0.270000,-88.780000,-0.180000,3.300000,-86.343919,Hold,0.000000,0.000000,Hold,-77909.000000,77824.000000,HighGoal,3285.000000,-3272.727273,Speed,3262.500000,-3272.727273,Speed,Off,Off,0.000000,FALSE,0,,,,,0.000000,0.000000
08:35:09.812 PM 04/05/2016,Teleop Enabled,10,FALSE,0,NO ERROR,-0.275591,-119.574304,-0.275591,-72.707080,FALSE,FALSE,TRUE,FALSE,FALSE,FALSE,Disabled,0.000000,0.000000,0.000000,TRUE,-0.606415,0.512344,0.000000,-0.404510,-0.342529,0.000000,0.259000,-0.213000,0.350000,-88.770000,-0.080000,3.280000,-86.342177,Hold,0.000000,0.000000,Hold,-77909.000000,77824.000000,HighGoal,3292.500000,-3272.727273,Speed,3270.000000,-3272.727273,Speed,Off,Off,0.000000,FALSE,0,,,,,0.000000,0.000000
08:35:09.912 PM 04/05/2016,Teleop Enabled,10,FALSE,0,NO ERROR,-0.307087,-118.785056,-0.307087,-73.464245,FALSE,FALSE,TRUE,FALSE,FALSE,FALSE,Disabled,0.000000,0.000000,0.000000,TRUE,-0.627426,0.494217,0.000000,-0.475555,-0.336884,0.000000,0.086000,-0.144000,0.099000,-87.350000,0.300000,3.750000,-85.276750,Hold,0.000000,0.000000,Hold,-77909.000000,77824.000000,HighGoal,3285.000000,-3272.727273,Speed,3255.000000,-3272.727273,Speed,Off,Off,0.000000,FALSE,0,,,,,0.000000,0.000000
08:35:10.013 PM 04/05/2016,Teleop Enabled,9,FALSE,0,NO ERROR,-0.000000,-117.411892,-0.000000,-74.837408,FALSE,FALSE,TRUE,FALSE,FALSE,FALSE,Disabled,0.000000,0.000000,0.000000,TRUE,-0.652618,0.479019,0.000000,-0.493317,-0.281662,0.000000,-0.112000,0.046000,-0.212000,-82.840000,0.450000,3.970000,-79.825917,Hold,0.000000,0.000000,Hold,-77909.000000,77824.000000,HighGoal,3270.000000,-3272.727273,Speed,3240.000000,-3272.727273,Speed,Off,Off,0.000000,FALSE,0,,,,,0.000000,0.000000
08:35:10.113 PM 04/05/2016,Teleop Enabled,11,FALSE,0,NO ERROR,-0.000000,-116.545644,-0.000000,-75.697240,FALSE,FALSE,TRUE,FALSE,FALSE,FALSE,Disabled,0.000000,0.000000,0.000000,TRUE,-0.675201,0.462082,0.000000,-0.427383,-0.395981,0.000000,-0.143000,-0.046000,-0.133000,-76.790000,-0.020000,3.740000,-74.204571,Hold,0.000000,0.000000,Hold,-77909.000000,77824.000000,HighGoal,3262.500000,-3272.727273,Speed,3217.500000,-3272.727273,Speed,Off,Off,0.000000,FALSE,0,,,,,0.000000,0.000000
08:35:10.212 PM 04/05/2016,Teleop Enabled,10,FALSE,0,NO ERROR,-0.000000,-116.282561,-0.000000,-75.889739,FALSE,FALSE,TRUE,FALSE,FALSE,FALSE,Disabled,0.000000,0.000000,0.000000,TRUE,-0.691330,0.436203,0.000000,-0.277130,-0.571289,0.000000,0.310000,-0.104000,0.043000,-75.030000,-0.590000,3.120000,-73.061008,Hold,0.000000,0.000000,Hold,-77909.000000,77824.000000,HighGoal,3277.500000,-3272.727273,Speed,3217.500000,-3272.727273,Speed,Off,Off,0.000000,FALSE,0,,,,,0.000000,0.000000
08:35:10.313 PM 04/05/2016,Teleop Enabled,10,FALSE,0,NO ERROR,-0.000000,-116.282561,-0.000000,-75.819156,FALSE,FALSE,TRUE,FALSE,FALSE,FALSE,Disabled,0.000000,0.000000,0.000000,TRUE,-0.707031,0.402023,0.000000,-0.270798,-0.559753,0.000000,0.147000,-0.028000,0.229000,-75.360000,-0.510000,3.030000,-73.360552,Hold,0.000000,0.000000,Hold,-77909.000000,77824.000000,HighGoal,3292.500000,-3272.727273,Speed,3247.500000,-3272.727273,Speed,Off,Off,0.000000,FALSE,0,,,,,0.000000,0.000000
08:35:10.416 PM 04/05/2016,Teleop Enabled,9,FALSE,0,NO ERROR,-0.000000,-116.282561,-0.000000,-75.819156,FALSE,FALSE,TRUE,FALSE,FALSE,FALSE,Disabled,0.000000,0.000000,0.000000,TRUE,-0.720566,0.373184,0.000000,-0.277771,-0.603638,0.000000,-0.140000,0.080000,-0.181000,-75.310000,-0.470000,3.000000,-73.312717,Hold,0.000000,0.000000,Hold,-77909.000000,77824.000000,HighGoal,3300.000000,-3272.727273,Speed,3262.500000,-3272.727273,Speed,Off,Off,0.000000,FALSE,0,,,,,0.000000,0.000000
08:35:10.516 PM 04/05/2016,Teleop Enabled,9,FALSE,0,NO ERROR,-0.000000,-116.282561,-0.000000,-75.819156,TRUE,FALSE,TRUE,FALSE,FALSE,FALSE,Disabled,0.000000,0.000000,0.000000,TRUE,-0.735046,0.342270,0.000000,-0.299896,-0.637253,0.000000,0.002000,-0.171000,0.254000,-75.320000,-0.460000,2.940000,-73.317984,Hold,0.000000,0.000000,Hold,-77909.000000,77824.000000,HighGoal,3292.500000,-3272.727273,Speed,3255.000000,-3272.727273,Speed,Off,Off,0.000000,FALSE,0,,,,,0.000000,0.000000
08:35:10.617 PM 04/05/2016,Teleop Enabled,11,FALSE,0,NO ERROR,-0.000000,-116.282561,-0.000000,-75.819156,TRUE,FALSE,TRUE,FALSE,FALSE,FALSE,Disabled,0.000000,0.000000,0.000000,TRUE,-0.744965,0.315460,0.000000,0.000000,-0.681549,0.000000,0.027000,0.140000,-0.097000,-75.320000,-0.480000,2.920000,-73.314862,Hold,0.000000,0.000000,Hold,-77908.000000,77824.000000,HighGoal,3285.000000,-3272.727273,Speed,3247.500000,-3272.727273,Speed,Off,Off,0.000000,FALSE,0,,,,,0.000000,0.000000
08:35:10.718 PM 04/05/2016,Teleop Enabled,10,FALSE,0,NO ERROR,-0.000000,-116.282561,-0.000000,-75.819156,TRUE,FALSE,TRUE,FALSE,FALSE,FALSE,Disabled,0.000000,0.000000,0.000000,TRUE,-0.744888,0.281326,0.000000,-0.002029,-0.689835,0.000000,-0.053000,-0.124000,0.044000,-75.320000,-0.480000,2.900000,-73.307794,Hold,0.000000,0.000000,Hold,-77908.000000,77824.000000,HighGoal,3285.000000,-3272.727273,Speed,3225.000000,-3272.727273,Speed,Off,Off,0.000000,FALSE,0,,,,,0.000000,0.000000
08:35:10.819 PM 04/05/2016,Teleop Enabled,11,FALSE,0,NO ERROR,-0.000000,-116.282561,-0.000000,-75.819156,TRUE,FALSE,TRUE,FALSE,FALSE,FALSE,Disabled,0.000000,0.000000,0.000000,TRUE,-0.745895,0.246078,0.000000,-0.027939,-0.703720,0.000000,0.049000,0.048000,0.099000,-75.320000,-0.460000,2.820000,-73.310500,Hold,0.000000,0.000000,Hold,-77908.000000,77824.000000,HighGoal,3285.000000,-3272.727273,Speed,3255.000000,-3272.727273,Speed,Off,Off,0.000000,FALSE,0,,,,,0.000000,0.000000
08:35:10.920 PM 04/05/2016,Teleop Enabled,11,FALSE,0,NO ERROR,-0.000000,-116.282561,-0.000000,-75.819156,TRUE,FALSE,TRUE,FALSE,FALSE,FALSE,Disabled,0.000000,0.000000,0.000000,TRUE,-0.746918,0.212112,0.000000,-0.017334,-0.654678,0.000000,-0.098000,0.015000,-0.017000,-75.310000,-0.440000,2.820000,-73.315406,Hold,0.000000,0.000000,Hold,-77908.000000,77824.000000,HighGoal,3285.000000,-3272.727273,Speed,3270.000000,-3272.727273,Speed,Off,Off,0.000000,FALSE,0,,,,,0.000000,0.000000
08:35:11.020 PM 04/05/2016,Teleop Enabled,10,FALSE,0,NO ERROR,-0.000000,-116.282561,-0.000000,-75.819156,TRUE,FALSE,TRUE,FALSE,FALSE,FALSE,Disabled,0.000000,0.000000,0.000000,TRUE,-0.748032,0.174194,0.000000,-0.002136,-0.594391,0.000000,-0.089000,0.108000,-0.076000,-75.310000,-0.490000,2.820000,-73.328646,Hold,0.000000,0.000000,Hold,-77908.000000,77824.000000,HighGoal,3292.500000,-3272.727273,Speed,3270.000000,-3272.727273,Speed,Off,Off,0.000000,FALSE,0,,,,,0.000000,0.000000
08:35:11.120 PM 04/05/2016,Teleop Enabled,10,FALSE,0,NO ERROR,-0.000000,-116.282561,-0.000000,-75.819156,TRUE,FALSE,TRUE,FALSE,FALSE,FALSE,Disabled,0.000000,0.000000,0.000000,TRUE,-0.747040,0.146393,0.000000,0.031845,-0.537949,0.000000,0.243000,-0.038000,0.075000,-75.320000,-0.480000,2.730000,-73.318401,Hold,0.000000,0.000000,Hold,-77908.000000,77824.000000,HighGoal,3292.500000,-3272.727273,Speed,3262.500000,-3272.727273,Speed,Off,Off,0.000000,FALSE,0,,,,,0.000000,0.000000
08:35:11.220 PM 04/05/2016,Teleop Enabled,11,FALSE,0,NO ERROR,-0.000000,-116.282561,-0.000000,-75.819156,TRUE,FALSE,TRUE,FALSE,FALSE,FALSE,Disabled,0.000000,0.000000,0.000000,TRUE,-0.744568,0.119949,0.000000,0.058624,-0.523880,0.000000,0.284000,-0.077000,0.005000,-75.320000,-0.500000,2.790000,-73.318346,Hold,0.000000,0.000000,Hold,-77908.000000,77824.000000,HighGoal,3285.000000,-3272.727273,Speed,3255.000000,-3272.727273,Speed,Off,Off,0.000000,FALSE,0,,,,,0.000000,0.000000
08:35:11.320 PM 04/05/2016,Teleop Enabled,11,FALSE,0,NO ERROR,-0.000000,-116.282561,-0.000000,-75.819156,TRUE,FALSE,TRUE,FALSE,FALSE,FALSE,Disabled,0.000000,0.000000,0.000000,TRUE,-0.740570,0.094193,0.000000,0.081589,-0.512054,0.000000,0.284000,-0.077000,0.005000,-75.320000,-0.510000,2.760000,-73.313334,Hold,0.000000,0.000000,Hold,-77908.000000,77824.000000,HighGoal,3285.000000,-3272.727273,Speed,3262.500000,-3272.727273,Speed,Off,Off,0.000000,FALSE,0,,,,,0.000000,0.000000
08:35:11.420 PM 04/05/2016,Teleop Enabled,8,FALSE,0,NO ERROR,-0.000000,-116.282561,-0.000000,-75.819156,TRUE,FALSE,TRUE,FALSE,FALSE,FALSE,Disabled,0.000000,0.000000,0.000000,TRUE,-0.735657,0.067200,0.000000,0.112854,-0.550140,0.000000,0.195000,-0.183000,0.155000,-75.320000,-0.520000,2.750000,-73.310934,Hold,0.000000,0.000000,Hold,-77908.000000,77824.000000,HighGoal,3292.500000,-3272.727273,Speed,3262.500000,-3272.727273,Speed,Off,Off,0.000000,FALSE,0,,,,,0.000000,0.000000
08:35:11.520 PM 04/05/2016,Teleop Enabled,9,FALSE,0,NO ERROR,0.196850,-116.462228,0.196850,-75.710073,TRUE,FALSE,TRUE,FALSE,FALSE,FALSE,Disabled,0.000000,0.000000,0.000000,TRUE,-0.728973,0.039322,0.000000,0.139984,-0.556351,0.000000,0.194000,-0.062000,0.254000,-75.320000,-0.520000,2.690000,-73.337414,Hold,0.000000,0.000000,Hold,-77908.000000,77824.000000,HighGoal,3292.500000,-3272.727273,Speed,3255.000000,-3272.727273,Speed,Off,Off,0.000000,FALSE,0,,,,,0.000000,0.000000
08:35:11.620 PM 04/05/2016,Teleop Enabled,10,FALSE,0,NO ERROR,-0.000000,-116.917810,-0.000000,-75.241657,TRUE,FALSE,TRUE,FALSE,FALSE,FALSE,Disabled,0.000000,0.000000,0.000000,TRUE,-0.718796,0.001129,0.000000,0.184143,-0.637970,0.000000,0.194000,-0.062000,0.254000,-77.640000,-0.740000,2.320000,-75.514051,Hold,0.000000,0.000000,Hold,-77908.000000,77824.000000,HighGoal,3285.000000,-3272.727273,Speed,3255.000000,-3272.727273,Speed,Off,Off,0.000000,FALSE,0,,,,,0.000000,0.000000
08:35:11.720 PM 04/05/2016,Teleop Enabled,10,FALSE,0,NO ERROR,-0.000000,-117.001226,-0.000000,-75.145408,TRUE,FALSE,TRUE,FALSE,FALSE,FALSE,Disabled,0.000000,0.000000,0.000000,TRUE,-0.711380,-0.028854,0.000000,0.100525,-0.594009,0.000000,0.044000,0.193000,-0.367000,-77.640000,-0.740000,2.320000,-76.792634,Hold,0.000000,0.000000,Hold,-77908.000000,77824.000000,HighGoal,3277.500000,-3272.727273,Speed,3255.000000,-3272.727273,Speed,Off,Off,0.000000,FALSE,0,,,,,0.000000,0.000000
08:35:11.821 PM 04/05/2016,Teleop Enabled,10,FALSE,0,NO ERROR,-0.000000,-117.001226,-0.000000,-75.248074,TRUE,FALSE,TRUE,FALSE,FALSE,FALSE,Disabled,0.000000,0.000000,0.000000,TRUE,-0.707703,-0.060425,0.000000,0.084335,-0.651001,0.000000,-0.154000,-0.038000,-0.291000,-78.530000,-0.320000,2.630000,-76.457625,Hold,0.000000,0.000000,Hold,-77908.000000,77824.000000,HighGoal,3277.500000,-3272.727273,Speed,3255.000000,-3272.727273,Speed,Off,Off,0.000000,FALSE,0,,,,,0.000000,0.000000
08:35:11.922 PM 04/05/2016,Teleop Enabled,10,FALSE,0,NO ERROR,-0.000000,-117.001226,-0.000000,-75.248074,TRUE,FALSE,TRUE,FALSE,FALSE,FALSE,Disabled,0.000000,0.000000,0.000000,TRUE,-0.702728,-0.093948,0.000000,0.090103,-0.656799,0.000000,-0.002000,0.024000,-0.150000,-78.610000,-0.360000,2.600000,-76.533592,Hold,0.000000,0.000000,Hold,-77908.000000,77824.000000,HighGoal,3292.500000,-3272.727273,Speed,3247.500000,-3272.727273,Speed,Off,Off,0.000000,FALSE,0,,,,,0.000000,0.000000
08:35:12.022 PM 04/05/2016,Teleop Enabled,10,FALSE,0,NO ERROR,-0.000000,-117.001226,-0.000000,-75.248074,TRUE,FALSE,TRUE,FALSE,FALSE,FALSE,Disabled,0.000000,0.000000,0.000000,TRUE,-0.702728,-0.093948,0.000000,0.090103,-0.656799,0.000000,0.056000,0.004000,0.193000,-78.610000,-0.360000,2.600000,-76.484250,Hold,0.000000,0.000000,Hold,-77908.000000,77824.000000,HighGoal,3300.000000,-3272.727273,Speed,3255.000000,-3272.727273,Speed,Off,Off,0.000000,FALSE,0,,,,,0.000000,0.000000
08:35:12.123 PM 04/05/2016,Teleop Enabled,10,FALSE,0,NO ERROR,-0.000000,-117.001226,-0.000000,-75.248074,TRUE,FALSE,TRUE,FALSE,FALSE,FALSE,Disabled,0.000000,0.000000,0.000000,TRUE,-0.701050,-0.114182,0.000000,0.000000,0.005356,0.000000,0.005000,0.048000,-0.163000,-78.580000,-0.310000,2.520000,-76.468999,Hold,0.000000,0.000000,Hold,-77908.000000,77824.000000,HighGoal,3300.000000,-3272.727273,Speed,3255.000000,-3272.727273,Speed,Off,Off,0.000000,FALSE,0,,,,,0.000000,0.000000
