Time,Robot Mode,Loop Time,Error Status,Error Code,Error Source,Left Motor Output,Left Motor Encoder,Right Motor Output,Right Motor Encoder,Is Level,Is Stalled,Ball Detector Photoeye,Vision Enabled,Vision Teleop Control,Vision Auto Control,Vision Current State,Vision X Output,Vision NavX Error,Vision NavX Target,NavX Connection Status,NavX Displacement X,NavX Displacement Y,NavX Displacement Z,NavX Velocity X,NavX Velocity Y,NavX Velocity Z,NavX Acceleration X,NavX Acceleration Y,NavX Acceleration Z,NavX Pitch,NavX Yaw,NavX Roll,Gyro Angle,Roller Arm State,Roller Arm Actual,Roller Arm Desired,Shooter Arm State,Shooter Arm Actual,Shooter Arm Desired,Shooter State,Actual RPM Left,Desired RPM Left,Control Mode Left,Actual RPM Right,Desired RPM Right,Control Mode Right,Ball Shooter Cylinder,Ball Halo Cylinder,Scaler Motor Output,Scaler Solenoid Fire,Auto To Run,Auto Current File,Auto File Status,Auto Current Command,Auto Trimmed Command,Shooter Amps Left,Shooter Amps Right
01:35:04.285 PM 04/09/2016,Autonomous Disabled,12820,FALSE,0,NO ERROR,-0.000000,0.000000,-0.000000,0.000000,TRUE,FALSE,TRUE,FALSE,FALSE,FALSE,Disabled,0.000000,-0.201963,-5.178037,FALSE,0.757019,-30.714432,0.000000,0.000000,0.000000,0.000000,0.000000,0.001000,0.020000,2.540000,-176.280000,-0.190000,-0.005574,Hold,0.939697,0.000000,Hold,-8235.000000,8192.000000,LowGoal,0.000000,-2181.818182,Speed,0.000000,-2181.818182,Speed,Off,Off,0.000000,FALSE,0,Read: /home/lvuser/scripts/auto_43.bee,File good!,DRIVE_STRAIGHT_NAVX_RAMPARTS 200 5000 10,DRIVE_STRAIGHT_NAVX_RAMPARTS,0.000000,0.000000
01:35:04.380 PM 04/09/2016,Teleop Disabled,11,FALSE,0,NO ERROR,-0.000000,0.000000,-0.000000,0.000000,TRUE,TRUE,TRUE,TRUE,FALSE,FALSE,Disabled,0.000000,-0.201963,-5.178037,TRUE,0.757019,-30.714432,0.000000,0.000000,0.000000,0.000000,0.002000,-0.001000,0.017000,2.550000,0.000000,-0.170000,-0.005574,ResetBack,0.939697,-0.000049,ResetBack,-8235.000000,-0.250000,Empty,0.000000,0.000000,Speed,0.000000,0.000000,Speed,Off,On,0.000000,FALSE,0,Read: /home/lvuser/scripts/auto_43.bee,File good!,DRIVE_STRAIGHT_NAVX_RAMPARTS 200 5000 10,DRIVE_STRAIGHT_NAVX_RAMPARTS,0.000000,0.000000
01:35:04.481 PM 04/09/2016,Teleop Disabled,9,FALSE,0,NO ERROR,-0.000000,0.000000,-0.000000,0.000000,TRUE,FALSE,TRUE,TRUE,FALSE,FALSE,Disabled,0.000000,-0.201963,-5.178037,TRUE,0.757019,-30.714432,0.000000,0.000000,0.000000,0.000000,0.002000,0.000000,0.020000,2.550000,0.000000,-0.170000,-0.006200,ResetBack,0.939697,-0.000049,ResetBack,-8235.000000,-0.250000,Empty,0.000000,0.000000,Speed,0.000000,0.000000,Speed,Off,On,0.000000,FALSE,0,Read: /home/lvuser/scripts/auto_43.bee,File good!,DRIVE_STRAIGHT_NAVX_RAMPARTS 200 5000 10,DRIVE_STRAIGHT_NAVX_RAMPARTS,0.000000,0.000000
01:35:04.582 PM 04/09/2016,Teleop Disabled,9,FALSE,0,NO ERROR,-0.000000,0.000000,-0.000000,0.000000,TRUE,FALSE,TRUE,TRUE,FALSE,FALSE,Disabled,0.000000,-0.201963,-5.178037,TRUE,0.757019,-30.714432,0.000000,0.000000,0.000000,0.000000,0.000000,-0.001000,0.019000,2.550000,0.000000,-0.170000,0.000964,ResetBack,0.939697,-0.000049,ResetBack,-8235.000000,-0.250000,Empty,0.000000,0.000000,Speed,0.000000,0.000000,Speed,Off,On,0.000000,FALSE,0,Read: /home/lvuser/scripts/auto_43.bee,File good!,DRIVE_STRAIGHT_NAVX_RAMPARTS 200 5000 10,DRIVE_STRAIGHT_NAVX_RAMPARTS,0.000000,0.000000
01:35:04.683 PM 04/09/2016,Teleop Disabled,10,FALSE,0,NO ERROR,-0.000000,0.000000,-0.000000,0.000000,TRUE,FALSE,TRUE,TRUE,FALSE,FALSE,Disabled,0.000000,-0.201963,-5.178037,TRUE,0.757019,-30.714432,0.000000,0.000000,0.000000,0.000000,0.000000,-0.003000,0.022000,2.550000,0.000000,-0.170000,0.011274,ResetBack,0.939697,-0.000049,ResetBack,-8235.000000,-0.250000,Empty,0.000000,0.000000,Speed,0.000000,0.000000,Speed,Off,On,0.000000,FALSE,0,Read: /home/lvuser/scripts/auto_43.bee,File good!,DRIVE_STRAIGHT_NAVX_RAMPARTS 200 5000 10,DRIVE_STRAIGHT_NAVX_RAMPARTS,0.000000,0.000000
01:35:04.784 PM 04/09/2016,Teleop Disabled,9,FALSE,0,NO ERROR,-0.000000,0.000000,-0.000000,0.000000,TRUE,FALSE,TRUE,TRUE,FALSE,FALSE,Disabled,0.000000,-0.201963,-5.178037,TRUE,0.757019,-30.714432,0.000000,0.000000,0.000000,0.000000,0.000000,0.000000,0.020000,2.540000,0.000000,-0.170000,0.017395,ResetBack,0.939697,-0.000049,ResetBack,-8235.000000,-0.250000,Empty,0.000000,0.000000,Speed,0.000000,0.000000,Speed,Off,On,0.000000,FALSE,0,Read: /home/lvuser/scripts/auto_43.bee,File good!,DRIVE_STRAIGHT_NAVX_RAMPARTS 200 5000 10,DRIVE_STRAIGHT_NAVX_RAMPARTS,0.000000,0.000000
01:35:04.885 PM 04/09/2016,Teleop Disabled,9,TRUE,-44005,<LOCATION>WPI_CameraWait for Raw Image String.vi:6640001<CALLSTACK>WPI_CameraWait for Raw Image String.vi:6640001< <WPI_CameraGet Image.vi< <Vision Processing.vi< <Robot Main.vi,-0.000000,0.000000,-0.000000,0.000000,TRUE,FALSE,TRUE,TRUE,FALSE,FALSE,Disabled,0.000000,-0.201963,-5.178037,TRUE,0.757019,-30.714432,0.000000,0.000000,0.000000,0.000000,0.000000,0.000000,0.022000,2.540000,0.000000,-0.170000,0.018814,ResetBack,0.939697,-0.000049,ResetBack,-8235.000000,-0.250000,Empty,0.000000,0.000000,Speed,0.000000,0.000000,Speed,Off,On,0.000000,FALSE,0,Read: /home/lvuser/scripts/auto_43.bee,File good!,DRIVE_STRAIGHT_NAVX_RAMPARTS 200 5000 10,DRIVE_STRAIGHT_NAVX_RAMPARTS,0.000000,0.000000
01:35:04.986 PM 04/09/2016,Teleop Disabled,10,TRUE,-44005,<LOCATION>WPI_CameraWait for Raw Image String.vi:6640001<CALLSTACK>WPI_CameraWait for Raw Image String.vi:6640001< <WPI_CameraGet Image.vi< <Vision Processing.vi< <Robot Main.vi,-0.000000,0.000000,-0.000000,0.000000,TRUE,FALSE,TRUE,TRUE,FALSE,FALSE,Disabled,0.000000,-0.201963,-5.178037,TRUE,0.757019,-30.714432,0.000000,0.000000,0.000000,0.000000,0.002000,-0.001000,0.019000,2.540000,0.000000,-0.170000,0.022680,ResetBack,0.939697,-0.000049,ResetBack,-8235.000000,-0.250000,Empty,0.000000,0.000000,Speed,0.000000,0.000000,Speed,Off,On,0.000000,FALSE,0,Read: /home/lvuser/scripts/auto_43.bee,File good!,DRIVE_STRAIGHT_NAVX_RAMPARTS 200 5000 10,DRIVE_STRAIGHT_NAVX_RAMPARTS,0.000000,0.000000
01:35:05.087 PM 04/09/2016,Teleop Disabled,9,FALSE,0,NO ERROR,-0.000000,0.000000,-0.000000,0.000000,TRUE,FALSE,TRUE,TRUE,FALSE,FALSE,Disabled,0.000000,-0.201963,-5.178037,TRUE,0.757019,-30.714432,0.000000,0.000000,0.000000,0.000000,0.001000,0.000000,0.023000,2.540000,0.000000,-0.170000,0.033871,ResetBack,0.939697,-0.000049,ResetBack,-8235.000000,-0.250000,Empty,0.000000,0.000000,Speed,0.000000,0.000000,Speed,Off,On,0.000000,FALSE,0,Read: /home/lvuser/scripts/auto_43.bee,File good!,DRIVE_STRAIGHT_NAVX_RAMPARTS 200 5000 10,DRIVE_STRAIGHT_NAVX_RAMPARTS,0.000000,0.000000
01:35:05.187 PM 04/09/2016,Teleop Disabled,11,FALSE,0,NO ERROR,-0.000000,0.000000,-0.000000,0.000000,TRUE,FALSE,TRUE,TRUE,FALSE,FALSE,Disabled,0.000000,-0.201963,-5.178037,TRUE,0.757019,-30.714432,0.000000,0.000000,0.000000,0.000000,0.000000,0.001000,0.023000,2.540000,0.000000,-0.170000,0.040305,ResetBack,0.939697,-0.000049,ResetBack,-8235.000000,-0.250000,Empty,0.000000,0.000000,Speed,0.000000,0.000000,Speed,Off,On,0.000000,FALSE,0,Read: /home/lvuser/scripts/auto_43.bee,File good!,DRIVE_STRAIGHT_NAVX_RAMPARTS 200 5000 10,DRIVE_STRAIGHT_NAVX_RAMPARTS,0.000000,0.000000
01:35:05.288 PM 04/09/2016,Teleop Disabled,9,FALSE,0,NO ERROR,-0.000000,0.000000,-0.000000,0.000000,TRUE,FALSE,TRUE,TRUE,FALSE,FALSE,Disabled,0.000000,-0.201963,-5.178037,TRUE,0.757019,-30.714432,0.000000,0.000000,0.000000,0.000000,-0.001000,0.000000,0.018000,2.540000,0.000000,-0.170000,0.023193,ResetBack,0.939697,-0.000049,ResetBack,-8235.000000,-0.250000,Empty,0.000000,0.000000,Speed,0.000000,0.000000,Speed,Off,On,0.000000,FALSE,0,Read: /home/lvuser/scripts/auto_43.bee,File good!,DRIVE_STRAIGHT_NAVX_RAMPARTS 200 5000 10,DRIVE_STRAIGHT_NAVX_RAMPARTS,0.000000,0.000000
01:35:05.389 PM 04/09/2016,Teleop Disabled,9,FALSE,0,NO ERROR,-0.000000,0.000000,-0.000000,0.000000,TRUE,FALSE,TRUE,TRUE,FALSE,FALSE,Disabled,0.000000,-0.201963,-5.178037,TRUE,0.757019,-30.714432,0.000000,0.000000,0.000000,0.000000,0.000000,-0.001000,0.025000,2.540000,0.000000,-0.170000,0.042739,ResetBack,0.939697,-0.000049,ResetBack,-8235.000000,-0.250000,Empty,0.000000,0.000000,Speed,0.000000,0.000000,Speed,Off,On,0.000000,FALSE,0,Read: /home/lvuser/scripts/auto_43.bee,File good!,DRIVE_STRAIGHT_NAVX_RAMPARTS 200 5000 10,DRIVE_STRAIGHT_NAVX_RAMPARTS,0.000000,0.000000
01:35:05.489 PM 04/09/2016,Teleop Disabled,10,FALSE,0,NO ERROR,-0.000000,0.000000,-0.000000,0.000000,TRUE,FALSE,TRUE,TRUE,FALSE,FALSE,Disabled,0.000000,-0.201963,-5.178037,TRUE,0.757019,-30.714432,0.000000,0.000000,0.000000,0.000000,-0.003000,-0.003000,0.025000,2.540000,0.000000,-0.170000,0.051556,ResetBack,0.939697,-0.000049,ResetBack,-8235.000000,-0.250000,Empty,0.000000,0.000000,Speed,0.000000,0.000000,Speed,Off,On,0.000000,FALSE,0,Read: /home/lvuser/scripts/auto_43.bee,File good!,DRIVE_STRAIGHT_NAVX_RAMPARTS 200 5000 10,DRIVE_STRAIGHT_NAVX_RAMPARTS,0.000000,0.000000
01:35:05.589 PM 04/09/2016,Teleop Disabled,6,FALSE,0,NO ERROR,-0.000000,0.000000,-0.000000,0.000000,TRUE,FALSE,TRUE,TRUE,FALSE,FALSE,Disabled,0.000000,-0.201963,-5.178037,TRUE,0.757019,-30.714432,0.000000,0.000000,0.000000,0.000000,0.004000,-0.001000,0.023000,2.540000,0.000000,-0.170000,0.058190,ResetBack,0.939697,-0.000049,ResetBack,-8235.000000,-0.250000,Suck,0.000000,1818.181818,Speed,0.000000,1818.181818,Speed,Off,On,0.000000,FALSE,0,Read: /home/lvuser/scripts/auto_43.bee,File good!,DRIVE_STRAIGHT_NAVX_RAMPARTS 200 5000 10,DRIVE_STRAIGHT_NAVX_RAMPARTS,0.000000,0.000000
01:35:05.690 PM 04/09/2016,Teleop Disabled,10,FALSE,0,NO ERROR,-0.000000,0.000000,-0.000000,0.000000,TRUE,FALSE,TRUE,TRUE,FALSE,FALSE,Disabled,0.000000,-0.201963,-5.178037,TRUE,0.757019,-30.714432,0.000000,0.000000,0.000000,0.000000,0.000000,0.000000,0.021000,2.540000,-0.010000,-0.160000,0.060620,ResetBack,0.939697,-0.000049,ResetBack,-8235.000000,-0.250000,Hold,0.000000,0.000000,Speed,0.000000,0.000000,Speed,Off,Off,0.000000,FALSE,0,Read: /home/lvuser/scripts/auto_43.bee,File good!,DRIVE_STRAIGHT_NAVX_RAMPARTS 200 5000 10,DRIVE_STRAIGHT_NAVX_RAMPARTS,0.000000,0.000000
01:35:05.789 PM 04/09/2016,Teleop Disabled,3,FALSE,0,NO ERROR,-0.000000,0.000000,-0.000000,0.000000,TRUE,FALSE,TRUE,TRUE,FALSE,FALSE,Disabled,0.000000,-0.201963,-5.178037,TRUE,0.757019,-30.714432,0.000000,0.000000,0.000000,0.000000,-0.002000,-0.003000,0.021000,2.550000,-0.010000,-0.170000,0.065822,ResetBack,0.939697,-0.000049,ResetBack,-8235.000000,-0.250000,Hold,0.000000,0.000000,Speed,0.000000,0.000000,Speed,Off,Off,0.000000,FALSE,0,Read: /home/lvuser/scripts/auto_43.bee,File good!,DRIVE_STRAIGHT_NAVX_RAMPARTS 200 5000 10,DRIVE_STRAIGHT_NAVX_RAMPARTS,0.000000,0.000000
01:35:05.890 PM 04/09/2016,Teleop Disabled,9,FALSE,0,NO ERROR,-0.000000,0.000000,-0.000000,0.000000,TRUE,FALSE,TRUE,TRUE,FALSE,FALSE,Disabled,0.000000,-0.201963,-5.178037,TRUE,0.757019,-30.714432,0.000000,0.000000,0.000000,0.000000,0.002000,-0.003000,0.020000,2.550000,-0.010000,-0.170000,0.075736,ResetBack,0.939697,-0.000049,ResetBack,-8235.000000,-0.250000,Hold,0.000000,0.000000,Speed,0.000000,0.000000,Speed,Off,Off,0.000000,FALSE,0,Read: /home/lvuser/scripts/auto_43.bee,File good!,DRIVE_STRAIGHT_NAVX_RAMPARTS 200 5000 10,DRIVE_STRAIGHT_NAVX_RAMPARTS,0.000000,0.000000
01:35:05.990 PM 04/09/2016,Teleop Disabled,10,FALSE,0,NO ERROR,-0.000000,0.000000,-0.000000,0.000000,TRUE,FALSE,TRUE,TRUE,FALSE,FALSE,Disabled,0.000000,-0.201963,-5.178037,TRUE,0.757019,-30.714432,0.000000,0.000000,0.000000,0.000000,0.001000,0.000000,0.024000,2.550000,-0.010000,-0.170000,0.079957,ResetBack,0.939697,-0.000049,ResetBack,-8235.000000,-0.250000,Hold,0.000000,0.000000,Speed,0.000000,0.000000,Speed,Off,Off,0.000000,FALSE,0,Read: /home/lvuser/scripts/auto_43.bee,File good!,DRIVE_STRAIGHT_NAVX_RAMPARTS 200 5000 10,DRIVE_STRAIGHT_NAVX_RAMPARTS,0.000000,0.000000
01:35:06.089 PM 04/09/2016,Teleop Disabled,10,FALSE,0,NO ERROR,-0.000000,0.000000,-0.000000,0.000000,TRUE,FALSE,TRUE,TRUE,FALSE,FALSE,Disabled,0.000000,-0.201963,-5.178037,TRUE,0.757019,-30.714432,0.000000,0.000000,0.000000,0.000000,-0.002000,0.000000,0.029000,2.550000,-0.010000,-0.170000,0.088319,ResetBack,0.939697,-0.000049,ResetBack,-8235.000000,-0.250000,Hold,0.000000,0.000000,Speed,0.000000,0.000000,Speed,Off,Off,0.000000,FALSE,0,Read: /home/lvuser/scripts/auto_43.bee,File good!,DRIVE_STRAIGHT_NAVX_RAMPARTS 200 5000 10,DRIVE_STRAIGHT_NAVX_RAMPARTS,0.000000,0.000000
01:35:06.190 PM 04/09/2016,Teleop Disabled,10,FALSE,0,NO ERROR,-0.000000,0.000000,-0.000000,0.000000,TRUE,FALSE,TRUE,TRUE,FALSE,FALSE,Disabled,0.000000,-0.201963,-5.178037,TRUE,0.757019,-30.714432,0.000000,0.000000,0.000000,0.000000,0.000000,0.000000,0.022000,2.540000,-0.010000,-0.170000,0.096877,ResetBack,0.939697,-0.000049,ResetBack,-8235.000000,-0.250000,Hold,0.000000,0.000000,Speed,0.000000,0.000000,Speed,Off,Off,0.000000,FALSE,0,Read: /home/lvuser/scripts/auto_43.bee,File good!,DRIVE_STRAIGHT_NAVX_RAMPARTS 200 5000 10,DRIVE_STRAIGHT_NAVX_RAMPARTS,0.000000,0.000000
01:35:06.290 PM 04/09/2016,Teleop Disabled,10,FALSE,0,NO ERROR,-0.000000,0.000000,-0.000000,0.000000,TRUE,FALSE,TRUE,TRUE,FALSE,FALSE,Disabled,0.000000,-0.201963,-5.178037,TRUE,0.757019,-30.714432,0.000000,0.000000,0.000000,0.000000,0.000000,0.000000,0.021000,2.550000,-0.010000,-0.170000,0.116389,ResetBack,0.939697,-0.000049,ResetBack,-8235.000000,-0.250000,Hold,0.000000,0.000000,Speed,0.000000,0.000000,Speed,Off,Off,0.000000,FALSE,0,Read: /home/lvuser/scripts/auto_43.bee,File good!,DRIVE_STRAIGHT_NAVX_RAMPARTS 200 5000 10,DRIVE_STRAIGHT_NAVX_RAMPARTS,0.000000,0.000000
01:35:06.389 PM 04/09/2016,Teleop Disabled,11,FALSE,0,NO ERROR,-0.000000,0.000000,-0.000000,0.000000,TRUE,FALSE,TRUE,TRUE,FALSE,FALSE,Disabled,0.000000,-0.201963,-5.178037,TRUE,0.757019,-30.714432,0.000000,0.000000,0.000000,0.000000,0.000000,-0.002000,0.023000,2.550000,-0.010000,-0.170000,0.108461,ResetBack,0.939697,-0.000049,ResetBack,-8235.000000,-0.250000,Hold,0.000000,0.000000,Speed,0.000000,0.000000,Speed,Off,Off,0.000000,FALSE,0,Read: /home/lvuser/scripts/auto_43.bee,File good!,DRIVE_STRAIGHT_NAVX_RAMPARTS 200 5000 10,DRIVE_STRAIGHT_NAVX_RAMPARTS,0.000000,0.000000
01:35:06.489 PM 04/09/2016,Teleop Disabled,13,FALSE,0,NO ERROR,-0.000000,0.000000,-0.000000,0.000000,TRUE,FALSE,TRUE,TRUE,FALSE,FALSE,Disabled,0.000000,-0.201963,-5.178037,TRUE,0.757019,-30.714432,0.000000,0.000000,0.000000,0.000000,0.002000,-0.001000,0.024000,2.550000,-0.010000,-0.160000,0.118190,ResetBack,0.939697,-0.000049,ResetBack,-8235.000000,-0.250000,Hold,0.000000,0.000000,Speed,0.000000,0.000000,Speed,Off,Off,0.000000,FALSE,0,Read: /home/lvuser/scripts/auto_43.bee,File good!,DRIVE_STRAIGHT_NAVX_RAMPARTS 200 5000 10,DRIVE_STRAIGHT_NAVX_RAMPARTS,0.000000,0.000000
01:35:06.590 PM 04/09/2016,Teleop Disabled,9,FALSE,0,NO ERROR,-0.000000,0.000000,-0.000000,0.000000,TRUE,FALSE,TRUE,TRUE,FALSE,FALSE,Disabled,0.000000,-0.201963,-5.178037,TRUE,0.757019,-30.714432,0.000000,0.000000,0.000000,0.000000,-0.002000,-0.002000,0.022000,2.550000,-0.010000,-0.160000,0.121643,ResetBack,0.939697,-0.000049,ResetBack,-8235.000000,-0.250000,Hold,0.000000,0.000000,Speed,0.000000,0.000000,Speed,Off,Off,0.000000,FALSE,0,Read: /home/lvuser/scripts/auto_43.bee,File good!,DRIVE_STRAIGHT_NAVX_RAMPARTS 200 5000 10,DRIVE_STRAIGHT_NAVX_RAMPARTS,0.000000,0.000000
01:35:06.690 PM 04/09/2016,Teleop Disabled,9,FALSE,0,NO ERROR,-0.000000,0.000000,-0.000000,0.000000,TRUE,FALSE,TRUE,TRUE,FALSE,FALSE,Disabled,0.000000,-0.201963,-5.178037,TRUE,0.757019,-30.714432,0.000000,0.000000,0.000000,0.000000,-0.002000,-0.002000,0.022000,2.550000,-0.010000,-0.160000,0.122972,ResetBack,0.939697,-0.000049,ResetBack,-8235.000000,-0.250000,Hold,0.000000,0.000000,Speed,0.000000,0.000000,Speed,Off,Off,0.000000,FALSE,0,Read: /home/lvuser/scripts/auto_43.bee,File good!,DRIVE_STRAIGHT_NAVX_RAMPARTS 200 5000 10,DRIVE_STRAIGHT_NAVX_RAMPARTS,0.000000,0.000000
01:35:06.789 PM 04/09/2016,Teleop Disabled,9,FALSE,0,NO ERROR,-0.000000,0.000000,-0.000000,0.000000,TRUE,FALSE,TRUE,TRUE,FALSE,FALSE,Disabled,0.000000,-0.201963,-5.178037,TRUE,0.757019,-30.714432,0.000000,0.000000,0.000000,0.000000,0.000000,0.000000,0.024000,2.550000,-0.010000,-0.160000,0.137843,ResetBack,0.939697,-0.000049,ResetBack,-8235.000000,-0.250000,Hold,0.000000,0.000000,Speed,0.000000,0.000000,Speed,Off,Off,0.000000,FALSE,0,Read: /home/lvuser/scripts/auto_43.bee,File good!,DRIVE_STRAIGHT_NAVX_RAMPARTS 200 5000 10,DRIVE_STRAIGHT_NAVX_RAMPARTS,0.000000,0.000000
01:35:06.890 PM 04/09/2016,Teleop Disabled,10,FALSE,0,NO ERROR,-0.000000,0.000000,-0.000000,0.000000,TRUE,FALSE,TRUE,TRUE,FALSE,FALSE,Disabled,0.000000,-0.201963,-5.178037,TRUE,0.757019,-30.714432,0.000000,0.000000,0.000000,0.000000,0.000000,-0.001000,0.026000,2.550000,-0.010000,-0.170000,0.150034,ResetBack,0.939697,-0.000049,ResetBack,-8235.000000,-0.250000,LowGoal,0.000000,-2181.818182,Speed,0.000000,-2181.818182,Speed,Off,Off,0.000000,FALSE,0,Read: /home/lvuser/scripts/auto_43.bee,File good!,DRIVE_STRAIGHT_NAVX_RAMPARTS 200 5000 10,DRIVE_STRAIGHT_NAVX_RAMPARTS,0.000000,0.000000
01:35:06.991 PM 04/09/2016,Teleop Disabled,10,FALSE,0,NO ERROR,-0.000000,0.000000,-0.000000,0.000000,TRUE,FALSE,TRUE,TRUE,FALSE,FALSE,Disabled,0.000000,-0.201963,-5.178037,TRUE,0.757019,-30.714432,0.000000,0.000000,0.000000,0.000000,0.000000,0.001000,0.023000,2.550000,-0.010000,-0.170000,0.159886,ResetBack,0.939697,-0.000049,ResetBack,-8235.000000,-0.250000,LowGoal,0.000000,-2181.818182,Speed,0.000000,-2181.818182,Speed,Off,Off,0.000000,FALSE,0,Read: /home/lvuser/scripts/auto_43.bee,File good!,DRIVE_STRAIGHT_NAVX_RAMPARTS 200 5000 10,DRIVE_STRAIGHT_NAVX_RAMPARTS,0.000000,0.000000
01:35:07.092 PM 04/09/2016,Teleop Disabled,9,FALSE,0,NO ERROR,-0.000000,0.000000,-0.000000,0.000000,TRUE,FALSE,TRUE,TRUE,FALSE,FALSE,Disabled,0.000000,-0.201963,-5.178037,TRUE,0.757019,-30.714432,0.000000,0.000000,0.000000,0.000000,-0.001000,-0.002000,0.022000,2.550000,-0.010000,-0.170000,0.168437,ResetBack,0.939697,-0.000049,ResetBack,-8235.000000,-0.250000,LowGoal,0.000000,-2181.818182,Speed,0.000000,-2181.818182,Speed,Off,Off,0.000000,FALSE,0,Read: /home/lvuser/scripts/auto_43.bee,File good!,DRIVE_STRAIGHT_NAVX_RAMPARTS 200 5000 10,DRIVE_STRAIGHT_NAVX_RAMPARTS,0.000000,0.000000
01:35:07.192 PM 04/09/2016,Teleop Disabled,10,FALSE,0,NO ERROR,-0.000000,0.000000,-0.000000,0.000000,TRUE,FALSE,TRUE,TRUE,FALSE,FALSE,Disabled,0.000000,-0.201963,-5.178037,TRUE,0.757019,-30.714432,0.000000,0.000000,0.000000,0.000000,-0.001000,0.000000,0.024000,2.550000,-0.010000,-0.170000,0.168882,ResetBack,0.939697,-0.000049,ResetBack,-8235.000000,-0.250000,LowGoal,0.000000,-2181.818182,Speed,0.000000,-2181.818182,Speed,Off,Off,0.000000,FALSE,0,Read: /home/lvuser/scripts/auto_43.bee,File good!,DRIVE_STRAIGHT_NAVX_RAMPARTS 200 5000 10,DRIVE_STRAIGHT_NAVX_RAMPARTS,0.000000,0.000000
01:35:07.293 PM 04/09/2016,Teleop Disabled,10,FALSE,0,NO ERROR,-0.000000,0.000000,-0.000000,0.000000,TRUE,FALSE,TRUE,TRUE,FALSE,FALSE,Disabled,0.000000,-0.201963,-5.178037,TRUE,0.757019,-30.714432,0.000000,0.000000,0.000000,0.000000,-0.002000,-0.001000,0.022000,2.550000,-0.010000,-0.160000,0.185478,ResetBack,0.939697,-0.000049,ResetBack,-8235.000000,-0.250000,LowGoal,0.000000,-2181.818182,Speed,0.000000,-2181.818182,Speed,Off,Off,0.000000,FALSE,0,Read: /home/lvuser/scripts/auto_43.bee,File good!,DRIVE_STRAIGHT_NAVX_RAMPARTS 200 5000 10,DRIVE_STRAIGHT_NAVX_RAMPARTS,0.000000,0.000000
01:35:07.393 PM 04/09/2016,Teleop Disabled,9,FALSE,0,NO ERROR,-0.000000,0.000000,-0.000000,0.000000,TRUE,FALSE,TRUE,TRUE,FALSE,FALSE,Disabled,0.000000,-0.201963,-5.178037,TRUE,0.757019,-30.714432,0.000000,0.000000,0.000000,0.000000,0.000000,0.000000,0.021000,2.550000,-0.010000,-0.170000,0.194360,ResetBack,0.939697,-0.000049,ResetBack,-8235.000000,-0.250000,LowGoal,0.000000,-2181.818182,Speed,0.000000,-2181.818182,Speed,Off,Off,0.000000,FALSE,0,Read: /home/lvuser/scripts/auto_43.bee,File good!,DRIVE_STRAIGHT_NAVX_RAMPARTS 200 5000 10,DRIVE_STRAIGHT_NAVX_RAMPARTS,0.000000,0.000000
01:35:07.493 PM 04/09/2016,Teleop Disabled,11,FALSE,0,NO ERROR,-0.000000,0.000000,-0.000000,0.000000,TRUE,FALSE,TRUE,TRUE,FALSE,FALSE,Disabled,0.000000,-0.201963,-5.178037,TRUE,0.757019,-30.714432,0.000000,0.000000,0.000000,0.000000,0.000000,-0.001000,0.025000,2.550000,-0.010000,-0.170000,0.195007,ResetBack,0.939697,-0.000049,ResetBack,-8235.000000,-0.250000,LowGoal,0.000000,-2181.818182,Speed,0.000000,-2181.818182,Speed,Off,Off,0.000000,FALSE,0,Read: /home/lvuser/scripts/auto_43.bee,File good!,DRIVE_STRAIGHT_NAVX_RAMPARTS 200 5000 10,DRIVE_STRAIGHT_NAVX_RAMPARTS,0.000000,0.000000
01:35:07.593 PM 04/09/2016,Teleop Disabled,9,FALSE,0,NO ERROR,-0.000000,0.000000,-0.000000,0.000000,TRUE,FALSE,TRUE,TRUE,FALSE,FALSE,Disabled,0.000000,-0.201963,-5.178037,TRUE,0.757019,-30.714432,0.000000,0.000000,0.000000,0.000000,-0.002000,0.000000,0.022000,2.550000,-0.010000,-0.170000,0.201397,ResetBack,0.939697,-0.000049,ResetBack,-8235.000000,-0.250000,LowGoal,0.000000,-2181.818182,Speed,0.000000,-2181.818182,Speed,Off,Off,0.000000,FALSE,0,Read: /home/lvuser/scripts/auto_43.bee,File good!,DRIVE_STRAIGHT_NAVX_RAMPARTS 200 5000 10,DRIVE_STRAIGHT_NAVX_RAMPARTS,0.000000,0.000000
01:35:07.693 PM 04/09/2016,Teleop Disabled,10,FALSE,0,NO ERROR,-0.000000,0.000000,-0.000000,0.000000,TRUE,FALSE,TRUE,TRUE,FALSE,FALSE,Disabled,0.000000,-0.201963,-5.178037,TRUE,0.757019,-30.714432,0.000000,0.000000,0.000000,0.000000,-0.002000,0.000000,0.022000,2.550000,-0.010000,-0.170000,0.189344,ResetBack,0.939697,-0.000049,ResetBack,-8235.000000,-0.250000,LowGoal,0.000000,-2181.818182,Speed,0.000000,-2181.818182,Speed,Off,Off,0.000000,FALSE,0,Read: /home/lvuser/scripts/auto_43.bee,File good!,DRIVE_STRAIGHT_NAVX_RAMPARTS 200 5000 10,DRIVE_STRAIGHT_NAVX_RAMPARTS,0.000000,0.000000
01:35:07.793 PM 04/09/2016,Teleop Disabled,10,FALSE,0,NO ERROR,-0.000000,0.000000,-0.000000,0.000000,TRUE,FALSE,TRUE,TRUE,FALSE,FALSE,Disabled,0.000000,-0.201963,-5.178037,TRUE,0.757019,-30.714432,0.000000,0.000000,0.000000,0.000000,0.001000,0.000000,0.020000,2.550000,-0.010000,-0.170000,0.208533,ResetBack,0.939697,-0.000049,ResetBack,-8235.000000,-0.250000,LowGoal,0.000000,-2181.818182,Speed,0.000000,-2181.818182,Speed,Off,Off,0.000000,FALSE,0,Read: /home/lvuser/scripts/auto_43.bee,File good!,DRIVE_STRAIGHT_NAVX_RAMPARTS 200 5000 10,DRIVE_STRAIGHT_NAVX_RAMPARTS,0.000000,0.000000
01:35:07.894 PM 04/09/2016,Teleop Disabled,9,FALSE,0,NO ERROR,-0.000000,0.000000,-0.000000,0.000000,TRUE,FALSE,TRUE,TRUE,FALSE,FALSE,Disabled,0.000000,-0.201963,-5.178037,TRUE,0.757019,-30.714432,0.000000,0.000000,0.000000,0.000000,0.001000,-0.002000,0.021000,2.550000,-0.010000,-0.170000,0.203345,ResetBack,0.939697,-0.000049,ResetBack,-8235.000000,-0.250000,LowGoal,0.000000,-2181.818182,Speed,0.000000,-2181.818182,Speed,Off,Off,0.000000,FALSE,0,Read: /home/lvuser/scripts/auto_43.bee,File good!,DRIVE_STRAIGHT_NAVX_RAMPARTS 200 5000 10,DRIVE_STRAIGHT_NAVX_RAMPARTS,0.000000,0.000000
01:35:07.994 PM 04/09/2016,Teleop Disabled,9,FALSE,0,NO ERROR,-0.000000,0.000000,-0.000000,0.000000,TRUE,FALSE,TRUE,TRUE,FALSE,FALSE,Disabled,0.000000,-0.201963,-5.178037,TRUE,0.757019,-30.714432,0.000000,0.000000,0.000000,0.000000,0.003000,0.001000,0.023000,2.550000,-0.010000,-0.170000,0.198415,ResetBack,0.939697,-0.000049,ResetBack,-8235.000000,-0.250000,LowGoal,0.000000,-2181.818182,Speed,0.000000,-2181.818182,Speed,Off,Off,0.000000,FALSE,0,Read: /home/lvuser/scripts/auto_43.bee,File good!,DRIVE_STRAIGHT_NAVX_RAMPARTS 200 5000 10,DRIVE_STRAIGHT_NAVX_RAMPARTS,0.000000,0.000000
01:35:08.095 PM 04/09/2016,Autonomous Disabled,9,FALSE,0,NO ERROR,-0.000000,0.000000,-0.000000,0.000000,TRUE,FALSE,TRUE,TRUE,FALSE,FALSE,Disabled,0.000000,-0.201963,-5.178037,TRUE,0.757019,-30.714432,0.000000,0.000000,0.000000,0.000000,0.003000,0.001000,0.023000,2.550000,-0.010000,-0.170000,0.207397,ResetBack,0.939697,-0.000049,ResetBack,-8235.000000,-0.250000,LowGoal,0.000000,-2181.818182,Speed,0.000000,-2181.818182,Speed,Off,Off,0.000000,FALSE,0,Read: /home/lvuser/scripts/auto_43.bee,File good!,DRIVE_STRAIGHT_NAVX_RAMPARTS 200 5000 10,DRIVE_STRAIGHT_NAVX_RAMPARTS,0.000000,0.000000
01:35:08.195 PM 04/09/2016,Autonomous Disabled,10,FALSE,0,NO ERROR,-0.000000,0.000000,-0.000000,0.000000,TRUE,FALSE,TRUE,TRUE,FALSE,FALSE,Disabled,0.000000,-0.201963,-5.178037,TRUE,0.757019,-30.714432,0.000000,0.000000,0.000000,0.000000,0.000000,0.001000,0.014000,2.550000,-0.010000,-0.170000,0.209762,ResetBack,0.939697,-0.000049,ResetBack,-8235.000000,-0.250000,LowGoal,0.000000,-2181.818182,Speed,0.000000,-2181.818182,Speed,Off,Off,0.000000,FALSE,0,Read: /home/lvuser/scripts/auto_43.bee,File good!,DRIVE_STRAIGHT_NAVX_RAMPARTS 200 5000 10,DRIVE_STRAIGHT_NAVX_RAMPARTS,0.000000,0.000000
01:35:08.295 PM 04/09/2016,Autonomous Disabled,10,FALSE,0,NO ERROR,-0.000000,0.000000,-0.000000,0.000000,TRUE,FALSE,TRUE,TRUE,FALSE,FALSE,Disabled,0.000000,-0.201963,-5.178037,TRUE,0.757019,-30.714432,0.000000,0.000000,0.000000,0.000000,0.001000,-0.001000,0.021000,2.550000,0.000000,-0.170000,0.204777,ResetBack,0.939697,-0.000049,ResetBack,-8235.000000,-0.250000,LowGoal,0.000000,-2181.818182,Speed,0.000000,-2181.818182,Speed,Off,Off,0.000000,FALSE,0,Read: /home/lvuser/scripts/auto_43.bee,File good!,DRIVE_STRAIGHT_NAVX_RAMPARTS 200 5000 10,DRIVE_STRAIGHT_NAVX_RAMPARTS,0.000000,0.000000
01:35:08.394 PM 04/09/2016,Autonomous Disabled,9,FALSE,0,NO ERROR,-0.000000,0.000000,-0.000000,0.000000,TRUE,FALSE,TRUE,TRUE,FALSE,FALSE,Disabled,0.000000,-0.201963,-5.178037,TRUE,0.757019,-30.714432,0.000000,0.000000,0.000000,0.000000,0.000000,0.000000,0.019000,2.550000,0.000000,-0.170000,0.207022,ResetBack,0.939697,-0.000049,ResetBack,-8235.000000,-0.250000,LowGoal,0.000000,-2181.818182,Speed,0.000000,-2181.818182,Speed,Off,Off,0.000000,FALSE,0,Read: /home/lvuser/scripts/auto_43.bee,File good!,DRIVE_STRAIGHT_NAVX_RAMPARTS 200 5000 10,DRIVE_STRAIGHT_NAVX_RAMPARTS,0.000000,0.000000
01:35:08.495 PM 04/09/2016,Autonomous Disabled,9,FALSE,0,NO ERROR,-0.000000,0.000000,-0.000000,0.000000,TRUE,FALSE,TRUE,TRUE,FALSE,FALSE,Disabled,0.000000,-0.201963,-5.178037,TRUE,0.757019,-30.714432,0.000000,0.000000,0.000000,0.000000,0.001000,0.000000,0.024000,2.550000,0.000000,-0.170000,0.222758,ResetBack,0.939697,-0.000049,ResetBack,-8235.000000,-0.250000,LowGoal,0.000000,-2181.818182,Speed,0.000000,-2181.818182,Speed,Off,Off,0.000000,FALSE,0,Read: /home/lvuser/scripts/auto_43.bee,File good!,DRIVE_STRAIGHT_NAVX_RAMPARTS 200 5000 10,DRIVE_STRAIGHT_NAVX_RAMPARTS,0.000000,0.000000
01:35:08.596 PM 04/09/2016,Autonomous Disabled,9,FALSE,0,NO ERROR,-0.000000,0.000000,-0.000000,0.000000,TRUE,FALSE,TRUE,TRUE,FALSE,FALSE,Disabled,0.000000,-0.201963,-5.178037,TRUE,0.757019,-30.714432,0.000000,0.000000,0.000000,0.000000,0.000000,0.001000,0.022000,2.550000,-0.010000,-0.180000,0.243530,ResetBack,0.939697,-0.000049,ResetBack,-8235.000000,-0.250000,LowGoal,0.000000,-2181.818182,Speed,0.000000,-2181.818182,Speed,Off,Off,0.000000,FALSE,0,Read: /home/lvuser/scripts/auto_43.bee,File good!,DRIVE_STRAIGHT_NAVX_RAMPARTS 200 5000 10,DRIVE_STRAIGHT_NAVX_RAMPARTS,0.000000,0.000000
01:35:08.696 PM 04/09/2016,Autonomous Disabled,9,FALSE,0,NO ERROR,-0.000000,0.000000,-0.000000,0.000000,TRUE,FALSE,TRUE,TRUE,FALSE,FALSE,Disabled,0.000000,-0.201963,-5.178037,TRUE,0.757019,-30.714432,0.000000,0.000000,0.000000,0.000000,0.001000,-0.003000,0.023000,2.550000,-0.010000,-0.180000,0.264536,ResetBack,0.939697,-0.000049,ResetBack,-8235.000000,-0.250000,LowGoal,0.000000,-2181.818182,Speed,0.000000,-2181.818182,Speed,Off,Off,0.000000,FALSE,0,Read: /home/lvuser/scripts/auto_43.bee,File good!,DRIVE_STRAIGHT_NAVX_RAMPARTS 200 5000 10,DRIVE_STRAIGHT_NAVX_RAMPARTS,0.000000,0.000000
01:35:08.796 PM 04/09/2016,Autonomous Disabled,9,FALSE,0,NO ERROR,-0.000000,0.000000,-0.000000,0.000000,TRUE,FALSE,TRUE,TRUE,FALSE,FALSE,Disabled,0.000000,-0.201963,-5.178037,TRUE,0.757019,-30.714432,0.000000,0.000000,0.000000,0.000000,0.000000,0.000000,0.024000,2.550000,-0.010000,-0.180000,0.261848,ResetBack,0.939697,-0.000049,ResetBack,-8235.000000,-0.250000,LowGoal,0.000000,-2181.818182,Speed,0.000000,-2181.818182,Speed,Off,Off,0.000000,FALSE,0,Read: /home/lvuser/scripts/auto_43.bee,File good!,DRIVE_STRAIGHT_NAVX_RAMPARTS 200 5000 10,DRIVE_STRAIGHT_NAVX_RAMPARTS,0.000000,0.000000
01:35:08.897 PM 04/09/2016,Autonomous Disabled,9,FALSE,0,NO ERROR,-0.000000,0.000000,-0.000000,0.000000,TRUE,FALSE,TRUE,TRUE,FALSE,FALSE,Disabled,0.000000,-0.201963,-5.178037,TRUE,0.757019,-30.714432,0.000000,0.000000,0.000000,0.000000,0.000000,0.000000,0.026000,2.550000,-0.010000,-0.180000,0.270902,ResetBack,0.939697,-0.000049,ResetBack,-8235.000000,-0.250000,LowGoal,0.000000,-2181.818182,Speed,0.000000,-2181.818182,Speed,Off,Off,0.000000,FALSE,0,Read: /home/lvuser/scripts/auto_43.bee,File good!,DRIVE_STRAIGHT_NAVX_RAMPARTS 200 5000 10,DRIVE_STRAIGHT_NAVX_RAMPARTS,0.000000,0.000000
01:35:08.998 PM 04/09/2016,Autonomous Disabled,11,FALSE,0,NO ERROR,-0.000000,0.000000,-0.000000,0.000000,TRUE,FALSE,TRUE,TRUE,FALSE,FALSE,Disabled,0.000000,-0.201963,-5.178037,TRUE,0.757019,-30.714432,0.000000,0.000000,0.000000,0.000000,0.001000,-0.001000,0.024000,2.550000,0.000000,-0.180000,0.287178,ResetBack,0.939697,-0.000049,ResetBack,-8235.000000,-0.250000,LowGoal,0.000000,-2181.818182,Speed,0.000000,-2181.818182,Speed,Off,Off,0.000000,FALSE,0,Read: /home/lvuser/scripts/auto_43.bee,File good!,DRIVE_STRAIGHT_NAVX_RAMPARTS 200 5000 10,DRIVE_STRAIGHT_NAVX_RAMPARTS,0.000000,0.000000
01:35:09.099 PM 04/09/2016,Autonomous Disabled,10,FALSE,0,NO ERROR,-0.000000,0.000000,-0.000000,0.000000,TRUE,FALSE,TRUE,TRUE,FALSE,FALSE,Disabled,0.000000,-0.201963,-5.178037,TRUE,0.757019,-30.714432,0.000000,0.000000,0.000000,0.000000,0.001000,0.001000,0.022000,2.550000,0.000000,-0.170000,0.272279,ResetBack,0.939697,-0.000049,ResetBack,-8235.000000,-0.250000,LowGoal,0.000000,-2181.818182,Speed,0.000000,-2181.818182,Speed,Off,Off,0.000000,FALSE,0,Read: /home/lvuser/scripts/auto_43.bee,File good!,DRIVE_STRAIGHT_NAVX_RAMPARTS 200 5000 10,DRIVE_STRAIGHT_NAVX_RAMPARTS,0.000000,0.000000
01:35:09.200 PM 04/09/2016,Autonomous Disabled,9,FALSE,0,NO ERROR,-0.000000,0.000000,-0.000000,0.000000,TRUE,TRUE,TRUE,TRUE,FALSE,FALSE,Disabled,0.000000,-0.201963,-5.178037,TRUE,0.757019,-30.714432,0.000000,0.000000,0.000000,0.000000,0.001000,-0.003000,0.023000,2.550000,0.000000,-0.170000,0.272279,ResetBack,0.939697,-0.000049,ResetBack,-8235.000000,-0.250000,LowGoal,0.000000,-2181.818182,Speed,0.000000,-2181.818182,Speed,Off,Off,0.000000,FALSE,0,Read: /home/lvuser/scripts/auto_43.bee,File good!,DRIVE_STRAIGHT_NAVX_RAMPARTS 200 5000 10,DRIVE_STRAIGHT_NAVX_RAMPARTS,0.000000,0.000000
01:35:09.301 PM 04/09/2016,Autonomous Disabled,9,FALSE,0,NO ERROR,-0.000000,0.000000,-0.000000,0.000000,TRUE,TRUE,TRUE,TRUE,FALSE,FALSE,Disabled,0.000000,-0.201963,-5.178037,TRUE,0.757019,-30.714432,0.000000,0.000000,0.000000,0.000000,-0.002000,0.004000,0.019000,2.550000,0.000000,-0.170000,0.275938,ResetBack,0.939697,-0.000049,ResetBack,-8235.000000,-0.250000,LowGoal,0.000000,0.000000,Speed,0.000000,0.000000,Speed,Off,Off,0.000000,FALSE,0,Read: /home/lvuser/scripts/auto_43.bee,File good!,DRIVE_STRAIGHT_NAVX_RAMPARTS 200 5000 10,DRIVE_STRAIGHT_NAVX_RAMPARTS,0.000000,0.000000
01:35:09.402 PM 04/09/2016,Autonomous Disabled,10,FALSE,0,NO ERROR,-0.000000,0.000000,-0.000000,0.000000,TRUE,FALSE,TRUE,TRUE,FALSE,FALSE,Disabled,0.000000,-0.201963,-5.178037,TRUE,0.757019,-30.714432,0.000000,0.000000,0.000000,0.000000,-0.001000,-0.002000,0.018000,2.550000,0.000000,-0.170000,0.287058,ResetBack,0.939697,-0.000049,ResetBack,-8235.000000,-0.250000,LowGoal,0.000000,0.000000,Speed,0.000000,0.000000,Speed,Off,Off,0.000000,FALSE,0,Read: /home/lvuser/scripts/auto_43.bee,File good!,DRIVE_STRAIGHT_NAVX_RAMPARTS 200 5000 10,DRIVE_STRAIGHT_NAVX_RAMPARTS,0.000000,0.000000
01:35:09.502 PM 04/09/2016,Autonomous Disabled,9,FALSE,0,NO ERROR,-0.000000,0.000000,-0.000000,0.000000,TRUE,FALSE,TRUE,TRUE,FALSE,FALSE,Disabled,0.000000,-0.201963,-5.178037,TRUE,0.757019,-30.714432,0.000000,0.000000,0.000000,0.000000,0.000000,0.000000,0.023000,2.550000,0.000000,-0.170000,0.290166,ResetBack,0.939697,-0.000049,ResetBack,-8235.000000,-0.250000,LowGoal,0.000000,-2181.818182,Speed,0.000000,-2181.818182,Speed,Off,Off,0.000000,FALSE,0,Read: /home/lvuser/scripts/auto_43.bee,File good!,DRIVE_STRAIGHT_NAVX_RAMPARTS 200 5000 10,DRIVE_STRAIGHT_NAVX_RAMPARTS,0.000000,0.000000
01:35:09.602 PM 04/09/2016,Autonomous Disabled,10,FALSE,0,NO ERROR,-0.000000,0.000000,-0.000000,0.000000,TRUE,FALSE,TRUE,TRUE,FALSE,FALSE,Disabled,0.000000,-0.201963,-5.178037,TRUE,0.757019,-30.714432,0.000000,0.000000,0.000000,0.000000,0.000000,0.000000,0.023000,2.550000,0.000000,-0.170000,0.293550,ResetBack,0.939697,-0.000049,ResetBack,-8235.000000,-0.250000,LowGoal,0.000000,-2181.818182,Speed,0.000000,-2181.818182,Speed,Off,Off,0.000000,FALSE,0,Read: /home/lvuser/scripts/auto_43.bee,File good!,DRIVE_STRAIGHT_NAVX_RAMPARTS 200 5000 10,DRIVE_STRAIGHT_NAVX_RAMPARTS,0.000000,0.000000
01:35:09.702 PM 04/09/2016,Autonomous Disabled,10,FALSE,0,NO ERROR,-0.000000,0.000000,-0.000000,0.000000,TRUE,FALSE,TRUE,TRUE,FALSE,FALSE,Disabled,0.000000,-0.201963,-5.178037,TRUE,0.757019,-30.714432,0.000000,0.000000,0.000000,0.000000,0.001000,0.000000,0.021000,2.550000,0.000000,-0.170000,0.298332,ResetBack,0.939697,-0.000049,ResetBack,-8235.000000,-0.250000,LowGoal,0.000000,-2181.818182,Speed,0.000000,-2181.818182,Speed,Off,Off,0.000000,FALSE,0,Read: /home/lvuser/scripts/auto_43.bee,File good!,DRIVE_STRAIGHT_NAVX_RAMPARTS 200 5000 10,DRIVE_STRAIGHT_NAVX_RAMPARTS,0.000000,0.000000
01:35:09.802 PM 04/09/2016,Autonomous Disabled,9,FALSE,0,NO ERROR,-0.000000,0.000000,-0.000000,0.000000,TRUE,FALSE,TRUE,TRUE,FALSE,FALSE,Disabled,0.000000,-0.201963,-5.178037,TRUE,0.757019,-30.714432,0.000000,0.000000,0.000000,0.000000,0.000000,-0.001000,0.022000,2.550000,0.000000,-0.170000,0.300015,ResetBack,0.939697,-0.000049,ResetBack,-8235.000000,-0.250000,LowGoal,0.000000,-2181.818182,Speed,0.000000,-2181.818182,Speed,Off,Off,0.000000,FALSE,10,Read: /home/lvuser/scripts/auto_43.bee,File good!,DRIVE_STRAIGHT_NAVX_RAMPARTS 200 5000 10,DRIVE_STRAIGHT_NAVX_RAMPARTS,0.000000,0.000000
01:35:09.903 PM 04/09/2016,Autonomous Disabled,9,FALSE,0,NO ERROR,-0.000000,0.000000,-0.000000,0.000000,TRUE,FALSE,TRUE,TRUE,FALSE,FALSE,Disabled,0.000000,-0.201963,-5.178037,TRUE,0.757019,-30.714432,0.000000,0.000000,0.000000,0.000000,0.000000,0.001000,0.015000,2.550000,0.000000,-0.170000,0.313710,ResetBack,0.939697,-0.000049,ResetBack,-8235.000000,-0.250000,LowGoal,0.000000,-2181.818182,Speed,0.000000,-2181.818182,Speed,Off,Off,0.000000,FALSE,10,Read: /home/lvuser/scripts/auto_43.bee,File good!,DRIVE_STRAIGHT_NAVX_RAMPARTS 200 5000 10,DRIVE_STRAIGHT_NAVX_RAMPARTS,0.000000,0.000000
01:35:10.003 PM 04/09/2016,Autonomous Disabled,10,FALSE,0,NO ERROR,-0.000000,0.000000,-0.000000,0.000000,TRUE,FALSE,TRUE,TRUE,FALSE,FALSE,Disabled,0.000000,-0.201963,-5.178037,TRUE,0.757019,-30.714432,0.000000,0.000000,0.000000,0.000000,0.001000,0.000000,0.024000,2.550000,0.000000,-0.170000,0.321239,ResetBack,0.939697,-0.000049,ResetBack,-8235.000000,-0.250000,LowGoal,0.000000,-2181.818182,Speed,0.000000,-2181.818182,Speed,Off,Off,0.000000,FALSE,10,Read: /home/lvuser/scripts/auto_43.bee,File good!,DRIVE_STRAIGHT_NAVX_RAMPARTS 200 5000 10,DRIVE_STRAIGHT_NAVX_RAMPARTS,0.000000,0.000000
01:35:10.103 PM 04/09/2016,Autonomous Disabled,11,FALSE,0,NO ERROR,-0.000000,0.000000,-0.000000,0.000000,TRUE,FALSE,TRUE,TRUE,FALSE,FALSE,Disabled,0.000000,-0.201963,-5.178037,TRUE,0.757019,-30.714432,0.000000,0.000000,0.000000,0.000000,0.001000,0.000000,0.021000,2.540000,0.000000,-0.170000,0.329449,ResetBack,0.939697,-0.000049,ResetBack,-8235.000000,-0.250000,LowGoal,0.000000,-2181.818182,Speed,0.000000,-2181.818182,Speed,Off,Off,0.000000,FALSE,10,Read: /home/lvuser/scripts/auto_43.bee,File good!,DRIVE_STRAIGHT_NAVX_RAMPARTS 200 5000 10,DRIVE_STRAIGHT_NAVX_RAMPARTS,0.000000,0.000000
01:35:10.204 PM 04/09/2016,Autonomous Disabled,10,FALSE,0,NO ERROR,-0.000000,0.000000,-0.000000,0.000000,TRUE,FALSE,TRUE,TRUE,FALSE,FALSE,Disabled,0.000000,-0.201963,-5.178037,TRUE,0.757019,-30.714432,0.000000,0.000000,0.000000,0.000000,0.000000,-0.001000,0.019000,2.540000,0.000000,-0.170000,0.327504,ResetBack,0.939697,-0.000049,ResetBack,-8235.000000,-0.250000,LowGoal,0.000000,-2181.818182,Speed,0.000000,-2181.818182,Speed,Off,Off,0.000000,FALSE,10,Read: /home/lvuser/scripts/auto_43.bee,File good!,DRIVE_STRAIGHT_NAVX_RAMPARTS 200 5000 10,DRIVE_STRAIGHT_NAVX_RAMPARTS,0.000000,0.000000
01:35:10.305 PM 04/09/2016,Autonomous Disabled,10,FALSE,0,NO ERROR,-0.000000,0.000000,-0.000000,0.000000,TRUE,FALSE,TRUE,TRUE,FALSE,FALSE,Disabled,0.000000,-0.201963,-5.178037,TRUE,0.757019,-30.714432,0.000000,0.000000,0.000000,0.000000,0.001000,0.001000,0.024000,2.540000,0.000000,-0.170000,0.336486,ResetBack,0.939697,-0.000049,ResetBack,-8235.000000,-0.250000,LowGoal,0.000000,-2181.818182,Speed,0.000000,-2181.818182,Speed,Off,Off,0.000000,FALSE,10,Read: /home/lvuser/scripts/auto_43.bee,File good!,DRIVE_STRAIGHT_NAVX_RAMPARTS 200 5000 10,DRIVE_STRAIGHT_NAVX_RAMPARTS,0.000000,0.000000
01:35:10.406 PM 04/09/2016,Autonomous Disabled,10,FALSE,0,NO ERROR,-0.000000,0.000000,-0.000000,0.000000,TRUE,FALSE,TRUE,TRUE,FALSE,FALSE,Disabled,0.000000,-0.201963,-5.178037,TRUE,0.757019,-30.714432,0.000000,0.000000,0.000000,0.000000,0.000000,0.000000,0.025000,2.540000,0.000000,-0.170000,0.345898,ResetBack,0.939697,-0.000049,ResetBack,-8235.000000,-0.250000,LowGoal,0.000000,-2181.818182,Speed,0.000000,-2181.818182,Speed,Off,Off,0.000000,FALSE,10,Read: /home/lvuser/scripts/auto_43.bee,File good!,DRIVE_STRAIGHT_NAVX_RAMPARTS 200 5000 10,DRIVE_STRAIGHT_NAVX_RAMPARTS,0.000000,0.000000
01:35:10.505 PM 04/09/2016,Autonomous Disabled,10,FALSE,0,NO ERROR,-0.000000,0.000000,-0.000000,0.000000,TRUE,FALSE,TRUE,TRUE,FALSE,FALSE,Disabled,0.000000,-0.201963,-5.178037,TRUE,0.757019,-30.714432,0.000000,0.000000,0.000000,0.000000,0.000000,0.000000,0.022000,2.540000,0.000000,-0.170000,0.352986,ResetBack,0.939697,-0.000049,ResetBack,-8235.000000,-0.250000,LowGoal,0.000000,-2181.818182,Speed,0.000000,-2181.818182,Speed,Off,Off,0.000000,FALSE,10,Read: /home/lvuser/scripts/auto_43.bee,File good!,DRIVE_STRAIGHT_NAVX_RAMPARTS 200 5000 10,DRIVE_STRAIGHT_NAVX_RAMPARTS,0.000000,0.000000
01:35:10.606 PM 04/09/2016,Autonomous Disabled,9,FALSE,0,NO ERROR,-0.000000,0.000000,-0.000000,0.000000,TRUE,FALSE,TRUE,TRUE,FALSE,FALSE,Disabled,0.000000,-0.201963,-5.178037,TRUE,0.757019,-30.714432,0.000000,0.000000,0.000000,0.000000,0.001000,0.000000,0.022000,2.550000,0.000000,-0.170000,0.363104,ResetBack,0.939697,-0.000049,ResetBack,-8235.000000,-0.250000,LowGoal,0.000000,-2181.818182,Speed,0.000000,-2181.818182,Speed,Off,Off,0.000000,FALSE,10,Read: /home/lvuser/scripts/auto_43.bee,File good!,DRIVE_STRAIGHT_NAVX_RAMPARTS 200 5000 10,DRIVE_STRAIGHT_NAVX_RAMPARTS,0.000000,0.000000
01:35:10.706 PM 04/09/2016,Autonomous Disabled,11,FALSE,0,NO ERROR,-0.000000,0.000000,-0.000000,0.000000,TRUE,FALSE,TRUE,TRUE,FALSE,FALSE,Disabled,0.000000,-0.201963,-5.178037,TRUE,0.757019,-30.714432,0.000000,0.000000,0.000000,0.000000,-0.001000,-0.001000,0.016000,2.550000,0.000000,-0.170000,0.371156,ResetBack,0.939697,-0.000049,ResetBack,-8235.000000,-0.250000,LowGoal,0.000000,-2181.818182,Speed,0.000000,-2181.818182,Speed,Off,Off,0.000000,FALSE,10,Read: /home/lvuser/scripts/auto_43.bee,File good!,DRIVE_STRAIGHT_NAVX_RAMPARTS 200 5000 10,DRIVE_STRAIGHT_NAVX_RAMPARTS,0.000000,0.000000
01:35:10.806 PM 04/09/2016,Autonomous Disabled,9,FALSE,0,NO ERROR,-0.000000,0.000000,-0.000000,0.000000,TRUE,FALSE,TRUE,TRUE,FALSE,FALSE,Disabled,0.000000,-0.201963,-5.178037,TRUE,0.757019,-30.714432,0.000000,0.000000,0.000000,0.000000,0.000000,-0.001000,0.023000,2.550000,0.000000,-0.170000,0.358797,ResetBack,0.939697,-0.000049,ResetBack,-8235.000000,-0.250000,LowGoal,0.000000,-2181.818182,Speed,0.000000,-2181.818182,Speed,Off,Off,0.000000,FALSE,10,Read: /home/lvuser/scripts/auto_43.bee,File good!,DRIVE_STRAIGHT_NAVX_RAMPARTS 200 5000 10,DRIVE_STRAIGHT_NAVX_RAMPARTS,0.000000,0.000000
01:35:10.907 PM 04/09/2016,Autonomous Disabled,10,FALSE,0,NO ERROR,-0.000000,0.000000,-0.000000,0.000000,TRUE,FALSE,TRUE,TRUE,FALSE,FALSE,Disabled,0.000000,-0.201963,-5.178037,TRUE,0.757019,-30.714432,0.000000,0.000000,0.000000,0.000000,0.000000,0.000000,0.021000,2.550000,0.000000,-0.170000,0.367724,ResetBack,0.939697,-0.000049,ResetBack,-8235.000000,-0.250000,LowGoal,0.000000,-2181.818182,Speed,0.000000,-2181.818182,Speed,Off,Off,0.000000,FALSE,10,Read: /home/lvuser/scripts/auto_43.bee,File good!,DRIVE_STRAIGHT_NAVX_RAMPARTS 200 5000 10,DRIVE_STRAIGHT_NAVX_RAMPARTS,0.000000,0.000000
01:35:11.008 PM 04/09/2016,Autonomous Disabled,10,FALSE,0,NO ERROR,-0.000000,0.000000,-0.000000,0.000000,TRUE,FALSE,TRUE,TRUE,FALSE,FALSE,Disabled,0.000000,-0.201963,-5.178037,TRUE,0.757019,-30.714432,0.000000,0.000000,0.000000,0.000000,-0.003000,0.002000,0.022000,2.550000,0.000000,-0.170000,0.364546,ResetBack,0.939697,-0.000049,ResetBack,-8235.000000,-0.250000,LowGoal,0.000000,-2181.818182,Speed,0.000000,-2181.818182,Speed,Off,Off,0.000000,FALSE,20,Read: /home/lvuser/scripts/auto_43.bee,File good!,DRIVE_STRAIGHT_NAVX_RAMPARTS 200 5000 10,DRIVE_STRAIGHT_NAVX_RAMPARTS,0.000000,0.000000
01:35:11.108 PM 04/09/2016,Autonomous Disabled,11,FALSE,0,NO ERROR,-0.000000,0.000000,-0.000000,0.000000,TRUE,FALSE,TRUE,TRUE,FALSE,FALSE,Disabled,0.000000,-0.201963,-5.178037,TRUE,0.757019,-30.714432,0.000000,0.000000,0.000000,0.000000,0.000000,0.001000,0.023000,2.550000,0.000000,-0.170000,0.377742,ResetBack,0.939697,-0.000049,ResetBack,-8235.000000,-0.250000,LowGoal,0.000000,-2181.818182,Speed,0.000000,-2181.818182,Speed,Off,Off,0.000000,FALSE,20,Read: /home/lvuser/scripts/auto_43.bee,File good!,DRIVE_STRAIGHT_NAVX_RAMPARTS 200 5000 10,DRIVE_STRAIGHT_NAVX_RAMPARTS,0.000000,0.000000
01:35:11.209 PM 04/09/2016,Autonomous Disabled,10,FALSE,0,NO ERROR,-0.000000,0.000000,-0.000000,0.000000,TRUE,FALSE,TRUE,TRUE,FALSE,FALSE,Disabled,0.000000,-0.201963,-5.178037,TRUE,0.757019,-30.714432,0.000000,0.000000,0.000000,0.000000,0.000000,-0.002000,0.020000,2.550000,0.000000,-0.170000,0.385928,ResetBack,0.939697,-0.000049,ResetBack,-8235.000000,-0.250000,LowGoal,0.000000,-2181.818182,Speed,0.000000,-2181.818182,Speed,Off,Off,0.000000,FALSE,20,Read: /home/lvuser/scripts/auto_43.bee,File good!,DRIVE_STRAIGHT_NAVX_RAMPARTS 200 5000 10,DRIVE_STRAIGHT_NAVX_RAMPARTS,0.000000,0.000000
01:35:11.309 PM 04/09/2016,Autonomous Disabled,9,FALSE,0,NO ERROR,-0.000000,0.000000,-0.000000,0.000000,TRUE,FALSE,TRUE,TRUE,FALSE,FALSE,Disabled,0.000000,-0.201963,-5.178037,TRUE,0.757019,-30.714432,0.000000,0.000000,0.000000,0.000000,0.003000,-0.001000,0.016000,2.550000,0.000000,-0.170000,0.384217,ResetBack,0.939697,-0.000049,ResetBack,-8235.000000,-0.250000,LowGoal,0.000000,-2181.818182,Speed,0.000000,-2181.818182,Speed,Off,Off,0.000000,FALSE,20,Read: /home/lvuser/scripts/auto_43.bee,File good!,DRIVE_STRAIGHT_NAVX_RAMPARTS 200 5000 10,DRIVE_STRAIGHT_NAVX_RAMPARTS,0.000000,0.000000
01:35:11.409 PM 04/09/2016,Autonomous Disabled,12,FALSE,0,NO ERROR,-0.000000,0.000000,-0.000000,0.000000,TRUE,FALSE,TRUE,TRUE,FALSE,FALSE,Disabled,0.000000,-0.201963,-5.178037,TRUE,0.757019,-30.714432,0.000000,0.000000,0.000000,0.000000,0.000000,0.009000,0.019000,2.550000,-0.010000,-0.180000,0.395729,ResetBack,0.939697,-0.000049,ResetBack,-8235.000000,-0.250000,LowGoal,0.000000,-2181.818182,Speed,0.000000,-2181.818182,Speed,Off,Off,0.000000,FALSE,20,Read: /home/lvuser/scripts/auto_43.bee,File good!,DRIVE_STRAIGHT_NAVX_RAMPARTS 200 5000 10,DRIVE_STRAIGHT_NAVX_RAMPARTS,0.000000,0.000000
01:35:11.510 PM 04/09/2016,Autonomous Disabled,10,FALSE,0,NO ERROR,-0.000000,0.000000,-0.000000,0.000000,TRUE,FALSE,TRUE,TRUE,FALSE,FALSE,Disabled,0.000000,-0.201963,-5.178037,TRUE,0.757019,-30.714432,0.000000,0.000000,0.000000,0.000000,-0.001000,0.001000,0.019000,2.550000,-0.010000,-0.170000,0.404435,ResetBack,0.939697,-0.000049,ResetBack,-8235.000000,-0.250000,LowGoal,0.000000,-2181.818182,Speed,0.000000,-2181.818182,Speed,Off,Off,0.000000,FALSE,20,Read: /home/lvuser/scripts/auto_43.bee,File good!,DRIVE_STRAIGHT_NAVX_RAMPARTS 200 5000 10,DRIVE_STRAIGHT_NAVX_RAMPARTS,0.000000,0.000000
01:35:11.609 PM 04/09/2016,Autonomous Disabled,11,FALSE,0,NO ERROR,-0.000000,0.006417,-0.000000,0.025667,TRUE,FALSE,TRUE,TRUE,FALSE,FALSE,Disabled,0.000000,-0.201963,-5.178037,TRUE,0.757019,-30.714706,0.000000,0.000000,-0.013916,0.000000,-0.014000,-0.019000,0.041000,2.370000,0.010000,-0.250000,0.426919,ResetBack,0.939697,-0.000049,ResetBack,-8235.000000,-0.250000,LowGoal,0.000000,-2181.818182,Speed,0.000000,-2181.818182,Speed,Off,Off,0.000000,FALSE,20,Read: /home/lvuser/scripts/auto_43.bee,File good!,DRIVE_STRAIGHT_NAVX_RAMPARTS 200 5000 10,DRIVE_STRAIGHT_NAVX_RAMPARTS,0.000000,0.000000
01:35:11.711 PM 04/09/2016,Autonomous Disabled,9,FALSE,0,NO ERROR,-0.000000,0.006417,-0.000000,0.186083,TRUE,TRUE,TRUE,TRUE,FALSE,FALSE,Disabled,0.000000,-0.201963,-5.178037,TRUE,0.756744,-30.714783,0.000000,-0.014465,-0.007019,0.000000,-0.024000,-0.101000,-0.002000,1.630000,-0.320000,-0.670000,0.110940,ResetBack,0.939697,-0.000049,ResetBack,-8235.000000,-0.250000,LowGoal,0.000000,-2181.818182,Speed,0.000000,-2181.818182,Speed,Off,Off,0.000000,FALSE,20,Read: /home/lvuser/scripts/auto_43.bee,File good!,DRIVE_STRAIGHT_NAVX_RAMPARTS 200 5000 10,DRIVE_STRAIGHT_NAVX_RAMPARTS,0.000000,0.000000
01:35:11.812 PM 04/09/2016,Autonomous Disabled,10,FALSE,0,NO ERROR,-0.000000,0.006417,-0.000000,0.590332,TRUE,TRUE,TRUE,TRUE,FALSE,FALSE,Disabled,0.000000,-0.201963,-5.178037,TRUE,0.754593,-30.718277,0.000000,-0.053848,-0.084366,0.000000,-0.032000,0.000000,-0.012000,0.830000,-1.370000,-0.960000,-0.900294,ResetBack,0.939697,-0.000049,ResetBack,-8235.000000,-0.250000,LowGoal,0.000000,0.000000,Speed,0.000000,0.000000,Speed,Off,Off,0.000000,FALSE,30,Read: /home/lvuser/scripts/auto_43.bee,File good!,DRIVE_STRAIGHT_NAVX_RAMPARTS 200 5000 10,DRIVE_STRAIGHT_NAVX_RAMPARTS,0.000000,0.000000
01:35:11.913 PM 04/09/2016,Autonomous Disabled,9,FALSE,0,NO ERROR,-0.000000,0.006417,-0.000000,1.219164,TRUE,FALSE,TRUE,TRUE,FALSE,FALSE,Disabled,0.000000,-0.201963,-5.178037,TRUE,0.750824,-30.721893,0.000000,-0.091934,-0.056534,0.000000,-0.057000,0.035000,0.093000,0.450000,-2.540000,-0.650000,-2.020950,ResetBack,0.939697,-0.000049,ResetBack,-8235.000000,-0.250000,LowGoal,0.000000,0.000000,Speed,0.000000,0.000000,Speed,Off,Off,0.000000,FALSE,30,Read: /home/lvuser/scripts/auto_43.bee,File good!,DRIVE_STRAIGHT_NAVX_RAMPARTS 200 5000 10,DRIVE_STRAIGHT_NAVX_RAMPARTS,0.000000,0.000000
01:35:12.013 PM 04/09/2016,Autonomous Disabled,11,FALSE,0,NO ERROR,-0.000000,0.006417,-0.000000,1.623413,TRUE,FALSE,TRUE,TRUE,FALSE,FALSE,Disabled,0.000000,-0.201963,-5.178037,TRUE,0.744736,-30.724106,0.000000,-0.131393,-0.047302,0.000000,0.019000,0.052000,0.018000,0.100000,-2.000000,-0.900000,-1.731769,ResetBack,0.939697,-0.000049,ResetBack,-8235.000000,-0.250000,LowGoal,0.000000,-2181.818182,Speed,0.000000,-2181.818182,Speed,Off,Off,0.000000,FALSE,30,Read: /home/lvuser/scripts/auto_43.bee,File good!,DRIVE_STRAIGHT_NAVX_RAMPARTS 200 5000 10,DRIVE_STRAIGHT_NAVX_RAMPARTS,0.000000,0.000000
01:35:12.113 PM 04/09/2016,Autonomous Disabled,10,FALSE,0,NO ERROR,-0.000000,0.006417,-0.000000,1.764579,TRUE,FALSE,TRUE,TRUE,FALSE,FALSE,Disabled,0.000000,-0.201963,-5.178037,TRUE,0.746582,-30.725174,0.000000,0.075348,0.002975,0.000000,0.041000,0.012000,0.021000,0.120000,-0.550000,-0.680000,-0.072294,ResetBack,0.939697,-0.000049,ResetBack,-8235.000000,-0.250000,LowGoal,0.000000,-2181.818182,Speed,0.000000,-2181.818182,Speed,Off,Off,0.000000,FALSE,30,Read: /home/lvuser/scripts/auto_43.bee,File good!,DRIVE_STRAIGHT_NAVX_RAMPARTS 200 5000 10,DRIVE_STRAIGHT_NAVX_RAMPARTS,0.000000,0.000000
01:35:12.214 PM 04/09/2016,Autonomous Disabled,10,FALSE,0,NO ERROR,-0.000000,0.006417,-0.000000,1.828746,TRUE,FALSE,TRUE,TRUE,FALSE,FALSE,Disabled,0.000000,-0.201963,-5.178037,TRUE,0.752075,-30.724991,0.000000,0.136078,0.003281,0.000000,0.046000,0.013000,0.034000,0.550000,0.910000,-0.430000,1.219664,ResetBack,0.939697,-0.000049,ResetBack,-8235.000000,-0.250000,LowGoal,0.000000,-2181.818182,Speed,0.000000,-2181.818182,Speed,Off,Off,0.000000,FALSE,30,Read: /home/lvuser/scripts/auto_43.bee,File good!,DRIVE_STRAIGHT_NAVX_RAMPARTS 200 5000 10,DRIVE_STRAIGHT_NAVX_RAMPARTS,0.000000,0.000000
01:35:12.314 PM 04/09/2016,Autonomous Disabled,11,FALSE,0,NO ERROR,-0.000000,0.006417,-0.000000,1.847996,TRUE,FALSE,TRUE,TRUE,FALSE,FALSE,Disabled,0.000000,-0.201963,-5.178037,TRUE,0.760376,-30.724808,0.000000,0.186615,0.003235,0.000000,0.055000,0.027000,0.034000,0.760000,0.990000,-0.280000,1.410767,ResetBack,0.939697,-0.000049,ResetBack,-8235.000000,-0.250000,LowGoal,0.000000,-2181.818182,Speed,0.000000,-2181.818182,Speed,Off,Off,0.000000,FALSE,30,Read: /home/lvuser/scripts/auto_43.bee,File good!,DRIVE_STRAIGHT_NAVX_RAMPARTS 200 5000 10,DRIVE_STRAIGHT_NAVX_RAMPARTS,0.000000,0.000000
01:35:12.415 PM 04/09/2016,Autonomous Disabled,10,FALSE,0,NO ERROR,-0.000000,0.006417,-0.000000,1.841579,TRUE,FALSE,TRUE,TRUE,FALSE,FALSE,Disabled,0.000000,-0.201963,-5.178037,TRUE,0.770874,-30.723907,0.000000,0.218842,0.036072,0.000000,-0.006000,0.035000,-0.016000,0.920000,0.130000,-0.030000,0.580019,ResetBack,0.939697,-0.000049,ResetBack,-8235.000000,-0.250000,LowGoal,0.000000,-2181.818182,Speed,0.000000,-2181.818182,Speed,Off,Off,0.000000,FALSE,30,Read: /home/lvuser/scripts/auto_43.bee,File good!,DRIVE_STRAIGHT_NAVX_RAMPARTS 200 5000 10,DRIVE_STRAIGHT_NAVX_RAMPARTS,0.000000,0.000000
01:36:15.412 PM 04/09/2016,Autonomous Enabled,10,TRUE,7,Read from Text File in DoesScriptNumberContainNull.vi->Disabled.vi->Robot Main.vi<APPEND> /home/lvuser/scripts/auto_42.bee,0.000000,-1.642663,-0.000000,0.737915,TRUE,FALSE,TRUE,TRUE,FALSE,FALSE,Disabled,0.000000,-0.201963,-5.178037,TRUE,0.780853,-30.737350,0.000000,0.000000,0.000000,0.000000,0.000000,-0.002000,0.023000,2.540000,-1.160000,-0.150000,1.353538,ResetBack,0.939697,-0.000049,ResetBack,-8235.000000,-0.250000,LowGoal,0.000000,-2181.818182,Speed,0.000000,-2181.818182,Speed,Off,Off,0.000000,FALSE,43,Read: /home/lvuser/scripts/auto_43.bee,File good!,DRIVE_STRAIGHT_NAVX_RAMPARTS 200 5000 10,DRIVE_STRAIGHT_NAVX_RAMPARTS,0.000000,0.000000
01:36:15.512 PM 04/09/2016,Autonomous Enabled,10,TRUE,7,Read from Text File in DoesScriptNumberContainNull.vi->Disabled.vi->Robot Main.vi<APPEND> /home/lvuser/scripts/auto_42.bee,0.000000,-1.636246,-0.000000,0.737915,TRUE,FALSE,TRUE,TRUE,FALSE,FALSE,Disabled,0.000000,-0.201963,-5.178037,TRUE,0.781586,-30.737640,0.000000,0.031158,-0.008926,0.000000,0.087000,-0.104000,0.088000,2.500000,-1.160000,-0.090000,1.357098,ResetBack,0.271484,-0.000049,ResetBack,-8235.000000,-0.250000,LowGoal,0.000000,-2181.818182,Speed,0.000000,-2181.818182,Speed,Off,Off,0.000000,FALSE,43,Read: /home/lvuser/scripts/auto_43.bee,File good!,WAIT 1500,WAIT,0.000000,0.000000
01:36:15.612 PM 04/09/2016,Autonomous Enabled,9,TRUE,7,Read from Text File in DoesScriptNumberContainNull.vi->Disabled.vi->Robot Main.vi<APPEND> /home/lvuser/scripts/auto_42.bee,0.000000,-1.636246,-0.000000,0.737915,TRUE,FALSE,TRUE,TRUE,FALSE,FALSE,Disabled,0.000000,-0.201963,-5.178037,TRUE,0.783066,-30.738678,0.000000,0.061218,-0.050217,0.000000,0.057000,-0.035000,0.126000,2.500000,-1.160000,-0.040000,1.309973,ResetBack,0.088379,-0.000049,ResetBack,-7954.000000,-0.250000,LowGoal,270.000000,-2181.818182,Speed,142.500000,-2181.818182,Speed,Off,Off,0.000000,FALSE,43,Read: /home/lvuser/scripts/auto_43.bee,File good!,WAIT 1500,WAIT,0.000000,0.000000
01:36:15.714 PM 04/09/2016,Autonomous Enabled,9,TRUE,7,Read from Text File in DoesScriptNumberContainNull.vi->Disabled.vi->Robot Main.vi<APPEND> /home/lvuser/scripts/auto_42.bee,0.000000,-1.636246,-0.000000,0.737915,TRUE,FALSE,TRUE,TRUE,FALSE,FALSE,Disabled,0.000000,-0.201963,-5.178037,TRUE,0.786621,-30.742447,0.000000,0.063843,-0.093994,0.000000,-0.009000,0.079000,0.094000,2.490000,-1.160000,-0.020000,1.308737,ResetBack,0.088379,-0.000049,ResetBack,-4371.000000,-0.250000,LowGoal,1042.500000,-2181.818182,Speed,615.000000,-2181.818182,Speed,Off,Off,0.000000,FALSE,43,Read: /home/lvuser/scripts/auto_43.bee,File good!,WAIT 1500,WAIT,0.000000,0.000000
01:36:15.813 PM 04/09/2016,Autonomous Enabled,11,TRUE,7,Read from Text File in DoesScriptNumberContainNull.vi->Disabled.vi->Robot Main.vi<APPEND> /home/lvuser/scripts/auto_42.bee,0.000000,-1.636246,-0.000000,0.737915,TRUE,FALSE,TRUE,TRUE,FALSE,FALSE,Disabled,0.000000,-0.201963,-5.178037,TRUE,0.786942,-30.746445,0.000000,0.003418,-0.065079,0.000000,0.010000,0.046000,-0.040000,2.500000,-1.160000,-0.040000,1.310086,Reset,0.088135,0.000000,ResetBack,-2497.000000,-0.250000,LowGoal,1477.500000,-2181.818182,Speed,1170.000000,-2181.818182,Speed,Off,Off,0.000000,FALSE,43,Read: /home/lvuser/scripts/auto_43.bee,File good!,WAIT 1500,WAIT,0.000000,0.000000
01:36:15.914 PM 04/09/2016,Autonomous Enabled,10,TRUE,7,Read from Text File in DoesScriptNumberContainNull.vi->Disabled.vi->Robot Main.vi<APPEND> /home/lvuser/scripts/auto_42.bee,0.000000,-1.636246,-0.000000,0.737915,TRUE,FALSE,TRUE,TRUE,FALSE,FALSE,Disabled,0.000000,-0.201963,-5.178037,TRUE,0.786499,-30.749069,0.000000,-0.001297,-0.065994,0.000000,0.161000,-0.045000,0.118000,2.510000,-1.160000,-0.160000,1.309993,Hold,1.041748,0.000000,ResetBack,-1382.000000,-0.250000,LowGoal,1942.500000,-2181.818182,Speed,1710.000000,-2181.818182,Speed,Off,Off,0.000000,FALSE,43,Read: /home/lvuser/scripts/auto_43.bee,File good!,WAIT 1500,WAIT,0.000000,0.000000
01:36:16.013 PM 04/09/2016,Autonomous Enabled,10,TRUE,7,Read from Text File in DoesScriptNumberContainNull.vi->Disabled.vi->Robot Main.vi<APPEND> /home/lvuser/scripts/auto_42.bee,0.000000,-1.636246,-0.000000,0.737915,TRUE,FALSE,TRUE,TRUE,FALSE,FALSE,Disabled,0.000000,-0.201963,-5.178037,TRUE,0.786545,-30.752899,0.000000,0.000000,-0.064026,0.000000,0.041000,0.089000,0.157000,2.540000,-1.160000,-0.180000,1.310251,Hold,0.929688,0.000000,ResetBack,-83.000000,-0.250000,LowGoal,2212.500000,-2181.818182,Speed,2010.000000,-2181.818182,Speed,Off,Off,0.000000,FALSE,43,Read: /home/lvuser/scripts/auto_43.bee,File good!,WAIT 1500,WAIT,0.000000,0.000000
01:36:16.114 PM 04/09/2016,Autonomous Enabled,10,TRUE,7,Read from Text File in DoesScriptNumberContainNull.vi->Disabled.vi->Robot Main.vi<APPEND> /home/lvuser/scripts/auto_42.bee,0.000000,-1.636246,-0.000000,0.737915,TRUE,FALSE,TRUE,TRUE,FALSE,FALSE,Disabled,0.000000,-0.201963,-5.178037,TRUE,0.785690,-30.753510,0.000000,-0.044647,0.037750,0.000000,0.000000,0.113000,0.056000,2.460000,-1.160000,-0.150000,1.314031,Hold,0.929688,0.000000,ResetBack,-83.000000,-0.250000,LowGoal,2220.000000,-2181.818182,Speed,2182.500000,-2181.818182,Speed,Off,Off,0.000000,FALSE,43,Read: /home/lvuser/scripts/auto_43.bee,File good!,WAIT 1500,WAIT,0.000000,0.000000
01:36:16.215 PM 04/09/2016,Autonomous Enabled,10,TRUE,7,Read from Text File in DoesScriptNumberContainNull.vi->Disabled.vi->Robot Main.vi<APPEND> /home/lvuser/scripts/auto_42.bee,0.000000,-1.636246,-0.000000,0.737915,TRUE,FALSE,TRUE,TRUE,FALSE,FALSE,Disabled,0.000000,-0.201963,-5.178037,TRUE,0.783096,-30.750000,0.000000,-0.072372,0.113235,0.000000,-0.008000,0.057000,0.236000,2.450000,-1.160000,-0.190000,1.321567,Hold,0.929688,0.000000,ResetBack,395.000000,-0.250000,LowGoal,2152.500000,-2181.818182,Speed,2130.000000,-2181.818182,Speed,Off,Off,0.000000,FALSE,43,Read: /home/lvuser/scripts/auto_43.bee,File good!,WAIT 1500,WAIT,0.000000,0.000000
01:36:16.316 PM 04/09/2016,Autonomous Enabled,11,TRUE,7,Read from Text File in DoesScriptNumberContainNull.vi->Disabled.vi->Robot Main.vi<APPEND> /home/lvuser/scripts/auto_42.bee,0.000000,-1.636246,-0.000000,0.737915,TRUE,FALSE,TRUE,TRUE,FALSE,FALSE,Disabled,0.000000,-0.201963,-5.178037,TRUE,0.777771,-30.742111,0.000000,-0.097931,0.100372,0.000000,0.052000,-0.177000,0.148000,2.510000,-1.160000,-0.180000,1.307053,Hold,0.929688,0.000000,ResetBack,933.000000,-0.250000,LowGoal,2115.000000,-2181.818182,Speed,2077.500000,-2181.818182,Speed,Off,Off,0.000000,FALSE,43,Read: /home/lvuser/scripts/auto_43.bee,File good!,WAIT 1500,WAIT,0.000000,0.000000
01:36:16.415 PM 04/09/2016,Autonomous Enabled,11,TRUE,7,Read from Text File in DoesScriptNumberContainNull.vi->Disabled.vi->Robot Main.vi<APPEND> /home/lvuser/scripts/auto_42.bee,0.000000,-1.636246,-0.000000,0.737915,TRUE,FALSE,TRUE,TRUE,FALSE,FALSE,Disabled,0.000000,-0.201963,-5.178037,TRUE,0.772964,-30.744263,0.000000,-0.093018,-0.126404,0.000000,-0.012000,-0.143000,0.091000,2.530000,-1.160000,-0.250000,1.332346,Hold,0.929688,0.000000,ResetBack,1312.000000,-0.250000,LowGoal,2130.000000,-2181.818182,Speed,2092.500000,-2181.818182,Speed,Off,Off,0.000000,FALSE,43,Read: /home/lvuser/scripts/auto_43.bee,File good!,WAIT 1500,WAIT,0.000000,0.000000
01:36:16.516 PM 04/09/2016,Autonomous Enabled,10,TRUE,7,Read from Text File in DoesScriptNumberContainNull.vi->Disabled.vi->Robot Main.vi<APPEND> /home/lvuser/scripts/auto_42.bee,0.000000,-1.636246,-0.000000,0.737915,TRUE,FALSE,TRUE,TRUE,FALSE,FALSE,Disabled,0.000000,-0.201963,-5.178037,TRUE,0.773911,-30.750763,0.000000,0.058762,-0.175171,0.000000,0.183000,0.007000,0.037000,2.570000,-1.160000,-0.310000,1.332432,Hold,0.929688,0.000000,ResetBack,1328.000000,-0.250000,LowGoal,2152.500000,-2181.818182,Speed,2107.500000,-2181.818182,Speed,Off,Off,0.000000,FALSE,43,Read: /home/lvuser/scripts/auto_43.bee,File good!,WAIT 1500,WAIT,0.000000,0.000000
01:36:16.616 PM 04/09/2016,Autonomous Enabled,9,TRUE,7,Read from Text File in DoesScriptNumberContainNull.vi->Disabled.vi->Robot Main.vi<APPEND> /home/lvuser/scripts/auto_42.bee,0.000000,-1.636246,-0.000000,0.737915,TRUE,FALSE,TRUE,TRUE,FALSE,FALSE,Disabled,0.000000,-0.201963,-5.178037,TRUE,0.779694,-30.758347,0.000000,0.110703,-0.111603,0.000000,-0.019000,0.175000,-0.045000,2.520000,-1.160000,-0.230000,1.333740,Hold,0.929688,0.000000,ResetBack,1598.000000,-0.250000,LowGoal,2152.500000,-2181.818182,Speed,2107.500000,-2181.818182,Speed,Off,Off,0.000000,FALSE,43,Read: /home/lvuser/scripts/auto_43.bee,File good!,WAIT 1500,WAIT,0.000000,0.000000
01:36:16.718 PM 04/09/2016,Autonomous Enabled,10,TRUE,7,Read from Text File in DoesScriptNumberContainNull.vi->Disabled.vi->Robot Main.vi<APPEND> /home/lvuser/scripts/auto_42.bee,0.000000,-1.636246,-0.000000,0.737915,TRUE,FALSE,TRUE,TRUE,FALSE,FALSE,Disabled,0.000000,-0.201963,-5.178037,TRUE,0.785904,-30.759872,0.000000,0.143463,0.009445,0.000000,0.032000,0.055000,-0.114000,2.490000,-1.160000,-0.210000,1.336036,Hold,0.929688,0.000000,Reset,0.000000,2.000000,LowGoal,2137.500000,-2181.818182,Speed,2100.000000,-2181.818182,Speed,Off,Off,0.000000,FALSE,43,Read: /home/lvuser/scripts/auto_43.bee,File good!,WAIT 1500,WAIT,0.000000,0.000000
01:36:16.818 PM 04/09/2016,Autonomous Enabled,10,TRUE,7,Read from Text File in DoesScriptNumberContainNull.vi->Disabled.vi->Robot Main.vi<APPEND> /home/lvuser/scripts/auto_42.bee,0.000000,-1.636246,-0.000000,0.737915,TRUE,FALSE,TRUE,TRUE,FALSE,FALSE,Disabled,0.000000,-0.201963,-5.178037,TRUE,0.792206,-30.758057,0.000000,0.084579,0.053131,0.000000,-0.090000,0.019000,-0.121000,2.540000,-1.160000,-0.220000,1.343940,Hold,0.929688,0.000000,Hold,0.000000,2.000000,LowGoal,2130.000000,-2181.818182,Speed,2107.500000,-2181.818182,Speed,Off,Off,0.000000,FALSE,43,Read: /home/lvuser/scripts/auto_43.bee,File good!,WAIT 1500,WAIT,0.000000,0.000000
01:36:16.919 PM 04/09/2016,Autonomous Enabled,9,TRUE,7,Read from Text File in DoesScriptNumberContainNull.vi->Disabled.vi->Robot Main.vi<APPEND> /home/lvuser/scripts/auto_42.bee,0.000000,-1.636246,-0.000000,0.737915,TRUE,FALSE,TRUE,TRUE,FALSE,FALSE,Disabled,0.000000,-0.201963,-5.178037,TRUE,0.794510,-30.755997,0.000000,0.038040,0.018845,0.000000,0.086000,-0.045000,0.114000,2.530000,-1.160000,-0.200000,1.348694,Hold,0.929688,0.000000,Hold,-124.000000,2.000000,LowGoal,2137.500000,-2181.818182,Speed,2115.000000,-2181.818182,Speed,Off,Off,0.000000,FALSE,43,Read: /home/lvuser/scripts/auto_43.bee,File good!,WAIT 1500,WAIT,0.000000,0.000000
