Time,Robot Mode,Loop Time,Error Status,Error Code,Error Source,Left Motor Output,Left Motor Encoder,Right Motor Output,Right Motor Encoder,Is Level,Is Stalled,Ball Detector Photoeye,Vision Enabled,Vision Teleop Control,Vision Auto Control,Vision Current State,Vision X Output,Vision NavX Error,Vision NavX Target,NavX Connection Status,NavX Displacement X,NavX Displacement Y,NavX Displacement Z,NavX Velocity X,NavX Velocity Y,NavX Velocity Z,NavX Acceleration X,NavX Acceleration Y,NavX Acceleration Z,NavX Pitch,NavX Yaw,NavX Roll,Gyro Angle,Roller Arm State,Roller Arm Actual,Roller Arm Desired,Shooter Arm State,Shooter Arm Actual,Shooter Arm Desired,Shooter State,Actual RPM Left,Desired RPM Left,Control Mode Left,Actual RPM Right,Desired RPM Right,Control Mode Right,Ball Shooter Cylinder,Ball Halo Cylinder,Scaler Motor Output,Scaler Solenoid Fire,Auto To Run,Auto Current File,Auto File Status,Auto Current Command,Auto Trimmed Command,Shooter Amps Left,Shooter Amps Right
12:42:43.673 PM 04/09/2016,Teleop Enabled,10,TRUE,-44005,<LOCATION>WPI_CameraWait for Raw Image String.vi:6640001<CALLSTACK>WPI_CameraWait for Raw Image String.vi:6640001< <WPI_CameraGet Image.vi< <Vision Processing.vi< <Robot Main.vi,-0.000000,0.866248,-0.000000,0.487666,TRUE,FALSE,TRUE,FALSE,FALSE,FALSE,Disabled,0.000000,0.000000,0.000000,TRUE,3.123947,-6.541718,0.000000,0.000000,0.000000,0.000000,-0.001000,0.001000,0.019000,2.370000,-0.250000,0.090000,-0.104822,ResetBack,1.798828,-0.000049,ResetBack,-23688.000000,-0.250000,LowGoal,0.000000,-2181.818182,Speed,0.000000,-2181.818182,Speed,Off,Off,0.000000,FALSE,0,,,,,0.000000,0.000000
12:42:43.773 PM 04/09/2016,Teleop Enabled,10,FALSE,0,NO ERROR,-0.000000,0.859831,-0.000000,0.487666,TRUE,FALSE,TRUE,FALSE,FALSE,FALSE,Disabled,0.000000,0.000000,0.000000,TRUE,3.123337,-6.541092,0.000000,-0.008591,0.027405,0.000000,0.002000,0.000000,0.022000,2.290000,-0.260000,0.150000,-0.135406,ResetBack,1.798828,-0.000049,ResetBack,-23688.000000,-0.250000,LowGoal,120.000000,-2181.818182,Speed,0.000000,-2181.818182,Speed,Off,Off,0.000000,FALSE,0,,,,,0.000000,0.000000
12:42:43.872 PM 04/09/2016,Teleop Enabled,11,FALSE,0,NO ERROR,-0.000000,0.859831,-0.000000,0.487666,TRUE,FALSE,TRUE,FALSE,FALSE,FALSE,Disabled,0.000000,0.000000,0.000000,TRUE,3.123337,-6.541092,0.000000,-0.008591,0.027405,0.000000,-0.011000,-0.009000,0.018000,2.280000,-0.260000,0.170000,-0.134146,ResetBack,0.239746,-0.000049,ResetBack,-22599.000000,-0.250000,LowGoal,772.500000,-2181.818182,Speed,135.000000,-2181.818182,Speed,Off,Off,0.000000,FALSE,0,,,,,0.000000,0.000000
12:42:43.973 PM 04/09/2016,Teleop Enabled,10,FALSE,0,NO ERROR,-0.000000,0.859831,-0.000000,0.487666,TRUE,FALSE,TRUE,FALSE,FALSE,FALSE,Disabled,0.000000,0.000000,0.000000,TRUE,3.123047,-6.540863,0.000000,0.006424,-0.019318,0.000000,0.010000,-0.009000,0.045000,2.280000,-0.260000,0.170000,-0.132225,Reset,0.087402,-0.000049,ResetBack,-18034.000000,-0.250000,LowGoal,1380.000000,-2181.818182,Speed,750.000000,-2181.818182,Speed,Off,Off,0.000000,FALSE,0,,,,,0.000000,0.000000
12:42:44.076 PM 04/09/2016,Teleop Enabled,12,FALSE,0,NO ERROR,-0.000000,0.859831,-0.000000,0.487666,TRUE,FALSE,TRUE,FALSE,FALSE,FALSE,Disabled,0.000000,0.000000,0.000000,TRUE,3.125427,-6.544678,0.000000,0.046616,-0.085022,0.000000,0.050000,-0.057000,0.008000,2.250000,-0.270000,0.230000,-0.127172,Reset,0.087158,0.000000,ResetBack,-12866.000000,-0.250000,LowGoal,1380.000000,-2181.818182,Speed,1207.500000,-2181.818182,Speed,Off,Off,0.000000,FALSE,0,,,,,0.000000,0.000000
12:42:44.176 PM 04/09/2016,Teleop Enabled,10,FALSE,0,NO ERROR,-0.000000,0.859831,-0.000000,0.487666,TRUE,FALSE,TRUE,FALSE,FALSE,FALSE,Disabled,0.000000,0.000000,0.000000,TRUE,3.127731,-6.548813,0.000000,0.050003,-0.108368,0.000000,-0.109000,0.020000,-0.069000,2.310000,-0.260000,0.180000,-0.137830,Hold,1.091797,0.000000,ResetBack,-8916.000000,-0.250000,LowGoal,1965.000000,-2181.818182,Speed,1740.000000,-2181.818182,Speed,Off,Off,0.000000,FALSE,0,,,,,0.000000,0.000000
12:42:44.277 PM 04/09/2016,Teleop Enabled,11,FALSE,0,NO ERROR,-0.000000,0.859831,-0.000000,0.487666,TRUE,FALSE,TRUE,FALSE,FALSE,FALSE,Disabled,0.000000,0.000000,0.000000,TRUE,3.127014,-6.552261,0.000000,-0.047318,-0.021606,0.000000,-0.019000,0.092000,-0.182000,2.320000,-0.260000,0.160000,-0.132174,Hold,0.933105,0.000000,ResetBack,-8916.000000,-0.250000,LowGoal,2197.500000,-2181.818182,Speed,2100.000000,-2181.818182,Speed,Off,Off,0.000000,FALSE,0,,,,,0.000000,0.000000
12:42:44.378 PM 04/09/2016,Teleop Enabled,11,FALSE,0,NO ERROR,-0.000000,0.859831,-0.000000,0.487666,TRUE,FALSE,TRUE,FALSE,FALSE,FALSE,Disabled,0.000000,0.000000,0.000000,TRUE,3.124817,-6.550751,0.000000,-0.015228,0.039108,0.000000,0.143000,-0.021000,-0.132000,2.330000,-0.260000,0.070000,-0.132174,Hold,0.933105,0.000000,ResetBack,-6213.000000,-0.250000,LowGoal,2235.000000,-2181.818182,Speed,2197.500000,-2181.818182,Speed,Off,Off,0.000000,FALSE,0,,,,,0.000000,0.000000
12:42:44.477 PM 04/09/2016,Teleop Enabled,12,FALSE,0,NO ERROR,-0.000000,0.859831,-0.000000,0.487666,TRUE,FALSE,TRUE,FALSE,FALSE,FALSE,Disabled,0.000000,0.000000,0.000000,TRUE,3.128632,-6.551880,0.000000,0.139893,-0.081696,0.000000,-0.027000,-0.124000,0.028000,2.280000,-0.260000,0.090000,-0.118180,Hold,0.933105,0.000000,ResetBack,-4303.000000,-0.250000,LowGoal,2167.500000,-2181.818182,Speed,2130.000000,-2181.818182,Speed,Off,Off,0.000000,FALSE,0,,,,,0.000000,0.000000
12:42:44.579 PM 04/09/2016,Teleop Enabled,10,FALSE,0,NO ERROR,-0.000000,0.859831,-0.000000,0.487666,TRUE,FALSE,TRUE,FALSE,FALSE,FALSE,Disabled,0.000000,0.000000,0.000000,TRUE,3.136505,-6.559341,0.000000,0.157959,-0.184662,0.000000,0.005000,0.009000,-0.173000,2.240000,-0.250000,0.090000,-0.108523,Hold,0.933105,0.000000,ResetBack,-2650.000000,-0.250000,LowGoal,2137.500000,-2181.818182,Speed,2070.000000,-2181.818182,Speed,Off,Off,0.000000,FALSE,0,,,,,0.000000,0.000000
12:42:44.679 PM 04/09/2016,Teleop Enabled,11,FALSE,0,NO ERROR,-0.000000,0.859831,-0.000000,0.487666,TRUE,FALSE,TRUE,FALSE,FALSE,FALSE,Disabled,0.000000,0.000000,0.000000,TRUE,3.146759,-6.568420,0.000000,0.187439,-0.085266,0.000000,0.063000,0.232000,-0.237000,2.250000,-0.260000,0.060000,-0.115219,Hold,0.933105,0.000000,ResetBack,-1733.000000,-0.250000,LowGoal,2130.000000,-2181.818182,Speed,2085.000000,-2181.818182,Speed,Off,Off,0.000000,FALSE,0,,,,,0.000000,0.000000
12:42:44.781 PM 04/09/2016,Teleop Enabled,11,FALSE,0,NO ERROR,-0.000000,0.859831,-0.000000,0.487666,TRUE,FALSE,TRUE,FALSE,FALSE,FALSE,Disabled,0.000000,0.000000,0.000000,TRUE,3.157730,-6.564957,0.000000,0.232407,0.191437,0.000000,-0.089000,0.376000,-0.143000,2.180000,-0.260000,0.150000,-0.113708,Hold,0.933105,0.000000,ResetBack,-1506.000000,-0.250000,LowGoal,2145.000000,-2181.818182,Speed,2100.000000,-2181.818182,Speed,Off,Off,0.000000,FALSE,0,,,,,0.000000,0.000000
12:42:44.881 PM 04/09/2016,Teleop Enabled,10,FALSE,0,NO ERROR,-0.000000,0.859831,-0.000000,0.487666,TRUE,FALSE,TRUE,FALSE,FALSE,FALSE,Disabled,0.000000,0.000000,0.000000,TRUE,3.167023,-6.545395,0.000000,0.147812,0.529861,0.000000,-0.132000,0.308000,-0.212000,2.190000,-0.260000,0.120000,-0.116045,Hold,0.933105,0.000000,ResetBack,-1485.000000,-0.250000,LowGoal,2137.500000,-2181.818182,Speed,2085.000000,-2181.818182,Speed,Off,Off,0.000000,FALSE,0,,,,,0.000000,0.000000
12:42:44.980 PM 04/09/2016,Teleop Enabled,10,FALSE,0,NO ERROR,-0.000000,0.859831,-0.000000,0.487666,TRUE,FALSE,TRUE,FALSE,FALSE,FALSE,Disabled,0.000000,0.000000,0.000000,TRUE,3.170029,-6.500687,0.000000,-0.015381,0.874237,0.000000,-0.141000,0.172000,0.001000,2.190000,-0.260000,0.110000,-0.113363,Hold,0.933105,0.000000,Reset,46.000000,2.000000,LowGoal,2130.000000,-2181.818182,Speed,2085.000000,-2181.818182,Speed,Off,Off,0.000000,FALSE,0,,,,,0.000000,0.000000
12:42:45.081 PM 04/09/2016,Teleop Enabled,10,FALSE,0,NO ERROR,-0.000000,0.859831,-0.000000,0.487666,TRUE,FALSE,TRUE,FALSE,FALSE,FALSE,Disabled,0.000000,0.000000,0.000000,TRUE,3.166946,-6.451965,0.000000,-0.090988,1.021423,0.000000,-0.049000,0.056000,0.216000,2.190000,-0.270000,0.090000,-0.117539,Hold,0.933105,0.000000,Hold,46.000000,2.000000,LowGoal,2145.000000,-2181.818182,Speed,2115.000000,-2181.818182,Speed,Off,Off,0.000000,FALSE,0,,,,,0.000000,0.000000
12:42:45.181 PM 04/09/2016,Teleop Enabled,10,FALSE,0,NO ERROR,-0.000000,0.859831,-0.000000,0.487666,TRUE,FALSE,TRUE,FALSE,FALSE,FALSE,Disabled,0.000000,0.000000,0.000000,TRUE,3.160461,-6.398987,0.000000,-0.149597,1.071777,0.000000,0.040000,-0.068000,0.360000,2.230000,-0.270000,0.000000,-0.115233,Hold,0.933105,0.000000,Hold,-100.000000,2.000000,LowGoal,2152.500000,-2181.818182,Speed,2107.500000,-2181.818182,Speed,Off,Off,0.000000,FALSE,0,,,,,0.000000,0.000000
12:42:45.282 PM 04/09/2016,Teleop Enabled,11,FALSE,0,NO ERROR,-0.000000,0.859831,-0.000000,0.487666,TRUE,FALSE,TRUE,FALSE,FALSE,FALSE,Disabled,0.000000,0.000000,0.000000,TRUE,3.151276,-6.339752,0.000000,-0.156586,0.882080,0.000000,0.020000,-0.346000,0.430000,2.300000,-0.270000,-0.020000,-0.136955,Hold,0.933105,0.000000,Hold,-100.000000,2.000000,LowGoal,2160.000000,-2181.818182,Speed,2107.500000,-2181.818182,Speed,Off,Off,0.000000,FALSE,0,,,,,0.000000,0.000000
12:42:45.383 PM 04/09/2016,Teleop Enabled,10,FALSE,0,NO ERROR,-0.000000,0.859831,-0.000000,0.487666,TRUE,FALSE,TRUE,FALSE,FALSE,FALSE,Disabled,0.000000,0.000000,0.000000,TRUE,3.145477,-6.311295,0.000000,-0.138885,0.602173,0.000000,-0.039000,-0.298000,0.404000,2.320000,-0.270000,0.040000,-0.136886,Hold,0.933105,0.000000,Hold,-100.000000,2.000000,LowGoal,2152.500000,-2181.818182,Speed,2107.500000,-2181.818182,Speed,Off,Off,0.000000,FALSE,0,,,,,0.000000,0.000000
12:42:45.483 PM 04/09/2016,Teleop Enabled,10,FALSE,0,NO ERROR,-0.000000,0.859831,-0.000000,0.487666,TRUE,FALSE,TRUE,FALSE,FALSE,FALSE,Disabled,0.000000,0.000000,0.000000,TRUE,3.141068,-6.290161,0.000000,0.006790,0.309677,0.000000,0.148000,-0.349000,0.172000,2.340000,-0.270000,0.020000,-0.127261,Hold,0.933105,0.000000,Hold,-100.000000,2.000000,LowGoal,2137.500000,-2181.818182,Speed,2107.500000,-2181.818182,Speed,Off,Off,0.000000,FALSE,0,,,,,0.000000,0.000000
12:42:45.584 PM 04/09/2016,Teleop Enabled,10,FALSE,0,NO ERROR,-0.000000,0.859831,-0.000000,0.487666,TRUE,FALSE,TRUE,FALSE,FALSE,FALSE,Disabled,0.000000,0.000000,0.000000,TRUE,3.145294,-6.284500,0.000000,0.151657,-0.011627,0.000000,0.181000,-0.294000,0.052000,2.370000,-0.270000,0.000000,-0.134119,Hold,0.933105,0.000000,Hold,-100.000000,2.000000,LowGoal,2130.000000,-2181.818182,Speed,2107.500000,-2181.818182,Speed,Off,Off,0.000000,FALSE,0,,,,,0.000000,0.000000
12:42:45.687 PM 04/09/2016,Teleop Enabled,12,FALSE,0,NO ERROR,-0.000000,0.859831,-0.000000,0.487666,TRUE,FALSE,TRUE,FALSE,FALSE,FALSE,Disabled,0.000000,0.000000,0.000000,TRUE,3.157745,-6.293076,0.000000,0.287064,-0.258514,0.000000,0.057000,-0.131000,-0.004000,2.350000,-0.270000,0.090000,-0.140728,Hold,0.933105,0.000000,Hold,-100.000000,2.000000,LowGoal,2130.000000,-2181.818182,Speed,2100.000000,-2181.818182,Speed,Off,Off,0.000000,FALSE,0,,,,,0.000000,0.000000
12:42:45.786 PM 04/09/2016,Teleop Enabled,9,FALSE,0,NO ERROR,-0.000000,0.859831,-0.000000,0.487666,TRUE,FALSE,TRUE,FALSE,FALSE,FALSE,Disabled,0.000000,0.000000,0.000000,TRUE,3.170471,-6.308136,0.000000,0.228622,-0.320480,0.000000,-0.047000,-0.021000,-0.230000,2.380000,-0.270000,0.040000,-0.139124,Hold,0.933105,0.000000,Hold,-100.000000,2.000000,LowGoal,2137.500000,-2181.818182,Speed,2092.500000,-2181.818182,Speed,Off,Off,0.000000,FALSE,0,,,,,0.000000,0.000000
12:42:45.886 PM 04/09/2016,Teleop Enabled,10,FALSE,0,NO ERROR,-0.000000,0.859831,-0.000000,0.487666,TRUE,FALSE,TRUE,FALSE,FALSE,FALSE,Disabled,0.000000,0.000000,0.000000,TRUE,3.184525,-6.324997,0.000000,0.257675,-0.208527,0.000000,0.046000,0.190000,-0.139000,2.330000,-0.260000,0.080000,-0.129006,Hold,0.933105,0.000000,Hold,-100.000000,2.000000,LowGoal,2137.500000,-2181.818182,Speed,2115.000000,-2181.818182,Speed,Off,Off,0.000000,FALSE,0,,,,,0.000000,0.000000
12:42:45.986 PM 04/09/2016,Teleop Enabled,11,FALSE,0,NO ERROR,-0.000000,0.859831,-0.000000,0.487666,TRUE,FALSE,TRUE,FALSE,FALSE,FALSE,Disabled,0.000000,0.000000,0.000000,TRUE,3.197861,-6.328781,0.000000,0.257874,0.023300,0.000000,-0.040000,0.246000,-0.218000,2.330000,-0.260000,0.090000,-0.124242,Hold,0.933105,0.000000,Hold,-100.000000,2.000000,LowGoal,2152.500000,-2181.818182,Speed,2115.000000,-2181.818182,Speed,Off,Off,0.000000,FALSE,0,,,,,0.000000,0.000000
12:42:46.087 PM 04/09/2016,Teleop Enabled,10,FALSE,0,NO ERROR,-0.000000,0.859831,-0.000000,0.487666,TRUE,FALSE,TRUE,FALSE,FALSE,FALSE,Disabled,0.000000,0.000000,0.000000,TRUE,3.209656,-6.320663,0.000000,0.222580,0.253616,0.000000,-0.164000,0.234000,-0.043000,2.350000,-0.260000,0.040000,-0.114740,Hold,0.933105,50.000000,Hold,-100.000000,143360.000000,LowGoal,2145.000000,-2181.818182,Speed,2107.500000,-2181.818182,Speed,Off,Off,0.000000,FALSE,0,,,,,0.000000,0.000000
12:42:46.188 PM 04/09/2016,Teleop Enabled,9,FALSE,0,NO ERROR,-0.000000,0.859831,-0.000000,0.487666,TRUE,FALSE,TRUE,FALSE,FALSE,FALSE,Disabled,0.000000,0.000000,0.000000,TRUE,3.218079,-6.301544,0.000000,0.139679,0.458389,0.000000,-0.073000,0.012000,-0.031000,2.310000,-0.250000,0.100000,-0.130263,Hold,3.620850,50.000000,Hold,-6997.000000,143360.000000,LowGoal,2130.000000,-2181.818182,Speed,2100.000000,-2181.818182,Speed,Off,Off,0.000000,FALSE,0,,,,,0.000000,0.000000
12:42:46.289 PM 04/09/2016,Teleop Enabled,11,FALSE,0,NO ERROR,-0.000000,0.859831,-0.000000,0.487666,TRUE,FALSE,TRUE,FALSE,FALSE,FALSE,Disabled,0.000000,0.000000,0.000000,TRUE,3.223618,-6.279099,0.000000,0.102753,0.411880,0.000000,-0.133000,-0.039000,0.231000,2.330000,-0.310000,0.090000,-0.153872,Hold,7.612549,50.000000,Hold,-23066.000000,143360.000000,LowGoal,2137.500000,-2181.818182,Speed,2107.500000,-2181.818182,Speed,Off,Off,0.000000,FALSE,0,,,,,0.000000,0.000000
12:42:46.390 PM 04/09/2016,Teleop Enabled,9,FALSE,0,NO ERROR,-0.000000,0.866248,-0.000000,0.545415,TRUE,FALSE,TRUE,FALSE,FALSE,FALSE,Disabled,0.000000,0.000000,0.000000,TRUE,3.226532,-6.260635,0.000000,0.038605,0.319138,0.000000,-0.073000,-0.184000,0.247000,2.370000,-0.280000,0.100000,-0.132480,Hold,14.466553,50.000000,Hold,-23066.000000,143360.000000,LowGoal,2145.000000,-2181.818182,Speed,2115.000000,-2181.818182,Speed,Off,Off,0.000000,FALSE,0,,,,,0.000000,0.000000
12:42:46.490 PM 04/09/2016,Teleop Enabled,9,FALSE,0,NO ERROR,-0.000000,0.898331,-0.000000,0.603165,TRUE,FALSE,TRUE,FALSE,FALSE,FALSE,Disabled,0.000000,0.000000,0.000000,TRUE,3.228882,-6.249481,0.000000,0.060257,0.156418,0.000000,0.066000,-0.138000,0.128000,2.350000,-0.310000,0.210000,-0.154998,Hold,19.745850,50.000000,Hold,-36397.000000,143360.000000,LowGoal,2145.000000,-2181.818182,Speed,2107.500000,-2181.818182,Speed,Off,Off,0.000000,FALSE,0,,,,,0.000000,0.000000
12:42:46.589 PM 04/09/2016,Teleop Enabled,11,FALSE,0,NO ERROR,-0.000000,0.891915,-0.000000,0.577499,TRUE,FALSE,TRUE,FALSE,FALSE,FALSE,Disabled,0.000000,0.000000,0.000000,TRUE,3.232407,-6.245117,0.000000,0.064545,0.060699,0.000000,0.034000,-0.050000,0.000000,2.380000,-0.300000,0.080000,-0.124906,Hold,27.353271,50.000000,Hold,-52079.000000,143360.000000,LowGoal,2145.000000,-2181.818182,Speed,2092.500000,-2181.818182,Speed,Off,Off,0.000000,FALSE,0,,,,,0.000000,0.000000
12:42:46.690 PM 04/09/2016,Teleop Enabled,10,FALSE,0,NO ERROR,-0.000000,0.859831,-0.000000,0.500499,TRUE,FALSE,TRUE,FALSE,FALSE,FALSE,Disabled,0.000000,0.000000,0.000000,TRUE,3.240967,-6.244568,0.000000,0.205215,-0.038284,0.000000,0.034000,-0.050000,0.000000,2.430000,-0.280000,-0.050000,-0.118775,Hold,35.725098,50.000000,Hold,-69329.000000,143360.000000,LowGoal,2145.000000,-2181.818182,Speed,2122.500000,-2181.818182,Speed,Off,Off,0.000000,FALSE,0,,,,,0.000000,0.000000
12:42:46.791 PM 04/09/2016,Teleop Enabled,11,FALSE,0,NO ERROR,-0.000000,0.802081,-0.000000,0.468416,TRUE,FALSE,TRUE,FALSE,FALSE,FALSE,Disabled,0.000000,0.000000,0.000000,TRUE,3.251205,-6.247330,0.000000,0.279510,-0.078964,0.000000,-0.038000,-0.045000,-0.082000,2.370000,-0.290000,-0.120000,-0.121767,Hold,45.994385,50.000000,Hold,-89673.000000,143360.000000,LowGoal,2145.000000,-2181.818182,Speed,2115.000000,-2181.818182,Speed,Off,Off,0.000000,FALSE,0,,,,,0.000000,0.000000
12:42:46.891 PM 04/09/2016,Teleop Enabled,12,FALSE,0,NO ERROR,-0.000000,0.802081,-0.000000,0.468416,TRUE,FALSE,TRUE,FALSE,FALSE,FALSE,Disabled,0.000000,0.000000,0.000000,TRUE,3.264771,-6.251144,0.000000,0.266220,-0.061813,0.000000,-0.104000,-0.027000,-0.164000,2.390000,-0.290000,-0.200000,-0.125099,Hold,52.465332,50.000000,Hold,-109252.000000,143360.000000,LowGoal,2025.000000,-2181.818182,Speed,2115.000000,-2181.818182,Speed,Off,Off,0.000000,FALSE,0,,,,,0.000000,0.000000
12:42:46.993 PM 04/09/2016,Teleop Enabled,9,FALSE,0,NO ERROR,-0.000000,0.795665,-0.000000,0.468416,TRUE,FALSE,TRUE,FALSE,FALSE,FALSE,Disabled,0.000000,0.000000,0.000000,TRUE,3.277481,-6.258636,0.000000,0.281662,-0.239639,0.000000,0.079000,-0.349000,-0.160000,2.420000,-0.230000,-0.290000,-0.089469,Hold,54.911377,50.000000,Hold,-130089.000000,143360.000000,LowGoal,2040.000000,-2181.818182,Speed,2100.000000,-2181.818182,Speed,Off,Off,0.000000,FALSE,0,,,,,0.000000,0.000000
12:42:47.092 PM 04/09/2016,Teleop Enabled,10,FALSE,0,NO ERROR,-0.000000,0.795665,-0.000000,0.474832,TRUE,FALSE,TRUE,FALSE,FALSE,FALSE,Disabled,0.000000,0.000000,0.000000,TRUE,3.295715,-6.280762,0.000000,0.438766,-0.575790,0.000000,0.227000,-0.127000,-0.292000,2.390000,-0.310000,-0.150000,-0.109948,Hold,54.372070,50.000000,Hold,-130089.000000,143360.000000,LowGoal,2190.000000,-2181.818182,Speed,2100.000000,-2181.818182,Speed,Off,Off,0.000000,FALSE,0,,,,,0.000000,0.000000
12:42:47.194 PM 04/09/2016,Teleop Enabled,9,FALSE,0,NO ERROR,-0.000000,0.795665,-0.000000,0.468416,TRUE,FALSE,TRUE,FALSE,FALSE,FALSE,Disabled,0.000000,0.000000,0.000000,TRUE,3.323380,-6.315613,0.000000,0.593338,-0.782318,0.000000,0.227000,-0.127000,-0.292000,2.330000,-0.270000,-0.090000,-0.090050,Hold,54.274414,50.000000,Hold,-144459.000000,143360.000000,LowGoal,2160.000000,-2181.818182,Speed,2100.000000,-2181.818182,Speed,Off,Off,0.000000,FALSE,0,,,,,0.000000,0.000000
12:42:47.294 PM 04/09/2016,Teleop Enabled,10,FALSE,0,NO ERROR,-0.000000,0.802081,-0.000000,0.494082,TRUE,FALSE,TRUE,FALSE,FALSE,FALSE,Disabled,0.000000,0.000000,0.000000,TRUE,3.349365,-6.371704,0.000000,0.000000,-1.019806,0.000000,0.145000,-0.286000,0.000000,2.340000,-0.310000,-0.280000,-0.125540,Hold,54.195312,50.000000,Hold,-143541.000000,143360.000000,LowGoal,2137.500000,-2181.818182,Speed,2107.500000,-2181.818182,Speed,Off,Off,0.000000,FALSE,0,,,,,0.000000,0.000000
12:42:47.396 PM 04/09/2016,Teleop Enabled,7,FALSE,0,NO ERROR,-0.000000,0.802081,-0.000000,0.481249,TRUE,FALSE,TRUE,FALSE,FALSE,FALSE,Disabled,0.000000,0.000000,0.000000,TRUE,3.348038,-6.426376,0.000000,-0.049057,-1.134537,0.000000,-0.033000,-0.155000,-0.262000,2.340000,-0.310000,-0.280000,-0.067051,Hold,54.191406,50.000000,Hold,-143494.000000,143360.000000,LowGoal,2152.500000,-2181.818182,Speed,2100.000000,-2181.818182,Speed,Off,Off,0.000000,FALSE,0,,,,,0.000000,0.000000
12:42:47.496 PM 04/09/2016,Teleop Enabled,10,FALSE,0,NO ERROR,-0.000000,0.802081,-0.000000,0.481249,TRUE,FALSE,TRUE,FALSE,FALSE,FALSE,Disabled,0.000000,0.000000,0.000000,TRUE,3.347672,-6.484238,0.000000,0.046326,-1.147827,0.000000,0.101000,-0.066000,-0.215000,2.370000,-0.260000,-0.360000,-0.093903,Hold,54.191406,50.000000,Hold,-143490.000000,143360.000000,LowGoal,2152.500000,-2181.818182,Speed,2100.000000,-2181.818182,Speed,Off,Off,0.000000,FALSE,0,,,,,0.000000,0.000000
12:42:47.596 PM 04/09/2016,Teleop Enabled,9,FALSE,0,NO ERROR,-0.000000,0.802081,-0.000000,0.481249,TRUE,FALSE,TRUE,FALSE,FALSE,FALSE,Disabled,0.000000,0.000000,0.000000,TRUE,3.353470,-6.538818,0.000000,0.134857,-1.036621,0.000000,0.144000,0.061000,0.030000,2.260000,-0.320000,-0.200000,-0.064782,Hold,54.139648,50.000000,Hold,-143490.000000,143360.000000,LowGoal,2137.500000,-2181.818182,Speed,2107.500000,-2181.818182,Speed,Off,Off,0.000000,FALSE,0,,,,,0.000000,0.000000
12:42:47.695 PM 04/09/2016,Teleop Enabled,9,FALSE,0,NO ERROR,-0.000000,0.802081,-0.000000,0.481249,TRUE,FALSE,TRUE,FALSE,FALSE,FALSE,Disabled,0.000000,0.000000,0.000000,TRUE,3.358231,-6.585602,0.000000,0.057205,-0.864075,0.000000,-0.018000,0.111000,-0.031000,2.300000,-0.280000,-0.160000,-0.067126,Hold,54.131836,50.000000,Hold,-143490.000000,143360.000000,LowGoal,2137.500000,-2181.818182,Speed,2115.000000,-2181.818182,Speed,Off,Off,0.000000,FALSE,0,,,,,0.000000,0.000000
12:42:47.796 PM 04/09/2016,Teleop Enabled,10,FALSE,0,NO ERROR,-0.000000,0.802081,-0.000000,0.481249,TRUE,FALSE,TRUE,FALSE,FALSE,FALSE,Disabled,0.000000,0.000000,0.000000,TRUE,3.356689,-6.623672,0.000000,-0.092484,-0.689362,0.000000,-0.124000,0.216000,-0.096000,2.300000,-0.310000,-0.200000,-0.049566,Hold,54.129883,50.000000,Hold,-143490.000000,143360.000000,LowGoal,2145.000000,-2181.818182,Speed,2100.000000,-2181.818182,Speed,Off,Off,0.000000,FALSE,0,,,,,0.000000,0.000000
12:42:47.897 PM 04/09/2016,Teleop Enabled,10,FALSE,0,NO ERROR,-0.000000,0.802081,-0.000000,0.481249,TRUE,FALSE,TRUE,FALSE,FALSE,FALSE,Disabled,0.000000,0.000000,0.000000,TRUE,3.347763,-6.650864,0.000000,-0.234650,-0.430115,0.000000,-0.108000,0.216000,0.024000,2.280000,-0.300000,-0.260000,-0.063832,Hold,54.129883,50.000000,Hold,-143490.000000,143360.000000,LowGoal,2137.500000,-2181.818182,Speed,2107.500000,-2181.818182,Speed,Off,Off,0.000000,FALSE,0,,,,,0.000000,0.000000
12:42:47.996 PM 04/09/2016,Teleop Enabled,10,FALSE,0,NO ERROR,-0.000000,0.802081,-0.000000,0.481249,TRUE,FALSE,TRUE,FALSE,FALSE,FALSE,Disabled,0.000000,0.000000,0.000000,TRUE,3.334076,-6.665237,0.000000,-0.290375,-0.228226,0.000000,-0.103000,0.352000,0.180000,2.280000,-0.300000,-0.260000,-0.069574,Hold,54.126221,50.000000,Hold,-143490.000000,143360.000000,LowGoal,2137.500000,-2181.818182,Speed,2122.500000,-2181.818182,Speed,Off,Off,0.000000,FALSE,0,,,,,0.000000,0.000000
12:42:48.096 PM 04/09/2016,Teleop Enabled,12,FALSE,0,NO ERROR,-0.000000,0.802081,-0.000000,0.481249,TRUE,FALSE,TRUE,FALSE,FALSE,FALSE,Disabled,0.000000,0.000000,0.000000,TRUE,3.334076,-6.665237,0.000000,-0.290375,-0.228226,0.000000,-0.083000,0.125000,0.213000,2.220000,-0.300000,-0.100000,-0.067161,Hold,54.125000,50.000000,Hold,-143489.000000,143360.000000,LowGoal,2145.000000,-2181.818182,Speed,2122.500000,-2181.818182,Speed,Off,Off,0.000000,FALSE,0,,,,,0.000000,0.000000
12:42:48.198 PM 04/09/2016,Teleop Enabled,8,FALSE,0,NO ERROR,-0.000000,0.802081,-0.000000,0.481249,TRUE,FALSE,TRUE,FALSE,FALSE,FALSE,Disabled,0.000000,0.000000,0.000000,TRUE,3.314514,-6.675064,0.000000,-0.348999,-0.134430,0.000000,-0.074000,0.026000,0.290000,2.220000,-0.300000,-0.100000,-0.057966,Hold,54.124512,50.000000,Hold,-143489.000000,143360.000000,LowGoal,2152.500000,-2181.818182,Speed,2115.000000,-2181.818182,Speed,Off,Off,0.000000,FALSE,0,,,,,0.000000,0.000000
12:42:48.298 PM 04/09/2016,Teleop Enabled,10,FALSE,0,NO ERROR,-0.000000,0.802081,-0.000000,0.481249,TRUE,FALSE,TRUE,FALSE,FALSE,FALSE,Disabled,0.000000,0.000000,0.000000,TRUE,3.294464,-6.680603,0.000000,-0.440613,-0.099564,0.000000,-0.085000,-0.096000,0.153000,2.310000,-0.310000,-0.140000,-0.054926,Hold,54.123779,50.000000,Hold,-143489.000000,143360.000000,LowGoal,2152.500000,-2181.818182,Speed,2107.500000,-2181.818182,Speed,Off,Off,0.000000,FALSE,0,,,,,0.000000,0.000000
12:42:48.399 PM 04/09/2016,Teleop Disabled,9,FALSE,0,NO ERROR,-0.000000,0.802081,-0.000000,0.481249,TRUE,FALSE,TRUE,TRUE,FALSE,FALSE,Disabled,0.000000,0.000000,0.000000,TRUE,3.271942,-6.688049,0.000000,-0.422134,-0.203033,0.000000,0.195000,-0.187000,0.245000,2.350000,-0.300000,-0.190000,-0.041386,Hold,54.302979,50.000000,Hold,-143489.000000,143360.000000,LowGoal,2092.500000,-2181.818182,Speed,2100.000000,-2181.818182,Speed,Off,Off,0.000000,FALSE,0,,,,,0.000000,0.000000
12:42:48.499 PM 04/09/2016,Teleop Disabled,11,FALSE,0,NO ERROR,-0.000000,0.802081,-0.000000,0.481249,TRUE,FALSE,TRUE,TRUE,FALSE,FALSE,Disabled,-0.062500,0.000000,0.000000,TRUE,3.252075,-6.707489,0.000000,-0.299988,-0.408905,0.000000,0.077000,-0.133000,-0.057000,2.410000,-0.300000,-0.140000,-0.045425,Hold,56.923584,50.000000,Hold,-143712.000000,143360.000000,LowGoal,1957.500000,-2181.818182,Speed,2040.000000,-2181.818182,Speed,Off,Off,0.000000,FALSE,0,,,,,0.000000,0.000000
12:42:48.600 PM 04/09/2016,Teleop Disabled,14,FALSE,0,NO ERROR,-0.000000,0.802081,-0.000000,0.506915,TRUE,FALSE,TRUE,TRUE,FALSE,FALSE,Disabled,-0.062500,0.000000,0.000000,TRUE,3.240891,-6.725571,0.000000,-0.271851,-0.463425,0.000000,-0.217000,0.079000,-0.040000,2.380000,-0.310000,-0.150000,-0.037748,Hold,62.575439,50.000000,Hold,-143712.000000,143360.000000,LowGoal,1957.500000,-2181.818182,Speed,1890.000000,-2181.818182,Speed,Off,Off,0.000000,FALSE,0,,,,,0.000000,0.000000
12:42:48.701 PM 04/09/2016,Teleop Disabled,9,FALSE,0,NO ERROR,-0.000000,0.802081,-0.000000,0.506915,TRUE,FALSE,TRUE,TRUE,FALSE,FALSE,Disabled,-0.062500,0.000000,0.000000,TRUE,3.226089,-6.749725,0.000000,-0.279480,-0.519943,0.000000,0.075000,0.069000,0.090000,2.250000,-0.290000,-0.430000,-0.072208,Hold,66.977783,50.000000,Hold,-143720.000000,143360.000000,LowGoal,1822.500000,-2181.818182,Speed,1717.500000,-2181.818182,Speed,Off,Off,0.000000,FALSE,0,,,,,0.000000,0.000000
12:42:48.801 PM 04/09/2016,Teleop Disabled,10,FALSE,0,NO ERROR,-0.000000,0.802081,-0.000000,0.506915,TRUE,FALSE,TRUE,TRUE,FALSE,FALSE,Disabled,-0.065625,0.000000,0.000000,TRUE,3.210938,-6.780792,0.000000,-0.251938,-0.521530,0.000000,0.053000,0.019000,-0.046000,2.350000,-0.360000,-0.120000,-0.072208,Hold,64.439697,50.000000,Hold,-143739.000000,143360.000000,LowGoal,1552.500000,-2181.818182,Speed,1530.000000,-2181.818182,Speed,Off,Off,0.000000,FALSE,0,,,,,0.000000,0.000000
12:42:48.900 PM 04/09/2016,Teleop Disabled,9,FALSE,0,NO ERROR,-0.000000,0.802081,-0.000000,0.506915,TRUE,FALSE,TRUE,TRUE,FALSE,FALSE,Disabled,-0.065625,0.000000,0.000000,TRUE,3.200439,-6.801758,0.000000,-0.275375,-0.527313,0.000000,-0.039000,-0.021000,0.004000,2.300000,-0.340000,-0.170000,-0.030174,Hold,64.709473,50.000000,Hold,-143740.000000,143360.000000,LowGoal,1552.500000,-2181.818182,Speed,1387.500000,-2181.818182,Speed,Off,Off,0.000000,FALSE,0,,,,,0.000000,0.000000
12:42:49.001 PM 04/09/2016,Teleop Disabled,9,FALSE,0,NO ERROR,-0.000000,0.802081,-0.000000,0.500499,TRUE,FALSE,TRUE,TRUE,FALSE,FALSE,Disabled,-0.065625,0.000000,0.000000,TRUE,3.185959,-6.817841,0.000000,-0.285202,-0.003296,0.000000,0.062000,0.041000,0.105000,2.250000,-0.320000,-0.170000,-0.009250,Hold,64.762939,50.000000,Hold,-143742.000000,143360.000000,LowGoal,1440.000000,-2181.818182,Speed,1237.500000,-2181.818182,Speed,Off,Off,0.000000,FALSE,0,,,,,0.000000,0.000000
12:42:49.101 PM 04/09/2016,Teleop Disabled,10,FALSE,0,NO ERROR,-0.000000,0.802081,-0.000000,0.500499,TRUE,FALSE,TRUE,TRUE,FALSE,FALSE,Disabled,-0.065625,0.000000,0.000000,TRUE,3.171066,-6.816910,0.000000,-0.225525,0.027039,0.000000,0.016000,0.018000,-0.035000,2.220000,-0.340000,-0.160000,-0.002737,Hold,64.763672,50.000000,Hold,-143743.000000,143360.000000,LowGoal,1327.500000,-2181.818182,Speed,1095.000000,-2181.818182,Speed,Off,Off,0.000000,FALSE,0,,,,,0.000000,0.000000
12:42:49.200 PM 04/09/2016,Teleop Disabled,8,FALSE,0,NO ERROR,-0.000000,0.802081,-0.000000,0.500499,TRUE,FALSE,TRUE,TRUE,FALSE,FALSE,Disabled,-0.065625,0.000000,0.000000,TRUE,3.160522,-6.815857,0.000000,-0.216858,0.004822,0.000000,0.006000,0.001000,0.040000,2.220000,-0.330000,-0.110000,-0.003177,Hold,64.763672,50.000000,Hold,-143743.000000,143360.000000,LowGoal,1222.500000,-2181.818182,Speed,945.000000,-2181.818182,Speed,Off,Off,0.000000,FALSE,0,,,,,0.000000,0.000000
12:42:49.301 PM 04/09/2016,Teleop Disabled,10,FALSE,0,NO ERROR,-0.000000,0.802081,-0.000000,0.500499,TRUE,FALSE,TRUE,TRUE,FALSE,FALSE,Disabled,-0.065625,0.000000,0.000000,TRUE,3.150360,-6.815491,0.000000,-0.192795,0.022995,0.000000,0.072000,0.002000,0.051000,2.230000,-0.340000,-0.100000,-0.002035,Hold,64.763672,50.000000,Hold,-143743.000000,143360.000000,LowGoal,1147.500000,-2181.818182,Speed,802.500000,-2181.818182,Speed,Off,Off,0.000000,FALSE,0,,,,,0.000000,0.000000
12:42:49.402 PM 04/09/2016,Teleop Disabled,9,FALSE,0,NO ERROR,-0.000000,0.802081,-0.000000,0.500499,TRUE,FALSE,TRUE,TRUE,FALSE,FALSE,Disabled,-0.065625,0.000000,0.000000,TRUE,3.141922,-6.814423,0.000000,-0.166107,0.011154,0.000000,0.033000,0.036000,0.007000,2.250000,-0.330000,-0.130000,-0.003157,Hold,64.763672,50.000000,Hold,-143744.000000,143360.000000,LowGoal,1050.000000,-2181.818182,Speed,660.000000,-2181.818182,Speed,Off,Off,0.000000,FALSE,0,,,,,0.000000,0.000000
12:42:49.503 PM 04/09/2016,Teleop Disabled,8,FALSE,0,NO ERROR,-0.000000,0.802081,-0.000000,0.500499,TRUE,FALSE,TRUE,TRUE,FALSE,FALSE,Disabled,-0.065625,0.000000,0.000000,TRUE,3.134171,-6.813736,0.000000,-0.145142,0.008682,0.000000,-0.031000,0.010000,-0.012000,2.260000,-0.340000,-0.100000,0.003494,Hold,64.763672,50.000000,Hold,-143744.000000,143360.000000,LowGoal,960.000000,-2181.818182,Speed,547.500000,-2181.818182,Speed,Off,Off,0.000000,FALSE,0,,,,,0.000000,0.000000
12:42:49.603 PM 04/09/2016,Teleop Disabled,11,FALSE,0,NO ERROR,-0.000000,0.802081,-0.000000,0.500499,TRUE,FALSE,TRUE,TRUE,FALSE,FALSE,Disabled,-0.065625,0.000000,0.000000,TRUE,3.126297,-6.812943,0.000000,-0.149933,0.021820,0.000000,0.037000,0.001000,0.057000,2.260000,-0.340000,-0.130000,-0.000413,Hold,64.763672,50.000000,Hold,-143744.000000,143360.000000,LowGoal,862.500000,-2181.818182,Speed,120.000000,-2181.818182,Speed,Off,Off,0.000000,FALSE,0,,,,,0.000000,0.000000
12:42:49.708 PM 04/09/2016,Teleop Disabled,11,FALSE,0,NO ERROR,-0.000000,0.802081,-0.000000,0.500499,TRUE,FALSE,TRUE,TRUE,FALSE,FALSE,Disabled,-0.065625,0.000000,0.000000,TRUE,3.119064,-6.811371,0.000000,-0.145599,0.028076,0.000000,-0.026000,-0.051000,-0.001000,2.260000,-0.340000,-0.120000,0.009877,Hold,64.763672,50.000000,Hold,-143744.000000,143360.000000,LowGoal,780.000000,-2181.818182,Speed,7.500000,-2181.818182,Speed,Off,Off,0.000000,FALSE,0,,,,,0.000000,0.000000
12:42:49.805 PM 04/09/2016,Teleop Disabled,8,FALSE,0,NO ERROR,-0.000000,0.802081,-0.000000,0.500499,TRUE,FALSE,TRUE,TRUE,FALSE,FALSE,Disabled,-0.065625,0.000000,0.000000,TRUE,3.111069,-6.811234,0.000000,-0.164322,-0.004028,0.000000,0.078000,0.026000,0.034000,2.280000,-0.340000,-0.140000,0.008637,Hold,64.763672,50.000000,Hold,-143744.000000,143360.000000,LowGoal,697.500000,-2181.818182,Speed,172.500000,-2181.818182,Speed,Off,Off,0.000000,FALSE,0,,,,,0.000000,0.000000
12:42:49.905 PM 04/09/2016,Teleop Disabled,10,FALSE,0,NO ERROR,-0.000000,0.802081,-0.000000,0.500499,TRUE,FALSE,TRUE,TRUE,FALSE,FALSE,Disabled,0.000000,0.000000,0.000000,TRUE,3.103455,-6.811203,0.000000,-0.160126,-0.002731,0.000000,0.024000,-0.038000,0.022000,2.290000,-0.340000,-0.170000,0.008858,Hold,64.763672,50.000000,Hold,-143744.000000,143360.000000,LowGoal,615.000000,-2181.818182,Speed,112.500000,-2181.818182,Speed,Off,Off,0.000000,FALSE,0,,,,,0.000000,0.000000
12:42:50.006 PM 04/09/2016,Teleop Disabled,10,FALSE,0,NO ERROR,-0.000000,0.802081,-0.000000,0.500499,TRUE,FALSE,TRUE,TRUE,FALSE,FALSE,Disabled,0.000000,0.000000,0.000000,TRUE,3.098679,-6.811508,0.000000,-0.003510,-0.002396,0.000000,-0.040000,-0.042000,0.020000,2.300000,-0.340000,-0.180000,0.012073,Hold,64.763672,50.000000,Hold,-143744.000000,143360.000000,LowGoal,532.500000,-2181.818182,Speed,0.000000,-2181.818182,Speed,Off,Off,0.000000,FALSE,0,,,,,0.000000,0.000000
12:42:50.106 PM 04/09/2016,Teleop Disabled,10,FALSE,0,NO ERROR,-0.000000,0.802081,-0.000000,0.500499,TRUE,FALSE,TRUE,TRUE,FALSE,FALSE,Disabled,0.000000,0.000000,0.000000,TRUE,3.098343,-6.811890,0.000000,-0.006104,-0.005859,0.000000,0.011000,-0.044000,0.014000,2.310000,-0.340000,-0.190000,0.033906,Hold,64.763672,50.000000,Hold,-143744.000000,143360.000000,LowGoal,450.000000,-2181.818182,Speed,0.000000,-2181.818182,Speed,Off,Off,0.000000,FALSE,0,,,,,0.000000,0.000000
12:42:50.206 PM 04/09/2016,Teleop Disabled,11,FALSE,0,NO ERROR,-0.000000,0.802081,-0.000000,0.500499,TRUE,FALSE,TRUE,TRUE,FALSE,FALSE,Disabled,0.000000,0.000000,0.000000,TRUE,3.098129,-6.812683,0.000000,-0.007660,-0.010300,0.000000,-0.010000,0.038000,0.012000,2.330000,-0.330000,-0.220000,0.053645,Hold,64.763672,50.000000,Hold,-143744.000000,143360.000000,LowGoal,382.500000,-2181.818182,Speed,0.000000,-2181.818182,Speed,Off,Off,0.000000,FALSE,0,,,,,0.000000,0.000000
12:42:50.307 PM 04/09/2016,Teleop Disabled,10,FALSE,0,NO ERROR,-0.000000,0.802081,-0.000000,0.500499,TRUE,FALSE,TRUE,TRUE,FALSE,FALSE,Disabled,0.000000,0.000000,0.000000,TRUE,3.097580,-6.812744,0.000000,0.000000,0.000000,0.000000,-0.007000,-0.002000,0.007000,2.330000,-0.330000,-0.220000,0.077650,Hold,64.763672,50.000000,Hold,-143744.000000,143360.000000,LowGoal,307.500000,-2181.818182,Speed,0.000000,-2181.818182,Speed,Off,Off,0.000000,FALSE,0,,,,,0.000000,0.000000
12:42:50.407 PM 04/09/2016,Teleop Disabled,10,FALSE,0,NO ERROR,-0.000000,0.802081,-0.000000,0.500499,TRUE,FALSE,TRUE,TRUE,FALSE,FALSE,Disabled,0.000000,0.000000,0.000000,TRUE,3.097580,-6.812744,0.000000,0.000000,0.000000,0.000000,-0.013000,0.013000,0.018000,2.340000,-0.330000,-0.230000,0.081107,Hold,64.763672,50.000000,Hold,-143744.000000,143360.000000,LowGoal,247.500000,-2181.818182,Speed,0.000000,-2181.818182,Speed,Off,Off,0.000000,FALSE,0,,,,,0.000000,0.000000
12:42:50.508 PM 04/09/2016,Teleop Disabled,10,FALSE,0,NO ERROR,-0.000000,0.802081,-0.000000,0.500499,TRUE,FALSE,TRUE,TRUE,FALSE,FALSE,Disabled,0.000000,0.000000,0.000000,TRUE,3.097580,-6.812744,0.000000,0.000000,0.000000,0.000000,-0.005000,0.000000,0.029000,2.340000,-0.330000,-0.230000,0.104220,Hold,64.763672,50.000000,Hold,-143744.000000,143360.000000,LowGoal,180.000000,-2181.818182,Speed,0.000000,-2181.818182,Speed,Off,Off,0.000000,FALSE,0,,,,,0.000000,0.000000
12:42:50.607 PM 04/09/2016,Teleop Disabled,11,FALSE,0,NO ERROR,-0.000000,0.802081,-0.000000,0.500499,TRUE,FALSE,TRUE,TRUE,FALSE,FALSE,Disabled,0.000000,0.000000,0.000000,TRUE,3.097580,-6.812744,0.000000,0.000000,0.000000,0.000000,-0.004000,0.009000,0.030000,2.360000,-0.330000,-0.230000,0.115167,Hold,64.763672,50.000000,Hold,-143744.000000,143360.000000,LowGoal,120.000000,-2181.818182,Speed,0.000000,-2181.818182,Speed,Off,Off,0.000000,FALSE,0,,,,,0.000000,0.000000
12:42:50.708 PM 04/09/2016,Teleop Disabled,10,FALSE,0,NO ERROR,-0.000000,0.802081,-0.000000,0.500499,TRUE,FALSE,TRUE,TRUE,FALSE,FALSE,Disabled,0.000000,0.000000,0.000000,TRUE,3.097580,-6.812744,0.000000,0.000000,0.000000,0.000000,0.000000,0.003000,0.026000,2.360000,-0.330000,-0.240000,0.117422,Hold,64.763672,50.000000,Hold,-143744.000000,143360.000000,LowGoal,45.000000,-2181.818182,Speed,0.000000,-2181.818182,Speed,Off,Off,0.000000,FALSE,0,,,,,0.000000,0.000000
12:42:50.808 PM 04/09/2016,Teleop Disabled,10,FALSE,0,NO ERROR,-0.000000,0.802081,-0.000000,0.500499,TRUE,FALSE,TRUE,TRUE,FALSE,FALSE,Disabled,0.000000,0.000000,0.000000,TRUE,3.097580,-6.812744,0.000000,0.000000,0.000000,0.000000,-0.002000,0.003000,0.013000,2.360000,-0.330000,-0.240000,0.125622,Hold,64.763672,50.000000,Hold,-143744.000000,143360.000000,LowGoal,0.000000,-2181.818182,Speed,0.000000,-2181.818182,Speed,Off,Off,0.000000,FALSE,0,,,,,0.000000,0.000000
12:42:50.908 PM 04/09/2016,Teleop Disabled,10,FALSE,0,NO ERROR,-0.000000,0.802081,-0.000000,0.500499,TRUE,FALSE,TRUE,TRUE,FALSE,FALSE,Disabled,0.000000,0.000000,0.000000,TRUE,3.097580,-6.812744,0.000000,0.000000,0.000000,0.000000,0.000000,0.000000,0.021000,2.360000,-0.330000,-0.240000,0.138625,Hold,64.763672,50.000000,Hold,-143744.000000,143360.000000,LowGoal,0.000000,-2181.818182,Speed,0.000000,-2181.818182,Speed,Off,Off,0.000000,FALSE,0,,,,,0.000000,0.000000
12:42:51.008 PM 04/09/2016,Teleop Disabled,10,FALSE,0,NO ERROR,-0.000000,0.802081,-0.000000,0.500499,TRUE,FALSE,TRUE,TRUE,FALSE,FALSE,Disabled,0.000000,0.000000,0.000000,TRUE,3.097580,-6.812744,0.000000,0.000000,0.000000,0.000000,-0.001000,0.003000,0.024000,2.360000,-0.330000,-0.240000,0.145696,Hold,64.763672,50.000000,Hold,-143744.000000,143360.000000,LowGoal,0.000000,-2181.818182,Speed,0.000000,-2181.818182,Speed,Off,Off,0.000000,FALSE,0,,,,,0.000000,0.000000
12:42:51.108 PM 04/09/2016,Teleop Disabled,10,FALSE,0,NO ERROR,-0.000000,0.802081,-0.000000,0.500499,TRUE,FALSE,TRUE,TRUE,FALSE,FALSE,Disabled,0.000000,0.000000,0.000000,TRUE,3.097580,-6.812744,0.000000,0.000000,0.000000,0.000000,-0.001000,0.000000,0.021000,2.360000,-0.330000,-0.240000,0.169178,Hold,64.763672,50.000000,Hold,-143744.000000,143360.000000,LowGoal,0.000000,-2181.818182,Speed,0.000000,-2181.818182,Speed,Off,Off,0.000000,FALSE,0,,,,,0.000000,0.000000
12:42:51.208 PM 04/09/2016,Teleop Disabled,10,FALSE,0,NO ERROR,-0.000000,0.802081,-0.000000,0.500499,TRUE,FALSE,TRUE,TRUE,FALSE,FALSE,Disabled,0.000000,0.000000,0.000000,TRUE,3.097580,-6.812744,0.000000,0.000000,0.000000,0.000000,-0.001000,0.001000,0.021000,2.360000,-0.330000,-0.240000,0.201083,Hold,64.763672,50.000000,Hold,-143744.000000,143360.000000,LowGoal,0.000000,-2181.818182,Speed,0.000000,-2181.818182,Speed,Off,Off,0.000000,FALSE,0,,,,,0.000000,0.000000
12:42:51.308 PM 04/09/2016,Teleop Disabled,10,FALSE,0,NO ERROR,-0.000000,0.802081,-0.000000,0.500499,TRUE,FALSE,TRUE,TRUE,FALSE,FALSE,Disabled,0.000000,0.000000,0.000000,TRUE,3.097580,-6.812744,0.000000,0.000000,0.000000,0.000000,0.000000,0.001000,0.022000,2.360000,-0.330000,-0.240000,0.210234,Hold,64.763672,50.000000,Hold,-143744.000000,143360.000000,LowGoal,0.000000,-2181.818182,Speed,0.000000,-2181.818182,Speed,Off,Off,0.000000,FALSE,0,,,,,0.000000,0.000000
12:42:51.408 PM 04/09/2016,Teleop Disabled,9,FALSE,0,NO ERROR,-0.000000,0.802081,-0.000000,0.500499,TRUE,FALSE,TRUE,TRUE,FALSE,FALSE,Disabled,0.000000,0.000000,0.000000,TRUE,3.097580,-6.812744,0.000000,0.000000,0.000000,0.000000,-0.001000,-0.001000,0.020000,2.360000,-0.340000,-0.240000,0.214458,Hold,64.763672,50.000000,Hold,-143744.000000,143360.000000,LowGoal,0.000000,-2181.818182,Speed,0.000000,-2181.818182,Speed,Off,Off,0.000000,FALSE,0,,,,,0.000000,0.000000
12:42:51.508 PM 04/09/2016,Teleop Disabled,10,FALSE,0,NO ERROR,-0.000000,0.802081,-0.000000,0.500499,TRUE,FALSE,TRUE,TRUE,FALSE,FALSE,Disabled,0.000000,0.000000,0.000000,TRUE,3.097580,-6.812744,0.000000,0.000000,0.000000,0.000000,0.000000,0.001000,0.021000,2.370000,-0.330000,-0.250000,0.210984,Hold,64.763672,50.000000,Hold,-143744.000000,143360.000000,LowGoal,0.000000,-2181.818182,Speed,0.000000,-2181.818182,Speed,Off,Off,0.000000,FALSE,0,,,,,0.000000,0.000000
12:42:51.608 PM 04/09/2016,Teleop Disabled,10,FALSE,0,NO ERROR,-0.000000,0.802081,-0.000000,0.500499,TRUE,FALSE,TRUE,TRUE,FALSE,FALSE,Disabled,0.000000,0.000000,0.000000,TRUE,3.097580,-6.812744,0.000000,0.000000,0.000000,0.000000,0.000000,-0.003000,0.024000,2.370000,-0.340000,-0.250000,0.208075,Hold,64.763672,50.000000,Hold,-143744.000000,143360.000000,LowGoal,0.000000,-2181.818182,Speed,0.000000,-2181.818182,Speed,Off,Off,0.000000,FALSE,0,,,,,0.000000,0.000000
12:42:51.710 PM 04/09/2016,Teleop Disabled,10,FALSE,0,NO ERROR,-0.000000,0.802081,-0.000000,0.500499,TRUE,FALSE,TRUE,TRUE,FALSE,FALSE,Disabled,0.000000,0.000000,0.000000,TRUE,3.097580,-6.812744,0.000000,0.000000,0.000000,0.000000,0.000000,-0.003000,0.024000,2.370000,-0.340000,-0.260000,0.204825,Hold,64.763672,50.000000,Hold,-143744.000000,143360.000000,LowGoal,0.000000,-2181.818182,Speed,0.000000,-2181.818182,Speed,Off,Off,0.000000,FALSE,0,,,,,0.000000,0.000000
12:42:51.810 PM 04/09/2016,Teleop Disabled,9,FALSE,0,NO ERROR,-0.000000,0.802081,-0.000000,0.500499,TRUE,FALSE,TRUE,TRUE,FALSE,FALSE,Disabled,0.000000,0.000000,0.000000,TRUE,3.097580,-6.812744,0.000000,0.000000,0.000000,0.000000,-0.001000,0.001000,0.022000,2.380000,-0.340000,-0.250000,0.214575,Hold,64.763672,50.000000,Hold,-143744.000000,143360.000000,LowGoal,0.000000,-2181.818182,Speed,0.000000,-2181.818182,Speed,Off,Off,0.000000,FALSE,0,,,,,0.000000,0.000000
12:42:51.910 PM 04/09/2016,Teleop Disabled,9,FALSE,0,NO ERROR,-0.000000,0.802081,-0.000000,0.500499,TRUE,FALSE,TRUE,TRUE,FALSE,FALSE,Disabled,0.000000,0.000000,0.000000,TRUE,3.097580,-6.812744,0.000000,0.000000,0.000000,0.000000,0.000000,-0.001000,0.024000,2.380000,-0.330000,-0.260000,0.228696,Hold,64.763672,50.000000,Hold,-143744.000000,143360.000000,LowGoal,0.000000,-2181.818182,Speed,0.000000,-2181.818182,Speed,Off,Off,0.000000,FALSE,0,,,,,0.000000,0.000000
12:42:52.012 PM 04/09/2016,Teleop Disabled,9,FALSE,0,NO ERROR,-0.000000,0.802081,-0.000000,0.500499,TRUE,FALSE,TRUE,TRUE,FALSE,FALSE,Disabled,0.000000,0.000000,0.000000,TRUE,3.097580,-6.812744,0.000000,0.000000,0.000000,0.000000,-0.001000,0.000000,0.023000,2.380000,-0.340000,-0.250000,0.239241,Hold,64.763672,50.000000,Hold,-143744.000000,143360.000000,LowGoal,0.000000,-2181.818182,Speed,0.000000,-2181.818182,Speed,Off,Off,0.000000,FALSE,0,,,,,0.000000,0.000000
12:42:52.112 PM 04/09/2016,Teleop Disabled,11,FALSE,0,NO ERROR,-0.000000,0.802081,-0.000000,0.500499,TRUE,FALSE,TRUE,TRUE,FALSE,FALSE,Disabled,0.000000,0.000000,0.000000,TRUE,3.097580,-6.812744,0.000000,0.000000,0.000000,0.000000,0.001000,0.002000,0.022000,2.380000,-0.340000,-0.250000,0.238628,Hold,64.763672,50.000000,Hold,-143744.000000,143360.000000,LowGoal,0.000000,-2181.818182,Speed,0.000000,-2181.818182,Speed,Off,Off,0.000000,FALSE,0,,,,,0.000000,0.000000
12:42:52.213 PM 04/09/2016,Teleop Disabled,10,FALSE,0,NO ERROR,-0.000000,0.802081,-0.000000,0.500499,TRUE,FALSE,TRUE,TRUE,FALSE,FALSE,Disabled,0.000000,0.000000,0.000000,TRUE,3.097580,-6.812744,0.000000,0.000000,0.000000,0.000000,0.001000,0.001000,0.022000,2.380000,-0.340000,-0.260000,0.236246,Hold,64.763672,50.000000,Hold,-143744.000000,143360.000000,LowGoal,0.000000,-2181.818182,Speed,0.000000,-2181.818182,Speed,Off,Off,0.000000,FALSE,0,,,,,0.000000,0.000000
12:42:52.315 PM 04/09/2016,Teleop Disabled,10,FALSE,0,NO ERROR,-0.000000,0.802081,-0.000000,0.500499,TRUE,FALSE,TRUE,TRUE,FALSE,FALSE,Disabled,0.000000,0.000000,0.000000,TRUE,3.097580,-6.812744,0.000000,0.000000,0.000000,0.000000,0.002000,0.000000,0.021000,2.390000,-0.340000,-0.260000,0.245799,Hold,64.763672,50.000000,Hold,-143744.000000,143360.000000,LowGoal,0.000000,-2181.818182,Speed,0.000000,-2181.818182,Speed,Off,Off,0.000000,FALSE,0,,,,,0.000000,0.000000
12:42:52.416 PM 04/09/2016,Teleop Disabled,10,FALSE,0,NO ERROR,-0.000000,0.802081,-0.000000,0.500499,TRUE,FALSE,TRUE,TRUE,FALSE,FALSE,Disabled,0.000000,0.000000,0.000000,TRUE,3.097580,-6.812744,0.000000,0.000000,0.000000,0.000000,0.000000,0.000000,0.020000,2.380000,-0.340000,-0.270000,0.252167,Hold,64.763672,50.000000,Hold,-143744.000000,143360.000000,LowGoal,0.000000,-2181.818182,Speed,0.000000,-2181.818182,Speed,Off,Off,0.000000,FALSE,0,,,,,0.000000,0.000000
12:42:52.516 PM 04/09/2016,Teleop Disabled,9,FALSE,0,NO ERROR,-0.000000,0.802081,-0.000000,0.500499,TRUE,FALSE,TRUE,TRUE,FALSE,FALSE,Disabled,0.000000,0.000000,0.000000,TRUE,3.097580,-6.812744,0.000000,0.000000,0.000000,0.000000,0.000000,0.001000,0.021000,2.380000,-0.340000,-0.270000,0.248742,Hold,64.763672,50.000000,Hold,-143744.000000,143360.000000,LowGoal,0.000000,-2181.818182,Speed,0.000000,-2181.818182,Speed,Off,Off,0.000000,FALSE,0,,,,,0.000000,0.000000
12:42:52.617 PM 04/09/2016,Teleop Disabled,10,FALSE,0,NO ERROR,-0.000000,0.802081,-0.000000,0.500499,TRUE,FALSE,TRUE,TRUE,FALSE,FALSE,Disabled,0.000000,0.000000,0.000000,TRUE,3.097580,-6.812744,0.000000,0.000000,0.000000,0.000000,0.000000,0.001000,0.021000,2.380000,-0.340000,-0.270000,0.257238,Hold,64.763672,50.000000,Hold,-143744.000000,143360.000000,LowGoal,0.000000,-2181.818182,Speed,0.000000,-2181.818182,Speed,Off,Off,0.000000,FALSE,0,,,,,0.000000,0.000000
12:42:52.718 PM 04/09/2016,Teleop Disabled,9,FALSE,0,NO ERROR,-0.000000,0.802081,-0.000000,0.500499,TRUE,FALSE,TRUE,TRUE,FALSE,FALSE,Disabled,0.000000,0.000000,0.000000,TRUE,3.097580,-6.812744,0.000000,0.000000,0.000000,0.000000,0.000000,0.000000,0.018000,2.380000,-0.340000,-0.260000,0.259118,Hold,64.763672,50.000000,Hold,-143744.000000,143360.000000,LowGoal,0.000000,-2181.818182,Speed,0.000000,-2181.818182,Speed,Off,Off,0.000000,FALSE,0,,,,,0.000000,0.000000
12:42:52.819 PM 04/09/2016,Teleop Disabled,9,FALSE,0,NO ERROR,-0.000000,0.802081,-0.000000,0.500499,TRUE,TRUE,TRUE,TRUE,FALSE,FALSE,Disabled,0.000000,0.000000,0.000000,TRUE,3.097580,-6.812744,0.000000,0.000000,0.000000,0.000000,0.000000,0.000000,0.018000,2.380000,-0.340000,-0.260000,0.276396,Hold,64.763672,50.000000,Hold,-143744.000000,143360.000000,LowGoal,0.000000,-2181.818182,Speed,0.000000,-2181.818182,Speed,Off,Off,0.000000,FALSE,0,,,,,0.000000,0.000000
12:42:52.921 PM 04/09/2016,Teleop Disabled,11,FALSE,0,NO ERROR,-0.000000,0.802081,-0.000000,0.500499,TRUE,TRUE,TRUE,TRUE,FALSE,FALSE,Disabled,0.000000,0.000000,0.000000,TRUE,3.097580,-6.812744,0.000000,0.000000,0.000000,0.000000,0.002000,0.000000,0.020000,2.380000,-0.340000,-0.260000,0.274651,Hold,64.763672,50.000000,Hold,-143744.000000,143360.000000,LowGoal,0.000000,0.000000,Speed,0.000000,0.000000,Speed,Off,Off,0.000000,FALSE,0,,,,,0.000000,0.000000
12:42:53.021 PM 04/09/2016,Teleop Disabled,9,FALSE,0,NO ERROR,-0.000000,0.802081,-0.000000,0.500499,TRUE,FALSE,TRUE,TRUE,FALSE,FALSE,Disabled,0.000000,0.000000,0.000000,TRUE,3.097580,-6.812744,0.000000,0.000000,0.000000,0.000000,0.002000,0.000000,0.020000,2.380000,-0.340000,-0.250000,0.280104,Hold,64.763916,50.000000,Hold,-143745.000000,143360.000000,LowGoal,0.000000,0.000000,Speed,0.000000,0.000000,Speed,Off,Off,0.000000,FALSE,0,,,,,0.000000,0.000000
12:42:53.122 PM 04/09/2016,Teleop Disabled,11,FALSE,0,NO ERROR,-0.000000,0.802081,-0.000000,0.500499,TRUE,FALSE,TRUE,TRUE,FALSE,FALSE,Disabled,0.000000,0.000000,0.000000,TRUE,3.097580,-6.812744,0.000000,0.000000,0.000000,0.000000,-0.003000,0.001000,0.018000,2.380000,-0.340000,-0.250000,0.298415,Hold,64.763916,50.000000,Hold,-143745.000000,143360.000000,LowGoal,0.000000,-2181.818182,Speed,0.000000,-2181.818182,Speed,Off,Off,0.000000,FALSE,0,,,,,0.000000,0.000000
12:42:53.223 PM 04/09/2016,Teleop Disabled,10,FALSE,0,NO ERROR,-0.000000,0.802081,-0.000000,0.500499,TRUE,FALSE,TRUE,TRUE,FALSE,FALSE,Disabled,0.000000,0.000000,0.000000,TRUE,3.097580,-6.812744,0.000000,0.000000,0.000000,0.000000,0.000000,0.000000,0.024000,2.380000,-0.340000,-0.250000,0.291530,Hold,64.763916,50.000000,Hold,-143745.000000,143360.000000,LowGoal,0.000000,-2181.818182,Speed,0.000000,-2181.818182,Speed,Off,Off,0.000000,FALSE,0,,,,,0.000000,0.000000
12:42:53.323 PM 04/09/2016,Teleop Disabled,11,FALSE,0,NO ERROR,-0.000000,0.802081,-0.000000,0.500499,TRUE,FALSE,TRUE,TRUE,FALSE,FALSE,Disabled,0.000000,0.000000,0.000000,TRUE,3.097580,-6.812744,0.000000,0.000000,0.000000,0.000000,-0.002000,0.001000,0.024000,2.390000,-0.340000,-0.260000,0.309314,Hold,64.763916,50.000000,Hold,-143745.000000,143360.000000,LowGoal,0.000000,-2181.818182,Speed,0.000000,-2181.818182,Speed,Off,Off,0.000000,FALSE,0,,,,,0.000000,0.000000
12:42:53.424 PM 04/09/2016,Teleop Disabled,10,FALSE,0,NO ERROR,-0.000000,0.802081,-0.000000,0.500499,TRUE,FALSE,TRUE,TRUE,FALSE,FALSE,Disabled,0.000000,0.000000,0.000000,TRUE,3.097580,-6.812744,0.000000,0.000000,0.000000,0.000000,0.000000,0.000000,0.022000,2.380000,-0.340000,-0.260000,0.320330,Hold,64.763916,50.000000,Hold,-143745.000000,143360.000000,LowGoal,0.000000,-2181.818182,Speed,0.000000,-2181.818182,Speed,Off,Off,0.000000,FALSE,0,,,,,0.000000,0.000000
12:42:53.525 PM 04/09/2016,Teleop Disabled,9,FALSE,0,NO ERROR,-0.000000,0.802081,-0.000000,0.500499,TRUE,FALSE,TRUE,TRUE,FALSE,FALSE,Disabled,0.000000,0.000000,0.000000,TRUE,3.097580,-6.812744,0.000000,0.000000,0.000000,0.000000,0.003000,0.000000,0.020000,2.380000,-0.340000,-0.260000,0.307056,Hold,64.763916,50.000000,Hold,-143745.000000,143360.000000,LowGoal,0.000000,-2181.818182,Speed,0.000000,-2181.818182,Speed,Off,Off,0.000000,FALSE,0,,,,,0.000000,0.000000
12:42:53.625 PM 04/09/2016,Teleop Disabled,11,FALSE,0,NO ERROR,-0.000000,0.802081,-0.000000,0.500499,TRUE,FALSE,TRUE,TRUE,FALSE,FALSE,Disabled,0.000000,0.000000,0.000000,TRUE,3.097580,-6.812744,0.000000,0.000000,0.000000,0.000000,0.001000,0.000000,0.018000,2.390000,-0.340000,-0.260000,0.295902,Hold,64.763916,50.000000,Hold,-143745.000000,143360.000000,LowGoal,0.000000,-2181.818182,Speed,0.000000,-2181.818182,Speed,Off,Off,0.000000,FALSE,0,,,,,0.000000,0.000000
12:42:53.727 PM 04/09/2016,Teleop Disabled,10,FALSE,0,NO ERROR,-0.000000,0.802081,-0.000000,0.500499,TRUE,FALSE,TRUE,TRUE,FALSE,FALSE,Disabled,0.000000,0.000000,0.000000,TRUE,3.097580,-6.812744,0.000000,0.000000,0.000000,0.000000,0.002000,0.000000,0.024000,2.380000,-0.340000,-0.250000,0.306746,Hold,64.763916,50.000000,Hold,-143745.000000,143360.000000,LowGoal,0.000000,-2181.818182,Speed,0.000000,-2181.818182,Speed,Off,Off,0.000000,FALSE,0,,,,,0.000000,0.000000
12:42:53.826 PM 04/09/2016,Teleop Disabled,10,FALSE,0,NO ERROR,-0.000000,0.802081,-0.000000,0.500499,TRUE,FALSE,TRUE,TRUE,FALSE,FALSE,Disabled,0.000000,0.000000,0.000000,TRUE,3.097580,-6.812744,0.000000,0.000000,0.000000,0.000000,0.002000,-0.003000,0.023000,2.390000,-0.340000,-0.250000,0.318020,Hold,64.763916,50.000000,Hold,-143745.000000,143360.000000,LowGoal,0.000000,-2181.818182,Speed,0.000000,-2181.818182,Speed,Off,Off,0.000000,FALSE,0,,,,,0.000000,0.000000
12:42:53.926 PM 04/09/2016,Teleop Disabled,11,FALSE,0,NO ERROR,-0.000000,0.802081,-0.000000,0.500499,TRUE,FALSE,TRUE,TRUE,FALSE,FALSE,Disabled,0.000000,0.000000,0.000000,TRUE,3.097580,-6.812744,0.000000,0.000000,0.000000,0.000000,0.000000,0.002000,0.022000,2.380000,-0.340000,-0.250000,0.335013,Hold,64.763916,50.000000,Hold,-143745.000000,143360.000000,LowGoal,0.000000,-2181.818182,Speed,0.000000,-2181.818182,Speed,Off,Off,0.000000,FALSE,0,,,,,0.000000,0.000000
12:42:54.027 PM 04/09/2016,Teleop Disabled,11,FALSE,0,NO ERROR,-0.000000,0.802081,-0.000000,0.500499,TRUE,FALSE,TRUE,TRUE,FALSE,FALSE,Disabled,0.000000,0.000000,0.000000,TRUE,3.097580,-6.812744,0.000000,0.000000,0.000000,0.000000,-0.001000,0.000000,0.023000,2.390000,-0.340000,-0.250000,0.325033,Hold,64.763916,50.000000,Hold,-143745.000000,143360.000000,LowGoal,0.000000,-2181.818182,Speed,0.000000,-2181.818182,Speed,Off,Off,0.000000,FALSE,0,,,,,0.000000,0.000000
12:42:54.128 PM 04/09/2016,Teleop Disabled,10,FALSE,0,NO ERROR,-0.000000,0.802081,-0.000000,0.500499,TRUE,FALSE,TRUE,TRUE,FALSE,FALSE,Disabled,0.000000,0.000000,0.000000,TRUE,3.097580,-6.812744,0.000000,0.000000,0.000000,0.000000,-0.001000,0.000000,0.022000,2.390000,-0.340000,-0.250000,0.340923,Hold,64.763916,50.000000,Hold,-143745.000000,143360.000000,LowGoal,0.000000,-2181.818182,Speed,0.000000,-2181.818182,Speed,Off,Off,0.000000,FALSE,0,,,,,0.000000,0.000000
12:42:54.227 PM 04/09/2016,Teleop Disabled,10,FALSE,0,NO ERROR,-0.000000,0.802081,-0.000000,0.500499,TRUE,FALSE,TRUE,TRUE,FALSE,FALSE,Disabled,0.000000,0.000000,0.000000,TRUE,3.097580,-6.812744,0.000000,0.000000,0.000000,0.000000,0.001000,0.000000,0.024000,2.390000,-0.350000,-0.250000,0.351912,Hold,64.763916,50.000000,Hold,-143745.000000,143360.000000,LowGoal,0.000000,-2181.818182,Speed,0.000000,-2181.818182,Speed,Off,Off,0.000000,FALSE,0,,,,,0.000000,0.000000
12:42:54.328 PM 04/09/2016,Teleop Disabled,10,FALSE,0,NO ERROR,-0.000000,0.802081,-0.000000,0.500499,TRUE,FALSE,TRUE,TRUE,FALSE,FALSE,Disabled,0.000000,0.000000,0.000000,TRUE,3.097580,-6.812744,0.000000,0.000000,0.000000,0.000000,0.000000,0.004000,0.022000,2.390000,-0.350000,-0.250000,0.351912,Hold,64.763916,50.000000,Hold,-143745.000000,143360.000000,LowGoal,0.000000,-2181.818182,Speed,0.000000,-2181.818182,Speed,Off,Off,0.000000,FALSE,0,,,,,0.000000,0.000000
12:42:54.428 PM 04/09/2016,Teleop Disabled,11,FALSE,0,NO ERROR,-0.000000,0.802081,-0.000000,0.500499,TRUE,FALSE,TRUE,TRUE,FALSE,FALSE,Disabled,0.000000,0.000000,0.000000,TRUE,3.097580,-6.812744,0.000000,0.000000,0.000000,0.000000,0.001000,0.001000,0.023000,2.390000,-0.340000,-0.250000,0.370457,Hold,64.763916,50.000000,Hold,-143745.000000,143360.000000,LowGoal,0.000000,-2181.818182,Speed,0.000000,-2181.818182,Speed,Off,Off,0.000000,FALSE,0,,,,,0.000000,0.000000
12:42:54.529 PM 04/09/2016,Teleop Disabled,11,FALSE,0,NO ERROR,-0.000000,0.802081,-0.000000,0.500499,TRUE,FALSE,TRUE,TRUE,FALSE,FALSE,Disabled,0.000000,0.000000,0.000000,TRUE,3.097580,-6.812744,0.000000,0.000000,0.000000,0.000000,-0.001000,0.001000,0.021000,2.390000,-0.340000,-0.250000,0.373201,Hold,64.763916,50.000000,Hold,-143745.000000,143360.000000,LowGoal,0.000000,-2181.818182,Speed,0.000000,-2181.818182,Speed,Off,Off,0.000000,FALSE,0,,,,,0.000000,0.000000
12:42:54.630 PM 04/09/2016,Teleop Disabled,10,FALSE,0,NO ERROR,-0.000000,0.802081,-0.000000,0.500499,TRUE,FALSE,TRUE,TRUE,FALSE,FALSE,Disabled,0.000000,0.000000,0.000000,TRUE,3.097580,-6.812744,0.000000,0.000000,0.000000,0.000000,0.000000,0.000000,0.021000,2.400000,-0.340000,-0.250000,0.375015,Hold,64.763916,50.000000,Hold,-143745.000000,143360.000000,LowGoal,0.000000,-2181.818182,Speed,0.000000,-2181.818182,Speed,Off,Off,0.000000,FALSE,0,,,,,0.000000,0.000000
12:42:54.731 PM 04/09/2016,Teleop Disabled,10,FALSE,0,NO ERROR,-0.000000,0.802081,-0.000000,0.500499,TRUE,FALSE,TRUE,TRUE,FALSE,FALSE,Disabled,0.000000,0.000000,0.000000,TRUE,3.097580,-6.812744,0.000000,0.000000,0.000000,0.000000,0.000000,0.000000,0.022000,2.400000,-0.350000,-0.250000,0.389185,Hold,64.763916,50.000000,Hold,-143745.000000,143360.000000,LowGoal,0.000000,-2181.818182,Speed,0.000000,-2181.818182,Speed,Off,Off,0.000000,FALSE,0,,,,,0.000000,0.000000
12:42:54.832 PM 04/09/2016,Teleop Disabled,11,FALSE,0,NO ERROR,-0.000000,0.802081,-0.000000,0.500499,TRUE,FALSE,TRUE,TRUE,FALSE,FALSE,Disabled,0.000000,0.000000,0.000000,TRUE,3.097580,-6.812744,0.000000,0.000000,0.000000,0.000000,-0.001000,0.000000,0.022000,2.410000,-0.350000,-0.250000,0.397516,Hold,64.763916,50.000000,Hold,-143745.000000,143360.000000,LowGoal,0.000000,-2181.818182,Speed,0.000000,-2181.818182,Speed,Off,Off,0.000000,FALSE,0,,,,,0.000000,0.000000
12:42:54.933 PM 04/09/2016,Teleop Disabled,10,FALSE,0,NO ERROR,-0.000000,0.802081,-0.000000,0.500499,TRUE,FALSE,TRUE,TRUE,FALSE,FALSE,Disabled,0.000000,0.000000,0.000000,TRUE,3.097580,-6.812744,0.000000,0.000000,0.000000,0.000000,-0.001000,0.000000,0.022000,2.410000,-0.350000,-0.250000,0.398407,Hold,64.763916,50.000000,Hold,-143745.000000,143360.000000,LowGoal,0.000000,-2181.818182,Speed,0.000000,-2181.818182,Speed,Off,Off,0.000000,FALSE,0,,,,,0.000000,0.000000
12:42:55.032 PM 04/09/2016,Teleop Disabled,10,FALSE,0,NO ERROR,-0.000000,0.802081,-0.000000,0.500499,TRUE,FALSE,TRUE,TRUE,FALSE,FALSE,Disabled,0.000000,0.000000,0.000000,TRUE,3.097580,-6.812744,0.000000,0.000000,0.000000,0.000000,0.000000,0.000000,0.023000,2.410000,-0.350000,-0.260000,0.382145,Hold,64.763916,50.000000,Hold,-143745.000000,143360.000000,LowGoal,0.000000,-2181.818182,Speed,0.000000,-2181.818182,Speed,Off,Off,0.000000,FALSE,0,,,,,0.000000,0.000000
12:42:55.133 PM 04/09/2016,Teleop Disabled,10,FALSE,0,NO ERROR,-0.000000,0.802081,-0.000000,0.500499,TRUE,FALSE,TRUE,TRUE,FALSE,FALSE,Disabled,0.000000,0.000000,0.000000,TRUE,3.097580,-6.812744,0.000000,0.000000,0.000000,0.000000,0.000000,-0.001000,0.018000,2.410000,-0.350000,-0.260000,0.395385,Hold,64.763916,50.000000,Hold,-143745.000000,143360.000000,LowGoal,0.000000,-2181.818182,Speed,0.000000,-2181.818182,Speed,Off,Off,0.000000,FALSE,0,,,,,0.000000,0.000000
12:42:55.234 PM 04/09/2016,Teleop Disabled,11,FALSE,0,NO ERROR,-0.000000,0.802081,-0.000000,0.500499,TRUE,FALSE,TRUE,TRUE,FALSE,FALSE,Disabled,0.000000,0.000000,0.000000,TRUE,3.097580,-6.812744,0.000000,0.000000,0.000000,0.000000,-0.001000,0.000000,0.022000,2.420000,-0.350000,-0.260000,0.406993,Hold,64.763916,50.000000,Hold,-143745.000000,143360.000000,LowGoal,0.000000,-2181.818182,Speed,0.000000,-2181.818182,Speed,Off,Off,0.000000,FALSE,0,,,,,0.000000,0.000000
12:42:55.335 PM 04/09/2016,Teleop Disabled,11,FALSE,0,NO ERROR,-0.000000,0.802081,-0.000000,0.500499,TRUE,FALSE,TRUE,TRUE,FALSE,FALSE,Disabled,0.000000,0.000000,0.000000,TRUE,3.097580,-6.812744,0.000000,0.000000,0.000000,0.000000,0.000000,0.000000,0.025000,2.420000,-0.350000,-0.260000,0.405812,Hold,64.763916,50.000000,Hold,-143745.000000,143360.000000,LowGoal,0.000000,-2181.818182,Speed,0.000000,-2181.818182,Speed,Off,Off,0.000000,FALSE,0,,,,,0.000000,0.000000
12:42:55.436 PM 04/09/2016,Teleop Disabled,11,FALSE,0,NO ERROR,-0.000000,0.802081,-0.000000,0.500499,TRUE,TRUE,TRUE,TRUE,FALSE,FALSE,Disabled,0.000000,0.000000,0.000000,TRUE,3.097580,-6.812744,0.000000,0.000000,0.000000,0.000000,0.000000,0.000000,0.020000,2.420000,-0.350000,-0.260000,0.431149,Hold,64.763916,50.000000,Hold,-143745.000000,143360.000000,LowGoal,0.000000,-2181.818182,Speed,0.000000,-2181.818182,Speed,Off,Off,0.000000,FALSE,0,,,,,0.000000,0.000000
12:42:55.536 PM 04/09/2016,Teleop Disabled,9,FALSE,0,NO ERROR,-0.000000,0.802081,-0.000000,0.500499,TRUE,TRUE,TRUE,TRUE,FALSE,FALSE,Disabled,0.000000,0.000000,0.000000,TRUE,3.097580,-6.812744,0.000000,0.000000,0.000000,0.000000,0.002000,-0.002000,0.018000,2.420000,-0.360000,-0.260000,0.437153,Hold,64.763916,50.000000,Hold,-143745.000000,143360.000000,LowGoal,0.000000,0.000000,Speed,0.000000,0.000000,Speed,Off,Off,0.000000,FALSE,0,,,,,0.000000,0.000000
12:42:55.637 PM 04/09/2016,Teleop Disabled,11,FALSE,0,NO ERROR,-0.000000,0.802081,-0.000000,0.500499,TRUE,FALSE,TRUE,TRUE,FALSE,FALSE,Disabled,0.000000,0.000000,0.000000,TRUE,3.097580,-6.812744,0.000000,0.000000,0.000000,0.000000,-0.001000,-0.001000,0.022000,2.410000,-0.360000,-0.260000,0.435442,Hold,64.763916,50.000000,Hold,-143745.000000,143360.000000,LowGoal,0.000000,0.000000,Speed,0.000000,0.000000,Speed,Off,Off,0.000000,FALSE,0,,,,,0.000000,0.000000
12:42:55.738 PM 04/09/2016,Teleop Disabled,10,FALSE,0,NO ERROR,-0.000000,0.802081,-0.000000,0.500499,TRUE,FALSE,TRUE,TRUE,FALSE,FALSE,Disabled,0.000000,0.000000,0.000000,TRUE,3.097580,-6.812744,0.000000,0.000000,0.000000,0.000000,0.000000,0.000000,0.020000,2.410000,-0.360000,-0.260000,0.433924,Hold,64.763916,50.000000,Hold,-143745.000000,143360.000000,LowGoal,0.000000,-2181.818182,Speed,0.000000,-2181.818182,Speed,Off,Off,0.000000,FALSE,0,,,,,0.000000,0.000000
12:42:55.839 PM 04/09/2016,Teleop Disabled,10,FALSE,0,NO ERROR,-0.000000,0.802081,-0.000000,0.500499,TRUE,FALSE,TRUE,TRUE,FALSE,FALSE,Disabled,-0.359375,0.000000,0.000000,TRUE,3.097580,-6.812744,0.000000,0.000000,0.000000,0.000000,0.000000,-0.001000,0.026000,2.410000,-0.360000,-0.260000,0.442765,Hold,64.763916,50.000000,Hold,-143745.000000,143360.000000,LowGoal,0.000000,-2181.818182,Speed,0.000000,-2181.818182,Speed,Off,Off,0.000000,FALSE,0,,,,,0.000000,0.000000
12:42:55.940 PM 04/09/2016,Teleop Disabled,9,FALSE,0,NO ERROR,-0.000000,0.802081,-0.000000,0.500499,TRUE,FALSE,TRUE,TRUE,FALSE,FALSE,Disabled,-0.359375,0.000000,0.000000,TRUE,3.097580,-6.812744,0.000000,0.000000,0.000000,0.000000,-0.001000,-0.001000,0.020000,2.410000,-0.360000,-0.260000,0.439942,Hold,64.763916,50.000000,Hold,-143745.000000,143360.000000,LowGoal,0.000000,-2181.818182,Speed,0.000000,-2181.818182,Speed,Off,Off,0.000000,FALSE,0,,,,,0.000000,0.000000
12:42:56.040 PM 04/09/2016,Teleop Disabled,11,FALSE,0,NO ERROR,-0.000000,0.802081,-0.000000,0.500499,TRUE,FALSE,TRUE,TRUE,FALSE,FALSE,Disabled,-0.359375,0.000000,0.000000,TRUE,3.097580,-6.812744,0.000000,0.000000,0.000000,0.000000,-0.001000,0.003000,0.021000,2.410000,-0.360000,-0.260000,0.436850,Hold,64.763916,50.000000,Hold,-143745.000000,143360.000000,LowGoal,0.000000,-2181.818182,Speed,0.000000,-2181.818182,Speed,Off,Off,0.000000,FALSE,0,,,,,0.000000,0.000000
12:42:56.141 PM 04/09/2016,Teleop Disabled,10,FALSE,0,NO ERROR,-0.000000,0.802081,-0.000000,0.500499,TRUE,FALSE,TRUE,TRUE,FALSE,FALSE,Disabled,-0.359375,0.000000,0.000000,TRUE,3.097580,-6.812744,0.000000,0.000000,0.000000,0.000000,0.000000,0.001000,0.018000,2.410000,-0.360000,-0.260000,0.441308,Hold,64.763916,50.000000,Hold,-143745.000000,143360.000000,LowGoal,0.000000,-2181.818182,Speed,0.000000,-2181.818182,Speed,Off,Off,0.000000,FALSE,0,,,,,0.000000,0.000000
