Time,Robot Mode,Loop Time,Error Status,Error Code,Error Source,Left Motor Output,Left Motor Encoder,Right Motor Output,Right Motor Encoder,Is Level,Is Stalled,Ball Detector Photoeye,Vision Enabled,Vision Teleop Control,Vision Auto Control,Vision Current State,Vision X Output,Vision NavX Error,Vision NavX Target,NavX Connection Status,NavX Displacement X,NavX Displacement Y,NavX Displacement Z,NavX Velocity X,NavX Velocity Y,NavX Velocity Z,NavX Acceleration X,NavX Acceleration Y,NavX Acceleration Z,NavX Pitch,NavX Yaw,NavX Roll,Gyro Angle,Roller Arm State,Roller Arm Actual,Roller Arm Desired,Shooter Arm State,Shooter Arm Actual,Shooter Arm Desired,Shooter State,Actual RPM Left,Desired RPM Left,Control Mode Left,Actual RPM Right,Desired RPM Right,Control Mode Right,Ball Shooter Cylinder,Ball Halo Cylinder,Scaler Motor Output,Scaler Solenoid Fire,Auto To Run,Auto Current File,Auto File Status,Auto Current Command,Auto Trimmed Command,Shooter Amps Left,Shooter Amps Right
01:04:07.674 PM 04/09/2016,Teleop Enabled,11,FALSE,0,NO ERROR,0.000000,0.000000,0.000000,0.000000,TRUE,FALSE,TRUE,FALSE,FALSE,FALSE,Disabled,0.000000,0.000000,0.000000,TRUE,-1.760513,2.719467,0.000000,0.000000,0.000000,0.000000,0.000000,0.002000,0.023000,2.450000,-0.070000,0.040000,0.211717,ResetBack,1.286133,-0.000049,ResetBack,-25346.000000,-0.250000,LowGoal,0.000000,-2181.818182,Speed,0.000000,-2181.818182,Speed,Off,Off,0.000000,FALSE,0,,,,,0.000000,0.000000
01:04:07.774 PM 04/09/2016,Teleop Enabled,10,FALSE,0,NO ERROR,-0.000000,0.000000,-0.000000,0.000000,TRUE,FALSE,TRUE,FALSE,FALSE,FALSE,Disabled,0.000000,0.000000,0.000000,TRUE,-1.761520,2.720062,0.000000,-0.041443,0.028473,0.000000,0.058000,0.043000,0.028000,2.460000,-0.070000,0.000000,0.203992,ResetBack,0.329102,-0.000049,ResetBack,-25282.000000,-0.250000,LowGoal,75.000000,-2181.818182,Speed,0.000000,-2181.818182,Speed,Off,Off,0.000000,FALSE,0,,,,,0.000000,0.000000
01:04:07.874 PM 04/09/2016,Teleop Enabled,9,FALSE,0,NO ERROR,-0.000000,0.000000,-0.000000,-0.006417,TRUE,FALSE,TRUE,FALSE,FALSE,FALSE,Disabled,0.000000,0.000000,0.000000,TRUE,-1.762268,2.722519,0.000000,-0.002380,0.071747,0.000000,0.018000,0.010000,0.020000,2.450000,-0.070000,0.000000,0.194993,ResetBack,0.146729,-0.000049,ResetBack,-21879.000000,-0.250000,LowGoal,487.500000,-2181.818182,Speed,225.000000,-2181.818182,Speed,Off,Off,0.000000,FALSE,0,,,,,0.000000,0.000000
01:04:07.974 PM 04/09/2016,Teleop Enabled,11,FALSE,0,NO ERROR,-0.000000,0.000000,-0.000000,-0.006417,TRUE,FALSE,TRUE,FALSE,FALSE,FALSE,Disabled,0.000000,0.000000,0.000000,TRUE,-1.761658,2.726242,0.000000,0.020264,0.062347,0.000000,-0.009000,0.011000,-0.029000,2.440000,-0.080000,0.020000,0.179457,ResetBack,0.146240,-0.000049,ResetBack,-17273.000000,-0.250000,LowGoal,1080.000000,-2181.818182,Speed,907.500000,-2181.818182,Speed,Off,Off,0.000000,FALSE,0,,,,,0.000000,0.000000
01:04:08.074 PM 04/09/2016,Teleop Enabled,10,FALSE,0,NO ERROR,-0.000000,-0.006417,-0.000000,0.012833,TRUE,FALSE,TRUE,FALSE,FALSE,FALSE,Disabled,0.000000,0.000000,0.000000,TRUE,-1.760941,2.729965,0.000000,0.030380,0.077377,0.000000,0.016000,-0.038000,0.062000,2.410000,-0.080000,0.090000,0.170310,Reset,0.145996,0.000000,ResetBack,-12460.000000,-0.250000,LowGoal,1567.500000,-2181.818182,Speed,1395.000000,-2181.818182,Speed,Off,Off,0.000000,FALSE,0,,,,,0.000000,0.000000
01:04:08.174 PM 04/09/2016,Teleop Enabled,10,FALSE,0,NO ERROR,-0.000000,-0.006417,-0.000000,0.012833,TRUE,FALSE,TRUE,FALSE,FALSE,FALSE,Disabled,0.000000,0.000000,0.000000,TRUE,-1.758545,2.734024,0.000000,0.034027,0.096359,0.000000,-0.139000,0.080000,-0.095000,2.440000,-0.080000,0.040000,0.166458,Hold,0.814697,0.000000,ResetBack,-12460.000000,-0.250000,LowGoal,1980.000000,-2181.818182,Speed,1747.500000,-2181.818182,Speed,Off,Off,0.000000,FALSE,0,,,,,0.000000,0.000000
01:04:08.274 PM 04/09/2016,Teleop Enabled,11,FALSE,0,NO ERROR,-0.000000,-0.006417,-0.000000,0.012833,TRUE,FALSE,TRUE,FALSE,FALSE,FALSE,Disabled,0.000000,0.000000,0.000000,TRUE,-1.759018,2.740250,0.000000,-0.001236,0.133926,0.000000,-0.001000,-0.049000,-0.023000,2.500000,-0.070000,-0.080000,0.178173,Hold,0.942383,0.000000,ResetBack,-8350.000000,-0.250000,LowGoal,2190.000000,-2181.818182,Speed,1972.500000,-2181.818182,Speed,Off,Off,0.000000,FALSE,0,,,,,0.000000,0.000000
01:04:08.374 PM 04/09/2016,Teleop Enabled,11,FALSE,0,NO ERROR,-0.000000,-0.006417,-0.000000,0.012833,TRUE,FALSE,TRUE,FALSE,FALSE,FALSE,Disabled,0.000000,0.000000,0.000000,TRUE,-1.758987,2.745758,0.000000,0.000000,0.097168,0.000000,0.015000,-0.019000,-0.016000,2.500000,-0.070000,-0.170000,0.181068,Hold,0.942139,0.000000,ResetBack,-6181.000000,-0.250000,LowGoal,2182.500000,-2181.818182,Speed,2100.000000,-2181.818182,Speed,Off,Off,0.000000,FALSE,0,,,,,0.000000,0.000000
01:04:08.474 PM 04/09/2016,Teleop Enabled,11,FALSE,0,NO ERROR,-0.000000,-0.006417,-0.000000,0.012833,TRUE,FALSE,TRUE,FALSE,FALSE,FALSE,Disabled,0.000000,0.000000,0.000000,TRUE,-1.760651,2.746277,0.000000,-0.068390,0.030762,0.000000,-0.011000,0.080000,-0.192000,2.570000,-0.070000,-0.230000,0.185946,Hold,0.942139,0.000000,ResetBack,-4066.000000,-0.250000,LowGoal,2145.000000,-2181.818182,Speed,2070.000000,-2181.818182,Speed,Off,Off,0.000000,FALSE,0,,,,,0.000000,0.000000
01:04:08.574 PM 04/09/2016,Teleop Enabled,11,FALSE,0,NO ERROR,-0.000000,-0.012833,-0.000000,0.012833,TRUE,FALSE,TRUE,FALSE,FALSE,FALSE,Disabled,0.000000,0.000000,0.000000,TRUE,-1.763428,2.751205,0.000000,-0.020721,0.158264,0.000000,0.055000,0.190000,-0.105000,2.480000,-0.070000,-0.150000,0.197469,Hold,0.942139,0.000000,ResetBack,-3445.000000,-0.250000,LowGoal,2122.500000,-2181.818182,Speed,2032.500000,-2181.818182,Speed,Off,Off,0.000000,FALSE,0,,,,,0.000000,0.000000
01:04:08.674 PM 04/09/2016,Teleop Enabled,10,FALSE,0,NO ERROR,-0.000000,-0.012833,-0.000000,0.012833,TRUE,FALSE,TRUE,FALSE,FALSE,FALSE,Disabled,0.000000,0.000000,0.000000,TRUE,-1.767166,2.765717,0.000000,-0.124298,0.381973,0.000000,-0.030000,0.155000,-0.045000,2.470000,-0.070000,-0.180000,0.204553,Hold,0.942139,0.000000,ResetBack,-2468.000000,-0.250000,LowGoal,2107.500000,-2181.818182,Speed,2032.500000,-2181.818182,Speed,Off,Off,0.000000,FALSE,0,,,,,0.000000,0.000000
01:04:08.774 PM 04/09/2016,Teleop Enabled,10,FALSE,0,NO ERROR,-0.000000,-0.012833,-0.000000,0.012833,TRUE,FALSE,TRUE,FALSE,FALSE,FALSE,Disabled,0.000000,0.000000,0.000000,TRUE,-1.773544,2.788239,0.000000,-0.123611,0.457825,0.000000,-0.043000,-0.078000,0.147000,2.510000,-0.070000,-0.180000,0.213246,Hold,0.942139,0.000000,ResetBack,-1378.000000,-0.250000,LowGoal,2107.500000,-2181.818182,Speed,2047.500000,-2181.818182,Speed,Off,Off,0.000000,FALSE,0,,,,,0.000000,0.000000
01:04:08.874 PM 04/09/2016,Teleop Enabled,11,FALSE,0,NO ERROR,-0.000000,-0.012833,-0.000000,0.012833,TRUE,FALSE,TRUE,FALSE,FALSE,FALSE,Disabled,0.000000,0.000000,0.000000,TRUE,-1.779984,2.807175,0.000000,-0.116623,0.291153,0.000000,0.058000,-0.364000,0.242000,2.550000,-0.070000,-0.100000,0.201211,Hold,0.942139,0.000000,ResetBack,-1378.000000,-0.250000,LowGoal,2122.500000,-2181.818182,Speed,2055.000000,-2181.818182,Speed,Off,Off,0.000000,FALSE,0,,,,,0.000000,0.000000
01:04:08.974 PM 04/09/2016,Teleop Enabled,11,FALSE,0,NO ERROR,-0.000000,-0.012833,-0.000000,0.012833,TRUE,FALSE,TRUE,FALSE,FALSE,FALSE,Disabled,0.000000,0.000000,0.000000,TRUE,-1.783844,2.811356,0.000000,-0.056793,-0.052322,0.000000,0.073000,-0.285000,0.158000,2.620000,-0.070000,-0.170000,0.223154,Hold,0.942139,0.000000,Reset,-570.000000,2.000000,LowGoal,2137.500000,-2181.818182,Speed,2047.500000,-2181.818182,Speed,Off,Off,0.000000,FALSE,0,,,,,0.000000,0.000000
01:04:09.074 PM 04/09/2016,Teleop Enabled,11,FALSE,0,NO ERROR,-0.000000,-0.012833,-0.000000,0.012833,TRUE,FALSE,TRUE,FALSE,FALSE,FALSE,Disabled,0.000000,0.000000,0.000000,TRUE,-1.784348,2.801147,0.000000,0.041794,-0.284882,0.000000,0.181000,-0.077000,0.101000,2.480000,-0.070000,-0.060000,0.236304,Hold,0.942139,0.000000,Hold,-73.000000,2.000000,LowGoal,2130.000000,-2181.818182,Speed,2055.000000,-2181.818182,Speed,Off,Off,0.000000,FALSE,0,,,,,0.000000,0.000000
01:04:09.174 PM 04/09/2016,Teleop Enabled,9,FALSE,0,NO ERROR,-0.000000,-0.012833,-0.000000,0.012833,TRUE,FALSE,TRUE,FALSE,FALSE,FALSE,Disabled,0.000000,0.000000,0.000000,TRUE,-1.777069,2.782349,0.000000,0.123199,-0.280975,0.000000,-0.125000,0.168000,-0.075000,2.500000,-0.070000,-0.070000,0.233133,Hold,0.942139,0.000000,Hold,-74.000000,2.000000,LowGoal,2115.000000,-2181.818182,Speed,2070.000000,-2181.818182,Speed,Off,Off,0.000000,FALSE,0,,,,,0.000000,0.000000
01:04:09.274 PM 04/09/2016,Teleop Enabled,10,FALSE,0,NO ERROR,-0.000000,-0.012833,-0.000000,0.012833,TRUE,FALSE,TRUE,FALSE,FALSE,FALSE,Disabled,0.000000,0.000000,0.000000,TRUE,-1.774048,2.773956,0.000000,0.036301,-0.084778,0.000000,-0.015000,0.277000,-0.035000,2.390000,-0.070000,0.000000,0.238562,Hold,0.942139,0.000000,Hold,-76.000000,2.000000,LowGoal,2122.500000,-2181.818182,Speed,2062.500000,-2181.818182,Speed,Off,Off,0.000000,FALSE,0,,,,,0.000000,0.000000
01:04:09.374 PM 04/09/2016,Teleop Enabled,11,FALSE,0,NO ERROR,-0.000000,-0.012833,-0.000000,0.012833,TRUE,FALSE,TRUE,FALSE,FALSE,FALSE,Disabled,0.000000,0.000000,0.000000,TRUE,-1.773117,2.777130,0.000000,0.006744,0.143646,0.000000,-0.019000,0.152000,-0.139000,2.450000,-0.070000,-0.030000,0.238012,Hold,0.942139,0.000000,Hold,-76.000000,2.000000,LowGoal,2130.000000,-2181.818182,Speed,2055.000000,-2181.818182,Speed,Off,Off,0.000000,FALSE,0,,,,,0.000000,0.000000
01:04:09.474 PM 04/09/2016,Teleop Enabled,10,FALSE,0,NO ERROR,-0.000000,-0.012833,-0.000000,0.012833,TRUE,FALSE,TRUE,FALSE,FALSE,FALSE,Disabled,0.000000,0.000000,0.000000,TRUE,-1.774750,2.786850,0.000000,-0.058914,0.208252,0.000000,-0.045000,-0.064000,0.099000,2.410000,-0.070000,0.000000,0.248522,Hold,0.942139,0.000000,Hold,-76.000000,2.000000,LowGoal,2122.500000,-2181.818182,Speed,2062.500000,-2181.818182,Speed,Off,Off,0.000000,FALSE,0,,,,,0.000000,0.000000
01:04:09.576 PM 04/09/2016,Teleop Enabled,11,FALSE,0,NO ERROR,-0.000000,-0.012833,-0.000000,0.012833,TRUE,FALSE,TRUE,FALSE,FALSE,FALSE,Disabled,0.000000,0.000000,0.000000,TRUE,-1.778046,2.794785,0.000000,-0.054398,0.102295,0.000000,0.090000,-0.271000,0.193000,2.530000,-0.080000,-0.040000,0.256481,Hold,0.942139,0.000000,Hold,-77.000000,2.000000,LowGoal,2130.000000,-2181.818182,Speed,2070.000000,-2181.818182,Speed,Off,Off,0.000000,FALSE,0,,,,,0.000000,0.000000
01:04:09.677 PM 04/09/2016,Teleop Enabled,9,FALSE,0,NO ERROR,-0.000000,-0.012833,-0.000000,0.012833,TRUE,FALSE,TRUE,FALSE,FALSE,FALSE,Disabled,0.000000,0.000000,0.000000,TRUE,-1.777618,2.791107,0.000000,0.053360,-0.209885,0.000000,0.090000,-0.271000,0.193000,2.460000,-0.080000,0.010000,0.260712,Hold,0.942139,0.000000,Hold,-77.000000,2.000000,LowGoal,2130.000000,-2181.818182,Speed,2085.000000,-2181.818182,Speed,Off,Off,0.000000,FALSE,0,,,,,0.000000,0.000000
01:04:09.776 PM 04/09/2016,Teleop Enabled,9,FALSE,0,NO ERROR,-0.000000,-0.012833,-0.000000,0.012833,TRUE,FALSE,TRUE,FALSE,FALSE,FALSE,Disabled,0.000000,0.000000,0.000000,TRUE,-1.774368,2.773117,0.000000,0.069565,-0.442612,0.000000,0.096000,-0.138000,0.079000,2.540000,-0.070000,-0.070000,0.243375,Hold,0.942139,0.000000,Hold,-77.000000,2.000000,LowGoal,2130.000000,-2181.818182,Speed,2077.500000,-2181.818182,Speed,Off,Off,0.000000,FALSE,0,,,,,0.000000,0.000000
01:04:09.877 PM 04/09/2016,Teleop Enabled,11,FALSE,0,NO ERROR,-0.000000,-0.012833,-0.000000,0.012833,TRUE,FALSE,TRUE,FALSE,FALSE,FALSE,Disabled,0.000000,0.000000,0.000000,TRUE,-1.767197,2.747665,0.000000,0.210449,-0.533859,0.000000,0.169000,0.008000,-0.015000,2.470000,-0.080000,0.010000,0.252136,Hold,0.942139,0.000000,Hold,-78.000000,2.000000,LowGoal,2130.000000,-2181.818182,Speed,2077.500000,-2181.818182,Speed,Off,Off,0.000000,FALSE,0,,,,,0.000000,0.000000
01:04:09.978 PM 04/09/2016,Teleop Enabled,11,FALSE,0,NO ERROR,-0.000000,-0.012833,-0.000000,0.012833,TRUE,FALSE,TRUE,FALSE,FALSE,FALSE,Disabled,0.000000,0.000000,0.000000,TRUE,-1.754456,2.721970,0.000000,0.243286,-0.474686,0.000000,-0.135000,0.177000,-0.196000,2.470000,-0.080000,0.010000,0.243220,Hold,0.942139,0.000000,Hold,-78.000000,2.000000,LowGoal,2137.500000,-2181.818182,Speed,2070.000000,-2181.818182,Speed,Off,Off,0.000000,FALSE,0,,,,,0.000000,0.000000
01:04:10.078 PM 04/09/2016,Teleop Enabled,10,FALSE,0,NO ERROR,-0.000000,-0.012833,-0.000000,0.012833,TRUE,FALSE,TRUE,FALSE,FALSE,FALSE,Disabled,0.000000,0.000000,0.000000,TRUE,-1.744949,2.701508,0.000000,0.120850,-0.223282,0.000000,-0.135000,0.177000,-0.196000,2.420000,-0.080000,0.020000,0.248611,Hold,0.942139,0.000000,Hold,-78.000000,2.000000,LowGoal,2145.000000,-2181.818182,Speed,2062.500000,-2181.818182,Speed,Off,Off,0.000000,FALSE,0,,,,,0.000000,0.000000
01:04:10.179 PM 04/09/2016,Teleop Enabled,11,FALSE,0,NO ERROR,-0.000000,-0.012833,-0.000000,0.012833,TRUE,FALSE,TRUE,FALSE,FALSE,FALSE,Disabled,0.000000,0.000000,0.000000,TRUE,-1.737503,2.696289,0.000000,0.173431,-0.043762,0.000000,0.003000,0.261000,-0.179000,2.470000,-0.070000,-0.060000,0.248233,Hold,0.942139,0.000000,Hold,-78.000000,2.000000,LowGoal,2145.000000,-2181.818182,Speed,2070.000000,-2181.818182,Speed,Off,Off,0.000000,FALSE,0,,,,,0.000000,0.000000
01:04:10.279 PM 04/09/2016,Teleop Enabled,11,FALSE,0,NO ERROR,-0.000000,-0.012833,-0.000000,0.012833,TRUE,FALSE,TRUE,FALSE,FALSE,FALSE,Disabled,0.000000,0.000000,0.000000,TRUE,-1.730286,2.698242,0.000000,0.103271,0.092316,0.000000,-0.025000,0.151000,-0.084000,2.420000,-0.080000,0.050000,0.246484,Hold,0.942139,0.000000,Hold,-78.000000,2.000000,LowGoal,2137.500000,-2181.818182,Speed,2070.000000,-2181.818182,Speed,Off,Off,0.000000,FALSE,0,,,,,0.000000,0.000000
01:04:10.380 PM 04/09/2016,Teleop Enabled,10,FALSE,0,NO ERROR,-0.000000,-0.012833,-0.000000,0.012833,TRUE,FALSE,TRUE,FALSE,FALSE,FALSE,Disabled,0.000000,0.000000,0.000000,TRUE,-1.726959,2.704880,0.000000,0.051620,0.144760,0.000000,-0.097000,0.100000,-0.145000,2.440000,-0.070000,-0.030000,0.256171,Hold,0.942139,0.000000,Hold,-78.000000,2.000000,LowGoal,2137.500000,-2181.818182,Speed,2077.500000,-2181.818182,Speed,Off,Off,0.000000,FALSE,0,,,,,0.000000,0.000000
01:04:10.481 PM 04/09/2016,Teleop Enabled,11,FALSE,0,NO ERROR,-0.000000,-0.012833,-0.000000,0.012833,TRUE,FALSE,TRUE,FALSE,FALSE,FALSE,Disabled,0.000000,0.000000,0.000000,TRUE,-1.723663,2.709091,0.000000,0.083008,0.022537,0.000000,0.040000,-0.184000,0.046000,2.490000,-0.080000,0.000000,0.255156,Hold,0.942139,0.000000,Hold,-78.000000,2.000000,LowGoal,2137.500000,-2181.818182,Speed,2077.500000,-2181.818182,Speed,Off,Off,0.000000,FALSE,0,,,,,0.000000,0.000000
01:04:10.581 PM 04/09/2016,Teleop Enabled,10,FALSE,0,NO ERROR,-0.000000,-0.012833,-0.000000,0.012833,TRUE,FALSE,TRUE,FALSE,FALSE,FALSE,Disabled,0.000000,0.000000,0.000000,TRUE,-1.723068,2.705231,0.000000,-0.016663,-0.139160,0.000000,0.040000,-0.184000,0.046000,2.450000,-0.080000,-0.010000,0.256285,Hold,0.942139,0.000000,Hold,-78.000000,2.000000,LowGoal,2145.000000,-2181.818182,Speed,2070.000000,-2181.818182,Speed,Off,Off,0.000000,FALSE,0,,,,,0.000000,0.000000
01:04:10.680 PM 04/09/2016,Teleop Enabled,9,FALSE,0,NO ERROR,-0.000000,-0.012833,-0.000000,0.012833,TRUE,FALSE,TRUE,FALSE,FALSE,FALSE,Disabled,0.000000,0.000000,0.000000,TRUE,-1.723251,2.693939,0.000000,0.016312,-0.278412,0.000000,0.028000,-0.144000,0.196000,2.580000,-0.080000,-0.080000,0.247899,Hold,0.942139,0.000000,Hold,-78.000000,2.000000,LowGoal,2145.000000,-2181.818182,Speed,2085.000000,-2181.818182,Speed,Off,Off,0.000000,FALSE,0,,,,,0.000000,0.000000
01:04:10.781 PM 04/09/2016,Teleop Enabled,10,FALSE,0,NO ERROR,-0.000000,-0.012833,-0.000000,0.012833,TRUE,FALSE,TRUE,FALSE,FALSE,FALSE,Disabled,0.000000,0.000000,0.000000,TRUE,-1.723251,2.693939,0.000000,0.016312,-0.278412,0.000000,0.086000,-0.150000,0.156000,2.510000,-0.080000,-0.020000,0.248453,Hold,0.942139,0.000000,Hold,-78.000000,2.000000,LowGoal,2145.000000,-2181.818182,Speed,2085.000000,-2181.818182,Speed,Off,Off,0.000000,FALSE,0,,,,,0.000000,0.000000
01:04:10.882 PM 04/09/2016,Teleop Enabled,9,FALSE,0,NO ERROR,-0.000000,-0.012833,-0.000000,0.012833,TRUE,FALSE,TRUE,FALSE,FALSE,FALSE,Disabled,0.000000,0.000000,0.000000,TRUE,-1.718369,2.672607,0.000000,0.120361,-0.390564,0.000000,0.045000,0.045000,0.069000,2.420000,-0.090000,0.030000,0.253809,Hold,0.942139,0.000000,Hold,-78.000000,2.000000,LowGoal,2137.500000,-2181.818182,Speed,2077.500000,-2181.818182,Speed,Off,Off,0.000000,FALSE,0,,,,,0.000000,0.000000
01:04:10.983 PM 04/09/2016,Teleop Enabled,9,FALSE,0,NO ERROR,-0.000000,-0.012833,-0.000000,0.012833,TRUE,FALSE,TRUE,FALSE,FALSE,FALSE,Disabled,0.000000,0.000000,0.000000,TRUE,-1.711044,2.654221,0.000000,0.160461,-0.346786,0.000000,0.007000,0.063000,-0.034000,2.440000,-0.080000,0.110000,0.253809,Hold,0.942139,0.000000,Hold,-78.000000,2.000000,LowGoal,2115.000000,-2181.818182,Speed,2092.500000,-2181.818182,Speed,Off,Off,0.000000,FALSE,0,,,,,0.000000,0.000000
01:04:11.084 PM 04/09/2016,Teleop Enabled,10,FALSE,0,NO ERROR,-0.000000,-0.012833,-0.000000,0.012833,TRUE,FALSE,TRUE,FALSE,FALSE,FALSE,Disabled,0.000000,0.000000,0.000000,TRUE,-1.713409,2.639801,0.000000,-0.101212,-0.225601,0.000000,-0.032000,0.214000,-0.167000,2.390000,-0.080000,0.040000,0.238414,Hold,0.942139,58.000000,Hold,-78.000000,2.000000,LowGoal,2115.000000,-2181.818182,Speed,2092.500000,-2181.818182,Speed,Off,Off,0.000000,FALSE,0,,,,,0.000000,0.000000
01:04:11.185 PM 04/09/2016,Teleop Enabled,8,FALSE,0,NO ERROR,-0.000000,-0.012833,-0.000000,0.012833,TRUE,FALSE,TRUE,FALSE,FALSE,FALSE,Disabled,0.000000,0.000000,0.000000,TRUE,-1.718781,2.634369,0.000000,-0.085526,-0.048172,0.000000,-0.002000,0.105000,-0.128000,2.390000,-0.090000,0.120000,0.258009,Hold,3.855957,58.000000,Hold,-78.000000,2.000000,LowGoal,2122.500000,-2181.818182,Speed,2077.500000,-2181.818182,Speed,Off,Off,0.000000,FALSE,0,,,,,0.000000,0.000000
01:04:11.286 PM 04/09/2016,Teleop Enabled,11,FALSE,0,NO ERROR,-0.000000,-0.006417,-0.000000,0.032083,TRUE,FALSE,TRUE,FALSE,FALSE,FALSE,Disabled,0.000000,0.000000,0.000000,TRUE,-1.722183,2.635315,0.000000,0.000000,0.056992,0.000000,-0.001000,0.073000,-0.206000,2.250000,-0.130000,0.190000,0.204574,Hold,7.943604,58.000000,Hold,-78.000000,2.000000,LowGoal,2145.000000,-2181.818182,Speed,2070.000000,-2181.818182,Speed,Off,Off,0.000000,FALSE,0,,,,,0.000000,0.000000
01:04:11.387 PM 04/09/2016,Teleop Enabled,12,FALSE,0,NO ERROR,-0.000000,-0.006417,-0.000000,0.032083,TRUE,FALSE,TRUE,FALSE,FALSE,FALSE,Disabled,0.000000,0.000000,0.000000,TRUE,-1.721313,2.638870,0.000000,0.036591,0.048721,0.000000,0.049000,-0.048000,-0.071000,2.440000,-0.100000,0.100000,0.218554,Hold,12.029297,58.000000,Hold,-79.000000,2.000000,LowGoal,2145.000000,-2181.818182,Speed,2070.000000,-2181.818182,Speed,Off,Off,0.000000,FALSE,0,,,,,0.000000,0.000000
01:04:11.488 PM 04/09/2016,Teleop Enabled,10,FALSE,0,NO ERROR,-0.000000,-0.006417,-0.000000,0.032083,TRUE,FALSE,TRUE,FALSE,FALSE,FALSE,Disabled,0.000000,0.000000,0.000000,TRUE,-1.718750,2.639542,0.000000,0.057205,-0.022324,0.000000,-0.018000,-0.169000,0.099000,2.400000,-0.110000,0.140000,0.209910,Hold,19.260498,58.000000,Hold,-79.000000,2.000000,LowGoal,2122.500000,-2181.818182,Speed,2085.000000,-2181.818182,Speed,Off,Off,0.000000,FALSE,0,,,,,0.000000,0.000000
01:04:11.588 PM 04/09/2016,Teleop Enabled,11,FALSE,0,NO ERROR,-0.000000,-0.006417,-0.000000,0.032083,TRUE,FALSE,TRUE,FALSE,FALSE,FALSE,Disabled,0.000000,0.000000,0.000000,TRUE,-1.718353,2.634247,0.000000,-0.006073,-0.150360,0.000000,-0.022000,-0.060000,0.219000,2.460000,-0.120000,0.150000,0.222190,Hold,24.933838,58.000000,Hold,-79.000000,2.000000,LowGoal,2107.500000,-2181.818182,Speed,2085.000000,-2181.818182,Speed,Off,Off,0.000000,FALSE,0,,,,,0.000000,0.000000
01:04:11.689 PM 04/09/2016,Teleop Enabled,11,FALSE,0,NO ERROR,-0.000000,-0.006417,-0.000000,0.032083,TRUE,FALSE,TRUE,FALSE,FALSE,FALSE,Disabled,0.000000,0.000000,0.000000,TRUE,-1.720291,2.626205,0.000000,-0.077271,-0.143570,0.000000,-0.013000,0.083000,0.129000,2.360000,-0.120000,0.150000,0.221453,Hold,32.811279,58.000000,Hold,-79.000000,2.000000,LowGoal,2122.500000,-2181.818182,Speed,2070.000000,-2181.818182,Speed,Off,Off,0.000000,FALSE,0,,,,,0.000000,0.000000
01:04:11.790 PM 04/09/2016,Teleop Enabled,10,FALSE,0,NO ERROR,-0.000000,-0.006417,-0.000000,0.032083,TRUE,FALSE,TRUE,FALSE,FALSE,FALSE,Disabled,0.000000,0.000000,0.000000,TRUE,-1.723404,2.620377,0.000000,-0.004944,-0.055420,0.000000,0.055000,0.138000,0.189000,2.450000,-0.120000,0.060000,0.231374,Hold,42.520264,58.000000,Hold,-79.000000,2.000000,LowGoal,2130.000000,-2181.818182,Speed,2077.500000,-2181.818182,Speed,Off,Off,0.000000,FALSE,0,,,,,0.000000,0.000000
01:04:11.891 PM 04/09/2016,Teleop Enabled,10,FALSE,0,NO ERROR,-0.000000,-0.012833,-0.000000,0.019250,TRUE,FALSE,TRUE,FALSE,FALSE,FALSE,Disabled,0.000000,0.000000,0.000000,TRUE,-1.723236,2.621780,0.000000,-0.021988,0.071762,0.000000,-0.108000,0.099000,-0.001000,2.410000,-0.120000,0.150000,0.237753,Hold,53.514893,58.000000,Hold,-79.000000,2.000000,LowGoal,2130.000000,-2181.818182,Speed,2092.500000,-2181.818182,Speed,Off,Off,0.000000,FALSE,0,,,,,0.000000,0.000000
01:04:11.991 PM 04/09/2016,Teleop Enabled,11,FALSE,0,NO ERROR,-0.000000,-0.012833,-0.000000,0.000000,TRUE,FALSE,TRUE,FALSE,FALSE,FALSE,Disabled,0.000000,0.000000,0.000000,TRUE,-1.728271,2.628738,0.000000,-0.143204,0.189301,0.000000,-0.154000,-0.111000,-0.041000,2.440000,-0.110000,0.030000,0.263882,Hold,63.394775,58.000000,Hold,-79.000000,2.000000,LowGoal,2122.500000,-2181.818182,Speed,2077.500000,-2181.818182,Speed,Off,Off,0.000000,FALSE,0,,,,,0.000000,0.000000
01:04:12.092 PM 04/09/2016,Teleop Enabled,11,FALSE,0,NO ERROR,-0.000000,0.019250,-0.000000,0.070583,TRUE,FALSE,TRUE,FALSE,FALSE,FALSE,Disabled,0.000000,0.000000,0.000000,TRUE,-1.738434,2.640717,0.000000,-0.174194,0.247864,0.000000,-0.041000,0.166000,0.105000,2.220000,-0.230000,0.220000,0.245678,Hold,62.982178,58.000000,Hold,-81.000000,2.000000,LowGoal,2137.500000,-2181.818182,Speed,2085.000000,-2181.818182,Speed,Off,Off,0.000000,FALSE,0,,,,,0.000000,0.000000
01:04:12.193 PM 04/09/2016,Teleop Enabled,10,FALSE,0,NO ERROR,-0.000000,0.019250,-0.000000,0.121916,TRUE,FALSE,TRUE,FALSE,FALSE,FALSE,Disabled,0.000000,0.000000,0.000000,TRUE,-1.746872,2.653763,0.000000,0.000000,0.235672,0.000000,0.094000,-0.187000,-0.204000,2.380000,-0.260000,-0.140000,0.126831,Hold,61.936523,58.000000,Hold,-81.000000,2.000000,LowGoal,2130.000000,-2181.818182,Speed,2092.500000,-2181.818182,Speed,Off,Off,0.000000,FALSE,0,,,,,0.000000,0.000000
01:04:12.294 PM 04/09/2016,Teleop Enabled,11,FALSE,0,NO ERROR,-0.000000,0.019250,-0.000000,0.121916,TRUE,FALSE,TRUE,FALSE,FALSE,FALSE,Disabled,0.000000,0.000000,0.000000,TRUE,-1.746979,2.662994,0.000000,-0.029999,0.170334,0.000000,-0.134000,-0.105000,0.003000,2.560000,-0.190000,0.070000,0.209555,Hold,61.914795,58.000000,Hold,-81.000000,2.000000,LowGoal,2122.500000,-2181.818182,Speed,2092.500000,-2181.818182,Speed,Off,Off,0.000000,FALSE,0,,,,,0.000000,0.000000
01:04:12.394 PM 04/09/2016,Teleop Enabled,11,FALSE,0,NO ERROR,-0.000000,0.019250,-0.000000,0.115500,TRUE,FALSE,TRUE,FALSE,FALSE,FALSE,Disabled,0.000000,0.000000,0.000000,TRUE,-1.747391,2.666183,0.000000,0.017456,0.001846,0.000000,0.089000,-0.130000,0.117000,2.470000,-0.220000,0.000000,0.210437,Hold,61.840576,58.000000,Hold,-82.000000,2.000000,LowGoal,2122.500000,-2181.818182,Speed,2085.000000,-2181.818182,Speed,Off,Off,0.000000,FALSE,0,,,,,0.000000,0.000000
01:04:12.495 PM 04/09/2016,Teleop Enabled,9,FALSE,0,NO ERROR,-0.000000,0.019250,-0.000000,0.109083,TRUE,FALSE,TRUE,FALSE,FALSE,FALSE,Disabled,0.000000,0.000000,0.000000,TRUE,-1.743958,2.661179,0.000000,0.087967,-0.173340,0.000000,-0.079000,-0.085000,0.257000,2.460000,-0.200000,0.120000,0.239055,Hold,61.840576,58.000000,Hold,-82.000000,2.000000,LowGoal,2130.000000,-2181.818182,Speed,2070.000000,-2181.818182,Speed,Off,Off,0.000000,FALSE,0,,,,,0.000000,0.000000
01:04:12.596 PM 04/09/2016,Teleop Enabled,10,FALSE,0,NO ERROR,-0.000000,0.012833,-0.000000,0.109083,TRUE,FALSE,TRUE,FALSE,FALSE,FALSE,Disabled,0.000000,0.000000,0.000000,TRUE,-1.741150,2.651505,0.000000,0.040710,-0.189255,0.000000,0.008000,0.098000,0.214000,2.520000,-0.200000,0.000000,0.247052,Hold,61.840332,58.000000,Hold,-82.000000,2.000000,LowGoal,2130.000000,-2181.818182,Speed,2085.000000,-2181.818182,Speed,Off,Off,0.000000,FALSE,0,,,,,0.000000,0.000000
01:04:12.696 PM 04/09/2016,Teleop Enabled,10,FALSE,0,NO ERROR,-0.000000,0.012833,-0.000000,0.109083,TRUE,FALSE,TRUE,FALSE,FALSE,FALSE,Disabled,0.000000,0.000000,0.000000,TRUE,-1.737427,2.643936,0.000000,0.112656,-0.119019,0.000000,0.111000,0.074000,0.049000,2.460000,-0.200000,0.070000,0.246673,Hold,61.840332,58.000000,Hold,-82.000000,2.000000,LowGoal,2130.000000,-2181.818182,Speed,2092.500000,-2181.818182,Speed,Off,Off,0.000000,FALSE,0,,,,,0.000000,0.000000
01:04:12.796 PM 04/09/2016,Teleop Enabled,10,FALSE,0,NO ERROR,-0.000000,0.012833,-0.000000,0.109083,TRUE,FALSE,TRUE,FALSE,FALSE,FALSE,Disabled,0.000000,0.000000,0.000000,TRUE,-1.729172,2.640533,0.000000,0.166016,-0.017792,0.000000,-0.116000,0.216000,-0.105000,2.480000,-0.200000,0.040000,0.249778,Hold,61.840332,58.000000,Hold,-82.000000,2.000000,LowGoal,2130.000000,-2181.818182,Speed,2085.000000,-2181.818182,Speed,Off,Off,0.000000,FALSE,0,,,,,0.000000,0.000000
01:04:12.896 PM 04/09/2016,Teleop Enabled,10,FALSE,0,NO ERROR,-0.000000,0.012833,-0.000000,0.109083,TRUE,FALSE,TRUE,FALSE,FALSE,FALSE,Disabled,0.000000,0.000000,0.000000,TRUE,-1.723892,2.645203,0.000000,0.073181,0.160706,0.000000,-0.054000,0.216000,-0.100000,2.380000,-0.210000,0.100000,0.237495,Hold,61.840088,58.000000,Hold,-82.000000,2.000000,LowGoal,2130.000000,-2181.818182,Speed,2077.500000,-2181.818182,Speed,Off,Off,0.000000,FALSE,0,,,,,0.000000,0.000000
01:04:12.996 PM 04/09/2016,Teleop Enabled,10,FALSE,0,NO ERROR,-0.000000,0.012833,-0.000000,0.109083,TRUE,FALSE,TRUE,FALSE,FALSE,FALSE,Disabled,0.000000,0.000000,0.000000,TRUE,-1.721497,2.658722,0.000000,0.030975,0.334961,0.000000,-0.004000,0.123000,-0.084000,2.440000,-0.200000,0.060000,0.240060,Hold,61.840088,58.000000,Hold,-82.000000,2.000000,LowGoal,2122.500000,-2181.818182,Speed,2077.500000,-2181.818182,Speed,Off,Off,0.000000,FALSE,0,,,,,0.000000,0.000000
01:04:13.097 PM 04/09/2016,Teleop Enabled,11,FALSE,0,NO ERROR,-0.000000,0.012833,-0.000000,0.109083,TRUE,FALSE,TRUE,FALSE,FALSE,FALSE,Disabled,0.000000,0.000000,0.000000,TRUE,-1.719345,2.678406,0.000000,0.060242,0.418137,0.000000,0.091000,-0.036000,-0.078000,2.440000,-0.210000,0.150000,0.250573,Hold,61.840088,58.000000,Hold,-82.000000,2.000000,LowGoal,2130.000000,-2181.818182,Speed,2092.500000,-2181.818182,Speed,Off,Off,0.000000,FALSE,0,,,,,0.000000,0.000000
01:04:13.197 PM 04/09/2016,Teleop Enabled,10,FALSE,0,NO ERROR,-0.000000,0.012833,-0.000000,0.109083,TRUE,FALSE,TRUE,FALSE,FALSE,FALSE,Disabled,0.000000,0.000000,0.000000,TRUE,-1.716431,2.700668,0.000000,0.010162,0.321655,0.000000,0.061000,-0.140000,0.091000,2.470000,-0.200000,0.050000,0.272107,Hold,61.840088,58.000000,Hold,-82.000000,2.000000,LowGoal,2130.000000,-2181.818182,Speed,2092.500000,-2181.818182,Speed,Off,Off,0.000000,FALSE,0,,,,,0.000000,0.000000
01:04:13.297 PM 04/09/2016,Teleop Enabled,10,FALSE,0,NO ERROR,-0.000000,0.012833,-0.000000,0.109083,TRUE,FALSE,TRUE,FALSE,FALSE,FALSE,Disabled,0.000000,0.000000,0.000000,TRUE,-1.714783,2.710403,0.000000,0.048370,0.099548,0.000000,0.009000,-0.206000,0.212000,2.420000,-0.210000,0.110000,0.279081,Hold,61.840088,58.000000,Hold,-82.000000,2.000000,LowGoal,2130.000000,-2181.818182,Speed,2100.000000,-2181.818182,Speed,Off,Off,0.000000,FALSE,0,,,,,0.000000,0.000000
01:04:13.397 PM 04/09/2016,Teleop Enabled,11,FALSE,0,NO ERROR,-0.000000,0.012833,-0.000000,0.109083,TRUE,FALSE,TRUE,FALSE,FALSE,FALSE,Disabled,0.000000,0.000000,0.000000,TRUE,-1.712860,2.709396,0.000000,0.017990,-0.095474,0.000000,0.012000,-0.252000,0.085000,2.510000,-0.200000,0.070000,0.284438,Hold,61.840088,58.000000,Hold,-82.000000,2.000000,LowGoal,2137.500000,-2181.818182,Speed,2092.500000,-2181.818182,Speed,Off,Off,0.000000,FALSE,0,,,,,0.000000,0.000000
01:04:13.497 PM 04/09/2016,Teleop Enabled,10,FALSE,0,NO ERROR,-0.000000,0.012833,-0.000000,0.109083,TRUE,FALSE,TRUE,FALSE,FALSE,FALSE,Disabled,0.000000,0.000000,0.000000,TRUE,-1.710037,2.697647,0.000000,0.107758,-0.319809,0.000000,0.147000,-0.170000,0.153000,2.460000,-0.200000,0.030000,0.291981,Hold,61.840088,58.000000,Hold,-82.000000,2.000000,LowGoal,2130.000000,-2181.818182,Speed,2085.000000,-2181.818182,Speed,Off,Off,0.000000,FALSE,0,,,,,0.000000,0.000000
01:04:13.597 PM 04/09/2016,Teleop Enabled,11,FALSE,0,NO ERROR,-0.000000,0.012833,-0.000000,0.109083,TRUE,FALSE,TRUE,FALSE,FALSE,FALSE,Disabled,0.000000,0.000000,0.000000,TRUE,-1.700836,2.677277,0.000000,0.212814,-0.449036,0.000000,-0.120000,-0.002000,0.152000,2.460000,-0.200000,0.070000,0.327053,Hold,61.840088,58.000000,Hold,-83.000000,2.000000,LowGoal,2130.000000,-2181.818182,Speed,2085.000000,-2181.818182,Speed,Off,Off,0.000000,FALSE,0,,,,,0.000000,0.000000
01:04:13.698 PM 04/09/2016,Teleop Enabled,11,FALSE,0,NO ERROR,-0.000000,0.012833,-0.000000,0.109083,TRUE,FALSE,TRUE,FALSE,FALSE,FALSE,Disabled,0.000000,0.000000,0.000000,TRUE,-1.694046,2.673264,0.000000,0.070267,0.039703,0.000000,-0.056000,0.112000,-0.152000,2.510000,-0.190000,-0.040000,0.339688,Hold,61.840088,58.000000,Hold,-83.000000,2.000000,LowGoal,2130.000000,-2181.818182,Speed,2100.000000,-2181.818182,Speed,Off,Off,0.000000,FALSE,0,,,,,0.000000,0.000000
01:04:13.798 PM 04/09/2016,Teleop Enabled,9,FALSE,0,NO ERROR,-0.000000,0.012833,-0.000000,0.109083,TRUE,FALSE,TRUE,FALSE,FALSE,FALSE,Disabled,0.000000,0.000000,0.000000,TRUE,-1.692505,2.679932,0.000000,0.016418,0.213593,0.000000,0.088000,0.193000,-0.066000,2.400000,-0.190000,0.020000,0.362267,Hold,61.840088,58.000000,Hold,-83.000000,2.000000,LowGoal,2137.500000,-2181.818182,Speed,2092.500000,-2181.818182,Speed,Off,Off,0.000000,FALSE,0,,,,,0.000000,0.000000
01:04:13.899 PM 04/09/2016,Teleop Enabled,9,FALSE,0,NO ERROR,-0.000000,0.012833,-0.000000,0.109083,TRUE,FALSE,TRUE,FALSE,FALSE,FALSE,Disabled,0.000000,0.000000,0.000000,TRUE,-1.689667,2.696381,0.000000,0.080231,0.403549,0.000000,0.011000,0.133000,-0.044000,2.490000,-0.190000,-0.070000,0.366119,Hold,61.840088,58.000000,Hold,-83.000000,2.000000,LowGoal,2130.000000,-2181.818182,Speed,2077.500000,-2181.818182,Speed,Off,Off,0.000000,FALSE,0,,,,,0.000000,0.000000
01:04:13.999 PM 04/09/2016,Teleop Enabled,9,FALSE,0,NO ERROR,-0.000000,0.012833,-0.000000,0.109083,TRUE,FALSE,TRUE,FALSE,FALSE,FALSE,Disabled,0.000000,0.000000,0.000000,TRUE,-1.692062,2.728516,0.000000,-0.085541,0.626801,0.000000,-0.152000,0.167000,-0.025000,2.450000,-0.200000,0.000000,0.365273,Hold,61.840088,58.000000,Hold,-83.000000,2.000000,LowGoal,2130.000000,-2181.818182,Speed,2085.000000,-2181.818182,Speed,Off,Off,0.000000,FALSE,0,,,,,0.000000,0.000000
01:04:14.099 PM 04/09/2016,Teleop Enabled,10,FALSE,0,NO ERROR,-0.000000,0.006417,-0.000000,0.109083,TRUE,FALSE,TRUE,FALSE,FALSE,FALSE,Disabled,0.000000,0.000000,0.000000,TRUE,-1.700119,2.763763,0.000000,-0.200256,0.747879,0.000000,-0.060000,-0.008000,-0.022000,2.550000,-0.190000,-0.190000,0.384875,Hold,61.840088,58.000000,Hold,-83.000000,2.000000,LowGoal,2130.000000,-2181.818182,Speed,2107.500000,-2181.818182,Speed,Off,Off,0.000000,FALSE,0,,,,,0.000000,0.000000
01:04:14.199 PM 04/09/2016,Teleop Enabled,9,FALSE,0,NO ERROR,-0.000000,0.006417,-0.000000,0.109083,TRUE,FALSE,TRUE,FALSE,FALSE,FALSE,Disabled,0.000000,0.000000,0.000000,TRUE,-1.710724,2.800690,0.000000,-0.196991,0.716980,0.000000,0.027000,-0.067000,0.120000,2.520000,-0.190000,-0.140000,0.395471,Hold,61.840088,58.000000,Hold,-83.000000,2.000000,LowGoal,2130.000000,-2181.818182,Speed,2092.500000,-2181.818182,Speed,Off,Off,0.000000,FALSE,0,,,,,0.000000,0.000000
01:04:14.300 PM 04/09/2016,Teleop Enabled,9,FALSE,0,NO ERROR,-0.000000,0.006417,-0.000000,0.109083,TRUE,FALSE,TRUE,FALSE,FALSE,FALSE,Disabled,0.000000,0.000000,0.000000,TRUE,-1.719482,2.834518,0.000000,-0.152634,0.638824,0.000000,0.099000,-0.149000,0.085000,2.540000,-0.190000,-0.100000,0.404239,Hold,61.840088,58.000000,Hold,-83.000000,2.000000,LowGoal,2137.500000,-2181.818182,Speed,2085.000000,-2181.818182,Speed,Off,Off,0.000000,FALSE,0,,,,,0.000000,0.000000
01:04:14.399 PM 04/09/2016,Teleop Enabled,9,FALSE,0,NO ERROR,-0.000000,0.006417,-0.000000,0.109083,TRUE,FALSE,TRUE,FALSE,FALSE,FALSE,Disabled,0.000000,0.000000,0.000000,TRUE,-1.724747,2.861923,0.000000,-0.068832,0.480179,0.000000,0.104000,-0.157000,0.138000,2.580000,-0.190000,-0.230000,0.393966,Hold,61.840088,58.000000,Hold,-83.000000,2.000000,LowGoal,2145.000000,-2181.818182,Speed,2092.500000,-2181.818182,Speed,Off,Off,0.000000,FALSE,0,,,,,0.000000,0.000000
01:04:14.499 PM 04/09/2016,Teleop Enabled,9,FALSE,0,NO ERROR,-0.000000,0.006417,-0.000000,0.109083,TRUE,FALSE,TRUE,FALSE,FALSE,FALSE,Disabled,0.000000,0.000000,0.000000,TRUE,-1.725769,2.881638,0.000000,0.009064,0.339310,0.000000,0.031000,-0.130000,0.013000,2.500000,-0.190000,-0.090000,0.409892,Hold,61.840088,58.000000,Hold,-83.000000,2.000000,LowGoal,2145.000000,-2181.818182,Speed,2085.000000,-2181.818182,Speed,Off,Off,0.000000,FALSE,0,,,,,0.000000,0.000000
01:04:14.599 PM 04/09/2016,Teleop Enabled,9,FALSE,0,NO ERROR,-0.000000,0.006417,-0.000000,0.109083,TRUE,FALSE,TRUE,FALSE,FALSE,FALSE,Disabled,0.000000,0.000000,0.000000,TRUE,-1.724426,2.895142,0.000000,0.021439,0.230896,0.000000,-0.078000,-0.086000,-0.022000,2.500000,-0.200000,-0.010000,0.411031,Hold,61.840088,58.000000,Hold,-83.000000,2.000000,LowGoal,2152.500000,-2181.818182,Speed,2100.000000,-2181.818182,Speed,Off,Off,0.000000,FALSE,0,,,,,0.000000,0.000000
01:04:14.699 PM 04/09/2016,Teleop Enabled,10,FALSE,0,NO ERROR,-0.000000,0.006417,-0.000000,0.109083,TRUE,FALSE,TRUE,FALSE,FALSE,FALSE,Disabled,0.000000,0.000000,0.000000,TRUE,-1.725327,2.904694,0.000000,-0.045395,0.169373,0.000000,-0.129000,-0.037000,-0.037000,2.590000,-0.190000,-0.130000,0.423042,Hold,61.840088,58.000000,Hold,-83.000000,2.000000,LowGoal,2160.000000,-2181.818182,Speed,2100.000000,-2181.818182,Speed,Off,Off,0.000000,FALSE,0,,,,,0.000000,0.000000
01:04:14.799 PM 04/09/2016,Teleop Enabled,9,FALSE,0,NO ERROR,-0.000000,0.006417,-0.000000,0.109083,TRUE,FALSE,TRUE,FALSE,FALSE,FALSE,Disabled,0.000000,0.000000,0.000000,TRUE,-1.729721,2.911591,0.000000,-0.098495,0.115723,0.000000,0.018000,-0.049000,-0.070000,2.600000,-0.190000,-0.250000,0.412783,Hold,61.840088,58.000000,Hold,-83.000000,2.000000,LowGoal,2160.000000,-2181.818182,Speed,2092.500000,-2181.818182,Speed,Off,Off,0.000000,FALSE,0,,,,,0.000000,0.000000
01:04:14.899 PM 04/09/2016,Teleop Enabled,9,FALSE,0,NO ERROR,-0.000000,0.006417,-0.000000,0.109083,TRUE,FALSE,TRUE,FALSE,FALSE,FALSE,Disabled,0.000000,0.000000,0.000000,TRUE,-1.729111,2.915970,0.000000,0.025406,0.071091,0.000000,0.122000,-0.037000,0.012000,2.490000,-0.190000,-0.200000,0.433807,Hold,61.840088,58.000000,Hold,-83.000000,2.000000,LowGoal,2152.500000,-2181.818182,Speed,2100.000000,-2181.818182,Speed,Off,Off,0.000000,FALSE,0,,,,,0.000000,0.000000
01:04:14.999 PM 04/09/2016,Teleop Enabled,9,FALSE,0,NO ERROR,-0.000000,0.006417,-0.000000,0.109083,TRUE,FALSE,TRUE,FALSE,FALSE,FALSE,Disabled,0.000000,0.000000,0.000000,TRUE,-1.724976,2.919907,0.000000,0.079773,0.078247,0.000000,-0.035000,0.056000,-0.019000,2.470000,-0.200000,-0.060000,0.423324,Hold,61.840088,58.000000,Hold,-83.000000,2.000000,LowGoal,2145.000000,-2181.818182,Speed,2092.500000,-2181.818182,Speed,Off,Off,0.000000,FALSE,0,,,,,0.000000,0.000000
01:04:15.099 PM 04/09/2016,Teleop Enabled,8,FALSE,0,NO ERROR,-0.000000,0.006417,-0.000000,0.109083,TRUE,FALSE,TRUE,FALSE,FALSE,FALSE,Disabled,0.000000,0.000000,0.000000,TRUE,-1.723358,2.926163,0.000000,-0.009109,0.165604,0.000000,-0.169000,0.126000,-0.071000,2.580000,-0.190000,-0.160000,0.432540,Hold,61.840088,58.000000,Hold,-83.000000,2.000000,LowGoal,2145.000000,-2181.818182,Speed,2100.000000,-2181.818182,Speed,Off,Off,0.000000,FALSE,0,,,,,0.000000,0.000000
01:04:15.199 PM 04/09/2016,Teleop Enabled,9,FALSE,0,NO ERROR,-0.000000,0.006417,-0.000000,0.109083,TRUE,FALSE,TRUE,FALSE,FALSE,FALSE,Disabled,0.000000,0.000000,0.000000,TRUE,-1.727768,2.938919,0.000000,-0.137360,0.321976,0.000000,-0.089000,0.113000,-0.043000,2.540000,-0.190000,-0.180000,0.417847,Hold,61.840088,58.000000,Hold,-83.000000,2.000000,LowGoal,2152.500000,-2181.818182,Speed,2100.000000,-2181.818182,Speed,Off,Off,0.000000,FALSE,0,,,,,0.000000,0.000000
01:04:15.299 PM 04/09/2016,Teleop Enabled,9,FALSE,0,NO ERROR,-0.000000,0.006417,-0.000000,0.109083,TRUE,FALSE,TRUE,FALSE,FALSE,FALSE,Disabled,0.000000,0.000000,0.000000,TRUE,-1.736465,2.958145,0.000000,-0.184555,0.418365,0.000000,0.025000,0.088000,-0.028000,2.390000,-0.200000,-0.050000,0.427311,Hold,61.840088,58.000000,Hold,-83.000000,2.000000,LowGoal,2145.000000,-2181.818182,Speed,2100.000000,-2181.818182,Speed,Off,Off,0.000000,FALSE,0,,,,,0.000000,0.000000
01:04:15.399 PM 04/09/2016,Teleop Enabled,9,FALSE,0,NO ERROR,-0.000000,0.006417,-0.000000,0.109083,TRUE,FALSE,TRUE,FALSE,FALSE,FALSE,Disabled,0.000000,0.000000,0.000000,TRUE,-1.744858,2.981613,0.000000,-0.153229,0.505997,0.000000,0.103000,0.072000,0.149000,2.470000,-0.200000,-0.070000,0.442083,Hold,61.840088,58.000000,Hold,-83.000000,2.000000,LowGoal,2137.500000,-2181.818182,Speed,2100.000000,-2181.818182,Speed,Off,Off,0.000000,FALSE,0,,,,,0.000000,0.000000
01:04:15.499 PM 04/09/2016,Teleop Enabled,10,FALSE,0,NO ERROR,-0.000000,0.006417,-0.000000,0.109083,TRUE,FALSE,TRUE,FALSE,FALSE,FALSE,Disabled,0.000000,0.000000,0.000000,TRUE,-1.750153,3.002960,0.000000,-0.082779,0.000000,0.000000,-0.067000,-0.006000,0.138000,2.390000,-0.200000,0.050000,0.460838,Hold,61.840088,58.000000,Hold,-83.000000,2.000000,LowGoal,2137.500000,-2181.818182,Speed,2107.500000,-2181.818182,Speed,Off,Off,0.000000,FALSE,0,,,,,0.000000,0.000000
01:04:15.599 PM 04/09/2016,Teleop Enabled,10,FALSE,0,NO ERROR,-0.000000,0.006417,-0.000000,0.109083,TRUE,FALSE,TRUE,FALSE,FALSE,FALSE,Disabled,0.000000,0.000000,0.000000,TRUE,-1.756378,3.003448,0.000000,-0.169113,0.021622,0.000000,-0.090000,0.040000,0.107000,2.340000,-0.210000,0.050000,0.467613,Hold,61.840088,58.000000,Hold,-83.000000,2.000000,LowGoal,2145.000000,-2181.818182,Speed,2100.000000,-2181.818182,Speed,Off,Off,0.000000,FALSE,0,,,,,0.000000,0.000000
01:04:15.699 PM 04/09/2016,Teleop Enabled,11,FALSE,0,NO ERROR,-0.000000,0.006417,-0.000000,0.109083,TRUE,FALSE,TRUE,FALSE,FALSE,FALSE,Disabled,0.000000,0.000000,0.000000,TRUE,-1.766296,3.005310,0.000000,-0.187943,0.035278,0.000000,0.124000,-0.146000,0.057000,2.340000,-0.210000,0.050000,0.475748,Hold,61.840088,58.000000,Hold,-83.000000,2.000000,LowGoal,2145.000000,-2181.818182,Speed,2077.500000,-2181.818182,Speed,Off,Off,0.000000,FALSE,0,,,,,0.000000,0.000000
01:04:15.800 PM 04/09/2016,Teleop Enabled,10,FALSE,0,NO ERROR,-0.000000,0.006417,-0.000000,0.109083,TRUE,FALSE,TRUE,FALSE,FALSE,FALSE,Disabled,0.000000,0.000000,0.000000,TRUE,-1.772339,3.002441,0.000000,-0.036957,-0.118835,0.000000,0.092000,-0.119000,0.002000,2.450000,-0.200000,-0.100000,0.496358,Hold,61.840088,58.000000,Hold,-83.000000,2.000000,LowGoal,2137.500000,-2181.818182,Speed,2092.500000,-2181.818182,Speed,Off,Off,0.000000,FALSE,0,,,,,0.000000,0.000000
01:04:15.899 PM 04/09/2016,Teleop Enabled,10,FALSE,0,NO ERROR,-0.000000,0.006417,-0.000000,0.109083,TRUE,FALSE,TRUE,FALSE,FALSE,FALSE,Disabled,0.000000,0.000000,0.000000,TRUE,-1.773758,2.994110,0.000000,-0.065308,-0.182098,0.000000,0.092000,-0.119000,0.002000,2.440000,-0.200000,-0.080000,0.505536,Hold,61.840088,58.000000,Hold,-83.000000,2.000000,LowGoal,2130.000000,-2181.818182,Speed,2107.500000,-2181.818182,Speed,Off,Off,0.000000,FALSE,0,,,,,0.000000,0.000000
01:04:15.999 PM 04/09/2016,Teleop Enabled,11,FALSE,0,NO ERROR,-0.000000,0.006417,-0.000000,0.109083,TRUE,FALSE,TRUE,FALSE,FALSE,FALSE,Disabled,0.000000,0.000000,0.000000,TRUE,-1.781662,2.990341,0.000000,-0.198975,-0.012115,0.000000,-0.178000,0.025000,-0.110000,2.480000,-0.200000,-0.120000,0.503274,Hold,61.840088,58.000000,Hold,-83.000000,2.000000,LowGoal,2122.500000,-2181.818182,Speed,2107.500000,-2181.818182,Speed,Off,Off,0.000000,FALSE,0,,,,,0.000000,0.000000
01:04:16.100 PM 04/09/2016,Teleop Enabled,10,FALSE,0,NO ERROR,-0.000000,0.006417,-0.000000,0.109083,TRUE,FALSE,TRUE,FALSE,FALSE,FALSE,Disabled,0.000000,0.000000,0.000000,TRUE,-1.791611,2.987442,0.000000,-0.187149,-0.088531,0.000000,-0.022000,-0.089000,-0.044000,2.530000,-0.200000,-0.130000,0.505547,Hold,61.840088,58.000000,Hold,-83.000000,2.000000,LowGoal,2122.500000,-2181.818182,Speed,2100.000000,-2181.818182,Speed,Off,Off,0.000000,FALSE,0,,,,,0.000000,0.000000
01:04:16.201 PM 04/09/2016,Teleop Enabled,10,FALSE,0,NO ERROR,-0.000000,0.006417,-0.000000,0.109083,TRUE,FALSE,TRUE,FALSE,FALSE,FALSE,Disabled,0.000000,0.000000,0.000000,TRUE,-1.799286,2.980392,0.000000,-0.123764,-0.192841,0.000000,-0.004000,-0.046000,-0.073000,2.550000,-0.190000,-0.170000,0.509024,Hold,61.840088,58.000000,Hold,-83.000000,2.000000,LowGoal,2130.000000,-2181.818182,Speed,2077.500000,-2181.818182,Speed,Off,Off,0.000000,FALSE,0,,,,,0.000000,0.000000
01:04:16.302 PM 04/09/2016,Teleop Enabled,9,FALSE,0,NO ERROR,-0.000000,0.006417,-0.000000,0.109083,TRUE,FALSE,TRUE,FALSE,FALSE,FALSE,Disabled,0.000000,0.000000,0.000000,TRUE,-1.804626,2.966309,0.000000,-0.116699,-0.328369,0.000000,0.030000,-0.138000,0.091000,2.610000,-0.190000,-0.150000,0.518707,Hold,61.840088,58.000000,Hold,-83.000000,2.000000,LowGoal,2130.000000,-2181.818182,Speed,2100.000000,-2181.818182,Speed,Off,Off,0.000000,FALSE,0,,,,,0.000000,0.000000
01:04:16.402 PM 04/09/2016,Teleop Enabled,10,FALSE,0,NO ERROR,-0.000000,0.006417,-0.000000,0.109083,TRUE,FALSE,TRUE,FALSE,FALSE,FALSE,Disabled,0.000000,0.000000,0.000000,TRUE,-1.810608,2.947189,0.000000,-0.129074,-0.420135,0.000000,0.012000,-0.101000,0.134000,2.680000,-0.190000,-0.180000,0.524642,Hold,61.840088,58.000000,Hold,-83.000000,2.000000,LowGoal,2145.000000,-2181.818182,Speed,2107.500000,-2181.818182,Speed,Off,Off,0.000000,FALSE,0,,,,,0.000000,0.000000
01:04:16.502 PM 04/09/2016,Teleop Enabled,10,FALSE,0,NO ERROR,-0.000000,0.006417,-0.000000,0.109083,TRUE,FALSE,TRUE,FALSE,FALSE,FALSE,Disabled,0.000000,0.000000,0.000000,TRUE,-1.813309,2.923233,0.000000,0.000000,-0.513046,0.000000,-0.010000,-0.103000,0.130000,2.680000,-0.190000,-0.180000,0.530113,Hold,61.840088,58.000000,Hold,-83.000000,2.000000,LowGoal,2160.000000,-2181.818182,Speed,2092.500000,-2181.818182,Speed,Off,Off,0.000000,FALSE,0,,,,,0.000000,0.000000
01:04:16.602 PM 04/09/2016,Teleop Enabled,9,FALSE,0,NO ERROR,-0.000000,0.006417,-0.000000,0.109083,TRUE,FALSE,TRUE,FALSE,FALSE,FALSE,Disabled,0.000000,0.000000,0.000000,TRUE,-1.813309,2.923233,0.000000,0.000000,-0.513046,0.000000,-0.033000,-0.044000,0.234000,2.450000,-0.190000,-0.090000,0.525758,Hold,61.840088,58.000000,Hold,-83.000000,2.000000,LowGoal,2152.500000,-2181.818182,Speed,2107.500000,-2181.818182,Speed,Off,Off,0.000000,FALSE,0,,,,,0.000000,0.000000
01:04:16.702 PM 04/09/2016,Teleop Enabled,10,FALSE,0,NO ERROR,-0.000000,0.006417,-0.000000,0.109083,TRUE,FALSE,TRUE,FALSE,FALSE,FALSE,Disabled,0.000000,0.000000,0.000000,TRUE,-1.814713,2.891922,0.000000,-0.037216,-0.505341,0.000000,-0.046000,0.059000,0.230000,2.490000,-0.190000,-0.160000,0.549542,Hold,61.840088,58.000000,Hold,-83.000000,2.000000,LowGoal,2152.500000,-2181.818182,Speed,2122.500000,-2181.818182,Speed,Off,Off,0.000000,FALSE,0,,,,,0.000000,0.000000
01:04:16.804 PM 04/09/2016,Teleop Enabled,9,FALSE,0,NO ERROR,-0.000000,0.006417,-0.000000,0.109083,TRUE,FALSE,TRUE,FALSE,FALSE,FALSE,Disabled,0.000000,0.000000,0.000000,TRUE,-1.816101,2.868225,0.000000,-0.003082,-0.450806,0.000000,0.098000,0.084000,0.195000,2.490000,-0.190000,-0.160000,0.556555,Hold,61.840088,58.000000,Hold,-83.000000,2.000000,LowGoal,2130.000000,-2181.818182,Speed,2122.500000,-2181.818182,Speed,Off,Off,0.000000,FALSE,0,,,,,0.000000,0.000000
01:04:16.903 PM 04/09/2016,Teleop Enabled,10,FALSE,0,NO ERROR,-0.000000,0.006417,-0.000000,0.109083,TRUE,FALSE,TRUE,FALSE,FALSE,FALSE,Disabled,0.000000,0.000000,0.000000,TRUE,-1.812210,2.847504,0.000000,0.122299,-0.385254,0.000000,-0.047000,0.128000,0.014000,2.490000,-0.200000,-0.050000,0.567461,Hold,61.840088,58.000000,Hold,-83.000000,8192.000000,LowGoal,2130.000000,-2181.818182,Speed,2115.000000,-2181.818182,Speed,Off,Off,0.000000,FALSE,0,,,,,0.000000,0.000000
01:04:17.005 PM 04/09/2016,Teleop Enabled,10,FALSE,0,NO ERROR,-0.000000,0.044917,-0.000000,0.121916,TRUE,FALSE,TRUE,FALSE,FALSE,FALSE,Disabled,0.000000,0.000000,0.000000,TRUE,-1.807861,2.833328,0.000000,0.039581,-0.207794,0.000000,-0.146000,0.128000,-0.212000,2.470000,-0.200000,-0.070000,0.576164,Hold,61.840088,0.000000,Hold,-86.000000,8192.000000,LowGoal,2130.000000,-2181.818182,Speed,2092.500000,-2181.818182,Speed,Off,Off,0.000000,FALSE,0,,,,,0.000000,0.000000
01:04:17.108 PM 04/09/2016,Teleop Enabled,10,FALSE,0,NO ERROR,-0.000000,0.044917,-0.000000,0.121916,TRUE,FALSE,TRUE,FALSE,FALSE,FALSE,Disabled,0.000000,0.000000,0.000000,TRUE,-1.809219,2.826843,0.000000,-0.073395,-0.077759,0.000000,0.104000,0.046000,-0.050000,2.490000,-0.220000,-0.200000,0.576164,Hold,58.197754,0.000000,Hold,-86.000000,8192.000000,LowGoal,2107.500000,-2181.818182,Speed,2085.000000,-2181.818182,Speed,Off,Off,0.000000,FALSE,0,,,,,0.000000,0.000000
01:04:17.208 PM 04/09/2016,Teleop Enabled,9,FALSE,0,NO ERROR,-0.000000,-0.012833,-0.000000,0.057750,TRUE,FALSE,TRUE,FALSE,FALSE,FALSE,Disabled,0.000000,0.000000,0.000000,TRUE,-1.810440,2.822800,0.000000,0.018616,-0.116379,0.000000,0.100000,-0.114000,0.373000,2.510000,-0.270000,0.000000,0.517785,Hold,47.590088,0.000000,Hold,-8900.000000,8192.000000,LowGoal,2107.500000,-2181.818182,Speed,2077.500000,-2181.818182,Speed,Off,Off,0.000000,FALSE,0,,,,,0.000000,0.000000
01:04:17.308 PM 04/09/2016,Teleop Enabled,9,FALSE,0,NO ERROR,-0.000000,-0.192500,-0.000000,-0.064167,TRUE,FALSE,TRUE,FALSE,FALSE,FALSE,Disabled,0.000000,0.000000,0.000000,TRUE,-1.809952,2.813889,0.000000,-0.021454,-0.211868,0.000000,0.043000,-0.198000,0.216000,2.490000,-0.240000,-0.130000,0.575523,Hold,31.991699,0.000000,Hold,-8355.000000,8192.000000,LowGoal,2107.500000,-2181.818182,Speed,2077.500000,-2181.818182,Speed,Off,Off,0.000000,FALSE,0,,,,,0.000000,0.000000
01:04:17.408 PM 04/09/2016,Teleop Enabled,9,FALSE,0,NO ERROR,-0.000000,-0.314416,-0.000000,-0.134750,TRUE,FALSE,TRUE,FALSE,FALSE,FALSE,Disabled,0.000000,0.000000,0.000000,TRUE,-1.809937,2.800354,0.000000,-0.009552,-0.293228,0.000000,-0.052000,-0.046000,-0.082000,2.420000,-0.300000,0.040000,0.522064,Hold,15.346191,0.000000,Hold,-8202.000000,8192.000000,LowGoal,2107.500000,-2181.818182,Speed,2077.500000,-2181.818182,Speed,Off,Off,0.000000,FALSE,0,,,,,0.000000,0.000000
01:04:17.508 PM 04/09/2016,Teleop Enabled,9,FALSE,0,NO ERROR,-0.000000,-0.186083,-0.000000,-0.057750,TRUE,FALSE,TRUE,FALSE,FALSE,FALSE,Disabled,0.000000,0.000000,0.000000,TRUE,-1.811188,2.786728,0.000000,-0.018097,-0.235703,0.000000,0.029000,0.026000,-0.173000,2.470000,-0.310000,0.030000,0.521124,Hold,2.822021,0.000000,Hold,-8202.000000,8192.000000,LowGoal,2130.000000,-2181.818182,Speed,2085.000000,-2181.818182,Speed,Off,Off,0.000000,FALSE,0,,,,,0.000000,0.000000
01:04:17.608 PM 04/09/2016,Teleop Enabled,10,FALSE,0,NO ERROR,-0.000000,0.237416,-0.000000,0.404249,TRUE,FALSE,TRUE,FALSE,FALSE,FALSE,Disabled,0.000000,0.000000,0.000000,TRUE,-1.813583,2.781403,0.000000,-0.070160,-0.029266,0.000000,-0.014000,0.000000,-0.690000,2.450000,-0.270000,-0.410000,0.511960,Hold,1.095947,0.000000,Hold,-8202.000000,8192.000000,LowGoal,2137.500000,-2181.818182,Speed,2100.000000,-2181.818182,Speed,Off,Off,0.000000,FALSE,0,,,,,0.000000,0.000000
01:04:17.709 PM 04/09/2016,Teleop Enabled,10,FALSE,0,NO ERROR,-0.000000,0.243833,-0.000000,0.442749,TRUE,FALSE,TRUE,FALSE,FALSE,FALSE,Disabled,0.000000,0.000000,0.000000,TRUE,-1.816589,2.781693,0.000000,-0.123169,0.065887,0.000000,-0.195000,0.218000,-0.114000,2.580000,-0.450000,0.360000,0.410752,Hold,0.951904,0.000000,Hold,-8202.000000,8192.000000,LowGoal,2137.500000,-2181.818182,Speed,2100.000000,-2181.818182,Speed,Off,Off,0.000000,FALSE,0,,,,,0.000000,0.000000
01:04:17.809 PM 04/09/2016,Teleop Enabled,10,FALSE,0,NO ERROR,-0.000000,0.192500,-0.000000,0.423499,TRUE,FALSE,TRUE,FALSE,FALSE,FALSE,Disabled,0.000000,0.000000,0.000000,TRUE,-1.830261,2.792831,0.000000,-0.266220,0.247971,0.000000,-0.008000,0.180000,-0.157000,2.490000,-0.480000,0.270000,0.403392,Hold,0.924072,0.000000,Hold,-8202.000000,8192.000000,LowGoal,2137.500000,-2181.818182,Speed,2107.500000,-2181.818182,Speed,Off,Off,0.000000,FALSE,0,,,,,0.000000,0.000000
01:04:17.909 PM 04/09/2016,Teleop Enabled,10,FALSE,0,NO ERROR,-0.000000,0.077000,-0.000000,0.301583,TRUE,FALSE,TRUE,FALSE,FALSE,FALSE,Disabled,0.000000,0.000000,0.000000,TRUE,-1.845261,2.809647,0.000000,-0.340698,0.378998,0.000000,-0.170000,0.107000,-0.026000,2.470000,-0.410000,0.360000,0.495343,Hold,0.924072,0.000000,Hold,-8202.000000,8192.000000,LowGoal,2137.500000,-2181.818182,Speed,2115.000000,-2181.818182,Speed,Off,Off,0.000000,FALSE,0,,,,,0.000000,0.000000
01:04:18.009 PM 04/09/2016,Teleop Enabled,10,FALSE,0,NO ERROR,-0.000000,0.057750,-0.000000,0.269499,TRUE,FALSE,TRUE,FALSE,FALSE,FALSE,Disabled,0.000000,0.000000,0.000000,TRUE,-1.867065,2.832504,0.000000,-0.489960,0.519516,0.000000,-0.087000,0.129000,-0.049000,2.540000,-0.420000,0.090000,0.460211,Hold,0.924072,0.000000,Hold,-8202.000000,8192.000000,LowGoal,2137.500000,-2181.818182,Speed,2115.000000,-2181.818182,Speed,Off,Off,0.000000,FALSE,0,,,,,0.000000,0.000000
01:04:18.109 PM 04/09/2016,Teleop Enabled,9,FALSE,0,NO ERROR,-0.000000,0.057750,-0.000000,0.256666,TRUE,FALSE,TRUE,FALSE,FALSE,FALSE,Disabled,0.000000,0.000000,0.000000,TRUE,-1.893570,2.861084,0.000000,-0.533554,0.584534,0.000000,0.089000,-0.049000,0.075000,2.480000,-0.390000,0.100000,0.511344,Hold,0.924072,0.000000,Hold,-8202.000000,8192.000000,LowGoal,2130.000000,-2181.818182,Speed,2107.500000,-2181.818182,Speed,Off,Off,0.000000,FALSE,0,,,,,0.000000,0.000000
01:04:18.210 PM 04/09/2016,Teleop Enabled,10,FALSE,0,NO ERROR,-0.000000,0.057750,-0.000000,0.256666,TRUE,FALSE,TRUE,FALSE,FALSE,FALSE,Disabled,0.000000,0.000000,0.000000,TRUE,-1.917679,2.888809,0.000000,-0.451599,0.535248,0.000000,0.065000,-0.044000,0.117000,2.540000,-0.400000,0.070000,0.509206,Hold,0.924072,0.000000,Hold,-8202.000000,8192.000000,LowGoal,2137.500000,-2181.818182,Speed,2092.500000,-2181.818182,Speed,Off,Off,0.000000,FALSE,0,,,,,0.000000,0.000000
01:04:18.310 PM 04/09/2016,Teleop Enabled,10,FALSE,0,NO ERROR,-0.000000,0.057750,-0.000000,0.256666,TRUE,FALSE,TRUE,FALSE,FALSE,FALSE,Disabled,0.000000,0.000000,0.000000,TRUE,-1.938858,2.913269,0.000000,-0.407547,0.449066,0.000000,-0.062000,-0.087000,0.269000,2.550000,-0.410000,0.130000,0.529410,Hold,0.924072,58.000000,Hold,-8202.000000,8192.000000,LowGoal,2137.500000,-2181.818182,Speed,2107.500000,-2181.818182,Speed,Off,Off,0.000000,FALSE,0,,,,,0.000000,0.000000
01:04:18.410 PM 04/09/2016,Teleop Enabled,12,FALSE,0,NO ERROR,-0.000000,0.064167,-0.000000,0.256666,TRUE,FALSE,TRUE,FALSE,FALSE,FALSE,Disabled,0.000000,0.000000,0.000000,TRUE,-1.960831,2.926025,0.000000,-0.468567,-0.003098,0.000000,-0.059000,0.105000,0.074000,2.460000,-0.400000,0.140000,0.552438,Hold,4.105469,58.000000,Hold,-8202.000000,8192.000000,LowGoal,2130.000000,-2181.818182,Speed,2115.000000,-2181.818182,Speed,Off,Off,0.000000,FALSE,0,,,,,0.000000,0.000000
01:04:18.511 PM 04/09/2016,Teleop Enabled,10,FALSE,0,NO ERROR,-0.000000,0.070583,-0.000000,0.269499,TRUE,FALSE,TRUE,FALSE,FALSE,FALSE,Disabled,0.000000,0.000000,0.000000,TRUE,-1.986343,2.927658,0.000000,-0.526825,0.046722,0.000000,0.031000,0.057000,0.099000,2.480000,-0.420000,-0.010000,0.524753,Hold,7.285156,58.000000,Hold,-8202.000000,8192.000000,LowGoal,2145.000000,-2181.818182,Speed,2100.000000,-2181.818182,Speed,Off,Off,0.000000,FALSE,0,,,,,0.000000,0.000000
01:04:18.611 PM 04/09/2016,Teleop Enabled,11,FALSE,0,NO ERROR,-0.000000,0.070583,-0.000000,0.269499,TRUE,FALSE,TRUE,FALSE,FALSE,FALSE,Disabled,0.000000,0.000000,0.000000,TRUE,-2.012146,2.930725,0.000000,-0.507385,0.059494,0.000000,0.112000,-0.029000,-0.027000,2.560000,-0.400000,0.020000,0.558114,Hold,12.564453,58.000000,Hold,-8202.000000,8192.000000,LowGoal,2152.500000,-2181.818182,Speed,2100.000000,-2181.818182,Speed,Off,Off,0.000000,FALSE,0,,,,,0.000000,0.000000
01:04:18.711 PM 04/09/2016,Teleop Enabled,10,FALSE,0,NO ERROR,-0.000000,0.070583,-0.000000,0.269499,TRUE,FALSE,TRUE,FALSE,FALSE,FALSE,Disabled,0.000000,0.000000,0.000000,TRUE,-2.035141,2.932281,0.000000,-0.434189,0.000000,0.000000,-0.020000,-0.013000,0.037000,2.520000,-0.400000,0.100000,0.560531,Hold,18.972168,58.000000,Hold,-8202.000000,8192.000000,LowGoal,2145.000000,-2181.818182,Speed,2122.500000,-2181.818182,Speed,Off,Off,0.000000,FALSE,0,,,,,0.000000,0.000000
01:04:18.811 PM 04/09/2016,Teleop Enabled,10,FALSE,0,NO ERROR,-0.000000,0.070583,-0.000000,0.269499,TRUE,FALSE,TRUE,FALSE,FALSE,FALSE,Disabled,0.000000,0.000000,0.000000,TRUE,-2.058487,2.933273,0.000000,-0.509766,0.055481,0.000000,-0.053000,0.130000,-0.075000,2.600000,-0.410000,0.070000,0.582040,Hold,26.545410,58.000000,Hold,-8202.000000,8192.000000,LowGoal,2152.500000,-2181.818182,Speed,2115.000000,-2181.818182,Speed,Off,Off,0.000000,FALSE,0,,,,,0.000000,0.000000
01:04:18.911 PM 04/09/2016,Teleop Enabled,10,FALSE,0,NO ERROR,-0.000000,0.070583,-0.000000,0.269499,TRUE,FALSE,TRUE,FALSE,FALSE,FALSE,Disabled,0.000000,0.000000,0.000000,TRUE,-2.091629,2.940018,0.000000,-0.578400,0.143265,0.000000,0.018000,0.038000,-0.088000,2.650000,-0.420000,0.080000,0.587862,Hold,34.985352,58.000000,Hold,-8202.000000,8192.000000,LowGoal,2160.000000,-2181.818182,Speed,2107.500000,-2181.818182,Speed,Off,Off,0.000000,FALSE,0,,,,,0.000000,0.000000
01:04:19.011 PM 04/09/2016,Teleop Enabled,10,FALSE,0,NO ERROR,-0.000000,0.070583,-0.000000,0.250249,TRUE,FALSE,TRUE,FALSE,FALSE,FALSE,Disabled,0.000000,0.000000,0.000000,TRUE,-2.090790,2.948486,0.000000,0.039215,0.174805,0.000000,0.079000,-0.060000,-0.108000,2.530000,-0.420000,0.150000,0.605804,Hold,45.852051,58.000000,Hold,-8202.000000,8192.000000,LowGoal,2152.500000,-2181.818182,Speed,2122.500000,-2181.818182,Speed,Off,Off,0.000000,FALSE,0,,,,,0.000000,0.000000
01:04:19.111 PM 04/09/2016,Teleop Enabled,9,FALSE,0,NO ERROR,-0.000000,0.064167,-0.000000,0.218166,TRUE,FALSE,TRUE,FALSE,FALSE,FALSE,Disabled,0.000000,0.000000,0.000000,TRUE,-2.086563,2.956268,0.000000,0.108780,0.146545,0.000000,0.008000,0.001000,-0.057000,2.410000,-0.410000,0.040000,0.642712,Hold,56.755127,58.000000,Hold,-8202.000000,8192.000000,LowGoal,2145.000000,-2181.818182,Speed,2122.500000,-2181.818182,Speed,Off,Off,0.000000,FALSE,0,,,,,0.000000,0.000000
01:04:19.211 PM 04/09/2016,Teleop Enabled,10,FALSE,0,NO ERROR,-0.000000,0.057750,-0.000000,0.224583,TRUE,FALSE,TRUE,FALSE,FALSE,FALSE,Disabled,0.000000,0.000000,0.000000,TRUE,-2.080124,2.955414,0.000000,0.106888,-0.041260,0.000000,0.025000,0.708000,0.716000,2.520000,-0.390000,0.010000,0.667674,Hold,63.816162,58.000000,Hold,-8202.000000,8192.000000,LowGoal,2145.000000,-2181.818182,Speed,2092.500000,-2181.818182,Speed,Off,Off,0.000000,FALSE,0,,,,,0.000000,0.000000
01:04:19.311 PM 04/09/2016,Teleop Enabled,10,FALSE,0,NO ERROR,-0.000000,0.064167,-0.000000,0.218166,TRUE,FALSE,TRUE,FALSE,FALSE,FALSE,Disabled,0.000000,0.000000,0.000000,TRUE,-2.073044,2.955841,0.000000,0.167053,-0.022476,0.000000,-0.203000,0.034000,0.497000,2.390000,-0.490000,0.310000,0.587868,Hold,62.434326,58.000000,Hold,-8202.000000,8192.000000,LowGoal,2145.000000,-2181.818182,Speed,2092.500000,-2181.818182,Speed,Off,Off,0.000000,FALSE,0,,,,,0.000000,0.000000
01:04:19.411 PM 04/09/2016,Teleop Enabled,11,FALSE,0,NO ERROR,-0.000000,0.064167,-0.000000,0.237416,TRUE,FALSE,TRUE,FALSE,FALSE,FALSE,Disabled,0.000000,0.000000,0.000000,TRUE,-2.066391,2.952606,0.000000,0.141663,-0.134811,0.000000,-0.197000,0.045000,0.481000,2.370000,-0.480000,-0.050000,0.630797,Hold,57.765137,58.000000,Hold,-8202.000000,8192.000000,LowGoal,2137.500000,-2181.818182,Speed,2100.000000,-2181.818182,Speed,Off,Off,0.000000,FALSE,0,,,,,0.000000,0.000000
01:04:19.511 PM 04/09/2016,Teleop Enabled,10,FALSE,0,NO ERROR,-0.000000,0.032083,-0.000000,0.186083,TRUE,FALSE,TRUE,FALSE,FALSE,FALSE,Disabled,0.000000,0.000000,0.000000,TRUE,-2.060898,2.944580,0.000000,0.112823,-0.198502,0.000000,-0.064000,-0.123000,-0.189000,2.610000,-0.420000,-0.340000,0.662562,Hold,53.227051,58.000000,Hold,-8202.000000,8192.000000,LowGoal,2130.000000,-2181.818182,Speed,2107.500000,-2181.818182,Speed,Off,Off,0.000000,FALSE,0,,,,,0.000000,0.000000
01:04:19.611 PM 04/09/2016,Teleop Enabled,11,FALSE,0,NO ERROR,-0.000000,-0.051333,-0.000000,-0.032083,TRUE,FALSE,TRUE,FALSE,FALSE,FALSE,Disabled,0.000000,0.000000,0.000000,TRUE,-2.055725,2.940079,0.000000,0.049805,0.013870,0.000000,-0.240000,0.123000,-0.499000,2.560000,-0.480000,1.450000,0.630236,Hold,53.478271,58.000000,Hold,-8202.000000,8192.000000,LowGoal,2115.000000,-2181.818182,Speed,2085.000000,-2181.818182,Speed,Off,Off,0.000000,FALSE,0,,,,,0.000000,0.000000
01:04:19.712 PM 04/09/2016,Teleop Enabled,11,FALSE,0,NO ERROR,-0.000000,0.083416,-0.000000,0.218166,TRUE,FALSE,TRUE,FALSE,FALSE,FALSE,Disabled,0.000000,0.000000,0.000000,TRUE,-2.055939,2.942093,0.000000,0.053635,0.040924,0.000000,0.166000,0.105000,-0.459000,2.490000,-0.530000,-0.310000,0.569926,Hold,59.870850,58.000000,Hold,-8202.000000,8192.000000,LowGoal,2130.000000,-2181.818182,Speed,2107.500000,-2181.818182,Speed,Off,Off,0.000000,FALSE,0,,,,,0.000000,0.000000
01:04:19.813 PM 04/09/2016,Teleop Enabled,11,FALSE,0,NO ERROR,-0.000000,0.044917,-0.000000,0.186083,TRUE,FALSE,TRUE,FALSE,FALSE,FALSE,Disabled,0.000000,0.000000,0.000000,TRUE,-2.049927,2.949127,0.000000,0.069748,0.173950,0.000000,-0.057000,-0.107000,-0.746000,2.860000,-0.560000,-0.720000,0.572769,Hold,63.140381,58.000000,Hold,-8202.000000,8192.000000,LowGoal,2137.500000,-2181.818182,Speed,2100.000000,-2181.818182,Speed,Off,Off,0.000000,FALSE,0,,,,,0.000000,0.000000
01:04:19.913 PM 04/09/2016,Teleop Enabled,10,FALSE,0,NO ERROR,-0.000000,0.044917,-0.000000,0.102666,TRUE,FALSE,TRUE,FALSE,FALSE,FALSE,Disabled,0.000000,0.000000,0.000000,TRUE,-2.045776,2.957062,0.000000,0.043472,0.203842,0.000000,-0.033000,0.116000,0.000000,2.790000,-0.430000,0.200000,0.687293,Hold,61.206055,58.000000,Hold,-8202.000000,8192.000000,LowGoal,2152.500000,-2181.818182,Speed,2100.000000,-2181.818182,Speed,Off,Off,0.000000,FALSE,0,,,,,0.000000,0.000000
01:04:20.013 PM 04/09/2016,Teleop Enabled,11,FALSE,0,NO ERROR,-0.000000,0.083416,-0.000000,0.237416,TRUE,FALSE,TRUE,FALSE,FALSE,FALSE,Disabled,0.000000,0.000000,0.000000,TRUE,-2.044403,2.970016,0.000000,0.039261,0.284332,0.000000,0.225000,0.046000,-0.317000,2.660000,-0.440000,-0.650000,0.689021,Hold,53.464600,58.000000,Hold,-8202.000000,8192.000000,LowGoal,2145.000000,-2181.818182,Speed,2100.000000,-2181.818182,Speed,Off,Off,0.000000,FALSE,0,,,,,0.000000,0.000000
01:04:20.114 PM 04/09/2016,Teleop Enabled,10,FALSE,0,NO ERROR,-0.000000,-0.057750,-0.000000,-0.032083,TRUE,FALSE,TRUE,FALSE,FALSE,FALSE,Disabled,0.000000,0.000000,0.000000,TRUE,-2.037811,2.985886,0.000000,0.154053,0.355331,0.000000,-0.304000,-0.202000,0.235000,2.590000,-0.660000,1.130000,0.535015,Hold,52.868164,58.000000,Hold,-8202.000000,8192.000000,LowGoal,2115.000000,-2181.818182,Speed,2100.000000,-2181.818182,Speed,Off,Off,0.000000,FALSE,0,,,,,0.000000,0.000000
01:04:20.213 PM 04/09/2016,Teleop Enabled,11,FALSE,0,NO ERROR,-0.000000,0.083416,-0.000000,0.263083,TRUE,FALSE,TRUE,FALSE,FALSE,FALSE,Disabled,0.000000,0.000000,0.000000,TRUE,-2.036224,3.002304,0.000000,-0.014511,0.336426,0.000000,0.162000,-0.288000,0.261000,2.640000,-0.630000,-0.060000,0.529858,Hold,55.907471,58.000000,Hold,-8202.000000,8192.000000,LowGoal,2122.500000,-2181.818182,Speed,2092.500000,-2181.818182,Speed,Off,Off,0.000000,FALSE,0,,,,,0.000000,0.000000
