Time,Robot Mode,Loop Time,Error Status,Error Code,Error Source,Left Motor Output,Left Motor Encoder,Right Motor Output,Right Motor Encoder,Is Level,Is Stalled,Ball Detector Photoeye,Vision Enabled,Vision Teleop Control,Vision Auto Control,Vision Current State,Vision X Output,Vision NavX Error,Vision NavX Target,NavX Connection Status,NavX Displacement X,NavX Displacement Y,NavX Displacement Z,NavX Velocity X,NavX Velocity Y,NavX Velocity Z,NavX Acceleration X,NavX Acceleration Y,NavX Acceleration Z,NavX Pitch,NavX Yaw,NavX Roll,Gyro Angle,Roller Arm State,Roller Arm Actual,Roller Arm Desired,Shooter Arm State,Shooter Arm Actual,Shooter Arm Desired,Shooter State,Actual RPM Left,Desired RPM Left,Control Mode Left,Actual RPM Right,Desired RPM Right,Control Mode Right,Ball Shooter Cylinder,Ball Halo Cylinder,Scaler Motor Output,Scaler Solenoid Fire,Auto To Run,Auto Current File,Auto File Status,Auto Current Command,Auto Trimmed Command,Shooter Amps Left,Shooter Amps Right
10:06:37.757 AM 04/09/2016,Teleop Enabled,10,FALSE,0,NO ERROR,-0.000000,0.154000,-0.000000,0.000000,FALSE,FALSE,FALSE,FALSE,FALSE,FALSE,Disabled,0.000000,0.000000,0.000000,TRUE,-2.605698,-0.402023,0.000000,-0.002151,-0.007080,0.000000,0.069000,-0.146000,-0.029000,-0.020000,-3.000000,5.100000,-0.015633,ResetBack,1.807129,-0.000049,ResetBack,-25418.000000,-0.250000,Suck,0.000000,1818.181818,Speed,0.000000,1818.181818,Speed,Off,On,0.000000,FALSE,0,,,,,0.000000,0.000000
10:06:37.858 AM 04/09/2016,Teleop Enabled,11,FALSE,0,NO ERROR,-0.000000,0.179666,-0.000000,-0.006417,FALSE,FALSE,FALSE,FALSE,FALSE,FALSE,Disabled,0.000000,0.000000,0.000000,TRUE,-2.604370,-0.404480,0.000000,0.058487,-0.044189,0.000000,0.130000,-0.032000,0.000000,-0.020000,-2.970000,5.110000,-0.003701,ResetBack,0.433105,-0.000049,ResetBack,-22790.000000,-0.250000,Suck,-67.500000,1818.181818,Speed,-15.000000,1818.181818,Speed,Off,On,0.000000,FALSE,0,,,,,0.000000,0.000000
10:06:37.958 AM 04/09/2016,Teleop Enabled,9,FALSE,0,NO ERROR,-0.000000,0.211750,-0.000000,0.019250,FALSE,FALSE,FALSE,FALSE,FALSE,FALSE,Disabled,0.000000,0.000000,0.000000,TRUE,-2.601959,-0.405853,0.000000,0.067596,-0.030792,0.000000,0.130000,-0.032000,0.000000,0.020000,-2.900000,5.180000,0.038870,ResetBack,0.102539,-0.000049,ResetBack,-22790.000000,-0.250000,Suck,-555.000000,1818.181818,Speed,-405.000000,1818.181818,Speed,Off,On,0.000000,FALSE,0,,,,,0.000000,0.000000
10:06:38.058 AM 04/09/2016,Teleop Enabled,11,FALSE,0,NO ERROR,-0.000000,0.205333,-0.000000,0.006417,FALSE,FALSE,FALSE,FALSE,FALSE,FALSE,Disabled,0.000000,0.000000,0.000000,TRUE,-2.598755,-0.406006,0.000000,0.064575,0.011551,0.000000,-0.042000,0.009000,0.034000,0.020000,-2.980000,5.180000,0.019922,ResetBack,0.076416,-0.000049,ResetBack,-18983.000000,-0.250000,Suck,-1252.500000,1818.181818,Speed,-772.500000,1818.181818,Speed,Off,On,0.000000,FALSE,0,,,,,0.000000,0.000000
10:06:38.158 AM 04/09/2016,Teleop Enabled,9,FALSE,0,NO ERROR,-0.000000,0.205333,-0.000000,0.012833,FALSE,FALSE,FALSE,FALSE,FALSE,FALSE,Disabled,0.000000,0.000000,0.000000,TRUE,-2.596481,-0.406677,0.000000,0.056671,-0.054138,0.000000,0.019000,-0.096000,0.034000,0.020000,-2.980000,5.180000,0.015171,Reset,0.023926,0.000000,ResetBack,-14555.000000,-0.250000,Suck,-1777.500000,1818.181818,Speed,-1312.500000,1818.181818,Speed,Off,On,0.000000,FALSE,0,,,,,0.000000,0.000000
10:06:38.260 AM 04/09/2016,Teleop Enabled,10,FALSE,0,NO ERROR,-0.000000,0.205333,-0.000000,0.019250,FALSE,FALSE,FALSE,FALSE,FALSE,FALSE,Disabled,0.000000,0.000000,0.000000,TRUE,-2.596481,-0.406677,0.000000,0.056671,-0.054138,0.000000,0.019000,-0.096000,0.034000,0.010000,-2.990000,5.190000,0.015767,Hold,0.839355,0.000000,ResetBack,-9616.000000,-0.250000,Suck,-1912.500000,1818.181818,Speed,-2085.000000,1818.181818,Speed,Off,On,0.000000,FALSE,0,,,,,0.000000,0.000000
10:06:38.361 AM 04/09/2016,Teleop Enabled,11,FALSE,0,NO ERROR,-0.000000,0.205333,-0.000000,0.012833,FALSE,FALSE,FALSE,FALSE,FALSE,FALSE,Disabled,0.000000,0.000000,0.000000,TRUE,-2.591797,-0.425064,0.000000,0.048920,-0.237411,0.000000,0.024000,-0.106000,0.078000,0.000000,-2.960000,5.140000,0.037655,Hold,1.254395,0.000000,ResetBack,-5516.000000,-0.250000,Suck,-1845.000000,1818.181818,Speed,-2070.000000,1818.181818,Speed,Off,On,0.000000,FALSE,0,,,,,0.000000,0.000000
10:06:38.463 AM 04/09/2016,Teleop Enabled,11,FALSE,0,NO ERROR,-0.000000,0.205333,-0.000000,0.012833,FALSE,FALSE,FALSE,FALSE,FALSE,FALSE,Disabled,0.000000,0.000000,0.000000,TRUE,-2.589249,-0.437103,0.000000,0.074783,-0.255798,0.000000,-0.052000,0.002000,0.047000,0.000000,-2.960000,5.140000,0.015946,Hold,1.248047,0.000000,ResetBack,-3598.000000,-0.250000,Suck,-1800.000000,1818.181818,Speed,-1755.000000,1818.181818,Speed,Off,On,0.000000,FALSE,0,,,,,0.000000,0.000000
10:06:38.565 AM 04/09/2016,Teleop Enabled,11,FALSE,0,NO ERROR,-0.000000,0.205333,-0.000000,0.019250,FALSE,FALSE,FALSE,FALSE,FALSE,FALSE,Disabled,0.000000,0.000000,0.000000,TRUE,-2.583664,-0.450241,0.000000,0.126389,-0.272720,0.000000,0.113000,0.002000,0.008000,0.000000,-2.940000,5.140000,0.013991,Hold,1.248047,0.000000,ResetBack,-3598.000000,-0.250000,Suck,-1792.500000,1818.181818,Speed,-1650.000000,1818.181818,Speed,Off,On,0.000000,FALSE,0,,,,,0.000000,0.000000
10:06:38.665 AM 04/09/2016,Teleop Enabled,11,FALSE,0,NO ERROR,-0.000000,0.205333,-0.000000,0.012833,FALSE,FALSE,FALSE,FALSE,FALSE,FALSE,Disabled,0.000000,0.000000,0.000000,TRUE,-2.583664,-0.450241,0.000000,0.126389,-0.272720,0.000000,-0.102000,0.077000,0.038000,0.000000,-2.890000,5.130000,0.029534,Hold,1.248047,0.000000,ResetBack,-2320.000000,-0.250000,Suck,-1792.500000,1818.181818,Speed,-1740.000000,1818.181818,Speed,Off,On,0.000000,FALSE,0,,,,,0.000000,0.000000
10:06:38.766 AM 04/09/2016,Teleop Enabled,10,FALSE,0,NO ERROR,-0.000000,0.205333,-0.000000,0.012833,FALSE,FALSE,FALSE,FALSE,FALSE,FALSE,Disabled,0.000000,0.000000,0.000000,TRUE,-2.567795,-0.477615,0.000000,0.167862,0.000000,0.000000,0.030000,-0.030000,-0.024000,0.000000,-2.890000,5.160000,0.030071,Hold,1.248047,0.000000,ResetBack,-793.000000,-0.250000,Suck,-1800.000000,1818.181818,Speed,-1807.500000,1818.181818,Speed,Off,On,0.000000,FALSE,0,,,,,0.000000,0.000000
10:06:38.867 AM 04/09/2016,Teleop Enabled,11,FALSE,0,NO ERROR,-0.000000,0.205333,-0.000000,0.012833,FALSE,FALSE,FALSE,FALSE,FALSE,FALSE,Disabled,0.000000,0.000000,0.000000,TRUE,-2.561920,-0.477051,0.000000,0.137711,0.026276,0.000000,-0.029000,0.026000,0.008000,0.000000,-2.850000,5.140000,0.026924,Hold,1.248047,0.000000,ResetBack,-310.000000,-0.250000,Suck,-1800.000000,1818.181818,Speed,-1762.500000,1818.181818,Speed,Off,On,0.000000,FALSE,0,,,,,0.000000,0.000000
10:06:38.968 AM 04/09/2016,Teleop Enabled,11,FALSE,0,NO ERROR,-0.000000,0.205333,-0.000000,0.012833,FALSE,FALSE,FALSE,FALSE,FALSE,FALSE,Disabled,0.000000,0.000000,0.000000,TRUE,-2.554199,-0.475403,0.000000,0.139557,0.002884,0.000000,-0.029000,0.026000,0.008000,0.000000,-2.850000,5.140000,0.038598,Hold,1.248047,0.000000,ResetBack,-107.000000,-0.250000,Suck,-1800.000000,1818.181818,Speed,-1732.500000,1818.181818,Speed,Off,On,0.000000,FALSE,0,,,,,0.000000,0.000000
10:06:39.069 AM 04/09/2016,Teleop Enabled,10,FALSE,0,NO ERROR,-0.000000,0.205333,-0.000000,0.012833,FALSE,FALSE,FALSE,FALSE,FALSE,FALSE,Disabled,0.000000,0.000000,0.000000,TRUE,-2.547424,-0.476700,0.000000,0.127090,-0.032593,0.000000,-0.049000,-0.080000,0.013000,0.000000,-2.910000,5.120000,0.052792,Hold,1.248047,0.000000,Reset,-9.000000,2.000000,Suck,-1792.500000,1818.181818,Speed,-1732.500000,1818.181818,Speed,Off,On,0.000000,FALSE,0,,,,,0.000000,0.000000
10:06:39.169 AM 04/09/2016,Teleop Enabled,10,FALSE,0,NO ERROR,-0.000000,0.205333,-0.000000,0.012833,FALSE,FALSE,FALSE,FALSE,FALSE,FALSE,Disabled,0.000000,0.000000,0.000000,TRUE,-2.547958,-0.476730,0.000000,-0.004456,0.006454,0.000000,-0.001000,0.095000,0.010000,0.000000,-2.910000,5.120000,0.065326,Hold,1.248047,0.000000,Hold,-108.000000,2.000000,Suck,-1800.000000,1818.181818,Speed,-1762.500000,1818.181818,Speed,Off,On,0.000000,FALSE,0,,,,,0.000000,0.000000
10:06:39.270 AM 04/09/2016,Teleop Enabled,9,FALSE,0,NO ERROR,-0.000000,0.205333,-0.000000,0.012833,FALSE,FALSE,FALSE,FALSE,FALSE,FALSE,Disabled,0.000000,0.000000,0.000000,TRUE,-2.547958,-0.476730,0.000000,-0.004456,0.006454,0.000000,-0.064000,0.071000,0.071000,0.000000,-2.900000,5.110000,0.057360,Hold,1.248047,0.000000,Hold,-108.000000,2.000000,Suck,-1800.000000,1818.181818,Speed,-1762.500000,1818.181818,Speed,Off,On,0.000000,FALSE,0,,,,,0.000000,0.000000
10:06:39.370 AM 04/09/2016,Teleop Enabled,9,FALSE,0,NO ERROR,-0.000000,0.205333,-0.000000,0.012833,FALSE,FALSE,FALSE,FALSE,FALSE,FALSE,Disabled,0.000000,0.000000,0.000000,TRUE,-2.547897,-0.476700,0.000000,0.002411,-0.018494,0.000000,0.045000,-0.053000,0.034000,0.000000,-2.910000,5.110000,0.059911,Hold,1.248047,0.000000,Hold,-108.000000,2.000000,Suck,-1800.000000,1818.181818,Speed,-1732.500000,1818.181818,Speed,Off,On,0.000000,FALSE,0,,,,,0.000000,0.000000
10:06:39.470 AM 04/09/2016,Teleop Enabled,11,FALSE,0,NO ERROR,-0.236220,0.320833,-0.236220,0.019250,FALSE,FALSE,FALSE,FALSE,FALSE,FALSE,Disabled,0.000000,0.000000,0.000000,TRUE,-2.548386,-0.478348,0.000000,-0.014847,-0.049286,0.000000,-0.024000,0.038000,-0.016000,0.000000,-2.900000,5.090000,0.102413,Hold,1.248047,0.000000,Hold,-108.000000,2.000000,Suck,-1800.000000,1818.181818,Speed,-1702.500000,1818.181818,Speed,Off,On,0.000000,FALSE,0,,,,,0.000000,0.000000
10:06:39.570 AM 04/09/2016,Teleop Enabled,9,FALSE,0,NO ERROR,-0.000000,0.660915,-0.000000,0.179666,FALSE,FALSE,FALSE,FALSE,FALSE,FALSE,Disabled,0.000000,0.000000,0.000000,TRUE,-2.548386,-0.478348,0.000000,-0.014847,-0.049286,0.000000,-0.081000,-0.042000,-0.011000,0.090000,-3.130000,5.140000,0.649628,Hold,1.248047,0.000000,Hold,-108.000000,2.000000,Suck,-1800.000000,1818.181818,Speed,-1770.000000,1818.181818,Speed,Off,On,0.000000,FALSE,0,,,,,0.000000,0.000000
10:06:39.671 AM 04/09/2016,Teleop Enabled,8,FALSE,0,NO ERROR,-0.000000,0.660915,-0.000000,0.596749,FALSE,FALSE,FALSE,FALSE,FALSE,FALSE,Disabled,0.000000,0.000000,0.000000,TRUE,-2.550064,-0.480255,0.000000,-0.048599,0.000000,0.000000,0.072000,0.012000,0.068000,0.620000,-3.400000,5.060000,0.235292,Hold,1.248047,0.000000,Hold,-108.000000,2.000000,Suck,-1792.500000,1818.181818,Speed,-1792.500000,1818.181818,Speed,Off,On,0.000000,FALSE,0,,,,,0.000000,0.000000
10:06:39.771 AM 04/09/2016,Teleop Enabled,10,FALSE,0,NO ERROR,-0.000000,0.628832,-0.000000,0.513332,FALSE,FALSE,FALSE,FALSE,FALSE,FALSE,Disabled,0.000000,0.000000,0.000000,TRUE,-2.549988,-0.479675,0.000000,0.043045,0.025299,0.000000,-0.002000,0.031000,0.081000,0.130000,-3.090000,4.990000,0.337226,Hold,1.248047,0.000000,Hold,-108.000000,2.000000,Suck,-1800.000000,1818.181818,Speed,-1785.000000,1818.181818,Speed,Off,On,0.000000,FALSE,0,,,,,0.000000,0.000000
10:06:39.871 AM 04/09/2016,Teleop Enabled,11,FALSE,0,NO ERROR,-0.000000,0.577499,-0.000000,0.487666,FALSE,FALSE,FALSE,FALSE,FALSE,FALSE,Disabled,0.000000,0.000000,0.000000,TRUE,-2.548355,-0.478271,0.000000,0.000000,0.021515,0.000000,0.010000,-0.081000,-0.013000,0.260000,-3.140000,5.040000,0.311283,Hold,1.248047,0.000000,Hold,-108.000000,2.000000,Suck,-1800.000000,1818.181818,Speed,-1747.500000,1818.181818,Speed,Off,On,0.000000,FALSE,0,,,,,0.000000,0.000000
10:06:39.971 AM 04/09/2016,Teleop Enabled,10,FALSE,0,NO ERROR,-0.000000,0.577499,-0.000000,0.487666,FALSE,FALSE,FALSE,FALSE,FALSE,FALSE,Disabled,0.000000,0.000000,0.000000,TRUE,-2.548996,-0.478745,0.000000,-0.008865,-0.016190,0.000000,-0.030000,-0.022000,0.027000,0.210000,-3.130000,5.060000,0.315190,Hold,1.248047,0.000000,Hold,-108.000000,2.000000,Suck,-1800.000000,1818.181818,Speed,-1740.000000,1818.181818,Speed,Off,On,0.000000,FALSE,0,,,,,0.000000,0.000000
10:06:40.071 AM 04/09/2016,Teleop Enabled,10,FALSE,0,NO ERROR,-0.000000,0.577499,-0.000000,0.487666,FALSE,FALSE,FALSE,FALSE,FALSE,FALSE,Disabled,0.000000,0.000000,0.000000,TRUE,-2.548447,-0.479965,0.000000,0.027924,-0.038925,0.000000,0.076000,-0.055000,-0.014000,0.210000,-3.120000,5.050000,0.315190,Hold,1.248047,0.000000,Hold,-108.000000,2.000000,Suck,-1792.500000,1818.181818,Speed,-1770.000000,1818.181818,Speed,Off,On,0.000000,FALSE,0,,,,,0.000000,0.000000
10:06:40.172 AM 04/09/2016,Teleop Enabled,9,FALSE,0,NO ERROR,-0.000000,0.577499,-0.000000,0.487666,FALSE,FALSE,FALSE,FALSE,FALSE,FALSE,Disabled,0.000000,0.000000,0.000000,TRUE,-2.547180,-0.482635,0.000000,0.029373,-0.037231,0.000000,-0.069000,0.017000,0.024000,0.210000,-3.110000,5.080000,0.340541,Hold,1.248047,0.000000,Hold,-108.000000,2.000000,Suck,-1800.000000,1818.181818,Speed,-1762.500000,1818.181818,Speed,Off,On,0.000000,FALSE,0,,,,,0.000000,0.000000
10:06:40.272 AM 04/09/2016,Teleop Enabled,10,FALSE,0,NO ERROR,-0.000000,0.577499,-0.000000,0.487666,FALSE,FALSE,FALSE,FALSE,FALSE,FALSE,Disabled,0.000000,0.000000,0.000000,TRUE,-2.545288,-0.482437,0.000000,0.038940,0.012085,0.000000,0.080000,-0.075000,0.051000,0.210000,-3.100000,5.120000,0.345798,Hold,1.248047,0.000000,Hold,-108.000000,2.000000,Suck,-1800.000000,1818.181818,Speed,-1740.000000,1818.181818,Speed,Off,On,0.000000,FALSE,0,,,,,0.000000,0.000000
10:06:40.372 AM 04/09/2016,Teleop Enabled,10,FALSE,0,NO ERROR,-0.000000,0.577499,-0.000000,0.487666,FALSE,FALSE,FALSE,FALSE,FALSE,FALSE,Disabled,0.000000,0.000000,0.000000,TRUE,-2.544189,-0.483231,0.000000,0.004654,-0.029984,0.000000,-0.060000,-0.060000,0.031000,0.200000,-3.020000,5.110000,0.355375,Hold,1.248047,0.000000,Hold,-108.000000,2.000000,Suck,-1792.500000,1818.181818,Speed,-1725.000000,1818.181818,Speed,Off,On,0.000000,FALSE,0,,,,,0.000000,0.000000
10:06:40.473 AM 04/09/2016,Teleop Enabled,9,FALSE,0,NO ERROR,-0.000000,0.577499,-0.000000,0.487666,FALSE,FALSE,FALSE,FALSE,FALSE,FALSE,Disabled,0.000000,0.000000,0.000000,TRUE,-2.544708,-0.484573,0.000000,-0.025909,-0.007553,0.000000,0.032000,0.081000,0.060000,0.200000,-3.040000,5.090000,0.334827,Hold,1.248047,0.000000,Hold,-108.000000,2.000000,Suck,-1792.500000,1818.181818,Speed,-1762.500000,1818.181818,Speed,Off,On,0.000000,FALSE,0,,,,,0.000000,0.000000
10:06:40.573 AM 04/09/2016,Teleop Enabled,11,FALSE,0,NO ERROR,-0.228346,0.577499,0.228346,0.487666,FALSE,FALSE,FALSE,FALSE,FALSE,FALSE,Disabled,0.000000,0.000000,0.000000,TRUE,-2.547073,-0.483047,0.000000,-0.034912,0.015366,0.000000,0.015000,-0.016000,0.027000,0.200000,-3.090000,5.070000,0.346166,Hold,1.248047,0.000000,Hold,-108.000000,2.000000,Suck,-1785.000000,1818.181818,Speed,-1785.000000,1818.181818,Speed,Off,On,0.000000,FALSE,0,,,,,0.000000,0.000000
10:06:40.673 AM 04/09/2016,Teleop Enabled,11,FALSE,0,NO ERROR,-0.307087,0.224583,0.307087,0.397832,FALSE,FALSE,FALSE,FALSE,FALSE,FALSE,Disabled,0.000000,0.000000,0.000000,TRUE,-2.547668,-0.482895,0.000000,0.002243,0.000000,0.000000,0.116000,0.086000,-0.019000,0.140000,-2.840000,5.090000,0.328623,Hold,1.248047,0.000000,Hold,-108.000000,2.000000,Suck,-1792.500000,1818.181818,Speed,-1785.000000,1818.181818,Speed,Off,On,0.000000,FALSE,0,,,,,0.000000,0.000000
10:06:40.773 AM 04/09/2016,Teleop Enabled,4,FALSE,0,NO ERROR,-0.307087,-0.641665,0.307087,-0.519749,FALSE,FALSE,FALSE,FALSE,FALSE,FALSE,Disabled,0.000000,0.000000,0.000000,TRUE,-2.540497,-0.482437,0.000000,0.197510,0.009933,0.000000,0.067000,-0.073000,-0.120000,0.000000,-1.640000,5.140000,0.210592,Hold,1.246338,0.000000,Hold,-108.000000,2.000000,Suck,-1792.500000,1818.181818,Speed,-1762.500000,1818.181818,Speed,Off,On,0.000000,FALSE,0,,,,,0.000000,0.000000
10:06:40.873 AM 04/09/2016,Teleop Enabled,7,FALSE,0,NO ERROR,-0.307087,-1.899329,0.307087,-1.674746,FALSE,FALSE,FALSE,FALSE,FALSE,FALSE,Disabled,0.000000,0.000000,0.000000,TRUE,-2.529846,-0.481903,0.000000,0.218140,0.015656,0.000000,0.008000,-0.127000,-0.065000,-0.390000,-0.940000,5.410000,-0.131134,Hold,1.246338,0.000000,Hold,-108.000000,2.000000,Suck,-1785.000000,1818.181818,Speed,-1747.500000,1818.181818,Speed,Off,On,0.000000,FALSE,0,,,,,0.000000,0.000000
10:06:40.973 AM 04/09/2016,Teleop Enabled,11,FALSE,0,NO ERROR,-0.314961,-3.554825,0.314961,-3.144159,FALSE,FALSE,FALSE,FALSE,FALSE,FALSE,Disabled,0.000000,0.000000,0.000000,TRUE,-2.529205,-0.482346,0.000000,0.032623,-0.034882,0.000000,-0.045000,0.044000,-0.069000,-0.310000,0.540000,5.870000,-0.147118,Hold,1.211426,0.000000,Hold,-108.000000,2.000000,Suck,-1785.000000,1818.181818,Speed,-1725.000000,1818.181818,Speed,Off,On,0.000000,FALSE,0,,,,,0.000000,0.000000
10:06:41.076 AM 04/09/2016,Teleop Enabled,12,FALSE,0,NO ERROR,-0.314961,-5.139738,0.314961,-4.844572,FALSE,FALSE,FALSE,FALSE,FALSE,FALSE,Disabled,0.000000,0.000000,0.000000,TRUE,-2.525513,-0.483490,0.000000,0.126480,-0.004471,0.000000,0.127000,-0.051000,-0.094000,0.030000,0.790000,5.790000,0.221181,Hold,1.181396,0.000000,Hold,-108.000000,2.000000,Suck,-1785.000000,1818.181818,Speed,-1762.500000,1818.181818,Speed,Off,On,0.000000,FALSE,0,,,,,0.000000,0.000000
10:06:41.176 AM 04/09/2016,Teleop Enabled,10,FALSE,0,NO ERROR,-0.346457,-7.128900,0.346457,-6.994150,FALSE,FALSE,FALSE,FALSE,FALSE,FALSE,Disabled,0.000000,0.000000,0.000000,TRUE,-2.517975,-0.485367,0.000000,0.128464,-0.081253,0.000000,-0.037000,0.057000,0.105000,0.350000,0.130000,4.320000,0.620628,Hold,1.121094,0.000000,Hold,-108.000000,2.000000,Suck,-1792.500000,1818.181818,Speed,-1762.500000,1818.181818,Speed,Off,On,0.000000,FALSE,0,,,,,0.000000,0.000000
10:06:41.276 AM 04/09/2016,Teleop Enabled,8,FALSE,0,NO ERROR,-0.346457,-9.310562,0.346457,-9.034646,FALSE,FALSE,FALSE,FALSE,FALSE,FALSE,Disabled,0.000000,0.000000,0.000000,TRUE,-2.511520,-0.490112,0.000000,0.168198,-0.064728,0.000000,-0.108000,-0.202000,-0.382000,-0.060000,-1.110000,3.000000,0.364577,Hold,1.122803,0.000000,Hold,-108.000000,2.000000,Suck,-1800.000000,1818.181818,Speed,-1740.000000,1818.181818,Speed,Off,On,0.000000,FALSE,0,,,,,0.000000,0.000000
10:06:41.376 AM 04/09/2016,Teleop Enabled,8,FALSE,0,NO ERROR,-0.346457,-11.832306,0.346457,-11.530723,FALSE,FALSE,FALSE,FALSE,FALSE,FALSE,Disabled,0.000000,0.000000,0.000000,TRUE,-2.503769,-0.496063,0.000000,0.093353,-0.148376,0.000000,-0.332000,-0.019000,0.063000,-0.050000,-0.310000,3.330000,0.281298,Hold,1.102051,0.000000,Hold,-108.000000,2.000000,Suck,-1800.000000,1818.181818,Speed,-1710.000000,1818.181818,Speed,Off,On,0.000000,FALSE,0,,,,,0.000000,0.000000
10:06:41.479 AM 04/09/2016,Teleop Enabled,9,FALSE,0,NO ERROR,-0.346457,-14.155134,0.346457,-13.622551,FALSE,FALSE,FALSE,FALSE,FALSE,FALSE,Disabled,0.000000,0.000000,0.000000,TRUE,-2.508286,-0.506714,0.000000,-0.057251,-0.138733,0.000000,0.029000,0.060000,-0.077000,-1.480000,-1.630000,3.240000,-0.995822,Hold,1.145508,0.000000,Hold,-108.000000,2.000000,Suck,-1792.500000,1818.181818,Speed,-1717.500000,1818.181818,Speed,Off,On,0.000000,FALSE,0,,,,,0.000000,0.000000
10:06:41.580 AM 04/09/2016,Teleop Enabled,10,FALSE,0,NO ERROR,-0.346457,-16.169962,0.346457,-15.861963,FALSE,FALSE,FALSE,FALSE,FALSE,FALSE,Disabled,0.000000,0.000000,0.000000,TRUE,-2.508926,-0.511398,0.000000,0.021729,-0.112625,0.000000,0.090000,-0.030000,-0.445000,-1.180000,-1.250000,3.320000,-0.860646,Hold,1.143066,0.000000,Hold,-108.000000,2.000000,Suck,-1792.500000,1818.181818,Speed,-1755.000000,1818.181818,Speed,Off,On,0.000000,FALSE,0,,,,,0.000000,0.000000
10:06:41.680 AM 04/09/2016,Teleop Enabled,9,FALSE,0,NO ERROR,-0.346457,-18.537707,0.346457,-18.608290,TRUE,FALSE,FALSE,FALSE,FALSE,FALSE,Disabled,0.000000,0.000000,0.000000,TRUE,-2.504364,-0.516525,0.000000,0.089905,-0.116608,0.000000,-0.418000,-0.083000,0.719000,-0.330000,2.250000,2.720000,-0.048578,Hold,1.083984,0.000000,Hold,-108.000000,2.000000,Suck,-1800.000000,1818.181818,Speed,-1807.500000,1818.181818,Speed,Off,On,0.000000,FALSE,0,,,,,0.000000,0.000000
10:06:41.781 AM 04/09/2016,Teleop Enabled,11,FALSE,0,NO ERROR,-0.346457,-20.995284,0.346457,-21.200617,TRUE,FALSE,FALSE,FALSE,FALSE,FALSE,Disabled,0.000000,0.000000,0.000000,TRUE,-2.507309,-0.524170,0.000000,-0.103516,-0.177917,0.000000,0.168000,0.058000,-0.146000,-0.280000,1.620000,2.530000,0.035624,Hold,1.106934,0.000000,Hold,-108.000000,2.000000,Suck,-1800.000000,1818.181818,Speed,-1777.500000,1818.181818,Speed,Off,On,0.000000,FALSE,0,,,,,0.000000,0.000000
10:06:41.881 AM 04/09/2016,Teleop Enabled,9,FALSE,0,NO ERROR,-0.346457,-23.363029,0.346457,-23.523445,TRUE,FALSE,FALSE,FALSE,FALSE,FALSE,Disabled,0.000000,0.000000,0.000000,TRUE,-2.510025,-0.532745,0.000000,-0.047897,-0.174866,0.000000,-0.105000,-0.130000,-0.104000,-0.280000,1.620000,2.530000,-0.143703,Hold,1.083252,0.000000,Hold,-108.000000,2.000000,Suck,-1792.500000,1818.181818,Speed,-1762.500000,1818.181818,Speed,Off,On,0.000000,FALSE,0,,,,,0.000000,0.000000
10:06:41.982 AM 04/09/2016,Teleop Enabled,11,FALSE,0,NO ERROR,-0.314961,-25.852690,0.314961,-25.948939,TRUE,FALSE,FALSE,FALSE,FALSE,FALSE,Disabled,0.000000,0.000000,0.000000,TRUE,-2.514816,-0.542465,0.000000,-0.121857,-0.167389,0.000000,-0.105000,-0.130000,-0.104000,-0.700000,1.490000,2.550000,-0.356780,Hold,1.088379,0.000000,Hold,-108.000000,2.000000,Suck,-1792.500000,1818.181818,Speed,-1732.500000,1818.181818,Speed,Off,On,0.000000,FALSE,0,,,,,0.000000,0.000000
10:06:42.083 AM 04/09/2016,Teleop Enabled,11,FALSE,0,NO ERROR,-0.000000,-28.201184,-0.000000,-28.252517,TRUE,FALSE,FALSE,FALSE,FALSE,FALSE,Disabled,0.000000,0.000000,0.000000,TRUE,-2.524048,-0.548157,0.000000,-0.167114,0.000000,0.000000,-0.012000,0.000000,0.081000,-0.830000,1.120000,2.530000,-0.496978,Hold,1.092773,0.000000,Hold,-108.000000,2.000000,Suck,-1800.000000,1818.181818,Speed,-1687.500000,1818.181818,Speed,Off,On,0.000000,FALSE,0,,,,,0.000000,0.000000
10:06:42.183 AM 04/09/2016,Teleop Enabled,10,FALSE,0,NO ERROR,-0.275591,-29.234265,-0.275591,-29.837430,TRUE,FALSE,FALSE,FALSE,FALSE,FALSE,Disabled,0.000000,0.000000,0.000000,TRUE,-2.538132,-0.548004,0.000000,-0.406891,0.008530,0.000000,-0.093000,0.032000,0.005000,-0.720000,-0.850000,2.750000,-0.591965,Hold,1.117432,0.000000,Hold,-108.000000,2.000000,Suck,-1800.000000,1818.181818,Speed,-1650.000000,1818.181818,Speed,Off,On,0.000000,FALSE,0,,,,,0.000000,0.000000
10:06:42.283 AM 04/09/2016,Teleop Enabled,11,FALSE,0,NO ERROR,-0.000000,-28.746599,-0.000000,-31.525010,FALSE,FALSE,FALSE,FALSE,FALSE,FALSE,Disabled,0.000000,0.000000,0.000000,TRUE,-2.561172,-0.545837,0.000000,-0.496597,0.057465,0.000000,-0.099000,0.105000,0.155000,2.100000,-0.950000,3.110000,1.508481,Hold,1.117676,0.000000,Hold,-108.000000,2.000000,Suck,-1792.500000,1818.181818,Speed,-1777.500000,1818.181818,Speed,Off,On,0.000000,FALSE,0,,,,,0.000000,0.000000
10:06:42.385 AM 04/09/2016,Teleop Enabled,10,FALSE,0,NO ERROR,-0.000000,-28.181934,-0.000000,-33.071423,TRUE,FALSE,FALSE,FALSE,FALSE,FALSE,Disabled,0.000000,0.000000,0.000000,TRUE,-2.589264,-0.541061,0.000000,-0.595123,0.112167,0.000000,-0.079000,-0.056000,-0.162000,6.830000,-0.480000,2.840000,6.007529,Hold,1.117676,0.000000,Hold,-108.000000,2.000000,Suck,-1785.000000,1818.181818,Speed,-1777.500000,1818.181818,Speed,Off,On,0.000000,FALSE,0,,,,,0.000000,0.000000
10:06:42.487 AM 04/09/2016,Teleop Enabled,10,FALSE,0,NO ERROR,-0.000000,-27.906018,-0.000000,-33.373005,TRUE,FALSE,FALSE,FALSE,FALSE,FALSE,Disabled,0.000000,0.000000,0.000000,TRUE,-2.621918,-0.537994,0.000000,-0.708344,0.025070,0.000000,0.110000,-0.022000,0.045000,6.830000,-0.480000,2.840000,8.676327,Hold,1.110596,0.000000,Hold,-108.000000,2.000000,Suck,-1800.000000,1818.181818,Speed,-1740.000000,1818.181818,Speed,Off,On,0.000000,FALSE,0,,,,,0.000000,0.000000
10:06:42.586 AM 04/09/2016,Teleop Enabled,10,FALSE,0,NO ERROR,-0.000000,-27.944518,-0.000000,-33.366589,TRUE,FALSE,FALSE,FALSE,FALSE,FALSE,Disabled,0.000000,0.000000,0.000000,TRUE,-2.656006,-0.537521,0.000000,-0.662308,-0.015289,0.000000,0.043000,-0.047000,-0.041000,8.360000,-1.310000,2.390000,8.333872,Hold,1.109375,0.000000,Hold,-108.000000,2.000000,Suck,-1800.000000,1818.181818,Speed,-1800.000000,1818.181818,Speed,Off,On,0.000000,FALSE,0,,,,,0.000000,0.000000
10:06:42.686 AM 04/09/2016,Teleop Enabled,11,FALSE,0,NO ERROR,0.244094,-27.983018,-0.244094,-33.366589,TRUE,FALSE,FALSE,FALSE,FALSE,FALSE,Disabled,0.000000,0.000000,0.000000,TRUE,-2.688156,-0.537872,0.000000,-0.626450,0.024490,0.000000,0.043000,-0.047000,-0.041000,8.360000,-1.310000,2.390000,8.019659,Hold,1.109131,0.000000,Hold,-108.000000,2.000000,Suck,-1800.000000,1818.181818,Speed,-1830.000000,1818.181818,Speed,Off,On,0.000000,FALSE,0,,,,,0.000000,0.000000
10:06:42.787 AM 04/09/2016,Teleop Enabled,10,FALSE,0,NO ERROR,0.236220,-27.251520,-0.236220,-32.757007,TRUE,FALSE,FALSE,FALSE,FALSE,FALSE,Disabled,0.000000,0.000000,0.000000,TRUE,-2.728439,-0.533066,0.000000,-0.727966,0.112930,0.000000,-0.034000,-0.066000,-0.100000,8.240000,-2.590000,2.480000,8.193292,Hold,1.109131,0.000000,Hold,-108.000000,2.000000,Suck,-1792.500000,1818.181818,Speed,-1755.000000,1818.181818,Speed,Off,On,0.000000,FALSE,0,,,,,0.000000,0.000000
10:06:42.889 AM 04/09/2016,Teleop Enabled,9,FALSE,0,NO ERROR,-0.000000,-26.282605,-0.000000,-31.820176,TRUE,FALSE,FALSE,FALSE,FALSE,FALSE,Disabled,0.000000,0.000000,0.000000,TRUE,-2.766357,-0.528778,0.000000,-0.783783,0.055817,0.000000,-0.034000,-0.066000,-0.100000,8.240000,-2.590000,2.480000,8.208501,Hold,1.109131,0.000000,Hold,-108.000000,2.000000,Suck,-1792.500000,1818.181818,Speed,-1642.500000,1818.181818,Speed,Off,On,0.000000,FALSE,0,,,,,0.000000,0.000000
10:06:42.991 AM 04/09/2016,Teleop Enabled,10,FALSE,0,NO ERROR,-0.000000,-25.474107,-0.000000,-30.992428,TRUE,FALSE,FALSE,FALSE,FALSE,FALSE,Disabled,0.000000,0.000000,0.000000,TRUE,-2.805527,-0.526947,0.000000,-0.754028,0.013550,0.000000,-0.031000,0.003000,-0.032000,8.390000,-1.490000,2.510000,8.301409,Hold,1.097900,0.000000,Hold,-108.000000,2.000000,Suck,-1792.500000,1818.181818,Speed,-1560.000000,1818.181818,Speed,Off,On,0.000000,FALSE,0,,,,,0.000000,0.000000
10:06:43.090 AM 04/09/2016,Teleop Enabled,11,FALSE,0,NO ERROR,-0.000000,-24.928692,-0.000000,-30.543262,TRUE,FALSE,FALSE,FALSE,FALSE,FALSE,Disabled,0.000000,0.000000,0.000000,TRUE,-2.830688,-0.526657,0.000000,-0.586044,0.020126,0.000000,0.159000,-0.020000,-0.196000,8.460000,-0.080000,2.430000,8.390165,Hold,1.107666,0.000000,Hold,-108.000000,2.000000,Suck,-1792.500000,1818.181818,Speed,-1702.500000,1818.181818,Speed,Off,On,0.000000,FALSE,0,,,,,0.000000,0.000000
10:06:43.190 AM 04/09/2016,Teleop Enabled,8,FALSE,0,NO ERROR,0.212598,-24.704109,-0.212598,-30.318679,TRUE,FALSE,FALSE,FALSE,FALSE,FALSE,Disabled,0.000000,0.000000,0.000000,TRUE,-2.862518,-0.523865,0.000000,-0.502167,0.063705,0.000000,0.159000,-0.020000,-0.196000,8.460000,-0.080000,2.430000,8.470975,Hold,1.059082,0.000000,Hold,-108.000000,2.000000,Suck,-1792.500000,1818.181818,Speed,-1785.000000,1818.181818,Speed,Off,On,0.000000,FALSE,0,,,,,0.000000,0.000000
10:06:43.290 AM 04/09/2016,Teleop Enabled,9,FALSE,0,NO ERROR,0.228346,-24.267777,-0.228346,-29.908013,TRUE,FALSE,FALSE,FALSE,FALSE,FALSE,Disabled,0.000000,0.000000,0.000000,TRUE,-2.886795,-0.521301,0.000000,-0.506912,0.027222,0.000000,0.055000,-0.060000,-0.144000,8.460000,-1.090000,2.740000,8.446423,Hold,1.052002,0.000000,Hold,-108.000000,2.000000,Suck,-1792.500000,1818.181818,Speed,-1875.000000,1818.181818,Speed,Off,On,0.000000,FALSE,0,,,,,0.000000,0.000000
10:06:43.392 AM 04/09/2016,Teleop Enabled,11,FALSE,0,NO ERROR,0.244094,-23.606861,-0.244094,-29.240682,TRUE,FALSE,FALSE,FALSE,FALSE,FALSE,Disabled,0.000000,0.000000,0.000000,TRUE,-2.919128,-0.520767,0.000000,-0.697876,-0.004944,0.000000,-0.037000,0.035000,-0.316000,8.480000,-1.600000,2.510000,8.445204,Hold,1.058105,0.000000,Hold,-108.000000,2.000000,Suck,-1792.500000,1818.181818,Speed,-1875.000000,1818.181818,Speed,Off,On,0.000000,FALSE,0,,,,,0.000000,0.000000
10:06:43.493 AM 04/09/2016,Teleop Enabled,9,FALSE,0,NO ERROR,0.244094,-22.464697,-0.244094,-28.098518,TRUE,FALSE,FALSE,FALSE,FALSE,FALSE,Disabled,0.000000,0.000000,0.000000,TRUE,-2.955124,-0.520721,0.000000,-0.727066,0.000488,0.000000,-0.021000,-0.112000,-0.178000,8.520000,-1.570000,2.650000,8.452361,Hold,1.058594,0.000000,Hold,-108.000000,2.000000,Suck,-1792.500000,1818.181818,Speed,-1882.500000,1818.181818,Speed,Off,On,0.000000,FALSE,0,,,,,0.000000,0.000000
10:06:43.593 AM 04/09/2016,Teleop Enabled,11,FALSE,0,NO ERROR,0.266167,-21.123617,-0.206274,-26.751021,TRUE,FALSE,FALSE,FALSE,FALSE,FALSE,Disabled,0.000000,0.000000,0.000000,TRUE,-2.991577,-0.522064,0.000000,-0.728180,-0.027023,0.000000,-0.021000,-0.112000,-0.178000,8.540000,-1.650000,2.660000,8.474194,Hold,1.058594,0.000000,Hold,-108.000000,2.000000,Suck,-1792.500000,1818.181818,Speed,-1710.000000,1818.181818,Speed,Off,On,0.000000,FALSE,0,,,,,0.000000,0.000000
10:06:43.693 AM 04/09/2016,Teleop Enabled,10,FALSE,0,NO ERROR,0.275591,-19.814620,0.275591,-25.249524,TRUE,FALSE,FALSE,FALSE,FALSE,FALSE,Disabled,0.000000,0.000000,0.000000,TRUE,-3.034317,-0.522552,0.000000,-0.693817,0.025497,0.000000,0.033000,0.125000,0.153000,8.290000,-1.540000,2.560000,8.287890,Hold,1.058594,0.000000,Hold,-108.000000,2.000000,Suck,-1792.500000,1818.181818,Speed,-1710.000000,1818.181818,Speed,Off,On,0.000000,FALSE,0,,,,,0.000000,0.000000
10:06:43.795 AM 04/09/2016,Teleop Enabled,10,FALSE,0,NO ERROR,0.362205,-19.936537,0.362205,-23.709528,TRUE,FALSE,FALSE,FALSE,FALSE,FALSE,Disabled,0.000000,0.000000,0.000000,TRUE,-3.067352,-0.521545,0.000000,-0.638275,-0.031906,0.000000,0.033000,0.125000,0.153000,8.290000,-1.540000,2.560000,7.548346,Hold,1.058594,0.000000,Hold,-108.000000,2.000000,Suck,-1785.000000,1818.181818,Speed,-1672.500000,1818.181818,Speed,Off,On,0.000000,FALSE,0,,,,,0.000000,0.000000
10:06:43.895 AM 04/09/2016,Teleop Enabled,10,FALSE,0,NO ERROR,-0.000000,-21.078701,-0.000000,-21.867949,TRUE,FALSE,FALSE,FALSE,FALSE,FALSE,Disabled,0.000000,0.000000,0.000000,TRUE,-3.097794,-0.527710,0.000000,-0.597275,-0.164886,0.000000,0.018000,-0.160000,0.120000,2.500000,-0.220000,2.110000,3.444582,Hold,1.056396,0.000000,Hold,-108.000000,2.000000,Suck,-1785.000000,1818.181818,Speed,-1725.000000,1818.181818,Speed,Off,On,0.000000,FALSE,0,,,,,0.000000,0.000000
10:06:43.996 AM 04/09/2016,Teleop Enabled,10,FALSE,0,NO ERROR,-0.000000,-21.630533,-0.000000,-20.668035,TRUE,FALSE,FALSE,FALSE,FALSE,FALSE,Disabled,0.000000,0.000000,0.000000,TRUE,-3.119690,-0.529572,0.000000,-0.495102,-0.010788,0.000000,0.425000,0.143000,-0.144000,-3.050000,-0.090000,1.710000,-2.164849,Hold,1.049316,0.000000,Hold,-108.000000,2.000000,Suck,-1785.000000,1818.181818,Speed,-1830.000000,1818.181818,Speed,Off,On,0.000000,FALSE,0,,,,,0.000000,0.000000
10:06:44.097 AM 04/09/2016,Teleop Enabled,10,FALSE,0,NO ERROR,-0.000000,-21.810199,-0.000000,-20.283036,TRUE,FALSE,FALSE,FALSE,FALSE,FALSE,Disabled,0.000000,0.000000,0.000000,TRUE,-3.142990,-0.522522,0.000000,-0.360947,0.215561,0.000000,0.425000,0.143000,-0.144000,-4.350000,0.400000,2.720000,-3.911338,Hold,1.049316,0.000000,Hold,-108.000000,2.000000,Suck,-1785.000000,1818.181818,Speed,-1815.000000,1818.181818,Speed,Off,On,0.000000,FALSE,0,,,,,0.000000,0.000000
10:06:44.197 AM 04/09/2016,Teleop Enabled,11,FALSE,0,NO ERROR,-0.000000,-21.784532,-0.000000,-20.283036,TRUE,FALSE,FALSE,FALSE,FALSE,FALSE,Disabled,0.000000,0.000000,0.000000,TRUE,-3.160278,-0.514069,0.000000,-0.351120,0.112350,0.000000,0.115000,-0.057000,0.100000,-4.020000,0.390000,2.460000,-3.622291,Hold,1.049316,0.000000,Hold,-108.000000,2.000000,Suck,-1800.000000,1818.181818,Speed,-1740.000000,1818.181818,Speed,Off,On,0.000000,FALSE,0,,,,,0.000000,0.000000
10:06:44.298 AM 04/09/2016,Teleop Enabled,10,FALSE,0,NO ERROR,-0.000000,-21.784532,-0.000000,-20.283036,TRUE,FALSE,FALSE,FALSE,FALSE,FALSE,Disabled,0.000000,0.000000,0.000000,TRUE,-3.178482,-0.508743,0.000000,-0.376846,0.000000,0.000000,-0.096000,0.067000,0.017000,-4.020000,0.390000,2.460000,-3.600203,Hold,1.049316,0.000000,Hold,-108.000000,2.000000,Suck,-1807.500000,1818.181818,Speed,-1732.500000,1818.181818,Speed,Off,On,0.000000,FALSE,0,,,,,0.000000,0.000000
10:06:44.398 AM 04/09/2016,Teleop Enabled,9,FALSE,0,NO ERROR,-0.000000,-21.784532,-0.000000,-20.289453,TRUE,FALSE,FALSE,FALSE,FALSE,FALSE,Disabled,0.000000,0.000000,0.000000,TRUE,-3.202026,-0.508957,0.000000,-0.373001,0.024185,0.000000,-0.011000,-0.069000,0.103000,-4.040000,0.310000,2.530000,-3.694874,Hold,1.049316,0.000000,Hold,-108.000000,2.000000,Suck,-1800.000000,1818.181818,Speed,-1755.000000,1818.181818,Speed,Off,On,0.000000,FALSE,0,,,,,0.000000,0.000000
10:06:44.498 AM 04/09/2016,Teleop Enabled,10,FALSE,0,NO ERROR,-0.000000,-21.784532,-0.000000,-20.308703,TRUE,FALSE,FALSE,FALSE,FALSE,FALSE,Disabled,0.000000,0.000000,0.000000,TRUE,-3.216461,-0.507980,0.000000,-0.366928,0.016510,0.000000,0.042000,-0.055000,0.022000,-4.090000,0.330000,2.610000,-3.633073,Hold,1.049316,0.000000,Hold,-108.000000,2.000000,Suck,-1792.500000,1818.181818,Speed,-1807.500000,1818.181818,Speed,Off,On,0.000000,FALSE,0,,,,,0.000000,0.000000
10:06:44.598 AM 04/09/2016,Teleop Enabled,9,FALSE,0,NO ERROR,-0.299213,-21.521450,-0.299213,-20.558952,TRUE,FALSE,FALSE,FALSE,FALSE,FALSE,Disabled,0.000000,0.000000,0.000000,TRUE,-3.238159,-0.505722,0.000000,-0.311905,0.078598,0.000000,0.083000,0.057000,0.011000,-4.070000,0.250000,2.520000,-3.541132,Hold,1.049316,0.000000,Hold,-108.000000,2.000000,Suck,-1792.500000,1818.181818,Speed,-1792.500000,1818.181818,Speed,Off,On,0.000000,FALSE,0,,,,,0.000000,0.000000
10:06:44.699 AM 04/09/2016,Teleop Enabled,10,FALSE,0,NO ERROR,-0.000000,-20.886201,-0.000000,-21.181367,TRUE,FALSE,FALSE,FALSE,FALSE,FALSE,Disabled,0.000000,0.000000,0.000000,TRUE,-3.250656,-0.500168,0.000000,-0.325302,0.144608,0.000000,-0.093000,-0.052000,-0.052000,-3.860000,0.410000,2.700000,-0.626952,Hold,1.049316,0.000000,Hold,-108.000000,2.000000,Suck,-1792.500000,1818.181818,Speed,-1747.500000,1818.181818,Speed,Off,On,0.000000,FALSE,0,,,,,0.000000,0.000000
10:06:44.800 AM 04/09/2016,Teleop Enabled,9,FALSE,0,NO ERROR,-0.000000,-20.712952,-0.000000,-21.335367,TRUE,FALSE,FALSE,FALSE,FALSE,FALSE,Disabled,0.000000,0.000000,0.000000,TRUE,-3.268387,-0.494751,0.000000,-0.387802,0.070618,0.000000,-0.093000,-0.052000,-0.052000,-0.660000,0.380000,2.970000,1.395837,Hold,1.049316,0.000000,Hold,-108.000000,2.000000,Suck,-1792.500000,1818.181818,Speed,-1732.500000,1818.181818,Speed,Off,On,0.000000,FALSE,0,,,,,0.000000,0.000000
10:06:44.900 AM 04/09/2016,Teleop Enabled,10,FALSE,0,NO ERROR,-0.000000,-20.712952,-0.000000,-21.251950,TRUE,FALSE,FALSE,FALSE,FALSE,FALSE,Disabled,0.000000,0.000000,0.000000,TRUE,-3.293945,-0.492355,0.000000,-0.436432,0.056671,0.000000,-0.042000,-0.088000,-0.020000,1.150000,0.030000,2.630000,1.088819,Hold,1.049316,0.000000,Hold,-108.000000,2.000000,Suck,-1792.500000,1818.181818,Speed,-1777.500000,1818.181818,Speed,Off,On,0.000000,FALSE,0,,,,,0.000000,0.000000
10:06:45.000 AM 04/09/2016,Teleop Enabled,11,FALSE,0,NO ERROR,-0.000000,-21.020951,-0.000000,-20.976034,TRUE,FALSE,FALSE,FALSE,FALSE,FALSE,Disabled,0.000000,0.000000,0.000000,TRUE,-3.314774,-0.488678,0.000000,-0.408081,0.066238,0.000000,0.060000,0.036000,0.019000,0.680000,-0.010000,2.610000,0.777392,Hold,1.049316,0.000000,Hold,-108.000000,2.000000,Suck,-1792.500000,1818.181818,Speed,-1785.000000,1818.181818,Speed,Off,On,0.000000,FALSE,0,,,,,0.000000,0.000000
10:06:45.101 AM 04/09/2016,Teleop Enabled,10,FALSE,0,NO ERROR,-0.000000,-21.149284,-0.000000,-20.802785,TRUE,FALSE,FALSE,FALSE,FALSE,FALSE,Disabled,0.000000,0.000000,0.000000,TRUE,-3.336563,-0.487213,0.000000,-0.417847,0.020172,0.000000,0.027000,-0.066000,-0.056000,0.410000,0.090000,2.570000,-0.409627,Hold,1.049316,0.000000,Hold,-108.000000,2.000000,Suck,-1792.500000,1818.181818,Speed,-1777.500000,1818.181818,Speed,Off,On,0.000000,FALSE,0,,,,,0.000000,0.000000
10:06:45.201 AM 04/09/2016,Teleop Enabled,10,FALSE,0,NO ERROR,-0.000000,-21.174950,-0.000000,-20.834868,TRUE,FALSE,FALSE,FALSE,FALSE,FALSE,Disabled,0.000000,0.000000,0.000000,TRUE,-3.336563,-0.487213,0.000000,-0.417847,0.020172,0.000000,0.111000,-0.018000,-0.056000,-1.060000,0.100000,2.480000,-0.477562,Hold,1.049316,0.000000,Hold,-108.000000,2.000000,Suck,-1800.000000,1818.181818,Speed,-1747.500000,1818.181818,Speed,Off,On,0.000000,FALSE,0,,,,,0.000000,0.000000
10:06:45.301 AM 04/09/2016,Teleop Enabled,9,FALSE,0,NO ERROR,-0.000000,-21.174950,-0.000000,-20.834868,TRUE,FALSE,FALSE,FALSE,FALSE,FALSE,Disabled,0.000000,0.000000,0.000000,TRUE,-3.356277,-0.485825,0.000000,-0.383804,0.033356,0.000000,-0.040000,-0.014000,0.010000,-0.850000,0.240000,2.610000,-0.477562,Hold,1.049316,0.000000,Hold,-108.000000,2.000000,Suck,-1792.500000,1818.181818,Speed,-1747.500000,1818.181818,Speed,Off,On,0.000000,FALSE,0,,,,,0.000000,0.000000
10:06:45.402 AM 04/09/2016,Teleop Enabled,11,FALSE,0,NO ERROR,-0.000000,-21.162117,-0.000000,-20.873368,TRUE,FALSE,FALSE,FALSE,FALSE,FALSE,Disabled,0.000000,0.000000,0.000000,TRUE,-3.379120,-0.483673,0.000000,-0.386139,0.046906,0.000000,0.062000,0.048000,0.023000,-0.690000,0.200000,2.550000,-0.255686,Hold,1.049316,0.000000,Hold,-108.000000,2.000000,Suck,-1800.000000,1818.181818,Speed,-1762.500000,1818.181818,Speed,Off,On,0.000000,FALSE,0,,,,,0.000000,0.000000
10:06:45.502 AM 04/09/2016,Teleop Enabled,9,FALSE,0,NO ERROR,0.228346,-21.162117,-0.228346,-20.873368,TRUE,FALSE,FALSE,FALSE,FALSE,FALSE,Disabled,0.000000,0.000000,0.000000,TRUE,-3.397903,-0.481705,0.000000,-0.359116,0.000000,0.000000,0.056000,-0.122000,-0.035000,-0.740000,0.180000,2.590000,-0.332524,Hold,1.049316,0.000000,Hold,-108.000000,2.000000,Suck,-1800.000000,1818.181818,Speed,-1800.000000,1818.181818,Speed,Off,On,0.000000,FALSE,0,,,,,0.000000,0.000000
10:06:45.602 AM 04/09/2016,Teleop Enabled,9,FALSE,0,NO ERROR,0.228346,-20.815618,-0.228346,-20.668035,TRUE,FALSE,FALSE,FALSE,FALSE,FALSE,Disabled,0.000000,0.000000,0.000000,TRUE,-3.415878,-0.483215,0.000000,-0.382919,-0.060013,0.000000,-0.361000,-0.020000,0.149000,-0.850000,-0.500000,2.610000,-0.283911,Hold,1.049316,0.000000,Hold,-108.000000,2.000000,Suck,-1792.500000,1818.181818,Speed,-1807.500000,1818.181818,Speed,Off,On,0.000000,FALSE,0,,,,,0.000000,0.000000
10:06:45.704 AM 04/09/2016,Teleop Enabled,10,FALSE,0,NO ERROR,0.267717,-20.161120,-0.267717,-19.968620,TRUE,FALSE,FALSE,FALSE,FALSE,FALSE,Disabled,0.000000,0.000000,0.000000,TRUE,-3.440628,-0.486923,0.000000,-0.537552,-0.063599,0.000000,0.037000,0.105000,0.231000,-0.960000,-0.850000,2.600000,-0.522849,Hold,1.050293,0.000000,Hold,-108.000000,2.000000,Suck,-1792.500000,1818.181818,Speed,-1755.000000,1818.181818,Speed,Off,On,0.000000,FALSE,0,,,,,0.000000,0.000000
10:06:45.804 AM 04/09/2016,Teleop Enabled,10,FALSE,0,NO ERROR,0.267717,-18.967622,-0.267717,-18.755873,TRUE,FALSE,FALSE,FALSE,FALSE,FALSE,Disabled,0.000000,0.000000,0.000000,TRUE,-3.476135,-0.487869,0.000000,-0.626007,-0.017456,0.000000,0.089000,-0.027000,-0.069000,-0.980000,-1.290000,2.580000,-0.587786,Hold,1.050293,0.000000,Hold,-108.000000,2.000000,Suck,-1785.000000,1818.181818,Speed,-1747.500000,1818.181818,Speed,Off,On,0.000000,FALSE,0,,,,,0.000000,0.000000
10:06:45.905 AM 04/09/2016,Teleop Enabled,10,FALSE,0,NO ERROR,0.267717,-17.613709,-0.267717,-17.376293,TRUE,FALSE,FALSE,FALSE,FALSE,FALSE,Disabled,0.000000,0.000000,0.000000,TRUE,-3.507370,-0.490173,0.000000,-0.618668,-0.050888,0.000000,0.102000,-0.009000,0.097000,-0.870000,-1.160000,2.780000,-0.597459,Hold,1.050293,0.000000,Hold,-108.000000,2.000000,Suck,-1792.500000,1818.181818,Speed,-1755.000000,1818.181818,Speed,Off,On,0.000000,FALSE,0,,,,,0.000000,0.000000
10:06:46.006 AM 04/09/2016,Teleop Enabled,9,FALSE,0,NO ERROR,0.267717,-16.195629,-0.267717,-16.086546,TRUE,FALSE,FALSE,FALSE,FALSE,FALSE,Disabled,0.000000,0.000000,0.000000,TRUE,-3.530243,-0.491837,0.000000,-0.524643,-0.016830,0.000000,0.122000,-0.015000,-0.053000,-0.690000,-2.320000,2.790000,-0.287158,Hold,1.033203,0.000000,Hold,-108.000000,2.000000,Suck,-1792.500000,1818.181818,Speed,-1747.500000,1818.181818,Speed,Off,On,0.000000,FALSE,0,,,,,0.000000,0.000000
10:06:46.109 AM 04/09/2016,Teleop Enabled,9,FALSE,0,NO ERROR,0.267717,-15.297298,-0.267717,-15.040631,FALSE,FALSE,FALSE,FALSE,FALSE,FALSE,Disabled,0.000000,0.000000,0.000000,TRUE,-3.553085,-0.492569,0.000000,-0.428558,-0.011948,0.000000,-0.109000,-0.088000,0.149000,-0.820000,-3.380000,2.760000,-0.414808,Hold,1.072998,0.000000,Hold,-108.000000,2.000000,Suck,-1792.500000,1818.181818,Speed,-1725.000000,1818.181818,Speed,Off,On,0.000000,FALSE,0,,,,,0.000000,0.000000
10:06:46.209 AM 04/09/2016,Teleop Enabled,10,FALSE,0,NO ERROR,0.267717,-14.360466,-0.267717,-14.123050,FALSE,FALSE,FALSE,FALSE,FALSE,FALSE,Disabled,0.000000,0.000000,0.000000,TRUE,-3.575195,-0.494568,0.000000,-0.466187,-0.053955,0.000000,-0.001000,-0.060000,-0.074000,-0.820000,-4.460000,2.660000,-0.387959,Hold,1.072998,0.000000,Hold,-108.000000,2.000000,Suck,-1785.000000,1818.181818,Speed,-1747.500000,1818.181818,Speed,Off,On,0.000000,FALSE,0,,,,,0.000000,0.000000
10:06:46.310 AM 04/09/2016,Teleop Enabled,11,FALSE,0,NO ERROR,0.267717,-13.282469,-0.267717,-13.045053,FALSE,FALSE,FALSE,FALSE,FALSE,FALSE,Disabled,0.000000,0.000000,0.000000,TRUE,-3.604553,-0.498581,0.000000,-0.512192,-0.077179,0.000000,-0.070000,0.070000,-0.053000,-0.740000,-5.060000,2.600000,-0.303055,Hold,1.072998,0.000000,Hold,-108.000000,2.000000,Suck,-1785.000000,1818.181818,Speed,-1762.500000,1818.181818,Speed,Off,On,0.000000,FALSE,0,,,,,0.000000,0.000000
10:06:46.410 AM 04/09/2016,Teleop Enabled,8,FALSE,0,NO ERROR,0.267717,-11.954222,-0.267717,-11.697556,FALSE,FALSE,FALSE,FALSE,FALSE,FALSE,Disabled,0.000000,0.000000,0.000000,TRUE,-3.632111,-0.501678,0.000000,-0.575272,-0.075562,0.000000,-0.131000,-0.071000,-0.109000,-0.790000,-4.990000,2.530000,-0.329319,Hold,1.072998,0.000000,Hold,-108.000000,2.000000,Suck,-1792.500000,1818.181818,Speed,-1807.500000,1818.181818,Speed,Off,On,0.000000,FALSE,0,,,,,0.000000,0.000000
10:06:46.512 AM 04/09/2016,Teleop Enabled,10,FALSE,0,NO ERROR,0.267717,-10.234559,-0.267717,-10.119060,FALSE,FALSE,FALSE,FALSE,FALSE,FALSE,Disabled,0.000000,0.000000,0.000000,TRUE,-3.663025,-0.507477,0.000000,-0.650650,-0.134003,0.000000,0.028000,0.030000,0.151000,-0.600000,-4.220000,2.680000,-0.277425,Hold,1.071289,0.000000,Hold,-108.000000,2.000000,Suck,-1792.500000,1818.181818,Speed,-1785.000000,1818.181818,Speed,Off,On,0.000000,FALSE,0,,,,,0.000000,0.000000
10:06:46.611 AM 04/09/2016,Teleop Enabled,10,FALSE,0,NO ERROR,0.267717,-8.386564,-0.267717,-8.283897,FALSE,FALSE,FALSE,FALSE,FALSE,FALSE,Disabled,0.000000,0.000000,0.000000,TRUE,-3.694550,-0.513794,0.000000,-0.595856,-0.104675,0.000000,0.119000,-0.003000,-0.049000,-0.690000,-4.520000,2.620000,-0.177798,Hold,1.029541,0.000000,Hold,-108.000000,2.000000,Suck,-1792.500000,1818.181818,Speed,-1770.000000,1818.181818,Speed,Off,On,0.000000,FALSE,0,,,,,0.000000,0.000000
10:06:46.712 AM 04/09/2016,Teleop Enabled,10,FALSE,0,NO ERROR,0.275591,-6.795234,-0.275591,-6.698984,FALSE,FALSE,FALSE,FALSE,FALSE,FALSE,Disabled,0.000000,0.000000,0.000000,TRUE,-3.710968,-0.515625,0.000000,0.032394,-0.037018,0.000000,0.060000,-0.077000,0.081000,-0.650000,-4.700000,2.610000,-0.171849,Hold,1.029541,0.000000,Hold,-108.000000,2.000000,Suck,-1800.000000,1818.181818,Speed,-1762.500000,1818.181818,Speed,Off,On,0.000000,FALSE,0,,,,,0.000000,0.000000
10:06:46.812 AM 04/09/2016,Teleop Enabled,9,FALSE,0,NO ERROR,0.283465,-5.364321,-0.283465,-5.325821,FALSE,FALSE,FALSE,FALSE,FALSE,FALSE,Disabled,0.000000,0.000000,0.000000,TRUE,-3.704254,-0.521347,0.000000,0.167191,-0.138824,0.000000,-0.047000,0.085000,0.197000,-0.460000,-4.870000,2.770000,0.078600,Hold,1.029541,0.000000,Hold,-108.000000,2.000000,Suck,-1792.500000,1818.181818,Speed,-1755.000000,1818.181818,Speed,Off,On,0.000000,FALSE,0,,,,,0.000000,0.000000
10:06:46.912 AM 04/09/2016,Teleop Enabled,10,FALSE,0,NO ERROR,0.283465,-4.542989,-0.283465,-4.087407,FALSE,FALSE,FALSE,FALSE,FALSE,FALSE,Disabled,0.000000,0.000000,0.000000,TRUE,-3.693588,-0.526855,0.000000,0.260986,-0.074799,0.000000,-0.031000,0.015000,-0.094000,-1.350000,-4.920000,3.310000,-0.532440,Hold,1.029541,0.000000,Hold,-108.000000,2.000000,Suck,-1792.500000,1818.181818,Speed,-1717.500000,1818.181818,Speed,Off,On,0.000000,FALSE,0,,,,,0.000000,0.000000
10:06:47.012 AM 04/09/2016,Teleop Enabled,11,FALSE,0,NO ERROR,0.283465,-3.952657,-0.283465,-3.227576,FALSE,FALSE,FALSE,FALSE,FALSE,FALSE,Disabled,0.000000,0.000000,0.000000,TRUE,-3.682983,-0.528976,0.000000,0.265411,-0.062683,0.000000,0.074000,-0.022000,-0.004000,-1.850000,-5.280000,3.720000,-1.145525,Hold,1.029541,0.000000,Hold,-108.000000,2.000000,Suck,-1785.000000,1818.181818,Speed,-1770.000000,1818.181818,Speed,Off,On,0.000000,FALSE,0,,,,,0.000000,0.000000
10:06:47.112 AM 04/09/2016,Teleop Enabled,10,FALSE,0,NO ERROR,0.275591,-3.355909,-0.275591,-2.232995,FALSE,FALSE,FALSE,FALSE,FALSE,FALSE,Disabled,0.000000,0.000000,0.000000,TRUE,-3.668320,-0.533127,0.000000,0.231674,-0.075668,0.000000,-0.163000,-0.061000,-0.032000,-2.940000,-6.370000,3.400000,-1.943231,Hold,1.029541,0.000000,Hold,-108.000000,2.000000,Suck,-1785.000000,1818.181818,Speed,-1777.500000,1818.181818,Speed,Off,On,0.000000,FALSE,0,,,,,0.000000,0.000000
10:06:47.212 AM 04/09/2016,Teleop Enabled,10,FALSE,0,NO ERROR,0.230343,-2.515327,-0.336586,-0.769998,FALSE,FALSE,FALSE,FALSE,FALSE,FALSE,Disabled,0.000000,0.000000,0.000000,TRUE,-3.657272,-0.540192,0.000000,0.139038,-0.144928,0.000000,-0.163000,-0.061000,-0.032000,-2.940000,-6.370000,3.400000,-3.065467,Hold,1.029541,0.000000,Hold,-108.000000,2.000000,Suck,-1785.000000,1818.181818,Speed,-1777.500000,1818.181818,Speed,Off,On,0.000000,FALSE,0,,,,,0.000000,0.000000
10:06:47.312 AM 04/09/2016,Teleop Enabled,10,FALSE,0,NO ERROR,0.211594,-1.385997,-0.355335,0.891915,FALSE,FALSE,FALSE,FALSE,FALSE,FALSE,Disabled,0.000000,0.000000,0.000000,TRUE,-3.652802,-0.548065,0.000000,0.063614,-0.132187,0.000000,-0.048000,-0.064000,0.006000,-4.660000,-8.780000,2.250000,-4.360478,Hold,1.097168,0.000000,Hold,-108.000000,2.000000,Suck,-1785.000000,1818.181818,Speed,-1770.000000,1818.181818,Speed,Off,On,0.000000,FALSE,0,,,,,0.000000,0.000000
10:06:47.412 AM 04/09/2016,Teleop Enabled,10,FALSE,0,NO ERROR,0.283465,0.494082,-0.283465,2.155995,FALSE,FALSE,FALSE,FALSE,FALSE,FALSE,Disabled,0.000000,0.000000,0.000000,TRUE,-3.649902,-0.549408,0.000000,0.065811,-0.023193,0.000000,-0.014000,-0.407000,0.213000,-3.840000,-5.870000,3.320000,-3.954735,Hold,1.102783,0.000000,Hold,-108.000000,2.000000,Suck,-1792.500000,1818.181818,Speed,-1762.500000,1818.181818,Speed,Off,On,0.000000,FALSE,0,,,,,0.000000,0.000000
10:06:47.513 AM 04/09/2016,Teleop Enabled,11,FALSE,0,NO ERROR,0.283465,2.784827,-0.283465,3.676741,FALSE,FALSE,FALSE,FALSE,FALSE,FALSE,Disabled,0.000000,0.000000,0.000000,TRUE,-3.647781,-0.555511,0.000000,0.050903,-0.185120,0.000000,0.084000,0.011000,-0.114000,-2.460000,-5.560000,3.490000,-2.149647,Hold,1.089111,0.000000,Hold,-108.000000,2.000000,Suck,-1800.000000,1818.181818,Speed,-1755.000000,1818.181818,Speed,Off,On,0.000000,FALSE,0,,,,,0.000000,0.000000
10:06:47.613 AM 04/09/2016,Teleop Enabled,9,FALSE,0,NO ERROR,0.197532,4.780405,-0.369397,5.306571,FALSE,FALSE,FALSE,FALSE,FALSE,FALSE,Disabled,0.000000,0.000000,0.000000,TRUE,-3.647781,-0.555511,0.000000,0.050903,-0.185120,0.000000,0.084000,0.011000,-0.114000,-2.460000,-5.560000,3.490000,-1.688372,Hold,1.089111,0.000000,Hold,-108.000000,2.000000,Suck,-1792.500000,1818.181818,Speed,-1755.000000,1818.181818,Speed,Off,On,0.000000,FALSE,0,,,,,0.000000,0.000000
10:06:47.713 AM 04/09/2016,Teleop Enabled,10,FALSE,0,NO ERROR,0.197532,6.795234,-0.369397,6.500068,FALSE,FALSE,FALSE,FALSE,FALSE,FALSE,Disabled,0.000000,0.000000,0.000000,TRUE,-3.633728,-0.557541,0.000000,0.247086,0.051788,0.000000,0.184000,0.103000,-0.121000,-1.140000,-4.510000,4.310000,-1.062101,Hold,1.096191,0.000000,Hold,-108.000000,2.000000,Suck,-1792.500000,1818.181818,Speed,-1770.000000,1818.181818,Speed,Off,On,0.000000,FALSE,0,,,,,0.000000,0.000000
10:06:47.815 AM 04/09/2016,Teleop Enabled,11,FALSE,0,NO ERROR,0.283465,8.271064,-0.283465,7.244400,FALSE,FALSE,FALSE,FALSE,FALSE,FALSE,Disabled,0.000000,0.000000,0.000000,TRUE,-3.620270,-0.556717,0.000000,0.231308,0.015030,0.000000,0.125000,0.382000,-0.264000,-0.820000,-2.610000,5.190000,-0.517688,Hold,1.082520,0.000000,Hold,-108.000000,2.000000,Suck,-1792.500000,1818.181818,Speed,-1770.000000,1818.181818,Speed,Off,On,0.000000,FALSE,0,,,,,0.000000,0.000000
10:06:47.915 AM 04/09/2016,Teleop Enabled,9,FALSE,0,NO ERROR,0.283465,9.336228,-0.283465,8.328814,FALSE,FALSE,FALSE,FALSE,FALSE,FALSE,Disabled,0.000000,0.000000,0.000000,TRUE,-3.604538,-0.552551,0.000000,0.253799,0.109604,0.000000,-0.029000,0.094000,0.042000,-1.370000,-2.390000,5.270000,-0.838394,Hold,1.082520,0.000000,Hold,-108.000000,2.000000,Suck,-1792.500000,1818.181818,Speed,-1762.500000,1818.181818,Speed,Off,On,0.000000,FALSE,0,,,,,0.000000,0.000000
10:06:48.017 AM 04/09/2016,Teleop Enabled,11,FALSE,0,NO ERROR,0.283465,10.369309,-0.283465,9.413228,FALSE,FALSE,FALSE,FALSE,FALSE,FALSE,Disabled,0.000000,0.000000,0.000000,TRUE,-3.593903,-0.547165,0.000000,0.181168,0.000000,0.000000,0.011000,0.005000,0.009000,-1.390000,-2.510000,5.030000,-0.974433,Hold,1.164062,0.000000,Hold,-108.000000,2.000000,Suck,-1792.500000,1818.181818,Speed,-1740.000000,1818.181818,Speed,Off,On,0.000000,FALSE,0,,,,,0.000000,0.000000
10:06:48.117 AM 04/09/2016,Teleop Enabled,10,FALSE,0,NO ERROR,-0.000000,11.736056,-0.000000,10.452726,FALSE,FALSE,FALSE,FALSE,FALSE,FALSE,Disabled,0.000000,0.000000,0.000000,TRUE,-3.593903,-0.547165,0.000000,0.181168,0.000000,0.000000,0.011000,0.005000,0.009000,-1.390000,-2.510000,5.030000,-0.555818,Hold,1.164062,0.000000,Hold,-108.000000,2.000000,Suck,-1792.500000,1818.181818,Speed,-1747.500000,1818.181818,Speed,Off,On,0.000000,FALSE,0,,,,,0.000000,0.000000
10:06:48.219 AM 04/09/2016,Teleop Enabled,10,FALSE,0,NO ERROR,-0.000000,12.422638,-0.000000,10.863391,FALSE,FALSE,FALSE,FALSE,FALSE,FALSE,Disabled,0.000000,0.000000,0.000000,TRUE,-3.592484,-0.548782,0.000000,0.091492,-0.022125,0.000000,0.168000,0.000000,0.070000,-0.610000,-2.880000,5.150000,0.600310,Hold,1.130615,0.000000,Hold,-108.000000,2.000000,Suck,-1792.500000,1818.181818,Speed,-1777.500000,1818.181818,Speed,Off,On,0.000000,FALSE,0,,,,,0.000000,0.000000
10:06:48.320 AM 04/09/2016,Teleop Enabled,10,FALSE,0,NO ERROR,-0.000000,12.685720,-0.000000,11.075141,FALSE,FALSE,FALSE,FALSE,FALSE,FALSE,Disabled,0.000000,0.000000,0.000000,TRUE,-3.582657,-0.548859,0.000000,0.239822,0.048599,0.000000,-0.056000,-0.006000,0.412000,1.040000,-4.150000,5.370000,1.480328,Hold,1.111084,0.000000,Hold,-108.000000,2.000000,Suck,-1800.000000,1818.181818,Speed,-1785.000000,1818.181818,Speed,Off,On,0.000000,FALSE,0,,,,,0.000000,0.000000
10:06:48.421 AM 04/09/2016,Teleop Enabled,9,FALSE,0,NO ERROR,-0.000000,12.634387,-0.000000,11.017391,FALSE,FALSE,FALSE,FALSE,FALSE,FALSE,Disabled,0.000000,0.000000,0.000000,TRUE,-3.572052,-0.547638,0.000000,0.233093,-0.003647,0.000000,-0.018000,0.168000,0.267000,0.730000,-4.370000,5.790000,1.271949,Hold,1.118164,0.000000,Hold,-108.000000,2.000000,Suck,-1792.500000,1818.181818,Speed,-1770.000000,1818.181818,Speed,Off,On,0.000000,FALSE,0,,,,,0.000000,0.000000
10:06:48.523 AM 04/09/2016,Teleop Enabled,12,FALSE,0,NO ERROR,-0.000000,12.627970,-0.000000,11.017391,FALSE,FALSE,FALSE,FALSE,FALSE,FALSE,Disabled,0.000000,0.000000,0.000000,TRUE,-3.562729,-0.547943,0.000000,0.162735,-0.000854,0.000000,-0.007000,-0.022000,-0.527000,0.980000,-4.630000,5.840000,1.287062,Hold,1.118164,0.000000,Hold,-108.000000,2.000000,Suck,-1785.000000,1818.181818,Speed,-1777.500000,1818.181818,Speed,Off,On,0.000000,FALSE,0,,,,,0.000000,0.000000
10:06:48.622 AM 04/09/2016,Teleop Enabled,10,FALSE,0,NO ERROR,-0.283465,12.352054,0.283465,10.895475,FALSE,FALSE,FALSE,FALSE,FALSE,FALSE,Disabled,0.000000,0.000000,0.000000,TRUE,-3.552429,-0.549881,0.000000,0.210312,-0.003708,0.000000,0.031000,-0.095000,-0.056000,0.880000,-4.680000,5.710000,1.298585,Hold,1.120361,0.000000,Hold,-108.000000,2.000000,Suck,-1792.500000,1818.181818,Speed,-1777.500000,1818.181818,Speed,Off,On,0.000000,FALSE,0,,,,,0.000000,0.000000
10:06:48.724 AM 04/09/2016,Teleop Enabled,11,FALSE,0,NO ERROR,-0.283465,10.946808,0.283465,10.163976,FALSE,FALSE,FALSE,FALSE,FALSE,FALSE,Disabled,0.000000,0.000000,0.000000,TRUE,-3.535187,-0.550293,0.000000,0.405640,0.005386,0.000000,0.013000,-0.172000,0.237000,0.930000,-3.340000,5.830000,1.353445,Hold,1.120361,0.000000,Hold,-108.000000,2.000000,Suck,-1792.500000,1818.181818,Speed,-1755.000000,1818.181818,Speed,Off,On,0.000000,FALSE,0,,,,,0.000000,0.000000
10:06:48.823 AM 04/09/2016,Teleop Enabled,13,FALSE,0,NO ERROR,-0.283465,9.111645,0.283465,8.925562,FALSE,FALSE,FALSE,FALSE,FALSE,FALSE,Disabled,0.000000,0.000000,0.000000,TRUE,-3.517532,-0.550552,0.000000,0.453964,-0.015564,0.000000,-0.102000,-0.080000,-0.030000,0.960000,-2.780000,5.890000,1.491991,Hold,1.109863,0.000000,Hold,-108.000000,2.000000,Suck,-1792.500000,1818.181818,Speed,-1762.500000,1818.181818,Speed,Off,On,0.000000,FALSE,0,,,,,0.000000,0.000000
10:06:48.924 AM 04/09/2016,Teleop Enabled,12,FALSE,0,NO ERROR,-0.283465,7.154567,0.283465,7.513899,FALSE,FALSE,FALSE,FALSE,FALSE,FALSE,Disabled,0.000000,0.000000,0.000000,TRUE,-3.484268,-0.550476,0.000000,0.499802,-0.018463,0.000000,-0.102000,-0.080000,-0.030000,0.960000,-2.780000,5.890000,1.712797,Hold,1.109863,0.000000,Hold,-108.000000,2.000000,Suck,-1785.000000,1818.181818,Speed,-1777.500000,1818.181818,Speed,Off,On,0.000000,FALSE,0,,,,,0.000000,0.000000
10:06:49.025 AM 04/09/2016,Teleop Enabled,13,FALSE,0,NO ERROR,-0.283465,5.364321,0.283465,5.819903,FALSE,FALSE,FALSE,FALSE,FALSE,FALSE,Disabled,0.000000,0.000000,0.000000,TRUE,-3.468155,-0.551392,0.000000,0.554596,-0.039780,0.000000,0.018000,-0.124000,-0.191000,0.970000,-2.170000,5.510000,1.607224,Hold,1.109863,0.000000,Hold,-108.000000,2.000000,Suck,-1792.500000,1818.181818,Speed,-1770.000000,1818.181818,Speed,Off,On,0.000000,FALSE,0,,,,,0.000000,0.000000
10:06:49.125 AM 04/09/2016,Teleop Enabled,10,FALSE,0,NO ERROR,-0.283465,3.387992,0.283465,3.760158,FALSE,FALSE,FALSE,FALSE,FALSE,FALSE,Disabled,0.000000,0.000000,0.000000,TRUE,-3.433823,-0.557739,0.000000,0.576965,-0.113739,0.000000,-0.073000,0.107000,-0.119000,0.970000,-2.170000,5.510000,1.710714,Hold,1.109863,0.000000,Hold,-108.000000,2.000000,Suck,-1800.000000,1818.181818,Speed,-1770.000000,1818.181818,Speed,Off,On,0.000000,FALSE,0,,,,,0.000000,0.000000
10:06:49.227 AM 04/09/2016,Teleop Enabled,10,FALSE,0,NO ERROR,-0.283465,1.328247,0.283465,1.636246,FALSE,FALSE,FALSE,FALSE,FALSE,FALSE,Disabled,0.000000,0.000000,0.000000,TRUE,-3.405777,-0.562576,0.000000,0.546005,-0.096344,0.000000,-0.073000,0.107000,-0.119000,1.140000,-1.530000,5.370000,1.786168,Hold,1.109863,0.000000,Hold,-109.000000,2.000000,Suck,-1792.500000,1818.181818,Speed,-1770.000000,1818.181818,Speed,Off,On,0.000000,FALSE,0,,,,,0.000000,0.000000
10:06:49.326 AM 04/09/2016,Teleop Enabled,11,FALSE,0,NO ERROR,-0.291339,-0.898331,0.291339,-0.314416,FALSE,FALSE,FALSE,FALSE,FALSE,FALSE,Disabled,0.000000,0.000000,0.000000,TRUE,-3.379379,-0.568848,0.000000,0.477676,-0.156952,0.000000,-0.220000,0.000000,0.086000,1.100000,-1.370000,4.980000,1.176814,Hold,1.109863,0.000000,Hold,-109.000000,2.000000,Suck,-1792.500000,1818.181818,Speed,-1762.500000,1818.181818,Speed,Off,On,0.000000,FALSE,0,,,,,0.000000,0.000000
10:06:49.428 AM 04/09/2016,Teleop Enabled,12,FALSE,0,NO ERROR,-0.307087,-2.938826,0.307087,-2.303578,FALSE,FALSE,FALSE,FALSE,FALSE,FALSE,Disabled,0.000000,0.000000,0.000000,TRUE,-3.359772,-0.576401,0.000000,0.351562,-0.112076,0.000000,-0.220000,0.000000,0.086000,0.040000,0.110000,5.910000,0.654544,Hold,1.109863,0.000000,Hold,-109.000000,2.000000,Suck,-1792.500000,1818.181818,Speed,-1747.500000,1818.181818,Speed,Off,On,0.000000,FALSE,0,,,,,0.000000,0.000000
10:06:49.529 AM 04/09/2016,Teleop Enabled,11,FALSE,0,NO ERROR,-0.314961,-4.696989,0.314961,-4.190074,FALSE,FALSE,FALSE,FALSE,FALSE,FALSE,Disabled,0.000000,0.000000,0.000000,TRUE,-3.340469,-0.583511,0.000000,0.421982,-0.131393,0.000000,0.017000,-0.138000,-0.400000,0.040000,0.110000,5.910000,0.880248,Hold,1.109863,0.000000,Hold,-109.000000,2.000000,Suck,-1800.000000,1818.181818,Speed,-1755.000000,1818.181818,Speed,Off,On,0.000000,FALSE,0,,,,,0.000000,0.000000
10:06:49.630 AM 04/09/2016,Teleop Enabled,10,FALSE,0,NO ERROR,-0.322835,-6.660484,0.322835,-6.339652,FALSE,FALSE,FALSE,FALSE,FALSE,FALSE,Disabled,0.000000,0.000000,0.000000,TRUE,-3.340469,-0.583511,0.000000,0.421982,-0.131393,0.000000,0.059000,-0.001000,-0.076000,0.430000,1.350000,5.870000,1.447923,Hold,1.109619,0.000000,Hold,-109.000000,2.000000,Suck,-1785.000000,1818.181818,Speed,-1777.500000,1818.181818,Speed,Off,On,0.000000,FALSE,0,,,,,0.000000,0.000000
10:06:49.730 AM 04/09/2016,Teleop Enabled,10,FALSE,0,NO ERROR,-0.322835,-8.893479,0.322835,-8.630396,FALSE,FALSE,FALSE,FALSE,FALSE,FALSE,Disabled,0.000000,0.000000,0.000000,TRUE,-3.302719,-0.593567,0.000000,0.482285,-0.136551,0.000000,0.092000,-0.077000,0.259000,0.700000,-1.360000,3.200000,1.292192,Hold,1.109619,0.000000,Hold,-109.000000,2.000000,Suck,-1792.500000,1818.181818,Speed,-1777.500000,1818.181818,Speed,Off,On,0.000000,FALSE,0,,,,,0.000000,0.000000
10:06:49.831 AM 04/09/2016,Teleop Enabled,10,FALSE,0,NO ERROR,-0.322835,-11.472973,0.322835,-10.978891,TRUE,FALSE,FALSE,FALSE,FALSE,FALSE,Disabled,0.000000,0.000000,0.000000,TRUE,-3.262756,-0.608978,0.000000,0.393875,-0.170364,0.000000,-0.302000,0.036000,0.452000,0.560000,-0.720000,2.760000,0.806733,Hold,1.124023,0.000000,Hold,-109.000000,2.000000,Suck,-1792.500000,1818.181818,Speed,-1800.000000,1818.181818,Speed,Off,On,0.000000,FALSE,0,,,,,0.000000,0.000000
10:06:49.932 AM 04/09/2016,Teleop Enabled,9,FALSE,0,NO ERROR,-0.322835,-13.667468,0.322835,-13.000136,FALSE,FALSE,FALSE,FALSE,FALSE,FALSE,Disabled,0.000000,0.000000,0.000000,TRUE,-3.262756,-0.608978,0.000000,0.393875,-0.170364,0.000000,-0.302000,0.036000,0.452000,0.000000,-0.460000,3.530000,-0.068645,Hold,1.083984,0.000000,Hold,-109.000000,2.000000,Suck,-1792.500000,1818.181818,Speed,-1762.500000,1818.181818,Speed,Off,On,0.000000,FALSE,0,,,,,0.000000,0.000000
10:06:50.032 AM 04/09/2016,Teleop Enabled,10,FALSE,0,NO ERROR,-0.322835,-15.553964,0.322835,-15.278048,FALSE,FALSE,FALSE,FALSE,FALSE,FALSE,Disabled,0.000000,0.000000,0.000000,TRUE,-3.242279,-0.618088,0.000000,0.342514,-0.100006,0.000000,-0.100000,-0.058000,-0.045000,-0.840000,-1.780000,3.430000,0.265735,Hold,1.163330,0.000000,Hold,-109.000000,2.000000,Suck,-1792.500000,1818.181818,Speed,-1762.500000,1818.181818,Speed,Off,On,0.000000,FALSE,0,,,,,0.000000,0.000000
10:06:50.152 AM 04/09/2016,Teleop Enabled,7,FALSE,0,NO ERROR,-0.322835,-17.825458,0.322835,-17.863958,FALSE,FALSE,FALSE,FALSE,FALSE,FALSE,Disabled,0.000000,0.000000,0.000000,TRUE,-3.227539,-0.622696,0.000000,0.407837,-0.110886,0.000000,0.139000,0.139000,-0.325000,-0.220000,-0.610000,3.220000,0.945392,Hold,1.104492,0.000000,Hold,-109.000000,2.000000,Suck,-1785.000000,1818.181818,Speed,-1770.000000,1818.181818,Speed,Off,On,0.000000,FALSE,0,,,,,0.000000,0.000000
10:06:50.232 AM 04/09/2016,Teleop Enabled,8,FALSE,0,NO ERROR,-0.322835,-20.103370,0.322835,-20.231703,TRUE,FALSE,FALSE,FALSE,FALSE,FALSE,Disabled,0.000000,0.000000,0.000000,TRUE,-3.201996,-0.627579,0.000000,0.390472,-0.125488,0.000000,-0.147000,0.057000,0.102000,0.310000,1.740000,2.560000,1.031979,Hold,1.104492,0.000000,Hold,-109.000000,2.000000,Suck,-1785.000000,1818.181818,Speed,-1770.000000,1818.181818,Speed,Off,On,0.000000,FALSE,0,,,,,0.000000,0.000000
10:06:50.334 AM 04/09/2016,Teleop Enabled,11,FALSE,0,NO ERROR,-0.322835,-22.381281,0.322835,-22.477531,TRUE,FALSE,FALSE,FALSE,FALSE,FALSE,Disabled,0.000000,0.000000,0.000000,TRUE,-3.191742,-0.632523,0.000000,0.000000,-0.148941,0.000000,0.082000,0.099000,0.155000,0.110000,1.050000,2.770000,0.856808,Hold,1.093506,0.000000,Hold,-109.000000,2.000000,Suck,-1792.500000,1818.181818,Speed,-1755.000000,1818.181818,Speed,Off,On,0.000000,FALSE,0,,,,,0.000000,0.000000
10:06:50.436 AM 04/09/2016,Teleop Enabled,11,FALSE,0,NO ERROR,-0.322835,-24.601442,0.322835,-24.639942,TRUE,FALSE,FALSE,FALSE,FALSE,FALSE,Disabled,0.000000,0.000000,0.000000,TRUE,-3.190659,-0.645874,0.000000,-0.002136,-0.147186,0.000000,-0.204000,0.052000,-0.103000,0.110000,1.050000,2.770000,0.662396,Hold,1.093506,0.000000,Hold,-109.000000,2.000000,Suck,-1792.500000,1818.181818,Speed,-1785.000000,1818.181818,Speed,Off,On,0.000000,FALSE,0,,,,,0.000000,0.000000
