Time,Robot Mode,Loop Time,Error Status,Error Code,Error Source,Left Motor Output,Left Motor Encoder,Right Motor Output,Right Motor Encoder,Is Level,Is Stalled,Ball Detector Photoeye,Vision Enabled,Vision Teleop Control,Vision Auto Control,Vision Current State,Vision X Output,Vision NavX Error,Vision NavX Target,NavX Connection Status,NavX Displacement X,NavX Displacement Y,NavX Displacement Z,NavX Velocity X,NavX Velocity Y,NavX Velocity Z,NavX Acceleration X,NavX Acceleration Y,NavX Acceleration Z,NavX Pitch,NavX Yaw,NavX Roll,Gyro Angle,Roller Arm State,Roller Arm Actual,Roller Arm Desired,Shooter Arm State,Shooter Arm Actual,Shooter Arm Desired,Shooter State,Actual RPM Left,Desired RPM Left,Control Mode Left,Actual RPM Right,Desired RPM Right,Control Mode Right,Ball Shooter Cylinder,Ball Halo Cylinder,Scaler Motor Output,Scaler Solenoid Fire,Auto To Run,Auto Current File,Auto File Status,Auto Current Command,Auto Trimmed Command,Shooter Amps Left,Shooter Amps Right
09:50:27.428 AM 04/09/2016,Teleop Enabled,10,TRUE,-44005,<LOCATION>WPI_CameraWait for Raw Image String.vi:6640001<CALLSTACK>WPI_CameraWait for Raw Image String.vi:6640001< <WPI_CameraGet Image.vi< <Vision Processing.vi< <Robot Main.vi,-0.000000,0.949664,-0.000000,1.238414,TRUE,FALSE,FALSE,FALSE,FALSE,FALSE,Disabled,0.000000,0.000000,0.000000,TRUE,-1.008377,-1.058990,0.000000,0.000000,0.000000,0.000000,0.001000,0.000000,0.022000,-1.590000,0.130000,2.470000,2.654567,ResetBack,2.916016,-0.000049,ResetBack,-25140.000000,-0.250000,Suck,0.000000,1818.181818,Speed,0.000000,1818.181818,Speed,Off,On,0.000000,FALSE,0,,,,,0.000000,0.000000
09:50:27.529 AM 04/09/2016,Teleop Enabled,12,TRUE,-1074396154,,-0.000000,0.936831,-0.000000,1.225580,TRUE,FALSE,FALSE,FALSE,FALSE,FALSE,Disabled,0.000000,0.000000,0.000000,TRUE,-1.008377,-1.059006,0.000000,0.000000,-0.001831,0.000000,0.007000,-0.023000,0.011000,-1.600000,0.160000,2.430000,2.574496,ResetBack,0.614502,-0.000049,ResetBack,-25140.000000,-0.250000,Suck,-75.000000,1818.181818,Speed,-202.500000,1818.181818,Speed,Off,On,0.000000,FALSE,0,,,,,0.000000,0.000000
09:50:27.630 AM 04/09/2016,Teleop Enabled,11,FALSE,0,NO ERROR,-0.000000,0.936831,-0.000000,1.206331,TRUE,FALSE,FALSE,FALSE,FALSE,FALSE,Disabled,0.000000,0.000000,0.000000,TRUE,-1.007355,-1.058868,0.000000,0.057449,0.014999,0.000000,-0.027000,0.026000,-0.096000,-1.610000,0.130000,2.470000,2.607738,ResetBack,-0.447021,-0.000049,ResetBack,-22753.000000,-0.250000,Suck,-705.000000,1818.181818,Speed,-952.500000,1818.181818,Speed,Off,On,0.000000,FALSE,0,,,,,0.000000,0.000000
09:50:27.730 AM 04/09/2016,Teleop Enabled,10,FALSE,0,NO ERROR,-0.000000,0.936831,-0.000000,1.206331,TRUE,FALSE,FALSE,FALSE,FALSE,FALSE,Disabled,0.000000,0.000000,0.000000,TRUE,-1.004120,-1.057068,0.000000,0.020447,0.044113,0.000000,-0.019000,-0.031000,-0.129000,-1.580000,0.100000,2.460000,2.583530,ResetBack,-0.455811,-0.000049,ResetBack,-18823.000000,-0.250000,Suck,-1282.500000,1818.181818,Speed,-1537.500000,1818.181818,Speed,Off,On,0.000000,FALSE,0,,,,,0.000000,0.000000
09:50:27.832 AM 04/09/2016,Teleop Enabled,10,FALSE,0,NO ERROR,-0.000000,0.936831,-0.000000,1.206331,TRUE,FALSE,FALSE,FALSE,FALSE,FALSE,Disabled,0.000000,0.000000,0.000000,TRUE,-1.002930,-1.055313,0.000000,0.027817,0.036560,0.000000,0.104000,-0.080000,-0.049000,-1.590000,0.140000,2.470000,2.583530,Reset,-0.455811,-0.000049,ResetBack,-13757.000000,-0.250000,Suck,-1830.000000,1818.181818,Speed,-1890.000000,1818.181818,Speed,Off,On,0.000000,FALSE,0,,,,,0.000000,0.000000
09:50:27.932 AM 04/09/2016,Teleop Enabled,9,FALSE,0,NO ERROR,-0.000000,0.943248,-0.000000,1.206331,TRUE,FALSE,FALSE,FALSE,FALSE,FALSE,Disabled,0.000000,0.000000,0.000000,TRUE,-1.001480,-1.053604,0.000000,0.027451,0.051086,0.000000,-0.139000,0.069000,-0.126000,-1.600000,0.180000,2.460000,2.580163,Hold,0.726562,0.000000,ResetBack,-7817.000000,-0.250000,Suck,-1942.500000,1818.181818,Speed,-1845.000000,1818.181818,Speed,Off,On,0.000000,FALSE,0,,,,,0.000000,0.000000
09:50:28.032 AM 04/09/2016,Teleop Enabled,11,FALSE,0,NO ERROR,-0.000000,0.956081,-0.000000,1.244830,TRUE,FALSE,FALSE,FALSE,FALSE,FALSE,Disabled,0.000000,0.000000,0.000000,TRUE,-1.000778,-1.050018,0.000000,0.008698,0.055527,0.000000,0.148000,-0.013000,0.176000,-1.570000,0.190000,2.450000,2.613087,Hold,1.230225,0.000000,ResetBack,-4473.000000,-0.250000,Suck,-1845.000000,1818.181818,Speed,-1762.500000,1818.181818,Speed,Off,On,0.000000,FALSE,0,,,,,0.000000,0.000000
09:50:28.133 AM 04/09/2016,Teleop Enabled,11,FALSE,0,NO ERROR,-0.000000,0.956081,-0.000000,1.251247,TRUE,FALSE,FALSE,FALSE,FALSE,FALSE,Disabled,0.000000,0.000000,0.000000,TRUE,-1.000076,-1.046494,0.000000,0.011185,0.074585,0.000000,-0.027000,0.027000,0.083000,-1.600000,0.160000,2.450000,2.590608,Hold,1.150879,0.000000,ResetBack,-3167.000000,-0.250000,Suck,-1785.000000,1818.181818,Speed,-1725.000000,1818.181818,Speed,Off,On,0.000000,FALSE,0,,,,,0.000000,0.000000
09:50:28.234 AM 04/09/2016,Teleop Enabled,10,FALSE,0,NO ERROR,-0.000000,0.956081,-0.000000,1.238414,TRUE,FALSE,FALSE,FALSE,FALSE,FALSE,Disabled,0.000000,0.000000,0.000000,TRUE,-0.999603,-1.042984,0.000000,0.014252,0.071594,0.000000,-0.018000,0.067000,0.076000,-1.610000,0.160000,2.440000,2.573357,Hold,1.150879,0.000000,ResetBack,-3167.000000,-0.250000,Suck,-1777.500000,1818.181818,Speed,-1747.500000,1818.181818,Speed,Off,On,0.000000,FALSE,0,,,,,0.000000,0.000000
09:50:28.334 AM 04/09/2016,Teleop Enabled,9,FALSE,0,NO ERROR,-0.000000,0.949664,-0.000000,1.231997,TRUE,FALSE,FALSE,FALSE,FALSE,FALSE,Disabled,0.000000,0.000000,0.000000,TRUE,-0.997864,-1.037720,0.000000,0.039474,0.089996,0.000000,-0.066000,0.041000,0.081000,-1.600000,0.110000,2.450000,2.570083,Hold,1.150879,0.000000,ResetBack,-1683.000000,-0.250000,Suck,-1800.000000,1818.181818,Speed,-1762.500000,1818.181818,Speed,Off,On,0.000000,FALSE,0,,,,,0.000000,0.000000
09:50:28.434 AM 04/09/2016,Teleop Enabled,9,FALSE,0,NO ERROR,-0.228346,0.949664,-0.228346,1.231997,TRUE,FALSE,FALSE,FALSE,FALSE,FALSE,Disabled,0.000000,0.000000,0.000000,TRUE,-0.997330,-1.033051,0.000000,-0.013260,0.081711,0.000000,-0.009000,-0.100000,-0.115000,-1.600000,0.120000,2.440000,2.590422,Hold,1.150879,0.000000,ResetBack,-285.000000,-0.250000,Suck,-1800.000000,1818.181818,Speed,-1755.000000,1818.181818,Speed,Off,On,0.000000,FALSE,0,,,,,0.000000,0.000000
09:50:28.535 AM 04/09/2016,Teleop Enabled,9,FALSE,0,NO ERROR,-0.259843,1.020248,-0.259843,1.219164,TRUE,FALSE,FALSE,FALSE,FALSE,FALSE,Disabled,0.000000,0.000000,0.000000,TRUE,-0.997253,-1.029953,0.000000,0.012085,0.069427,0.000000,-0.054000,0.065000,0.026000,-1.590000,0.160000,2.470000,2.624558,Hold,1.150879,0.000000,ResetBack,-285.000000,-0.250000,Suck,-1792.500000,1818.181818,Speed,-1747.500000,1818.181818,Speed,Off,On,0.000000,FALSE,0,,,,,0.000000,0.000000
09:50:28.635 AM 04/09/2016,Teleop Enabled,9,FALSE,0,NO ERROR,-0.000000,1.045914,-0.000000,1.411663,TRUE,FALSE,FALSE,FALSE,FALSE,FALSE,Disabled,0.000000,0.000000,0.000000,TRUE,-0.997040,-1.027725,0.000000,-0.005295,0.039001,0.000000,-0.108000,-0.025000,0.003000,-1.550000,0.060000,2.480000,2.662543,Hold,1.150635,0.000000,ResetBack,-93.000000,-0.250000,Suck,-1792.500000,1818.181818,Speed,-1747.500000,1818.181818,Speed,Off,On,0.000000,FALSE,0,,,,,0.000000,0.000000
09:50:28.735 AM 04/09/2016,Teleop Enabled,10,FALSE,0,NO ERROR,-0.000000,1.373163,-0.000000,0.744332,TRUE,FALSE,FALSE,FALSE,FALSE,FALSE,Disabled,0.000000,0.000000,0.000000,TRUE,-0.996094,-1.024338,0.000000,0.086853,0.108383,0.000000,-0.107000,0.016000,0.270000,-1.360000,0.790000,2.560000,3.324564,Hold,1.150391,0.000000,Reset,-68.000000,2.000000,Suck,-1792.500000,1818.181818,Speed,-1755.000000,1818.181818,Speed,Off,On,0.000000,FALSE,0,,,,,0.000000,0.000000
09:50:28.836 AM 04/09/2016,Teleop Enabled,9,FALSE,0,NO ERROR,-0.000000,1.475830,-0.000000,0.641665,TRUE,FALSE,FALSE,FALSE,FALSE,FALSE,Disabled,0.000000,0.000000,0.000000,TRUE,-0.995682,-1.016037,0.000000,-0.028244,0.123276,0.000000,0.060000,-0.098000,0.010000,0.470000,-0.080000,2.590000,4.591171,Hold,1.150146,0.000000,Hold,-68.000000,2.000000,Suck,-1792.500000,1818.181818,Speed,-1755.000000,1818.181818,Speed,Off,On,0.000000,FALSE,0,,,,,0.000000,0.000000
09:50:28.937 AM 04/09/2016,Teleop Enabled,12,FALSE,0,NO ERROR,-0.000000,1.373163,-0.000000,0.680165,TRUE,FALSE,FALSE,FALSE,FALSE,FALSE,Disabled,0.000000,0.000000,0.000000,TRUE,-0.997543,-1.012299,0.000000,-0.058060,0.085007,0.000000,0.045000,0.130000,0.115000,-0.020000,0.090000,2.350000,3.982141,Hold,1.150146,0.000000,Hold,-109.000000,2.000000,Suck,-1800.000000,1818.181818,Speed,-1755.000000,1818.181818,Speed,Off,On,0.000000,FALSE,0,,,,,0.000000,0.000000
09:50:29.038 AM 04/09/2016,Teleop Enabled,10,FALSE,0,NO ERROR,-0.283465,1.373163,-0.283465,0.673748,TRUE,FALSE,FALSE,FALSE,FALSE,FALSE,Disabled,0.000000,0.000000,0.000000,TRUE,-0.999588,-1.003510,0.000000,-0.018967,0.169769,0.000000,0.025000,-0.030000,0.099000,-0.160000,0.060000,2.480000,3.988197,Hold,1.150146,0.000000,Hold,-109.000000,2.000000,Suck,-1800.000000,1818.181818,Speed,-1762.500000,1818.181818,Speed,Off,On,0.000000,FALSE,0,,,,,0.000000,0.000000
09:50:29.139 AM 04/09/2016,Teleop Enabled,9,FALSE,0,NO ERROR,-0.000000,1.777413,-0.000000,0.333666,TRUE,FALSE,FALSE,FALSE,FALSE,FALSE,Disabled,0.000000,0.000000,0.000000,TRUE,-1.001755,-0.998291,0.000000,-0.063034,0.009262,0.000000,-0.089000,0.103000,0.002000,0.140000,-0.300000,2.600000,4.318830,Hold,1.150146,0.000000,Hold,-109.000000,2.000000,Suck,-1792.500000,1818.181818,Speed,-1762.500000,1818.181818,Speed,Off,On,0.000000,FALSE,0,,,,,0.000000,0.000000
09:50:29.239 AM 04/09/2016,Teleop Enabled,10,FALSE,0,NO ERROR,-0.000000,2.515327,-0.000000,-0.346499,TRUE,FALSE,FALSE,FALSE,FALSE,FALSE,Disabled,0.000000,0.000000,0.000000,TRUE,-1.000946,-0.995392,0.000000,-0.000305,0.053833,0.000000,-0.157000,-0.023000,0.069000,4.370000,0.350000,2.860000,7.788764,Hold,1.145752,0.000000,Hold,-109.000000,2.000000,Suck,-1792.500000,1818.181818,Speed,-1762.500000,1818.181818,Speed,Off,On,0.000000,FALSE,0,,,,,0.000000,0.000000
09:50:29.340 AM 04/09/2016,Teleop Enabled,11,FALSE,0,NO ERROR,-0.000000,2.701410,-0.000000,-0.359332,TRUE,FALSE,FALSE,FALSE,FALSE,FALSE,Disabled,0.000000,0.000000,0.000000,TRUE,-1.004196,-0.994507,0.000000,-0.091263,-0.018661,0.000000,0.001000,-0.108000,0.109000,5.550000,0.010000,2.540000,9.534912,Hold,1.137207,0.000000,Hold,-109.000000,2.000000,Suck,-1792.500000,1818.181818,Speed,-1762.500000,1818.181818,Speed,Off,On,0.000000,FALSE,0,,,,,0.000000,0.000000
09:50:29.440 AM 04/09/2016,Teleop Enabled,10,FALSE,0,NO ERROR,-0.000000,2.643660,-0.000000,-0.211750,TRUE,FALSE,FALSE,FALSE,FALSE,FALSE,Disabled,0.000000,0.000000,0.000000,TRUE,-1.010880,-0.995987,0.000000,-0.103134,-0.025116,0.000000,0.102000,-0.056000,0.066000,4.770000,-0.040000,2.500000,8.891074,Hold,1.136963,0.000000,Hold,-109.000000,2.000000,Suck,-1792.500000,1818.181818,Speed,-1770.000000,1818.181818,Speed,Off,On,0.000000,FALSE,0,,,,,0.000000,0.000000
09:50:29.540 AM 04/09/2016,Teleop Enabled,10,FALSE,0,NO ERROR,0.275591,2.643660,0.275591,-0.211750,TRUE,FALSE,FALSE,FALSE,FALSE,FALSE,Disabled,0.000000,0.000000,0.000000,TRUE,-1.014465,-0.996811,0.000000,-0.087906,-0.007782,0.000000,-0.028000,0.051000,0.014000,4.840000,-0.090000,2.450000,8.843216,Hold,1.136963,0.000000,Hold,-109.000000,2.000000,Suck,-1792.500000,1818.181818,Speed,-1762.500000,1818.181818,Speed,Off,On,0.000000,FALSE,0,,,,,0.000000,0.000000
09:50:29.640 AM 04/09/2016,Teleop Enabled,11,FALSE,0,NO ERROR,0.291339,2.258661,0.291339,0.134750,TRUE,FALSE,FALSE,FALSE,FALSE,FALSE,Disabled,0.000000,0.000000,0.000000,TRUE,-1.018463,-0.996063,0.000000,-0.027084,0.001923,0.000000,-0.266000,-0.157000,0.102000,4.670000,0.010000,2.330000,8.618716,Hold,1.136963,0.000000,Hold,-109.000000,2.000000,Suck,-1792.500000,1818.181818,Speed,-1747.500000,1818.181818,Speed,Off,On,0.000000,FALSE,0,,,,,0.000000,0.000000
09:50:29.740 AM 04/09/2016,Teleop Enabled,10,FALSE,0,NO ERROR,-0.000000,1.084414,-0.000000,1.231997,TRUE,FALSE,FALSE,FALSE,FALSE,FALSE,Disabled,0.000000,0.000000,0.000000,TRUE,-1.023987,-0.999878,0.000000,-0.102081,-0.130859,0.000000,0.082000,-0.120000,-0.054000,0.390000,-0.650000,1.750000,4.340450,Hold,1.132324,0.000000,Hold,-109.000000,2.000000,Suck,-1792.500000,1818.181818,Speed,-1762.500000,1818.181818,Speed,Off,On,0.000000,FALSE,0,,,,,0.000000,0.000000
09:50:29.840 AM 04/09/2016,Teleop Enabled,10,FALSE,0,NO ERROR,-0.000000,0.384999,-0.000000,1.822329,TRUE,FALSE,FALSE,FALSE,FALSE,FALSE,Disabled,0.000000,0.000000,0.000000,TRUE,-1.027115,-1.003662,0.000000,-0.052017,-0.039352,0.000000,-0.139000,0.349000,0.085000,-5.210000,-0.070000,2.320000,-0.452001,Hold,1.132324,0.000000,Hold,-109.000000,2.000000,Suck,-1785.000000,1818.181818,Speed,-1770.000000,1818.181818,Speed,Off,On,0.000000,FALSE,0,,,,,0.000000,0.000000
09:50:29.942 AM 04/09/2016,Teleop Enabled,11,FALSE,0,NO ERROR,-0.259843,0.250249,-0.259843,1.841579,TRUE,FALSE,FALSE,FALSE,FALSE,FALSE,Disabled,0.000000,0.000000,0.000000,TRUE,-1.026779,-0.997635,0.000000,0.041824,0.139206,0.000000,-0.050000,-0.030000,0.021000,-5.130000,0.350000,2.500000,-0.839791,Hold,1.132080,0.000000,Hold,-109.000000,2.000000,Suck,-1792.500000,1818.181818,Speed,-1762.500000,1818.181818,Speed,Off,On,0.000000,FALSE,0,,,,,0.000000,0.000000
09:50:30.042 AM 04/09/2016,Teleop Enabled,9,FALSE,0,NO ERROR,-0.354331,0.596749,-0.354331,1.565663,TRUE,FALSE,FALSE,FALSE,FALSE,FALSE,Disabled,0.000000,0.000000,0.000000,TRUE,-1.025146,-0.991592,0.000000,0.011826,0.102310,0.000000,-0.150000,0.016000,-0.022000,-4.690000,0.100000,2.540000,-0.323845,Hold,1.132080,0.000000,Hold,-109.000000,2.000000,Suck,-1800.000000,1818.181818,Speed,-1755.000000,1818.181818,Speed,Off,On,0.000000,FALSE,0,,,,,0.000000,0.000000
09:50:30.142 AM 04/09/2016,Teleop Enabled,9,FALSE,0,NO ERROR,-0.000000,1.822329,-0.000000,0.429916,FALSE,FALSE,FALSE,FALSE,FALSE,FALSE,Disabled,0.000000,0.000000,0.000000,TRUE,-1.019028,-0.979630,0.000000,0.148300,0.235886,0.000000,0.115000,0.138000,0.122000,-0.080000,0.730000,3.120000,3.289237,Hold,1.132080,0.000000,Hold,-109.000000,2.000000,Suck,-1792.500000,1818.181818,Speed,-1755.000000,1818.181818,Speed,Off,On,0.000000,FALSE,0,,,,,0.000000,0.000000
09:50:30.242 AM 04/09/2016,Teleop Enabled,10,FALSE,0,NO ERROR,-0.000000,2.848993,-0.000000,-0.417082,TRUE,FALSE,FALSE,FALSE,FALSE,FALSE,Disabled,0.000000,0.000000,0.000000,TRUE,-1.013153,-0.970093,0.000000,0.139664,0.216705,0.000000,-0.335000,-0.257000,0.055000,6.880000,0.180000,2.940000,9.575179,Hold,1.132080,0.000000,Hold,-109.000000,2.000000,Suck,-1785.000000,1818.181818,Speed,-1747.500000,1818.181818,Speed,Off,On,0.000000,FALSE,0,,,,,0.000000,0.000000
09:50:30.342 AM 04/09/2016,Teleop Enabled,10,FALSE,0,NO ERROR,-0.000000,3.246826,-0.000000,-0.654498,TRUE,FALSE,FALSE,FALSE,FALSE,FALSE,Disabled,0.000000,0.000000,0.000000,TRUE,-1.012131,-0.963806,0.000000,-0.028885,0.071838,0.000000,0.053000,-0.035000,-0.052000,7.510000,-0.170000,2.420000,11.467027,Hold,1.130615,0.000000,Hold,-109.000000,2.000000,Suck,-1792.500000,1818.181818,Speed,-1762.500000,1818.181818,Speed,Off,On,0.000000,FALSE,0,,,,,0.000000,0.000000
09:50:30.443 AM 04/09/2016,Teleop Enabled,11,FALSE,0,NO ERROR,0.291339,3.240409,0.291339,-0.590332,TRUE,FALSE,FALSE,FALSE,FALSE,FALSE,Disabled,0.000000,0.000000,0.000000,TRUE,-1.012787,-0.959366,0.000000,-0.008759,0.116959,0.000000,0.045000,-0.017000,0.003000,7.140000,-0.020000,2.490000,11.223156,Hold,1.130615,0.000000,Hold,-109.000000,2.000000,Suck,-1792.500000,1818.181818,Speed,-1762.500000,1818.181818,Speed,Off,On,0.000000,FALSE,0,,,,,0.000000,0.000000
09:50:30.543 AM 04/09/2016,Teleop Enabled,10,FALSE,0,NO ERROR,-0.000000,2.694994,-0.000000,-0.025667,TRUE,FALSE,FALSE,FALSE,FALSE,FALSE,Disabled,0.000000,0.000000,0.000000,TRUE,-1.015121,-0.957947,0.000000,-0.086304,-0.050430,0.000000,-0.125000,0.061000,-0.003000,5.450000,-0.300000,2.130000,9.957658,Hold,1.130615,0.000000,Hold,-109.000000,2.000000,Suck,-1800.000000,1818.181818,Speed,-1770.000000,1818.181818,Speed,Off,On,0.000000,FALSE,0,,,,,0.000000,0.000000
09:50:30.643 AM 04/09/2016,Teleop Enabled,9,FALSE,0,NO ERROR,-0.000000,2.232995,-0.000000,0.359332,TRUE,FALSE,FALSE,FALSE,FALSE,FALSE,Disabled,0.000000,0.000000,0.000000,TRUE,-1.019836,-0.960907,0.000000,-0.026535,-0.024994,0.000000,0.132000,0.208000,0.050000,2.070000,0.000000,2.230000,7.032737,Hold,1.121094,0.000000,Hold,-109.000000,2.000000,Suck,-1792.500000,1818.181818,Speed,-1762.500000,1818.181818,Speed,Off,On,0.000000,FALSE,0,,,,,0.000000,0.000000
09:50:30.743 AM 04/09/2016,Teleop Enabled,11,FALSE,0,NO ERROR,-0.000000,2.104662,-0.000000,0.410666,TRUE,FALSE,FALSE,FALSE,FALSE,FALSE,Disabled,0.000000,0.000000,0.000000,TRUE,-1.019318,-0.958847,0.000000,0.012543,0.062866,0.000000,0.026000,-0.069000,0.034000,2.030000,0.140000,2.560000,6.257345,Hold,1.121094,0.000000,Hold,-109.000000,2.000000,Suck,-1792.500000,1818.181818,Speed,-1762.500000,1818.181818,Speed,Off,On,0.000000,FALSE,0,,,,,0.000000,0.000000
09:50:30.843 AM 04/09/2016,Teleop Enabled,10,FALSE,0,NO ERROR,-0.000000,2.104662,-0.000000,0.384999,TRUE,FALSE,FALSE,FALSE,FALSE,FALSE,Disabled,0.000000,0.000000,0.000000,TRUE,-1.019119,-0.957565,0.000000,-0.007446,0.020355,0.000000,0.040000,-0.108000,-0.033000,2.170000,0.110000,2.550000,6.369369,Hold,1.121094,0.000000,Hold,-109.000000,2.000000,Suck,-1792.500000,1818.181818,Speed,-1755.000000,1818.181818,Speed,Off,On,0.000000,FALSE,0,,,,,0.000000,0.000000
09:50:30.945 AM 04/09/2016,Teleop Enabled,9,FALSE,0,NO ERROR,-0.000000,2.104662,-0.000000,0.384999,TRUE,FALSE,FALSE,FALSE,FALSE,FALSE,Disabled,0.000000,0.000000,0.000000,TRUE,-1.018768,-0.957275,0.000000,0.028702,-0.000107,0.000000,-0.028000,-0.047000,0.050000,2.150000,0.050000,2.480000,6.330768,Hold,1.121094,0.000000,Hold,-109.000000,2.000000,Suck,-1800.000000,1818.181818,Speed,-1762.500000,1818.181818,Speed,Off,On,0.000000,FALSE,0,,,,,0.000000,0.000000
09:50:31.045 AM 04/09/2016,Teleop Enabled,10,FALSE,0,NO ERROR,-0.000000,2.104662,-0.000000,0.384999,TRUE,FALSE,FALSE,FALSE,FALSE,FALSE,Disabled,0.000000,0.000000,0.000000,TRUE,-1.015793,-0.959564,0.000000,0.025497,-0.051208,0.000000,0.045000,-0.027000,0.044000,2.170000,0.070000,2.460000,6.359582,Hold,1.121094,0.000000,Hold,-109.000000,2.000000,Suck,-1800.000000,1818.181818,Speed,-1770.000000,1818.181818,Speed,Off,On,0.000000,FALSE,0,,,,,0.000000,0.000000
09:50:31.146 AM 04/09/2016,Teleop Enabled,6,FALSE,0,NO ERROR,0.291339,2.245828,-0.291339,0.487666,TRUE,FALSE,FALSE,FALSE,FALSE,FALSE,Disabled,0.000000,0.000000,0.000000,TRUE,-1.015793,-0.959564,0.000000,0.025497,-0.051208,0.000000,0.045000,-0.027000,0.044000,2.170000,0.070000,2.460000,6.349148,Hold,1.121094,0.000000,Hold,-109.000000,2.000000,Suck,-1800.000000,1818.181818,Speed,-1747.500000,1818.181818,Speed,Off,On,0.000000,FALSE,0,,,,,0.000000,0.000000
09:50:31.247 AM 04/09/2016,Teleop Enabled,10,FALSE,0,NO ERROR,0.291339,3.112076,-0.291339,1.424497,TRUE,FALSE,FALSE,FALSE,FALSE,FALSE,Disabled,0.000000,0.000000,0.000000,TRUE,-1.015335,-0.961502,0.000000,0.006470,-0.038879,0.000000,-0.366000,0.104000,0.213000,2.260000,-0.090000,2.560000,6.618452,Hold,1.121094,0.000000,Hold,-109.000000,2.000000,Suck,-1800.000000,1818.181818,Speed,-1740.000000,1818.181818,Speed,Off,On,0.000000,FALSE,0,,,,,0.000000,0.000000
09:50:31.348 AM 04/09/2016,Teleop Enabled,10,FALSE,0,NO ERROR,0.291339,4.459573,-0.291339,2.759160,TRUE,FALSE,FALSE,FALSE,FALSE,FALSE,Disabled,0.000000,0.000000,0.000000,TRUE,-1.040543,-0.963226,0.000000,-0.352127,-0.000122,0.000000,-0.070000,-0.045000,-0.109000,2.510000,-1.820000,2.470000,6.627286,Hold,1.115234,0.000000,Hold,-109.000000,2.000000,Suck,-1785.000000,1818.181818,Speed,-1770.000000,1818.181818,Speed,Off,On,0.000000,FALSE,0,,,,,0.000000,0.000000
09:50:31.448 AM 04/09/2016,Teleop Enabled,10,FALSE,0,NO ERROR,0.291339,6.275485,-0.291339,4.517323,TRUE,FALSE,FALSE,FALSE,FALSE,FALSE,Disabled,0.000000,0.000000,0.000000,TRUE,-1.054825,-0.962036,0.000000,-0.354416,0.021240,0.000000,-0.025000,0.005000,-0.120000,2.730000,-1.670000,2.570000,6.758378,Hold,1.096436,0.000000,Hold,-109.000000,2.000000,Suck,-1777.500000,1818.181818,Speed,-1770.000000,1818.181818,Speed,Off,On,0.000000,FALSE,0,,,,,0.000000,0.000000
09:50:31.549 AM 04/09/2016,Teleop Enabled,9,FALSE,0,NO ERROR,0.291339,8.084981,-0.291339,6.326819,TRUE,FALSE,FALSE,FALSE,FALSE,FALSE,Disabled,0.000000,0.000000,0.000000,TRUE,-1.074448,-0.959488,0.000000,-0.321716,0.054474,0.000000,0.074000,-0.093000,0.043000,2.730000,-1.670000,2.570000,6.772011,Hold,1.085938,0.000000,Hold,-109.000000,2.000000,Suck,-1777.500000,1818.181818,Speed,-1762.500000,1818.181818,Speed,Off,On,0.000000,FALSE,0,,,,,0.000000,0.000000
09:50:31.650 AM 04/09/2016,Teleop Enabled,10,FALSE,0,NO ERROR,0.291339,9.804644,-0.291339,8.264647,TRUE,FALSE,FALSE,FALSE,FALSE,FALSE,Disabled,0.000000,0.000000,0.000000,TRUE,-1.088470,-0.955948,0.000000,-0.222168,0.087021,0.000000,0.117000,-0.020000,-0.072000,2.000000,-2.290000,2.420000,6.314192,Hold,0.981689,0.000000,Hold,-109.000000,2.000000,Suck,-1785.000000,1818.181818,Speed,-1762.500000,1818.181818,Speed,Off,On,0.000000,FALSE,0,,,,,0.000000,0.000000
09:50:31.750 AM 04/09/2016,Teleop Enabled,10,FALSE,0,NO ERROR,0.228346,11.248390,-0.228346,9.669894,FALSE,FALSE,FALSE,FALSE,FALSE,FALSE,Disabled,0.000000,0.000000,0.000000,TRUE,-1.094650,-0.951996,0.000000,-0.077972,0.080292,0.000000,0.117000,-0.020000,-0.072000,1.790000,-3.610000,2.260000,5.875972,Hold,0.983887,0.000000,Hold,-109.000000,2.000000,Suck,-1792.500000,1818.181818,Speed,-1755.000000,1818.181818,Speed,Off,On,0.000000,FALSE,0,,,,,0.000000,0.000000
09:50:31.850 AM 04/09/2016,Teleop Enabled,11,FALSE,0,NO ERROR,-0.000000,12.076138,-0.000000,10.350059,FALSE,FALSE,FALSE,FALSE,FALSE,FALSE,Disabled,0.000000,0.000000,0.000000,TRUE,-1.093170,-0.945450,0.000000,0.098892,0.120850,0.000000,0.006000,0.114000,-0.130000,2.000000,-3.840000,2.330000,6.140925,Hold,0.983887,0.000000,Hold,-109.000000,2.000000,Suck,-1792.500000,1818.181818,Speed,-1762.500000,1818.181818,Speed,Off,On,0.000000,FALSE,0,,,,,0.000000,0.000000
09:50:31.950 AM 04/09/2016,Teleop Enabled,10,FALSE,0,NO ERROR,-0.000000,12.249388,-0.000000,10.542559,FALSE,FALSE,FALSE,FALSE,FALSE,FALSE,Disabled,0.000000,0.000000,0.000000,TRUE,-1.083939,-0.940323,0.000000,0.243866,0.115128,0.000000,0.092000,-0.085000,0.058000,2.000000,-3.840000,2.330000,6.124466,Hold,0.983887,0.000000,Hold,-109.000000,2.000000,Suck,-1792.500000,1818.181818,Speed,-1770.000000,1818.181818,Speed,Off,On,0.000000,FALSE,0,,,,,0.000000,0.000000
09:50:32.051 AM 04/09/2016,Teleop Enabled,8,FALSE,0,NO ERROR,-0.000000,12.172388,-0.000000,10.407809,TRUE,FALSE,FALSE,FALSE,FALSE,FALSE,Disabled,0.000000,0.000000,0.000000,TRUE,-1.066238,-0.932053,0.000000,0.348099,0.124405,0.000000,0.093000,0.086000,0.079000,2.090000,-2.700000,2.290000,6.162124,Hold,0.983887,0.000000,Hold,-109.000000,2.000000,Suck,-1800.000000,1818.181818,Speed,-1755.000000,1818.181818,Speed,Off,On,0.000000,FALSE,0,,,,,0.000000,0.000000
09:50:32.153 AM 04/09/2016,Teleop Enabled,10,FALSE,0,NO ERROR,-0.000000,11.864389,-0.000000,10.119060,TRUE,FALSE,FALSE,FALSE,FALSE,FALSE,Disabled,0.000000,0.000000,0.000000,TRUE,-1.050873,-0.925247,0.000000,0.284409,0.137680,0.000000,0.060000,0.004000,0.017000,2.090000,-2.700000,2.290000,6.087606,Hold,0.983887,0.000000,Hold,-109.000000,2.000000,Suck,-1800.000000,1818.181818,Speed,-1770.000000,1818.181818,Speed,Off,On,0.000000,FALSE,0,,,,,0.000000,0.000000
09:50:32.255 AM 04/09/2016,Teleop Enabled,9,FALSE,0,NO ERROR,-0.000000,11.485806,-0.000000,9.753311,TRUE,FALSE,FALSE,FALSE,FALSE,FALSE,Disabled,0.000000,0.000000,0.000000,TRUE,-1.039780,-0.919815,0.000000,0.280533,0.140320,0.000000,0.016000,-0.090000,-0.076000,2.020000,-2.650000,2.320000,6.056668,Hold,0.983887,0.000000,Hold,-109.000000,2.000000,Suck,-1800.000000,1818.181818,Speed,-1777.500000,1818.181818,Speed,Off,On,0.000000,FALSE,0,,,,,0.000000,0.000000
09:50:32.355 AM 04/09/2016,Teleop Enabled,12,FALSE,0,NO ERROR,0.204724,11.293307,-0.204724,9.541561,TRUE,FALSE,FALSE,FALSE,FALSE,FALSE,Disabled,0.000000,0.000000,0.000000,TRUE,-1.027710,-0.912048,0.000000,0.178223,0.166061,0.000000,0.066000,0.028000,0.041000,2.020000,-2.300000,2.250000,5.989146,Hold,0.983887,0.000000,Hold,-109.000000,2.000000,Suck,-1800.000000,1818.181818,Speed,-1770.000000,1818.181818,Speed,Off,On,0.000000,FALSE,0,,,,,0.000000,0.000000
09:50:32.456 AM 04/09/2016,Teleop Enabled,10,FALSE,0,NO ERROR,0.228346,11.543556,-0.228346,9.753311,FALSE,FALSE,FALSE,FALSE,FALSE,FALSE,Disabled,0.000000,0.000000,0.000000,TRUE,-1.027710,-0.912048,0.000000,0.178223,0.166061,0.000000,-0.138000,-0.051000,-0.171000,2.050000,-3.150000,2.340000,6.031985,Hold,0.983887,0.000000,Hold,-109.000000,2.000000,Suck,-1792.500000,1818.181818,Speed,-1755.000000,1818.181818,Speed,Off,On,0.000000,FALSE,0,,,,,0.000000,0.000000
09:50:32.560 AM 04/09/2016,Teleop Enabled,10,FALSE,0,NO ERROR,0.259843,12.223721,-0.259843,10.433476,FALSE,FALSE,FALSE,FALSE,FALSE,FALSE,Disabled,0.000000,0.000000,0.000000,TRUE,-1.021072,-0.898300,0.000000,0.008743,0.108643,0.000000,-0.011000,-0.091000,0.144000,2.130000,-4.410000,2.410000,5.990571,Hold,0.983887,0.000000,Hold,-109.000000,2.000000,Suck,-1792.500000,1818.181818,Speed,-1762.500000,1818.181818,Speed,Off,On,0.000000,FALSE,0,,,,,0.000000,0.000000
09:50:32.661 AM 04/09/2016,Teleop Enabled,10,FALSE,0,NO ERROR,0.259843,13.224719,-0.259843,11.415223,FALSE,FALSE,FALSE,FALSE,FALSE,FALSE,Disabled,0.000000,0.000000,0.000000,TRUE,-1.022858,-0.893906,0.000000,-0.071548,0.124588,0.000000,-0.120000,-0.068000,-0.025000,2.130000,-4.410000,2.410000,6.013158,Hold,0.983887,0.000000,Hold,-109.000000,2.000000,Suck,-1785.000000,1818.181818,Speed,-1762.500000,1818.181818,Speed,Off,On,0.000000,FALSE,0,,,,,0.000000,0.000000
09:50:32.761 AM 04/09/2016,Teleop Enabled,11,FALSE,0,NO ERROR,0.259843,14.488799,-0.259843,12.666470,FALSE,FALSE,FALSE,FALSE,FALSE,FALSE,Disabled,0.000000,0.000000,0.000000,TRUE,-1.027359,-0.887970,0.000000,-0.095490,0.104782,0.000000,-0.010000,0.000000,-0.024000,2.230000,-5.040000,2.600000,5.995377,Hold,0.983887,0.000000,Hold,-109.000000,2.000000,Suck,-1792.500000,1818.181818,Speed,-1755.000000,1818.181818,Speed,Off,On,0.000000,FALSE,0,,,,,0.000000,0.000000
09:50:32.861 AM 04/09/2016,Teleop Enabled,9,FALSE,0,NO ERROR,0.259843,15.913296,-0.259843,14.219300,FALSE,FALSE,FALSE,FALSE,FALSE,FALSE,Disabled,0.000000,0.000000,0.000000,TRUE,-1.034348,-0.883118,0.000000,-0.166901,0.104980,0.000000,-0.126000,-0.076000,0.029000,2.230000,-4.810000,2.810000,5.782324,Hold,0.983887,0.000000,Hold,-109.000000,2.000000,Suck,-1792.500000,1818.181818,Speed,-1762.500000,1818.181818,Speed,Off,On,0.000000,FALSE,0,,,,,0.000000,0.000000
09:50:32.962 AM 04/09/2016,Teleop Enabled,10,FALSE,0,NO ERROR,0.259843,17.588042,-0.259843,15.887630,FALSE,FALSE,FALSE,FALSE,FALSE,FALSE,Disabled,0.000000,0.000000,0.000000,TRUE,-1.040115,-0.875839,0.000000,-0.073807,0.155533,0.000000,0.099000,-0.019000,0.181000,2.020000,-4.340000,2.500000,5.694845,Hold,0.983887,0.000000,Hold,-109.000000,2.000000,Suck,-1792.500000,1818.181818,Speed,-1762.500000,1818.181818,Speed,Off,On,0.000000,FALSE,0,,,,,0.000000,0.000000
09:50:33.065 AM 04/09/2016,Teleop Enabled,11,FALSE,0,NO ERROR,0.259843,19.044622,-0.259843,17.318543,FALSE,FALSE,FALSE,FALSE,FALSE,FALSE,Disabled,0.000000,0.000000,0.000000,TRUE,-1.043182,-0.868820,0.000000,-0.039948,0.147690,0.000000,0.127000,-0.036000,-0.127000,2.000000,-4.700000,2.480000,5.685777,Hold,0.983887,0.000000,Hold,-109.000000,2.000000,Suck,-1800.000000,1818.181818,Speed,-1755.000000,1818.181818,Speed,Off,On,0.000000,FALSE,0,,,,,0.000000,0.000000
09:50:33.168 AM 04/09/2016,Teleop Enabled,9,FALSE,0,NO ERROR,0.259843,20.398536,-0.259843,18.672456,FALSE,FALSE,FALSE,FALSE,FALSE,FALSE,Disabled,0.000000,0.000000,0.000000,TRUE,-1.043671,-0.860626,0.000000,-0.007629,0.137466,0.000000,0.127000,-0.036000,-0.127000,2.020000,-4.950000,2.310000,5.647926,Hold,0.983887,0.000000,Hold,-109.000000,2.000000,Suck,-1792.500000,1818.181818,Speed,-1770.000000,1818.181818,Speed,Off,On,0.000000,FALSE,0,,,,,0.000000,0.000000
09:50:33.270 AM 04/09/2016,Teleop Enabled,11,FALSE,0,NO ERROR,0.259843,21.534283,-0.259843,19.859537,FALSE,FALSE,FALSE,FALSE,FALSE,FALSE,Disabled,0.000000,0.000000,0.000000,TRUE,-1.039963,-0.853119,0.000000,0.141678,0.152756,0.000000,0.217000,-0.039000,0.164000,2.020000,-4.950000,2.310000,5.397749,Hold,0.983887,0.000000,Hold,-109.000000,2.000000,Suck,-1792.500000,1818.181818,Speed,-1762.500000,1818.181818,Speed,Off,On,0.000000,FALSE,0,,,,,0.000000,0.000000
09:50:33.371 AM 04/09/2016,Teleop Enabled,9,FALSE,0,NO ERROR,0.259843,22.297865,-0.259843,20.514035,FALSE,FALSE,FALSE,FALSE,FALSE,FALSE,Disabled,0.000000,0.000000,0.000000,TRUE,-1.029526,-0.845871,0.000000,0.215012,0.148056,0.000000,0.126000,0.059000,-0.073000,1.890000,-4.620000,2.110000,5.504210,Hold,0.983887,0.000000,Hold,-109.000000,2.000000,Suck,-1792.500000,1818.181818,Speed,-1740.000000,1818.181818,Speed,Off,On,0.000000,FALSE,0,,,,,0.000000,0.000000
09:50:33.471 AM 04/09/2016,Teleop Enabled,9,FALSE,0,NO ERROR,0.259843,22.971613,-0.259843,20.995284,FALSE,FALSE,FALSE,FALSE,FALSE,FALSE,Disabled,0.000000,0.000000,0.000000,TRUE,-1.018600,-0.839844,0.000000,0.213989,0.101089,0.000000,-0.039000,-0.037000,0.029000,1.890000,-4.620000,2.110000,5.826640,Hold,0.983887,0.000000,Hold,-109.000000,2.000000,Suck,-1785.000000,1818.181818,Speed,-1740.000000,1818.181818,Speed,Off,On,0.000000,FALSE,0,,,,,0.000000,0.000000
09:50:33.571 AM 04/09/2016,Teleop Enabled,11,FALSE,0,NO ERROR,0.259843,23.863528,-0.259843,21.534283,FALSE,FALSE,FALSE,FALSE,FALSE,FALSE,Disabled,0.000000,0.000000,0.000000,TRUE,-1.010132,-0.835831,0.000000,0.128952,0.082794,0.000000,-0.039000,-0.037000,0.029000,2.410000,-5.350000,2.100000,6.539886,Hold,0.983887,0.000000,Hold,-109.000000,2.000000,Suck,-1785.000000,1818.181818,Speed,-1762.500000,1818.181818,Speed,Off,On,0.000000,FALSE,0,,,,,0.000000,0.000000
09:50:33.673 AM 04/09/2016,Teleop Enabled,10,FALSE,0,NO ERROR,0.259843,24.980025,-0.259843,22.278615,FALSE,FALSE,FALSE,FALSE,FALSE,FALSE,Disabled,0.000000,0.000000,0.000000,TRUE,-1.004639,-0.832581,0.000000,0.104584,0.057739,0.000000,0.059000,-0.126000,-0.016000,3.880000,-8.270000,2.690000,7.215667,Hold,0.983887,0.000000,Hold,-109.000000,2.000000,Suck,-1777.500000,1818.181818,Speed,-1762.500000,1818.181818,Speed,Off,On,0.000000,FALSE,0,,,,,0.000000,0.000000
09:50:33.773 AM 04/09/2016,Teleop Enabled,9,FALSE,0,NO ERROR,0.259843,26.378855,-0.259843,23.215446,FALSE,FALSE,FALSE,FALSE,FALSE,FALSE,Disabled,0.000000,0.000000,0.000000,TRUE,-1.002945,-0.829514,0.000000,-0.010513,0.052994,0.000000,-0.114000,-0.001000,-0.142000,3.880000,-8.270000,2.690000,7.919526,Hold,0.983887,0.000000,Hold,-109.000000,2.000000,Suck,-1777.500000,1818.181818,Speed,-1755.000000,1818.181818,Speed,Off,On,0.000000,FALSE,0,,,,,0.000000,0.000000
09:50:33.873 AM 04/09/2016,Teleop Enabled,12,FALSE,0,NO ERROR,0.259843,27.867518,-0.259843,24.460276,FALSE,FALSE,FALSE,FALSE,FALSE,FALSE,Disabled,0.000000,0.000000,0.000000,TRUE,-1.006134,-0.828064,0.000000,-0.103012,0.001724,0.000000,-0.150000,-0.048000,0.052000,4.950000,-8.670000,3.220000,8.503590,Hold,0.984131,0.000000,Hold,-109.000000,2.000000,Suck,-1785.000000,1818.181818,Speed,-1747.500000,1818.181818,Speed,Off,On,0.000000,FALSE,0,,,,,0.000000,0.000000
09:50:33.973 AM 04/09/2016,Teleop Enabled,9,FALSE,0,NO ERROR,0.259843,29.465264,-0.259843,26.417355,FALSE,FALSE,FALSE,FALSE,FALSE,FALSE,Disabled,0.000000,0.000000,0.000000,TRUE,-1.006134,-0.828064,0.000000,-0.103012,0.001724,0.000000,-0.112000,0.196000,-0.009000,5.400000,-7.550000,2.740000,7.861109,Hold,0.983643,0.000000,Hold,-109.000000,2.000000,Suck,-1785.000000,1818.181818,Speed,-1785.000000,1818.181818,Speed,Off,On,0.000000,FALSE,0,,,,,0.000000,0.000000
09:50:34.073 AM 04/09/2016,Teleop Enabled,10,FALSE,0,NO ERROR,0.259843,30.953928,-0.259843,27.995851,FALSE,FALSE,FALSE,FALSE,FALSE,FALSE,Disabled,0.000000,0.000000,0.000000,TRUE,-1.016754,-0.823502,0.000000,-0.010452,0.052307,0.000000,-0.159000,0.001000,0.315000,4.330000,-8.000000,1.820000,8.016158,Hold,1.002441,0.000000,Hold,-109.000000,2.000000,Suck,-1777.500000,1818.181818,Speed,-1785.000000,1818.181818,Speed,Off,On,0.000000,FALSE,0,,,,,0.000000,0.000000
09:50:34.174 AM 04/09/2016,Teleop Enabled,10,FALSE,0,NO ERROR,0.259843,32.378424,-0.259843,29.497348,FALSE,FALSE,FALSE,FALSE,FALSE,FALSE,Disabled,0.000000,0.000000,0.000000,TRUE,-1.016754,-0.823502,0.000000,-0.010452,0.052307,0.000000,-0.159000,0.001000,0.315000,4.830000,-7.080000,1.610000,7.880126,Hold,1.002197,0.000000,Hold,-109.000000,2.000000,Suck,-1777.500000,1818.181818,Speed,-1755.000000,1818.181818,Speed,Off,On,0.000000,FALSE,0,,,,,0.000000,0.000000
09:50:34.276 AM 04/09/2016,Teleop Enabled,10,FALSE,0,NO ERROR,0.259843,33.225422,-0.259843,30.633095,FALSE,FALSE,FALSE,FALSE,FALSE,FALSE,Disabled,0.000000,0.000000,0.000000,TRUE,-1.016357,-0.820969,0.000000,0.055527,0.009354,0.000000,0.075000,-0.051000,-0.099000,4.610000,-7.400000,1.420000,7.030554,Hold,1.001221,0.000000,Hold,-109.000000,2.000000,Suck,-1785.000000,1818.181818,Speed,-1755.000000,1818.181818,Speed,Off,On,0.000000,FALSE,0,,,,,0.000000,0.000000
09:50:34.377 AM 04/09/2016,Teleop Enabled,9,FALSE,0,NO ERROR,0.259843,34.406086,-0.259843,31.781676,FALSE,FALSE,FALSE,FALSE,FALSE,FALSE,Disabled,0.000000,0.000000,0.000000,TRUE,-1.012665,-0.821030,0.000000,0.074982,-0.003372,0.000000,0.034000,0.053000,0.313000,3.850000,-5.840000,1.410000,7.008177,Hold,1.009521,0.000000,Hold,-109.000000,2.000000,Suck,-1777.500000,1818.181818,Speed,-1755.000000,1818.181818,Speed,Off,On,0.000000,FALSE,0,,,,,0.000000,0.000000
09:50:34.478 AM 04/09/2016,Teleop Enabled,10,FALSE,0,NO ERROR,0.259843,35.541834,-0.259843,31.781676,FALSE,FALSE,FALSE,FALSE,FALSE,FALSE,Disabled,0.000000,0.000000,0.000000,TRUE,-1.007126,-0.819443,0.000000,0.106094,0.023849,0.000000,0.108000,-0.243000,0.004000,3.890000,-5.340000,1.240000,7.008177,Hold,1.010010,0.000000,Hold,-109.000000,2.000000,Suck,-1777.500000,1818.181818,Speed,-1762.500000,1818.181818,Speed,Off,On,0.000000,FALSE,0,,,,,0.000000,0.000000
09:50:34.579 AM 04/09/2016,Teleop Enabled,9,FALSE,0,NO ERROR,0.259843,35.541834,-0.259843,32.846840,FALSE,FALSE,FALSE,FALSE,FALSE,FALSE,Disabled,0.000000,0.000000,0.000000,TRUE,-1.000488,-0.821030,0.000000,0.110794,-0.034775,0.000000,-0.041000,-0.016000,0.025000,4.120000,-4.620000,1.390000,7.125737,Hold,1.011719,0.000000,Hold,-109.000000,2.000000,Suck,-1785.000000,1818.181818,Speed,-1755.000000,1818.181818,Speed,Off,On,0.000000,FALSE,0,,,,,0.000000,0.000000
09:50:34.679 AM 04/09/2016,Teleop Enabled,10,FALSE,0,NO ERROR,0.259843,36.722497,-0.259843,33.995421,FALSE,FALSE,FALSE,FALSE,FALSE,FALSE,Disabled,0.000000,0.000000,0.000000,TRUE,-0.996796,-0.822784,0.000000,0.083099,-0.052734,0.000000,0.052000,0.075000,0.081000,4.150000,-4.510000,1.440000,7.090413,Hold,1.011719,0.000000,Hold,-109.000000,2.000000,Suck,-1792.500000,1818.181818,Speed,-1755.000000,1818.181818,Speed,Off,On,0.000000,FALSE,0,,,,,0.000000,0.000000
09:50:34.782 AM 04/09/2016,Teleop Enabled,13,FALSE,0,NO ERROR,0.309970,37.928828,-0.209715,35.246668,FALSE,FALSE,FALSE,FALSE,FALSE,FALSE,Disabled,0.000000,0.000000,0.000000,TRUE,-0.993088,-0.824066,0.000000,0.055634,-0.023209,0.000000,0.039000,-0.051000,-0.083000,4.000000,-5.160000,1.460000,6.937206,Hold,1.011719,0.000000,Hold,-109.000000,2.000000,Suck,-1792.500000,1818.181818,Speed,-1762.500000,1818.181818,Speed,Off,On,0.000000,FALSE,0,,,,,0.000000,0.000000
09:50:34.882 AM 04/09/2016,Teleop Enabled,10,FALSE,0,NO ERROR,0.259843,39.154408,-0.259843,36.863664,FALSE,FALSE,FALSE,FALSE,FALSE,FALSE,Disabled,0.000000,0.000000,0.000000,TRUE,-0.990677,-0.826340,0.000000,0.030975,-0.014450,0.000000,0.092000,0.074000,0.066000,3.270000,-6.610000,1.330000,6.469895,Hold,1.011475,0.000000,Hold,-109.000000,2.000000,Suck,-1792.500000,1818.181818,Speed,-1762.500000,1818.181818,Speed,Off,On,0.000000,FALSE,0,,,,,0.000000,0.000000
09:50:34.982 AM 04/09/2016,Teleop Enabled,9,FALSE,0,NO ERROR,0.259843,40.469822,-0.259843,38.538410,FALSE,FALSE,FALSE,FALSE,FALSE,FALSE,Disabled,0.000000,0.000000,0.000000,TRUE,-0.987015,-0.827133,0.000000,0.110214,-0.044739,0.000000,0.056000,0.057000,-0.223000,2.770000,-7.190000,1.410000,5.775900,Hold,1.011475,0.000000,Hold,-109.000000,2.000000,Suck,-1792.500000,1818.181818,Speed,-1762.500000,1818.181818,Speed,Off,On,0.000000,FALSE,0,,,,,0.000000,0.000000
09:50:35.084 AM 04/09/2016,Teleop Enabled,10,FALSE,0,NO ERROR,0.259843,41.759569,-0.259843,39.847407,FALSE,FALSE,FALSE,FALSE,FALSE,FALSE,Disabled,0.000000,0.000000,0.000000,TRUE,-0.980515,-0.828522,0.000000,0.113876,-0.004227,0.000000,-0.032000,-0.074000,0.076000,2.820000,-6.660000,1.560000,5.504692,Hold,1.011475,0.000000,Hold,-109.000000,2.000000,Suck,-1792.500000,1818.181818,Speed,-1770.000000,1818.181818,Speed,Off,On,0.000000,FALSE,0,,,,,0.000000,0.000000
09:50:35.183 AM 04/09/2016,Teleop Enabled,10,FALSE,0,NO ERROR,0.259843,43.030066,-0.259843,41.111487,FALSE,FALSE,FALSE,FALSE,FALSE,FALSE,Disabled,0.000000,0.000000,0.000000,TRUE,-0.975250,-0.830109,0.000000,0.105515,-0.049606,0.000000,0.014000,-0.005000,0.092000,2.780000,-6.270000,1.150000,5.502771,Hold,1.011475,0.000000,Hold,-109.000000,2.000000,Suck,-1792.500000,1818.181818,Speed,-1762.500000,1818.181818,Speed,Off,On,0.000000,FALSE,0,,,,,0.000000,0.000000
09:50:35.283 AM 04/09/2016,Teleop Enabled,10,FALSE,0,NO ERROR,0.259843,44.345480,-0.259843,42.458984,FALSE,FALSE,FALSE,FALSE,FALSE,FALSE,Disabled,0.000000,0.000000,0.000000,TRUE,-0.968018,-0.832916,0.000000,0.107803,-0.044113,0.000000,0.010000,-0.107000,-0.015000,2.760000,-6.530000,1.320000,5.395001,Hold,1.011475,0.000000,Hold,-109.000000,2.000000,Suck,-1792.500000,1818.181818,Speed,-1762.500000,1818.181818,Speed,Off,On,0.000000,FALSE,0,,,,,0.000000,0.000000
09:50:35.383 AM 04/09/2016,Teleop Enabled,9,FALSE,0,NO ERROR,0.259843,45.641643,-0.259843,43.742314,FALSE,FALSE,FALSE,FALSE,FALSE,FALSE,Disabled,0.000000,0.000000,0.000000,TRUE,-0.963760,-0.834183,0.000000,0.103546,0.003525,0.000000,-0.029000,0.078000,0.055000,2.800000,-6.570000,1.320000,5.352507,Hold,1.011475,0.000000,Hold,-109.000000,2.000000,Suck,-1792.500000,1818.181818,Speed,-1762.500000,1818.181818,Speed,Off,On,0.000000,FALSE,0,,,,,0.000000,0.000000
09:50:35.484 AM 04/09/2016,Teleop Enabled,11,FALSE,0,NO ERROR,0.259843,46.886474,-0.259843,45.019228,FALSE,FALSE,FALSE,FALSE,FALSE,FALSE,Disabled,0.000000,0.000000,0.000000,TRUE,-0.958969,-0.832504,0.000000,0.107315,0.033478,0.000000,-0.037000,0.038000,0.030000,2.760000,-6.430000,1.200000,5.265558,Hold,1.011475,0.000000,Hold,-109.000000,2.000000,Suck,-1785.000000,1818.181818,Speed,-1762.500000,1818.181818,Speed,Off,On,0.000000,FALSE,0,,,,,0.000000,0.000000
09:50:35.585 AM 04/09/2016,Teleop Enabled,11,FALSE,0,NO ERROR,0.244094,48.137721,-0.244094,46.328225,FALSE,FALSE,FALSE,FALSE,FALSE,FALSE,Disabled,0.000000,0.000000,0.000000,TRUE,-0.956848,-0.831955,0.000000,-0.003204,-0.011612,0.000000,0.096000,-0.002000,-0.031000,2.680000,-6.290000,1.050000,5.172247,Hold,1.011475,0.000000,Hold,-109.000000,2.000000,Suck,-1777.500000,1818.181818,Speed,-1762.500000,1818.181818,Speed,Off,On,0.000000,FALSE,0,,,,,0.000000,0.000000
09:50:35.685 AM 04/09/2016,Teleop Enabled,11,FALSE,0,NO ERROR,-0.000000,49.433884,-0.000000,47.662889,FALSE,FALSE,FALSE,FALSE,FALSE,FALSE,Disabled,0.000000,0.000000,0.000000,TRUE,-0.955185,-0.832291,0.000000,0.042328,-0.001282,0.000000,-0.079000,0.025000,-0.042000,2.650000,-6.120000,0.940000,5.063872,Hold,1.011475,0.000000,Hold,-109.000000,2.000000,Suck,-1777.500000,1818.181818,Speed,-1762.500000,1818.181818,Speed,Off,On,0.000000,FALSE,0,,,,,0.000000,0.000000
09:50:35.785 AM 04/09/2016,Teleop Enabled,9,FALSE,0,NO ERROR,-0.000000,50.460549,-0.000000,48.740886,FALSE,FALSE,FALSE,FALSE,FALSE,FALSE,Disabled,0.000000,0.000000,0.000000,TRUE,-0.953598,-0.832687,0.000000,0.065643,-0.022995,0.000000,0.150000,-0.030000,-0.029000,2.580000,-5.510000,0.730000,4.983581,Hold,1.011475,0.000000,Hold,-109.000000,2.000000,Suck,-1785.000000,1818.181818,Speed,-1762.500000,1818.181818,Speed,Off,On,0.000000,FALSE,0,,,,,0.000000,0.000000
09:50:35.885 AM 04/09/2016,Teleop Enabled,10,FALSE,0,NO ERROR,-0.000000,50.717215,-0.000000,49.048885,FALSE,FALSE,FALSE,FALSE,FALSE,FALSE,Disabled,0.000000,0.000000,0.000000,TRUE,-0.942154,-0.834167,0.000000,0.296936,-0.024811,0.000000,0.124000,-0.077000,-0.092000,2.500000,-3.820000,0.370000,4.886887,Hold,1.011475,0.000000,Hold,-109.000000,2.000000,Suck,-1785.000000,1818.181818,Speed,-1762.500000,1818.181818,Speed,Off,On,0.000000,FALSE,0,,,,,0.000000,0.000000
09:50:35.985 AM 04/09/2016,Teleop Enabled,10,FALSE,0,NO ERROR,-0.000000,50.742881,-0.000000,49.080969,FALSE,FALSE,FALSE,FALSE,FALSE,FALSE,Disabled,0.000000,0.000000,0.000000,TRUE,-0.924683,-0.837357,0.000000,0.372910,-0.103561,0.000000,0.050000,-0.058000,0.014000,2.400000,-3.740000,0.390000,4.709261,Hold,1.011475,0.000000,Hold,-109.000000,2.000000,Suck,-1792.500000,1818.181818,Speed,-1777.500000,1818.181818,Speed,Off,On,0.000000,FALSE,0,,,,,0.000000,0.000000
09:50:36.085 AM 04/09/2016,Teleop Enabled,11,FALSE,0,NO ERROR,-0.000000,50.576048,-0.000000,48.894886,FALSE,FALSE,FALSE,FALSE,FALSE,FALSE,Disabled,0.000000,0.000000,0.000000,TRUE,-0.903839,-0.843811,0.000000,0.424225,-0.113708,0.000000,-0.156000,0.044000,0.137000,2.410000,-4.150000,0.920000,4.598696,Hold,1.011475,0.000000,Hold,-109.000000,2.000000,Suck,-1792.500000,1818.181818,Speed,-1777.500000,1818.181818,Speed,Off,On,0.000000,FALSE,0,,,,,0.000000,0.000000
09:50:36.185 AM 04/09/2016,Teleop Enabled,11,FALSE,0,NO ERROR,-0.000000,50.203883,-0.000000,48.548386,FALSE,FALSE,FALSE,FALSE,FALSE,FALSE,Disabled,0.000000,0.000000,0.000000,TRUE,-0.886047,-0.848038,0.000000,0.331726,0.000000,0.000000,0.000000,-0.007000,-0.033000,2.510000,-4.810000,0.850000,4.628457,Hold,1.011475,0.000000,Hold,-109.000000,2.000000,Suck,-1785.000000,1818.181818,Speed,-1762.500000,1818.181818,Speed,Off,On,0.000000,FALSE,0,,,,,0.000000,0.000000
09:50:36.284 AM 04/09/2016,Teleop Enabled,11,FALSE,0,NO ERROR,-0.000000,49.921550,-0.000000,48.304554,FALSE,FALSE,FALSE,FALSE,FALSE,FALSE,Disabled,0.000000,0.000000,0.000000,TRUE,-0.871002,-0.848373,0.000000,0.285431,-0.021042,0.000000,-0.101000,-0.114000,0.026000,2.360000,-4.620000,0.760000,4.457428,Hold,1.011475,0.000000,Hold,-109.000000,2.000000,Suck,-1785.000000,1818.181818,Speed,-1770.000000,1818.181818,Speed,Off,On,0.000000,FALSE,0,,,,,0.000000,0.000000
09:50:36.385 AM 04/09/2016,Teleop Enabled,11,FALSE,0,NO ERROR,0.196850,49.786800,0.196850,48.156971,FALSE,FALSE,FALSE,FALSE,FALSE,FALSE,Disabled,0.000000,0.000000,0.000000,TRUE,-0.855865,-0.850876,0.000000,0.242920,-0.029251,0.000000,0.102000,0.017000,0.050000,2.390000,-4.940000,0.830000,4.395000,Hold,1.011475,0.000000,Hold,-109.000000,2.000000,Suck,-1785.000000,1818.181818,Speed,-1777.500000,1818.181818,Speed,Off,On,0.000000,FALSE,0,,,,,0.000000,0.000000
09:50:36.485 AM 04/09/2016,Teleop Enabled,11,FALSE,0,NO ERROR,0.196850,49.215718,0.196850,48.291720,FALSE,FALSE,FALSE,FALSE,FALSE,FALSE,Disabled,0.000000,0.000000,0.000000,TRUE,-0.846985,-0.853043,0.000000,0.211823,-0.082123,0.000000,0.000000,-0.044000,-0.094000,1.950000,-5.430000,0.820000,3.999915,Hold,1.011475,0.000000,Hold,-109.000000,2.000000,Suck,-1785.000000,1818.181818,Speed,-1785.000000,1818.181818,Speed,Off,On,0.000000,FALSE,0,,,,,0.000000,0.000000
09:50:36.585 AM 04/09/2016,Teleop Enabled,10,FALSE,0,NO ERROR,-0.000000,48.509887,-0.000000,48.586886,FALSE,FALSE,FALSE,FALSE,FALSE,FALSE,Disabled,0.000000,0.000000,0.000000,TRUE,-0.846756,-0.857147,0.000000,0.009689,-0.062592,0.000000,0.115000,0.039000,-0.027000,-0.530000,-5.090000,1.000000,2.061679,Hold,1.011475,0.000000,Hold,-109.000000,2.000000,Suck,-1785.000000,1818.181818,Speed,-1770.000000,1818.181818,Speed,Off,On,0.000000,FALSE,0,,,,,0.000000,0.000000
09:50:36.685 AM 04/09/2016,Teleop Enabled,10,FALSE,0,NO ERROR,-0.000000,47.739888,-0.000000,48.926969,FALSE,FALSE,FALSE,FALSE,FALSE,FALSE,Disabled,0.000000,0.000000,0.000000,TRUE,-0.844040,-0.860611,0.000000,0.091171,-0.060440,0.000000,0.130000,-0.056000,-0.089000,-2.930000,-6.040000,1.060000,-0.364577,Hold,1.011475,0.000000,Hold,-109.000000,2.000000,Suck,-1785.000000,1818.181818,Speed,-1762.500000,1818.181818,Speed,Off,On,0.000000,FALSE,0,,,,,0.000000,0.000000
09:50:36.785 AM 04/09/2016,Teleop Enabled,10,FALSE,0,NO ERROR,-0.000000,47.463972,-0.000000,48.586886,FALSE,FALSE,FALSE,FALSE,FALSE,FALSE,Disabled,0.000000,0.000000,0.000000,TRUE,-0.841003,-0.862564,0.000000,0.067154,-0.039093,0.000000,-0.005000,0.012000,-0.098000,-3.090000,-6.800000,0.920000,-1.131063,Hold,1.011475,0.000000,Hold,-109.000000,2.000000,Suck,-1785.000000,1818.181818,Speed,-1762.500000,1818.181818,Speed,Off,On,0.000000,FALSE,0,,,,,0.000000,0.000000
09:50:36.886 AM 04/09/2016,Teleop Enabled,9,FALSE,0,NO ERROR,-0.527559,47.155973,-0.527559,48.086388,FALSE,FALSE,FALSE,FALSE,FALSE,FALSE,Disabled,0.000000,0.000000,0.000000,TRUE,-0.839478,-0.864029,0.000000,-0.006927,-0.026108,0.000000,0.017000,-0.011000,0.087000,-2.840000,-6.830000,0.850000,-0.920316,Hold,1.011475,0.000000,Hold,-109.000000,2.000000,Suck,-1792.500000,1818.181818,Speed,-1770.000000,1818.181818,Speed,Off,On,0.000000,FALSE,0,,,,,0.000000,0.000000
09:50:36.986 AM 04/09/2016,Teleop Enabled,11,FALSE,0,NO ERROR,-0.377953,47.810472,-0.377953,46.995557,FALSE,FALSE,FALSE,FALSE,FALSE,FALSE,Disabled,0.000000,0.000000,0.000000,TRUE,-0.840088,-0.861969,0.000000,0.000870,0.153549,0.000000,0.430000,0.654000,-0.142000,-1.330000,-7.180000,1.330000,-0.538953,Hold,1.011475,0.000000,Hold,-109.000000,2.000000,Suck,-1785.000000,1818.181818,Speed,-1777.500000,1818.181818,Speed,Off,On,0.000000,FALSE,0,,,,,0.000000,0.000000
09:50:37.086 AM 04/09/2016,Teleop Enabled,11,FALSE,0,NO ERROR,-0.000000,49.421051,-0.000000,45.057728,FALSE,FALSE,FALSE,FALSE,FALSE,FALSE,Disabled,0.000000,0.000000,0.000000,TRUE,-0.835175,-0.839706,0.000000,0.002991,0.304108,0.000000,0.430000,0.654000,-0.142000,4.440000,-3.790000,-1.000000,5.329094,Hold,1.077148,0.000000,Hold,-109.000000,2.000000,Suck,-1777.500000,1818.181818,Speed,-1755.000000,1818.181818,Speed,Off,On,0.000000,FALSE,0,,,,,0.000000,0.000000
09:50:37.186 AM 04/09/2016,Teleop Enabled,11,FALSE,0,NO ERROR,-0.000000,49.536551,-0.000000,44.813895,FALSE,FALSE,FALSE,FALSE,FALSE,FALSE,Disabled,0.000000,0.000000,0.000000,TRUE,-0.840683,-0.828613,0.000000,-0.138062,0.262695,0.000000,-0.237000,-0.474000,0.367000,4.440000,-3.790000,-1.000000,6.344297,Hold,0.963379,0.000000,Hold,-109.000000,2.000000,Suck,-1762.500000,1818.181818,Speed,-1747.500000,1818.181818,Speed,Off,On,0.000000,FALSE,0,,,,,0.000000,0.000000
09:50:37.286 AM 04/09/2016,Teleop Enabled,11,FALSE,0,NO ERROR,-0.000000,49.510884,-0.000000,44.942228,FALSE,FALSE,FALSE,FALSE,FALSE,FALSE,Disabled,0.000000,0.000000,0.000000,TRUE,-0.844482,-0.813705,0.000000,0.091522,0.185898,0.000000,-0.238000,-0.110000,-0.757000,3.360000,-3.080000,-4.400000,4.417404,Hold,1.226807,0.000000,Hold,-109.000000,2.000000,Suck,-1785.000000,1818.181818,Speed,-1777.500000,1818.181818,Speed,Off,On,0.000000,FALSE,0,,,,,0.000000,0.000000
09:50:37.386 AM 04/09/2016,Teleop Enabled,10,FALSE,0,NO ERROR,-0.000000,49.036052,-0.000000,44.833145,FALSE,FALSE,FALSE,FALSE,FALSE,FALSE,Disabled,0.000000,0.000000,0.000000,TRUE,-0.842072,-0.800415,0.000000,0.079254,0.415375,0.000000,0.071000,0.480000,-0.073000,1.890000,-6.180000,-3.220000,2.767562,Hold,1.582520,0.000000,Hold,-109.000000,2.000000,Suck,-1785.000000,1818.181818,Speed,-1762.500000,1818.181818,Speed,Off,On,0.000000,FALSE,0,,,,,0.000000,0.000000
09:50:37.486 AM 04/09/2016,Teleop Enabled,3,FALSE,0,NO ERROR,-0.000000,48.830719,-0.000000,44.621396,FALSE,FALSE,FALSE,FALSE,FALSE,FALSE,Disabled,0.000000,0.000000,0.000000,TRUE,-0.842575,-0.775879,0.000000,-0.032333,0.432388,0.000000,0.071000,0.480000,-0.073000,1.890000,-6.180000,-3.220000,2.563811,Hold,1.240723,0.000000,Hold,-109.000000,2.000000,Suck,-1777.500000,1818.181818,Speed,-1755.000000,1818.181818,Speed,Off,On,0.000000,FALSE,0,,,,,0.000000,0.000000
09:50:37.586 AM 04/09/2016,Teleop Enabled,5,FALSE,0,NO ERROR,-0.000000,48.849969,-0.000000,44.582896,FALSE,FALSE,FALSE,FALSE,FALSE,FALSE,Disabled,0.000000,0.000000,0.000000,TRUE,-0.842560,-0.757202,0.000000,-0.025681,0.357544,0.000000,0.223000,-0.153000,-0.143000,1.800000,-4.880000,-3.840000,2.775253,Hold,1.121338,0.000000,Hold,-109.000000,2.000000,Suck,-1785.000000,1818.181818,Speed,-1770.000000,1818.181818,Speed,Off,On,0.000000,FALSE,0,,,,,0.000000,0.000000
09:50:37.687 AM 04/09/2016,Teleop Enabled,7,FALSE,0,NO ERROR,-0.000000,48.811469,-0.000000,44.582896,FALSE,FALSE,FALSE,FALSE,FALSE,FALSE,Disabled,0.000000,0.000000,0.000000,TRUE,-0.844406,-0.738281,0.000000,-0.053635,0.381226,0.000000,0.021000,0.028000,-0.186000,1.650000,-5.330000,-3.720000,2.528246,Hold,1.116943,0.000000,Hold,-109.000000,2.000000,Suck,-1800.000000,1818.181818,Speed,-1770.000000,1818.181818,Speed,Off,On,0.000000,FALSE,0,,,,,0.000000,0.000000
09:50:37.787 AM 04/09/2016,Teleop Enabled,9,FALSE,0,NO ERROR,-0.000000,48.811469,-0.000000,44.582896,FALSE,FALSE,FALSE,FALSE,FALSE,FALSE,Disabled,0.000000,0.000000,0.000000,TRUE,-0.847778,-0.719238,0.000000,-0.073837,0.389282,0.000000,-0.076000,0.027000,0.044000,1.650000,-5.330000,-3.720000,2.591458,Hold,1.116943,0.000000,Hold,-109.000000,2.000000,Suck,-1800.000000,1818.181818,Speed,-1770.000000,1818.181818,Speed,Off,On,0.000000,FALSE,0,,,,,0.000000,0.000000
09:50:37.887 AM 04/09/2016,Teleop Enabled,3,FALSE,0,NO ERROR,-0.000000,48.811469,-0.000000,44.582896,FALSE,FALSE,FALSE,FALSE,FALSE,FALSE,Disabled,0.000000,0.000000,0.000000,TRUE,-0.851547,-0.698730,0.000000,-0.069931,0.392731,0.000000,0.038000,0.059000,0.081000,1.760000,-5.170000,-3.860000,2.503225,Hold,1.116943,0.000000,Hold,-109.000000,2.000000,Suck,-1792.500000,1818.181818,Speed,-1770.000000,1818.181818,Speed,Off,On,0.000000,FALSE,0,,,,,0.000000,0.000000
09:50:37.988 AM 04/09/2016,Teleop Enabled,11,FALSE,0,NO ERROR,-0.000000,48.811469,-0.000000,44.582896,FALSE,FALSE,FALSE,FALSE,FALSE,FALSE,Disabled,0.000000,0.000000,0.000000,TRUE,-0.854477,-0.694504,0.000000,-0.050888,0.025299,0.000000,-0.043000,-0.018000,0.054000,1.750000,-5.460000,-3.740000,2.510775,Hold,1.116943,0.000000,Hold,-109.000000,2.000000,Suck,-1785.000000,1818.181818,Speed,-1770.000000,1818.181818,Speed,Off,On,0.000000,FALSE,0,,,,,0.000000,0.000000
09:50:38.089 AM 04/09/2016,Teleop Enabled,11,FALSE,0,NO ERROR,-0.000000,48.811469,-0.000000,44.582896,FALSE,FALSE,FALSE,FALSE,FALSE,FALSE,Disabled,0.000000,0.000000,0.000000,TRUE,-0.854477,-0.694504,0.000000,-0.050888,0.025299,0.000000,0.071000,-0.041000,0.082000,1.800000,-5.110000,-3.740000,2.478167,Hold,1.116943,0.000000,Hold,-109.000000,2.000000,Suck,-1785.000000,1818.181818,Speed,-1770.000000,1818.181818,Speed,Off,On,0.000000,FALSE,0,,,,,0.000000,0.000000
09:50:38.191 AM 04/09/2016,Teleop Enabled,10,FALSE,0,NO ERROR,-0.000000,48.811469,-0.000000,44.582896,FALSE,FALSE,FALSE,FALSE,FALSE,FALSE,Disabled,0.000000,0.000000,0.000000,TRUE,-0.857132,-0.693008,0.000000,-0.052002,0.000000,0.000000,-0.003000,-0.041000,-0.023000,1.760000,-5.290000,-3.760000,2.449569,Hold,1.116943,0.000000,Hold,-109.000000,2.000000,Suck,-1792.500000,1818.181818,Speed,-1762.500000,1818.181818,Speed,Off,On,0.000000,FALSE,0,,,,,0.000000,0.000000
09:50:38.292 AM 04/09/2016,Teleop Enabled,11,FALSE,0,NO ERROR,-0.000000,48.811469,-0.000000,44.582896,FALSE,FALSE,FALSE,FALSE,FALSE,FALSE,Disabled,0.000000,0.000000,0.000000,TRUE,-0.861832,-0.696106,0.000000,-0.064697,-0.047684,0.000000,-0.063000,-0.083000,-0.041000,1.760000,-5.280000,-3.730000,2.446802,Hold,1.116943,0.000000,Hold,-109.000000,2.000000,Suck,-1792.500000,1818.181818,Speed,-1762.500000,1818.181818,Speed,Off,On,0.000000,FALSE,0,,,,,0.000000,0.000000
09:50:38.393 AM 04/09/2016,Teleop Enabled,10,FALSE,0,NO ERROR,-0.000000,48.811469,-0.000000,44.582896,FALSE,FALSE,FALSE,FALSE,FALSE,FALSE,Disabled,0.000000,0.000000,0.000000,TRUE,-0.863419,-0.697250,0.000000,-0.006134,-0.006973,0.000000,0.044000,0.058000,-0.007000,1.770000,-5.280000,-3.800000,2.403529,Hold,1.116943,0.000000,Hold,-109.000000,2.000000,Suck,-1785.000000,1818.181818,Speed,-1762.500000,1818.181818,Speed,Off,On,0.000000,FALSE,0,,,,,0.000000,0.000000
09:50:38.495 AM 04/09/2016,Teleop Enabled,10,FALSE,0,NO ERROR,-0.000000,48.811469,-0.000000,44.582896,FALSE,FALSE,FALSE,FALSE,FALSE,FALSE,Disabled,0.000000,0.000000,0.000000,TRUE,-0.863419,-0.697250,0.000000,-0.006134,-0.006973,0.000000,0.103000,-0.090000,-0.017000,1.760000,-5.330000,-3.740000,2.385603,Hold,1.116943,0.000000,Hold,-109.000000,2.000000,Suck,-1800.000000,1818.181818,Speed,-1770.000000,1818.181818,Speed,Off,On,0.000000,FALSE,0,,,,,0.000000,0.000000
09:50:38.595 AM 04/09/2016,Teleop Enabled,11,FALSE,0,NO ERROR,-0.000000,48.811469,-0.000000,44.582896,FALSE,FALSE,FALSE,FALSE,FALSE,FALSE,Disabled,0.000000,0.000000,0.000000,TRUE,-0.863159,-0.699661,0.000000,-0.002014,-0.052368,0.000000,0.084000,-0.101000,0.030000,1.780000,-5.150000,-3.760000,2.361767,Hold,1.116943,0.000000,Hold,-109.000000,2.000000,Suck,-1800.000000,1818.181818,Speed,-1777.500000,1818.181818,Speed,Off,On,0.000000,FALSE,0,,,,,0.000000,0.000000
09:50:38.697 AM 04/09/2016,Teleop Enabled,10,FALSE,0,NO ERROR,-0.000000,48.811469,-0.000000,44.582896,FALSE,FALSE,FALSE,FALSE,FALSE,FALSE,Disabled,0.000000,0.000000,0.000000,TRUE,-0.862701,-0.704163,0.000000,0.023590,-0.038986,0.000000,0.043000,0.016000,0.010000,1.770000,-5.240000,-3.710000,2.339662,Hold,1.116943,0.000000,Hold,-109.000000,2.000000,Suck,-1800.000000,1818.181818,Speed,-1785.000000,1818.181818,Speed,Off,On,0.000000,FALSE,0,,,,,0.000000,0.000000
09:50:38.798 AM 04/09/2016,Teleop Enabled,11,FALSE,0,NO ERROR,-0.000000,48.811469,-0.000000,44.582896,FALSE,FALSE,FALSE,FALSE,FALSE,FALSE,Disabled,0.000000,0.000000,0.000000,TRUE,-0.862701,-0.704163,0.000000,0.023590,-0.038986,0.000000,-0.078000,-0.019000,0.047000,1.770000,-5.200000,-3.710000,2.321713,Hold,1.116943,0.000000,Hold,-109.000000,2.000000,Suck,-1800.000000,1818.181818,Speed,-1777.500000,1818.181818,Speed,Off,On,0.000000,FALSE,0,,,,,0.000000,0.000000
09:50:38.899 AM 04/09/2016,Teleop Enabled,9,FALSE,0,NO ERROR,-0.000000,48.811469,-0.000000,44.582896,FALSE,FALSE,FALSE,FALSE,FALSE,FALSE,Disabled,0.000000,0.000000,0.000000,TRUE,-0.862305,-0.705322,0.000000,-0.005844,-0.005295,0.000000,0.037000,0.023000,0.060000,1.770000,-5.200000,-3.710000,2.285153,Hold,1.116943,0.000000,Hold,-109.000000,2.000000,Suck,-1800.000000,1818.181818,Speed,-1777.500000,1818.181818,Speed,Off,On,0.000000,FALSE,0,,,,,0.000000,0.000000
09:50:39.000 AM 04/09/2016,Teleop Enabled,10,FALSE,0,NO ERROR,-0.000000,48.811469,-0.000000,44.582896,FALSE,FALSE,FALSE,FALSE,FALSE,FALSE,Disabled,0.000000,0.000000,0.000000,TRUE,-0.860275,-0.705353,0.000000,0.052795,-0.008377,0.000000,0.078000,-0.053000,0.020000,1.760000,-5.260000,-3.680000,2.269968,Hold,1.116943,0.000000,Hold,-109.000000,2.000000,Suck,-1800.000000,1818.181818,Speed,-1777.500000,1818.181818,Speed,Off,On,0.000000,FALSE,0,,,,,0.000000,0.000000
09:50:39.100 AM 04/09/2016,Teleop Enabled,10,FALSE,0,NO ERROR,-0.000000,48.811469,-0.000000,44.582896,FALSE,FALSE,FALSE,FALSE,FALSE,FALSE,Disabled,0.000000,0.000000,0.000000,TRUE,-0.859360,-0.706345,0.000000,0.010162,-0.011185,0.000000,-0.104000,-0.010000,-0.021000,1.770000,-5.140000,-3.650000,2.237735,Hold,1.116943,0.000000,Hold,-109.000000,2.000000,Suck,-1800.000000,1818.181818,Speed,-1777.500000,1818.181818,Speed,Off,On,0.000000,FALSE,0,,,,,0.000000,0.000000
09:50:39.200 AM 04/09/2016,Teleop Enabled,10,FALSE,0,NO ERROR,-0.000000,48.811469,-0.000000,44.582896,FALSE,FALSE,FALSE,FALSE,FALSE,FALSE,Disabled,0.000000,0.000000,0.000000,TRUE,-0.859604,-0.705872,0.000000,-0.012726,0.029510,0.000000,-0.015000,-0.018000,0.072000,1.770000,-5.210000,-3.660000,2.235941,Hold,1.116943,0.000000,Hold,-109.000000,2.000000,Suck,-1792.500000,1818.181818,Speed,-1777.500000,1818.181818,Speed,Off,On,0.000000,FALSE,0,,,,,0.000000,0.000000
09:50:39.300 AM 04/09/2016,Teleop Enabled,9,FALSE,0,NO ERROR,-0.000000,48.811469,-0.000000,44.582896,FALSE,FALSE,FALSE,FALSE,FALSE,FALSE,Disabled,0.000000,0.000000,0.000000,TRUE,-0.859604,-0.705872,0.000000,-0.012726,0.029510,0.000000,0.052000,-0.013000,0.056000,1.770000,-5.210000,-3.700000,2.198187,Hold,1.116943,0.000000,Hold,-109.000000,2.000000,Suck,-1785.000000,1818.181818,Speed,-1785.000000,1818.181818,Speed,Off,On,0.000000,FALSE,0,,,,,0.000000,0.000000
09:50:39.400 AM 04/09/2016,Teleop Enabled,10,FALSE,0,NO ERROR,-0.000000,48.811469,-0.000000,44.582896,FALSE,FALSE,FALSE,FALSE,FALSE,FALSE,Disabled,0.000000,0.000000,0.000000,TRUE,-0.860703,-0.705231,0.000000,-0.029770,0.000595,0.000000,-0.090000,0.013000,0.030000,1.770000,-5.280000,-3.690000,2.182148,Hold,1.116943,0.000000,Hold,-109.000000,2.000000,Suck,-1785.000000,1818.181818,Speed,-1777.500000,1818.181818,Speed,Off,On,0.000000,FALSE,0,,,,,0.000000,0.000000
09:50:39.500 AM 04/09/2016,Teleop Enabled,10,FALSE,0,NO ERROR,-0.000000,48.811469,-0.000000,44.582896,FALSE,FALSE,FALSE,FALSE,FALSE,FALSE,Disabled,0.000000,0.000000,0.000000,TRUE,-0.862717,-0.705917,0.000000,-0.043076,-0.013290,0.000000,0.160000,0.019000,0.126000,1.770000,-5.280000,-3.720000,2.176867,Hold,1.116943,0.000000,Hold,-109.000000,2.000000,Suck,-1785.000000,1818.181818,Speed,-1777.500000,1818.181818,Speed,Off,On,0.000000,FALSE,0,,,,,0.000000,0.000000
09:50:39.600 AM 04/09/2016,Teleop Enabled,9,FALSE,0,NO ERROR,-0.000000,48.811469,-0.000000,44.582896,FALSE,FALSE,FALSE,FALSE,FALSE,FALSE,Disabled,0.000000,0.000000,0.000000,TRUE,-0.863022,-0.705887,0.000000,0.014359,-0.014709,0.000000,-0.095000,0.036000,0.037000,1.770000,-5.230000,-3.680000,2.156405,Hold,1.116943,0.000000,Hold,-109.000000,2.000000,Suck,-1785.000000,1818.181818,Speed,-1770.000000,1818.181818,Speed,Off,On,0.000000,FALSE,0,,,,,0.000000,0.000000
09:50:39.700 AM 04/09/2016,Teleop Enabled,10,FALSE,0,NO ERROR,-0.000000,48.811469,-0.000000,44.582896,FALSE,FALSE,FALSE,FALSE,FALSE,FALSE,Disabled,0.000000,0.000000,0.000000,TRUE,-0.863220,-0.706650,0.000000,-0.015518,-0.016861,0.000000,0.117000,0.047000,0.060000,1.770000,-5.190000,-3.640000,2.134338,Hold,1.116943,0.000000,Hold,-109.000000,2.000000,Suck,-1792.500000,1818.181818,Speed,-1785.000000,1818.181818,Speed,Off,On,0.000000,FALSE,0,,,,,0.000000,0.000000
09:50:39.801 AM 04/09/2016,Teleop Enabled,10,FALSE,0,NO ERROR,-0.000000,48.811469,-0.000000,44.582896,FALSE,FALSE,FALSE,FALSE,FALSE,FALSE,Disabled,0.000000,0.000000,0.000000,TRUE,-0.863434,-0.707260,0.000000,-0.000504,-0.014175,0.000000,0.065000,-0.006000,0.016000,1.770000,-5.210000,-3.670000,2.134338,Hold,1.116943,0.000000,Hold,-109.000000,2.000000,Suck,-1792.500000,1818.181818,Speed,-1785.000000,1818.181818,Speed,Off,On,0.000000,FALSE,0,,,,,0.000000,0.000000
09:50:39.901 AM 04/09/2016,Teleop Enabled,10,FALSE,0,NO ERROR,-0.000000,48.811469,-0.000000,44.582896,FALSE,FALSE,FALSE,FALSE,FALSE,FALSE,Disabled,0.000000,0.000000,0.000000,TRUE,-0.863220,-0.708755,0.000000,-0.007019,-0.063553,0.000000,0.088000,-0.083000,0.029000,1.770000,-5.240000,-3.700000,2.107059,Hold,1.116943,0.000000,Hold,-110.000000,2.000000,Suck,-1792.500000,1818.181818,Speed,-1777.500000,1818.181818,Speed,Off,On,0.000000,FALSE,0,,,,,0.000000,0.000000
09:50:40.005 AM 04/09/2016,Teleop Enabled,10,FALSE,0,NO ERROR,-0.000000,48.811469,-0.000000,44.582896,FALSE,FALSE,FALSE,FALSE,FALSE,FALSE,Disabled,0.000000,0.000000,0.000000,TRUE,-0.863297,-0.712769,0.000000,-0.004318,-0.072372,0.000000,-0.053000,0.028000,0.017000,1.770000,-5.260000,-3.700000,2.059376,Hold,1.116943,0.000000,Hold,-110.000000,2.000000,Suck,-1792.500000,1818.181818,Speed,-1777.500000,1818.181818,Speed,Off,On,0.000000,FALSE,0,,,,,0.000000,0.000000
09:50:40.105 AM 04/09/2016,Teleop Enabled,11,FALSE,0,NO ERROR,-0.000000,48.811469,-0.000000,44.582896,FALSE,FALSE,FALSE,FALSE,FALSE,FALSE,Disabled,0.000000,0.000000,0.000000,TRUE,-0.863159,-0.712051,0.000000,0.008545,0.035675,0.000000,0.043000,-0.039000,0.090000,1.770000,-5.250000,-3.710000,2.059376,Hold,1.116943,0.000000,Hold,-110.000000,2.000000,Suck,-1792.500000,1818.181818,Speed,-1777.500000,1818.181818,Speed,Off,On,0.000000,FALSE,0,,,,,0.000000,0.000000
