Time,Robot Mode,Loop Time,Error Status,Error Code,Error Source,Left Motor Output,Left Motor Encoder,Right Motor Output,Right Motor Encoder,Is Level,Is Stalled,Ball Detector Photoeye,Vision Enabled,Vision Teleop Control,Vision Auto Control,Vision Current State,Vision X Output,Vision NavX Error,Vision NavX Target,NavX Connection Status,NavX Displacement X,NavX Displacement Y,NavX Displacement Z,NavX Velocity X,NavX Velocity Y,NavX Velocity Z,NavX Acceleration X,NavX Acceleration Y,NavX Acceleration Z,NavX Pitch,NavX Yaw,NavX Roll,Gyro Angle,Roller Arm State,Roller Arm Actual,Roller Arm Desired,Shooter Arm State,Shooter Arm Actual,Shooter Arm Desired,Shooter State,Actual RPM Left,Desired RPM Left,Control Mode Left,Actual RPM Right,Desired RPM Right,Control Mode Right,Ball Shooter Cylinder,Ball Halo Cylinder,Scaler Motor Output,Scaler Solenoid Fire,Auto To Run,Auto Current File,Auto File Status,Auto Current Command,Auto Trimmed Command,Shooter Amps Left,Shooter Amps Right
09:38:14.514 AM 04/09/2016,Teleop Enabled,10,FALSE,0,NO ERROR,-0.000000,0.000000,-0.000000,0.000000,FALSE,FALSE,FALSE,FALSE,FALSE,FALSE,Disabled,0.000000,0.000000,0.000000,TRUE,0.006302,0.361252,0.000000,0.000000,0.000000,0.000000,0.002000,-0.003000,0.030000,-0.220000,-5.600000,4.940000,0.627358,ResetBack,-63.354248,-0.000049,ResetBack,123908.000000,-0.250000,Suck,0.000000,1818.181818,Speed,0.000000,1818.181818,Speed,Off,On,0.000000,FALSE,0,,,,,0.000000,0.000000
09:38:14.614 AM 04/09/2016,Teleop Enabled,9,FALSE,0,NO ERROR,-0.000000,0.000000,-0.000000,0.000000,FALSE,FALSE,FALSE,FALSE,FALSE,FALSE,Disabled,0.000000,0.000000,0.000000,TRUE,0.006363,0.361191,0.000000,0.006836,-0.006546,0.000000,-0.133000,-0.078000,0.047000,-0.230000,-5.600000,4.890000,0.638030,ResetBack,-63.855713,-0.000049,ResetBack,123908.000000,-0.250000,Suck,-30.000000,1818.181818,Speed,-30.000000,1818.181818,Speed,Off,On,0.000000,FALSE,0,,,,,0.000000,0.000000
09:38:14.715 AM 04/09/2016,Teleop Enabled,10,FALSE,0,NO ERROR,-0.000000,-0.019250,-0.000000,-0.025667,FALSE,FALSE,FALSE,FALSE,FALSE,FALSE,Disabled,0.000000,0.000000,0.000000,TRUE,0.007217,0.358704,0.000000,0.030655,-0.060944,0.000000,-0.104000,0.026000,-0.053000,-0.200000,-5.620000,4.840000,0.661140,ResetBack,-64.048340,-0.000049,ResetBack,125475.000000,-0.250000,Suck,-615.000000,1818.181818,Speed,-585.000000,1818.181818,Speed,Off,On,0.000000,FALSE,0,,,,,0.000000,0.000000
09:38:14.815 AM 04/09/2016,Teleop Enabled,10,FALSE,0,NO ERROR,-0.000000,-0.019250,-0.000000,-0.025667,FALSE,FALSE,FALSE,FALSE,FALSE,FALSE,Disabled,0.000000,0.000000,0.000000,TRUE,0.008942,0.355194,0.000000,0.045944,-0.085693,0.000000,0.034000,-0.093000,-0.014000,-0.210000,-5.640000,4.880000,0.669003,ResetBack,-64.048584,-0.000049,ResetBack,128822.000000,-0.250000,Suck,-1327.500000,1818.181818,Speed,-1267.500000,1818.181818,Speed,Off,On,0.000000,FALSE,0,,,,,0.000000,0.000000
09:38:14.915 AM 04/09/2016,Teleop Enabled,10,FALSE,0,NO ERROR,-0.000000,-0.019250,-0.000000,-0.025667,FALSE,FALSE,FALSE,FALSE,FALSE,FALSE,Disabled,0.000000,0.000000,0.000000,TRUE,0.008545,0.348862,0.000000,-0.028030,-0.104462,0.000000,0.024000,0.045000,-0.006000,-0.210000,-5.650000,4.910000,0.690660,Reset,-64.056885,0.000000,ResetBack,132764.000000,-0.250000,Suck,-1755.000000,1818.181818,Speed,-1747.500000,1818.181818,Speed,Off,On,0.000000,FALSE,0,,,,,0.000000,0.000000
09:38:15.015 AM 04/09/2016,Teleop Enabled,10,FALSE,0,NO ERROR,-0.000000,-0.019250,-0.000000,-0.025667,FALSE,FALSE,FALSE,FALSE,FALSE,FALSE,Disabled,0.000000,0.000000,0.000000,TRUE,0.007614,0.344833,0.000000,-0.019226,-0.104507,0.000000,-0.109000,-0.030000,0.049000,-0.220000,-5.680000,4.950000,0.687778,Hold,0.531494,0.000000,ResetBack,132764.000000,-0.250000,Suck,-1905.000000,1818.181818,Speed,-1860.000000,1818.181818,Speed,Off,On,0.000000,FALSE,0,,,,,0.000000,0.000000
09:38:15.115 AM 04/09/2016,Teleop Enabled,10,FALSE,0,NO ERROR,-0.000000,-0.019250,-0.000000,-0.025667,FALSE,FALSE,FALSE,FALSE,FALSE,FALSE,Disabled,0.000000,0.000000,0.000000,TRUE,0.005951,0.337631,0.000000,-0.031555,-0.127380,0.000000,-0.065000,0.101000,-0.051000,-0.210000,-5.690000,4.940000,0.695039,Hold,0.584961,0.000000,ResetBack,136744.000000,-0.250000,Suck,-1830.000000,1818.181818,Speed,-1740.000000,1818.181818,Speed,Off,On,0.000000,FALSE,0,,,,,0.000000,0.000000
09:38:15.215 AM 04/09/2016,Teleop Enabled,10,FALSE,0,NO ERROR,-0.000000,-0.019250,-0.000000,-0.025667,FALSE,FALSE,FALSE,FALSE,FALSE,FALSE,Disabled,0.000000,0.000000,0.000000,TRUE,0.003403,0.331055,0.000000,-0.055237,-0.130630,0.000000,0.051000,0.018000,0.075000,-0.200000,-5.720000,4.940000,0.697617,Hold,0.584961,0.000000,ResetBack,139466.000000,-0.250000,Suck,-1762.500000,1818.181818,Speed,-1687.500000,1818.181818,Speed,Off,On,0.000000,FALSE,0,,,,,0.000000,0.000000
09:38:15.315 AM 04/09/2016,Teleop Enabled,9,FALSE,0,NO ERROR,-0.000000,-0.019250,-0.000000,-0.025667,FALSE,FALSE,FALSE,FALSE,FALSE,FALSE,Disabled,0.000000,0.000000,0.000000,TRUE,0.001892,0.324173,0.000000,-0.026962,-0.138367,0.000000,0.126000,-0.058000,0.042000,-0.200000,-5.690000,4.910000,0.695841,Hold,0.584961,0.000000,ResetBack,140262.000000,-0.250000,Suck,-1755.000000,1818.181818,Speed,-1740.000000,1818.181818,Speed,Off,On,0.000000,FALSE,0,,,,,0.000000,0.000000
09:38:15.415 AM 04/09/2016,Teleop Enabled,9,FALSE,0,NO ERROR,-0.000000,-0.019250,-0.000000,-0.025667,FALSE,FALSE,FALSE,FALSE,FALSE,FALSE,Disabled,0.000000,0.000000,0.000000,TRUE,0.001068,0.315506,0.000000,-0.013687,-0.191422,0.000000,0.002000,0.017000,0.010000,-0.200000,-5.690000,4.850000,0.712303,Hold,0.584961,0.000000,ResetBack,141677.000000,-0.250000,Suck,-1777.500000,1818.181818,Speed,-1687.500000,1818.181818,Speed,Off,On,0.000000,FALSE,0,,,,,0.000000,0.000000
09:38:15.515 AM 04/09/2016,Teleop Enabled,9,FALSE,0,NO ERROR,-0.000000,-0.019250,-0.000000,-0.025667,FALSE,FALSE,FALSE,FALSE,FALSE,FALSE,Disabled,0.000000,0.000000,0.000000,TRUE,-0.000366,0.305542,0.000000,-0.038803,-0.201141,0.000000,-0.026000,-0.028000,0.051000,-0.200000,-5.770000,4.860000,0.709250,Hold,0.584961,0.000000,ResetBack,143201.000000,-0.250000,Suck,-1785.000000,1818.181818,Speed,-1770.000000,1818.181818,Speed,Off,On,0.000000,FALSE,0,,,,,0.000000,0.000000
09:38:15.615 AM 04/09/2016,Teleop Enabled,10,FALSE,0,NO ERROR,-0.307087,-0.051333,0.307087,-0.025667,FALSE,FALSE,FALSE,FALSE,FALSE,FALSE,Disabled,0.000000,0.000000,0.000000,TRUE,-0.002609,0.295456,0.000000,-0.042038,-0.194855,0.000000,0.048000,-0.036000,-0.021000,-0.210000,-5.720000,4.870000,0.720138,Hold,0.584961,0.000000,ResetBack,143533.000000,-0.250000,Suck,-1785.000000,1818.181818,Speed,-1747.500000,1818.181818,Speed,Off,On,0.000000,FALSE,0,,,,,0.000000,0.000000
09:38:15.715 AM 04/09/2016,Teleop Enabled,10,FALSE,0,NO ERROR,-0.307087,-1.110081,0.307087,-0.590332,FALSE,FALSE,FALSE,FALSE,FALSE,FALSE,Disabled,0.000000,0.000000,0.000000,TRUE,-0.003586,0.288269,0.000000,0.027908,0.000000,0.000000,0.719000,0.243000,-0.097000,-0.630000,-5.050000,4.940000,0.414305,Hold,0.584961,0.000000,ResetBack,143646.000000,-0.250000,Suck,-1777.500000,1818.181818,Speed,-1717.500000,1818.181818,Speed,Off,On,0.000000,FALSE,0,,,,,0.000000,0.000000
09:38:15.815 AM 04/09/2016,Teleop Enabled,10,FALSE,0,NO ERROR,-0.307087,-2.547411,0.307087,-1.604163,FALSE,FALSE,FALSE,FALSE,FALSE,FALSE,Disabled,0.000000,0.000000,0.000000,TRUE,0.006317,0.289383,0.000000,0.240112,0.012314,0.000000,0.045000,0.023000,-0.101000,-0.410000,-4.320000,5.120000,0.609853,Hold,0.585205,0.000000,Reset,143646.000000,2.000000,Suck,-1770.000000,1818.181818,Speed,-1725.000000,1818.181818,Speed,Off,On,0.000000,FALSE,0,,,,,0.000000,0.000000
09:38:15.915 AM 04/09/2016,Teleop Enabled,9,FALSE,0,NO ERROR,-0.307087,-4.164407,0.307087,-2.925993,FALSE,FALSE,FALSE,FALSE,FALSE,FALSE,Disabled,0.000000,0.000000,0.000000,TRUE,0.018997,0.290253,0.000000,0.236938,0.030304,0.000000,0.044000,-0.058000,-0.030000,-0.330000,-3.760000,5.210000,0.748502,Hold,0.585449,0.000000,Hold,-46.000000,2.000000,Suck,-1770.000000,1818.181818,Speed,-1732.500000,1818.181818,Speed,Off,On,0.000000,FALSE,0,,,,,0.000000,0.000000
09:38:16.016 AM 04/09/2016,Teleop Enabled,9,FALSE,0,NO ERROR,-0.307087,-6.236985,0.307087,-4.350490,FALSE,FALSE,FALSE,FALSE,FALSE,FALSE,Disabled,0.000000,0.000000,0.000000,TRUE,0.031784,0.291275,0.000000,0.224823,0.008148,0.000000,0.108000,-0.084000,-0.017000,0.010000,-3.270000,5.170000,1.046252,Hold,0.585449,0.000000,Hold,-115.000000,2.000000,Suck,-1770.000000,1818.181818,Speed,-1732.500000,1818.181818,Speed,Off,On,0.000000,FALSE,0,,,,,0.000000,0.000000
09:38:16.117 AM 04/09/2016,Teleop Enabled,10,FALSE,0,NO ERROR,-0.307087,-8.104231,0.307087,-5.903320,FALSE,FALSE,FALSE,FALSE,FALSE,FALSE,Disabled,0.000000,0.000000,0.000000,TRUE,0.044006,0.291443,0.000000,0.284775,0.000000,0.000000,-0.002000,0.012000,0.011000,-0.030000,-3.000000,4.900000,1.011620,Hold,0.585449,0.000000,Hold,-115.000000,2.000000,Suck,-1777.500000,1818.181818,Speed,-1740.000000,1818.181818,Speed,Off,On,0.000000,FALSE,0,,,,,0.000000,0.000000
09:38:16.218 AM 04/09/2016,Teleop Enabled,10,FALSE,0,NO ERROR,-0.307087,-9.952227,0.307087,-7.732065,FALSE,FALSE,FALSE,FALSE,FALSE,FALSE,Disabled,0.000000,0.000000,0.000000,TRUE,0.059082,0.290787,0.000000,0.294083,-0.023041,0.000000,0.039000,0.060000,0.121000,-0.200000,-2.630000,4.590000,0.889994,Hold,0.585693,0.000000,Hold,-115.000000,2.000000,Suck,-1777.500000,1818.181818,Speed,-1725.000000,1818.181818,Speed,Off,On,0.000000,FALSE,0,,,,,0.000000,0.000000
09:38:16.321 AM 04/09/2016,Teleop Enabled,11,FALSE,0,NO ERROR,-0.307087,-12.069722,0.307087,-9.798227,FALSE,FALSE,FALSE,FALSE,FALSE,FALSE,Disabled,0.000000,0.000000,0.000000,TRUE,0.073486,0.291397,0.000000,0.276947,0.034729,0.000000,0.054000,-0.029000,0.106000,-0.220000,-2.100000,4.660000,0.839495,Hold,0.585938,0.000000,Hold,-116.000000,2.000000,Suck,-1777.500000,1818.181818,Speed,-1732.500000,1818.181818,Speed,Off,On,0.000000,FALSE,0,,,,,0.000000,0.000000
09:38:16.421 AM 04/09/2016,Teleop Enabled,11,FALSE,0,NO ERROR,-0.307087,-14.116634,0.307087,-11.800222,FALSE,FALSE,FALSE,FALSE,FALSE,FALSE,Disabled,0.000000,0.000000,0.000000,TRUE,0.086761,0.292374,0.000000,0.259506,0.006027,0.000000,-0.202000,0.020000,0.233000,-0.380000,-1.470000,4.400000,0.713808,Hold,0.586182,0.000000,Hold,-116.000000,2.000000,Suck,-1777.500000,1818.181818,Speed,-1732.500000,1818.181818,Speed,Off,On,0.000000,FALSE,0,,,,,0.000000,0.000000
09:38:16.521 AM 04/09/2016,Teleop Enabled,11,FALSE,0,NO ERROR,-0.307087,-16.157129,0.307087,-13.628968,FALSE,FALSE,FALSE,FALSE,FALSE,FALSE,Disabled,0.000000,0.000000,0.000000,TRUE,0.095917,0.292206,0.000000,0.148834,-0.005920,0.000000,0.106000,-0.009000,0.073000,-1.040000,-1.000000,4.910000,0.024707,Hold,0.586182,0.000000,Hold,-116.000000,2.000000,Suck,-1777.500000,1818.181818,Speed,-1740.000000,1818.181818,Speed,Off,On,0.000000,FALSE,0,,,,,0.000000,0.000000
09:38:16.621 AM 04/09/2016,Teleop Enabled,12,FALSE,0,NO ERROR,-0.307087,-18.139874,0.307087,-15.432047,FALSE,FALSE,FALSE,FALSE,FALSE,FALSE,Disabled,0.000000,0.000000,0.000000,TRUE,0.103531,0.292908,0.000000,0.131454,0.045670,0.000000,0.106000,-0.009000,0.073000,-1.090000,0.190000,5.520000,-0.138219,Hold,0.586182,0.000000,Hold,-116.000000,2.000000,Suck,-1777.500000,1818.181818,Speed,-1740.000000,1818.181818,Speed,Off,On,0.000000,FALSE,0,,,,,0.000000,0.000000
09:38:16.721 AM 04/09/2016,Teleop Enabled,11,FALSE,0,NO ERROR,-0.307087,-19.910870,0.307087,-17.190210,FALSE,FALSE,FALSE,FALSE,FALSE,FALSE,Disabled,0.000000,0.000000,0.000000,TRUE,0.110031,0.296097,0.000000,0.162109,0.062317,0.000000,-0.100000,-0.039000,-0.099000,-0.810000,0.460000,5.130000,0.224603,Hold,0.586182,0.000000,Hold,-116.000000,2.000000,Suck,-1777.500000,1818.181818,Speed,-1740.000000,1818.181818,Speed,Off,On,0.000000,FALSE,0,,,,,0.000000,0.000000
09:38:16.821 AM 04/09/2016,Teleop Enabled,10,FALSE,0,NO ERROR,-0.307087,-21.797366,0.307087,-19.140872,FALSE,FALSE,FALSE,FALSE,FALSE,FALSE,Disabled,0.000000,0.000000,0.000000,TRUE,0.122467,0.300812,0.000000,0.192856,0.049149,0.000000,0.036000,-0.044000,0.117000,-0.810000,0.460000,5.130000,0.288256,Hold,0.586182,0.000000,Hold,-116.000000,2.000000,Suck,-1777.500000,1818.181818,Speed,-1740.000000,1818.181818,Speed,Off,On,0.000000,FALSE,0,,,,,0.000000,0.000000
09:38:16.922 AM 04/09/2016,Teleop Enabled,11,FALSE,0,NO ERROR,-0.307087,-23.876361,0.307087,-21.251950,FALSE,FALSE,FALSE,FALSE,FALSE,FALSE,Disabled,0.000000,0.000000,0.000000,TRUE,0.134888,0.304382,0.000000,0.299423,0.067520,0.000000,0.036000,-0.044000,0.117000,-0.780000,-1.120000,3.090000,0.196350,Hold,0.586426,0.000000,Hold,-117.000000,2.000000,Suck,-1785.000000,1818.181818,Speed,-1740.000000,1818.181818,Speed,Off,On,0.000000,FALSE,0,,,,,0.000000,0.000000
09:38:17.023 AM 04/09/2016,Teleop Enabled,10,FALSE,0,NO ERROR,-0.314961,-26.064439,0.314961,-23.266779,FALSE,FALSE,FALSE,FALSE,FALSE,FALSE,Disabled,0.000000,0.000000,0.000000,TRUE,0.145950,0.305756,0.000000,0.125336,0.020416,0.000000,-0.190000,-0.091000,0.322000,-1.310000,-0.780000,3.050000,-0.480082,Hold,0.586426,0.000000,Hold,-117.000000,2.000000,Suck,-1785.000000,1818.181818,Speed,-1740.000000,1818.181818,Speed,Off,On,0.000000,FALSE,0,,,,,0.000000,0.000000
09:38:17.123 AM 04/09/2016,Teleop Enabled,11,FALSE,0,NO ERROR,-0.314961,-27.957351,0.314961,-24.947942,TRUE,FALSE,FALSE,FALSE,FALSE,FALSE,Disabled,0.000000,0.000000,0.000000,TRUE,0.149628,0.308884,0.000000,0.103867,0.111481,0.000000,0.132000,-0.120000,-0.069000,-2.110000,-1.760000,2.940000,-1.030654,Hold,0.586426,0.000000,Hold,-117.000000,2.000000,Suck,-1777.500000,1818.181818,Speed,-1740.000000,1818.181818,Speed,Off,On,0.000000,FALSE,0,,,,,0.000000,0.000000
09:38:17.223 AM 04/09/2016,Teleop Enabled,9,FALSE,0,NO ERROR,-0.314961,-29.529431,0.314961,-26.821604,TRUE,FALSE,FALSE,FALSE,FALSE,FALSE,Disabled,0.000000,0.000000,0.000000,TRUE,0.156372,0.312180,0.000000,0.165649,0.070938,0.000000,0.132000,-0.120000,-0.069000,-2.110000,-1.760000,2.940000,-0.981174,Hold,0.586426,0.000000,Hold,-117.000000,2.000000,Suck,-1777.500000,1818.181818,Speed,-1747.500000,1818.181818,Speed,Off,On,0.000000,FALSE,0,,,,,0.000000,0.000000
09:38:17.324 AM 04/09/2016,Teleop Enabled,11,FALSE,0,NO ERROR,-0.362205,-31.441593,0.362205,-29.170098,FALSE,FALSE,FALSE,FALSE,FALSE,FALSE,Disabled,0.000000,0.000000,0.000000,TRUE,0.165009,0.316895,0.000000,0.253571,0.129837,0.000000,0.110000,0.136000,-0.224000,-2.030000,-1.200000,3.400000,-0.187351,Hold,0.586426,0.000000,Hold,-117.000000,2.000000,Suck,-1777.500000,1818.181818,Speed,-1740.000000,1818.181818,Speed,Off,On,0.000000,FALSE,0,,,,,0.000000,0.000000
09:38:17.424 AM 04/09/2016,Teleop Enabled,10,FALSE,0,NO ERROR,-0.385827,-33.847838,0.385827,-31.736759,TRUE,FALSE,FALSE,FALSE,FALSE,FALSE,Disabled,0.000000,0.000000,0.000000,TRUE,0.177551,0.321350,0.000000,0.215958,0.026520,0.000000,0.038000,0.074000,0.353000,-1.220000,0.860000,2.700000,-0.041342,Hold,0.586426,0.000000,Hold,-117.000000,2.000000,Suck,-1770.000000,1818.181818,Speed,-1740.000000,1818.181818,Speed,Off,On,0.000000,FALSE,0,,,,,0.000000,0.000000
09:38:17.524 AM 04/09/2016,Teleop Enabled,12,FALSE,0,NO ERROR,-0.393701,-36.266915,0.393701,-34.130170,TRUE,FALSE,FALSE,FALSE,FALSE,FALSE,Disabled,0.000000,0.000000,0.000000,TRUE,0.189468,0.322357,0.000000,0.272202,0.039749,0.000000,-0.013000,-0.021000,-0.236000,-1.080000,1.910000,2.030000,-0.422856,Hold,0.586426,0.000000,Hold,-117.000000,2.000000,Suck,-1770.000000,1818.181818,Speed,-1740.000000,1818.181818,Speed,Off,On,0.000000,FALSE,0,,,,,0.000000,0.000000
09:38:17.625 AM 04/09/2016,Teleop Enabled,12,FALSE,0,NO ERROR,-0.425197,-38.865659,0.425197,-36.613414,TRUE,FALSE,FALSE,FALSE,FALSE,FALSE,Disabled,0.000000,0.000000,0.000000,TRUE,0.203445,0.323151,0.000000,0.305176,0.000000,0.000000,-0.068000,-0.011000,0.166000,-1.510000,1.950000,2.240000,-0.657883,Hold,0.586426,0.000000,Hold,-117.000000,2.000000,Suck,-1770.000000,1818.181818,Speed,-1740.000000,1818.181818,Speed,Off,On,0.000000,FALSE,0,,,,,0.000000,0.000000
09:38:17.727 AM 04/09/2016,Teleop Enabled,11,FALSE,0,NO ERROR,-0.440945,-41.721069,0.440945,-39.411075,TRUE,FALSE,FALSE,FALSE,FALSE,FALSE,Disabled,0.000000,0.000000,0.000000,TRUE,0.203445,0.323151,0.000000,0.305176,0.000000,0.000000,-0.016000,0.005000,0.077000,-1.750000,1.750000,2.220000,-0.936937,Hold,0.586426,0.000000,Hold,-117.000000,2.000000,Suck,-1777.500000,1818.181818,Speed,-1740.000000,1818.181818,Speed,Off,On,0.000000,FALSE,0,,,,,0.000000,0.000000
09:38:17.827 AM 04/09/2016,Teleop Enabled,12,FALSE,0,NO ERROR,-0.440945,-44.788229,0.440945,-42.324234,TRUE,FALSE,FALSE,FALSE,FALSE,FALSE,Disabled,0.000000,0.000000,0.000000,TRUE,0.204697,0.323242,0.000000,0.028519,-0.004654,0.000000,0.040000,0.033000,-0.018000,-1.990000,2.420000,2.180000,-1.285279,Hold,0.586426,0.000000,Hold,-118.000000,2.000000,Suck,-1770.000000,1818.181818,Speed,-1740.000000,1818.181818,Speed,Off,On,0.000000,FALSE,0,,,,,0.000000,0.000000
09:38:17.929 AM 04/09/2016,Teleop Enabled,12,FALSE,0,NO ERROR,-0.440945,-47.868221,0.440945,-45.288727,TRUE,FALSE,FALSE,FALSE,FALSE,FALSE,Disabled,0.000000,0.000000,0.000000,TRUE,0.207138,0.322479,0.000000,0.078903,-0.036087,0.000000,0.052000,0.072000,-0.111000,-2.340000,2.590000,2.130000,-1.506821,Hold,0.586426,0.000000,Hold,-118.000000,2.000000,Suck,-1770.000000,1818.181818,Speed,-1740.000000,1818.181818,Speed,Off,On,0.000000,FALSE,0,,,,,0.000000,0.000000
09:38:18.031 AM 04/09/2016,Teleop Enabled,10,FALSE,0,NO ERROR,-0.433071,-51.121464,0.433071,-48.471387,TRUE,FALSE,FALSE,FALSE,FALSE,FALSE,Disabled,0.000000,0.000000,0.000000,TRUE,0.212051,0.321060,0.000000,0.115494,-0.031738,0.000000,0.019000,0.076000,-0.064000,-2.570000,2.140000,2.110000,-1.723272,Hold,0.586426,0.000000,Hold,-118.000000,2.000000,Suck,-1777.500000,1818.181818,Speed,-1747.500000,1818.181818,Speed,Off,On,0.000000,FALSE,0,,,,,0.000000,0.000000
09:38:18.130 AM 04/09/2016,Teleop Enabled,10,FALSE,0,NO ERROR,-0.000000,-51.121464,-0.000000,-48.471387,TRUE,FALSE,FALSE,FALSE,FALSE,FALSE,Disabled,0.000000,0.000000,0.000000,TRUE,0.217651,0.318192,0.000000,0.095734,-0.081863,0.000000,0.120000,0.081000,0.004000,-2.730000,2.030000,2.190000,-1.723272,Hold,0.586426,0.000000,Hold,-118.000000,2.000000,Suck,-1777.500000,1818.181818,Speed,-1747.500000,1818.181818,Speed,Off,On,0.000000,FALSE,0,,,,,0.000000,0.000000
09:38:18.230 AM 04/09/2016,Teleop Enabled,9,FALSE,0,NO ERROR,-0.000000,-54.124457,-0.000000,-51.461546,TRUE,FALSE,FALSE,FALSE,FALSE,FALSE,Disabled,0.000000,0.000000,0.000000,TRUE,0.221664,0.315140,0.000000,0.054626,-0.054901,0.000000,-0.116000,0.102000,0.048000,-3.080000,1.940000,2.240000,-2.036328,Hold,0.586426,0.000000,Hold,-118.000000,2.000000,Suck,-1777.500000,1818.181818,Speed,-1740.000000,1818.181818,Speed,Off,On,0.000000,FALSE,0,,,,,0.000000,0.000000
09:38:18.330 AM 04/09/2016,Teleop Enabled,10,FALSE,0,NO ERROR,-0.000000,-55.568203,-0.000000,-52.982293,TRUE,FALSE,FALSE,FALSE,FALSE,FALSE,Disabled,0.000000,0.000000,0.000000,TRUE,0.219666,0.311859,0.000000,-0.180313,-0.084442,0.000000,-0.372000,0.032000,0.351000,-3.190000,-1.120000,2.470000,-2.196400,Hold,0.586670,0.000000,Hold,-118.000000,2.000000,Suck,-1785.000000,1818.181818,Speed,-1747.500000,1818.181818,Speed,Off,On,0.000000,FALSE,0,,,,,0.000000,0.000000
09:38:18.431 AM 04/09/2016,Teleop Enabled,10,FALSE,0,NO ERROR,-0.000000,-56.588451,-0.000000,-53.944791,TRUE,FALSE,FALSE,FALSE,FALSE,FALSE,Disabled,0.000000,0.000000,0.000000,TRUE,0.201782,0.307953,0.000000,-0.444778,-0.065460,0.000000,0.011000,-0.004000,-0.093000,-3.050000,-2.640000,2.480000,-2.101967,Hold,0.586670,0.000000,Hold,-118.000000,2.000000,Suck,-1785.000000,1818.181818,Speed,-1755.000000,1818.181818,Speed,Off,On,0.000000,FALSE,0,,,,,0.000000,0.000000
09:38:18.532 AM 04/09/2016,Teleop Enabled,9,FALSE,0,NO ERROR,-0.000000,-57.153116,-0.000000,-54.509456,TRUE,FALSE,FALSE,FALSE,FALSE,FALSE,Disabled,0.000000,0.000000,0.000000,TRUE,0.176178,0.303604,0.000000,-0.572540,-0.113831,0.000000,-0.174000,0.070000,0.303000,-3.140000,-1.000000,2.400000,-2.221311,Hold,0.586670,0.000000,Hold,-118.000000,2.000000,Suck,-1785.000000,1818.181818,Speed,-1755.000000,1818.181818,Speed,Off,On,0.000000,FALSE,0,,,,,0.000000,0.000000
09:38:18.634 AM 04/09/2016,Teleop Enabled,9,FALSE,0,NO ERROR,-0.000000,-57.140283,-0.000000,-54.445289,TRUE,FALSE,FALSE,FALSE,FALSE,FALSE,Disabled,0.000000,0.000000,0.000000,TRUE,0.143295,0.298248,0.000000,-0.697220,-0.113449,0.000000,0.081000,0.088000,0.203000,-3.140000,-1.590000,2.330000,-2.276519,Hold,0.586670,0.000000,Hold,-118.000000,2.000000,Suck,-1785.000000,1818.181818,Speed,-1747.500000,1818.181818,Speed,Off,On,0.000000,FALSE,0,,,,,0.000000,0.000000
09:38:18.734 AM 04/09/2016,Teleop Enabled,9,FALSE,0,NO ERROR,-0.181102,-57.069700,-0.181102,-54.470956,TRUE,FALSE,FALSE,FALSE,FALSE,FALSE,Disabled,0.000000,0.000000,0.000000,TRUE,0.105194,0.292923,0.000000,-0.594925,-0.090759,0.000000,-0.019000,-0.020000,0.161000,-2.900000,-1.690000,2.360000,-2.019952,Hold,0.586670,0.000000,Hold,-118.000000,2.000000,Suck,-1785.000000,1818.181818,Speed,-1747.500000,1818.181818,Speed,Off,On,0.000000,FALSE,0,,,,,0.000000,0.000000
09:38:18.834 AM 04/09/2016,Teleop Enabled,10,FALSE,0,NO ERROR,-0.267717,-57.146700,-0.267717,-54.522289,TRUE,FALSE,FALSE,FALSE,FALSE,FALSE,Disabled,0.000000,0.000000,0.000000,TRUE,0.092911,0.289169,0.000000,-0.011139,0.000000,0.000000,0.083000,0.048000,-0.007000,-3.000000,-1.230000,2.290000,-2.231039,Hold,0.586670,0.000000,Hold,-118.000000,2.000000,Suck,-1792.500000,1818.181818,Speed,-1747.500000,1818.181818,Speed,Off,On,0.000000,FALSE,0,,,,,0.000000,0.000000
09:38:18.934 AM 04/09/2016,Teleop Enabled,9,FALSE,0,NO ERROR,-0.314961,-56.530701,-0.314961,-55.042038,TRUE,FALSE,FALSE,FALSE,FALSE,FALSE,Disabled,0.000000,0.000000,0.000000,TRUE,0.092957,0.290909,0.000000,0.025864,0.076172,0.000000,0.227000,0.135000,-0.057000,-2.720000,-1.520000,2.420000,-1.233241,Hold,0.586670,0.000000,Hold,-118.000000,2.000000,Suck,-1785.000000,1818.181818,Speed,-1740.000000,1818.181818,Speed,Off,On,0.000000,FALSE,0,,,,,0.000000,0.000000
09:38:19.034 AM 04/09/2016,Teleop Enabled,10,FALSE,0,NO ERROR,-0.401575,-55.317954,-0.401575,-56.068702,TRUE,FALSE,FALSE,FALSE,FALSE,FALSE,Disabled,0.000000,0.000000,0.000000,TRUE,0.099716,0.297012,0.000000,0.176666,0.145203,0.000000,0.239000,0.087000,0.100000,1.050000,-0.840000,2.830000,2.984009,Hold,0.586670,0.000000,Hold,-118.000000,2.000000,Suck,-1777.500000,1818.181818,Speed,-1747.500000,1818.181818,Speed,Off,On,0.000000,FALSE,0,,,,,0.000000,0.000000
09:38:19.134 AM 04/09/2016,Teleop Enabled,9,FALSE,0,NO ERROR,-0.401575,-53.636791,-0.401575,-57.570199,TRUE,FALSE,FALSE,FALSE,FALSE,FALSE,Disabled,0.000000,0.000000,0.000000,TRUE,0.112930,0.302216,0.000000,0.311035,-0.006424,0.000000,0.147000,-0.064000,-0.095000,8.200000,-0.200000,2.780000,9.045635,Hold,0.586670,0.000000,Hold,-118.000000,2.000000,Suck,-1770.000000,1818.181818,Speed,-1747.500000,1818.181818,Speed,Off,On,0.000000,FALSE,0,,,,,0.000000,0.000000
09:38:19.235 AM 04/09/2016,Teleop Enabled,9,FALSE,0,NO ERROR,-0.448819,-51.500046,-0.448819,-59.597861,TRUE,FALSE,FALSE,FALSE,FALSE,FALSE,Disabled,0.000000,0.000000,0.000000,TRUE,0.134995,0.300186,0.000000,0.401047,-0.036728,0.000000,0.102000,0.002000,-0.037000,16.490000,-0.160000,2.910000,17.174757,Hold,0.586670,0.000000,Hold,-118.000000,2.000000,Suck,-1770.000000,1818.181818,Speed,-1740.000000,1818.181818,Speed,Off,On,0.000000,FALSE,0,,,,,0.000000,0.000000
09:38:19.335 AM 04/09/2016,Teleop Enabled,10,FALSE,0,NO ERROR,-0.527559,-49.048885,-0.527559,-61.972022,TRUE,FALSE,FALSE,FALSE,FALSE,FALSE,Disabled,0.000000,0.000000,0.000000,TRUE,0.152145,0.298889,0.000000,0.439926,-0.071686,0.000000,-0.026000,-0.065000,-0.163000,26.140000,0.000000,2.860000,26.616517,Hold,0.586670,0.000000,Hold,-118.000000,2.000000,Suck,-1770.000000,1818.181818,Speed,-1740.000000,1818.181818,Speed,Off,On,0.000000,FALSE,0,,,,,0.000000,0.000000
09:38:19.435 AM 04/09/2016,Teleop Enabled,9,FALSE,0,NO ERROR,-0.527559,-46.122892,-0.527559,-64.904432,TRUE,FALSE,FALSE,FALSE,FALSE,FALSE,Disabled,0.000000,0.000000,0.000000,TRUE,0.175598,0.291840,0.000000,0.521576,-0.184082,0.000000,0.180000,-0.086000,0.093000,37.490000,0.400000,2.830000,37.746438,Hold,0.586670,0.000000,Hold,-118.000000,2.000000,Suck,-1770.000000,1818.181818,Speed,-1740.000000,1818.181818,Speed,Off,On,0.000000,FALSE,0,,,,,0.000000,0.000000
09:38:19.537 AM 04/09/2016,Teleop Enabled,8,FALSE,0,NO ERROR,-0.527559,-42.779817,-0.527559,-68.189757,TRUE,FALSE,FALSE,FALSE,FALSE,FALSE,Disabled,0.000000,0.000000,0.000000,TRUE,0.203888,0.279877,0.000000,0.564987,-0.281738,0.000000,-0.010000,-0.099000,-0.074000,53.550000,0.670000,2.820000,50.680617,Hold,0.586670,0.000000,Hold,-118.000000,2.000000,Suck,-1770.000000,1818.181818,Speed,-1740.000000,1818.181818,Speed,Off,On,0.000000,FALSE,0,,,,,0.000000,0.000000
09:38:19.637 AM 04/09/2016,Teleop Enabled,10,FALSE,0,NO ERROR,-0.527559,-39.192908,-0.527559,-71.648332,TRUE,FALSE,FALSE,FALSE,FALSE,FALSE,Disabled,0.000000,0.000000,0.000000,TRUE,0.243896,0.252869,0.000000,0.541245,-0.470749,0.000000,-0.083000,-0.004000,-0.066000,67.890000,0.690000,2.720000,64.537730,Hold,0.586670,0.000000,Hold,-118.000000,2.000000,Suck,-1770.000000,1818.181818,Speed,-1740.000000,1818.181818,Speed,Off,On,0.000000,FALSE,0,,,,,0.000000,0.000000
09:38:19.737 AM 04/09/2016,Teleop Enabled,10,FALSE,0,NO ERROR,-0.527559,-35.554667,-0.527559,-75.151824,TRUE,FALSE,FALSE,FALSE,FALSE,FALSE,Disabled,0.000000,0.000000,0.000000,TRUE,0.269562,0.226715,0.000000,0.482544,-0.540085,0.000000,-0.153000,-0.237000,-0.001000,85.480000,1.060000,2.500000,78.696193,Hold,0.586670,0.000000,Hold,-118.000000,2.000000,Suck,-1770.000000,1818.181818,Speed,-1740.000000,1818.181818,Speed,Off,On,0.000000,FALSE,0,,,,,0.000000,0.000000
09:38:19.837 AM 04/09/2016,Teleop Enabled,10,FALSE,0,NO ERROR,-0.527559,-31.916425,-0.527559,-78.597566,TRUE,FALSE,FALSE,FALSE,FALSE,FALSE,Disabled,0.000000,0.000000,0.000000,TRUE,0.289246,0.196259,0.000000,0.350281,-0.654144,0.000000,-0.105000,-0.173000,-0.008000,97.260000,1.150000,2.430000,92.946528,Hold,0.586670,0.000000,Hold,-118.000000,2.000000,Suck,-1770.000000,1818.181818,Speed,-1740.000000,1818.181818,Speed,Off,On,0.000000,FALSE,0,,,,,0.000000,0.000000
09:38:19.937 AM 04/09/2016,Teleop Enabled,11,FALSE,0,NO ERROR,-0.527559,-28.201184,-0.527559,-82.094641,TRUE,FALSE,FALSE,FALSE,FALSE,FALSE,Disabled,0.000000,0.000000,0.000000,TRUE,0.300369,0.168640,0.000000,0.229340,-0.702179,0.000000,-0.090000,-0.072000,-0.203000,115.020000,1.150000,2.410000,110.175423,Hold,0.586670,0.000000,Hold,-118.000000,2.000000,Suck,-1770.000000,1818.181818,Speed,-1740.000000,1818.181818,Speed,Off,On,0.000000,FALSE,0,,,,,0.000000,0.000000
09:38:20.037 AM 04/09/2016,Teleop Enabled,10,FALSE,0,NO ERROR,-0.527559,-24.562943,-0.527559,-85.591717,TRUE,FALSE,FALSE,FALSE,FALSE,FALSE,Disabled,0.000000,0.000000,0.000000,TRUE,0.308517,0.117508,0.000000,0.057114,-0.730042,0.000000,-0.233000,0.026000,0.188000,129.760000,1.540000,2.330000,124.517953,Hold,0.586670,0.000000,Hold,-118.000000,2.000000,Suck,-1777.500000,1818.181818,Speed,-1740.000000,1818.181818,Speed,Off,On,0.000000,FALSE,0,,,,,0.000000,0.000000
09:38:20.138 AM 04/09/2016,Teleop Enabled,11,FALSE,0,NO ERROR,-0.527559,-20.976034,-0.527559,-89.063125,TRUE,FALSE,FALSE,FALSE,FALSE,FALSE,Disabled,0.000000,0.000000,0.000000,TRUE,0.307632,0.089081,0.000000,-0.059799,-0.696777,0.000000,-0.200000,0.017000,0.059000,144.330000,1.740000,2.470000,138.699874,Hold,0.586670,0.000000,Hold,-118.000000,2.000000,Suck,-1777.500000,1818.181818,Speed,-1740.000000,1818.181818,Speed,Off,On,0.000000,FALSE,0,,,,,0.000000,0.000000
09:38:20.238 AM 04/09/2016,Teleop Enabled,10,FALSE,0,NO ERROR,-0.527559,-17.395543,-0.527559,-92.515284,TRUE,FALSE,FALSE,FALSE,FALSE,FALSE,Disabled,0.000000,0.000000,0.000000,TRUE,0.300766,0.055069,0.000000,-0.181412,-0.678818,0.000000,-0.094000,-0.023000,0.010000,158.840000,2.050000,2.600000,152.808458,Hold,0.586670,0.000000,Hold,-119.000000,2.000000,Suck,-1777.500000,1818.181818,Speed,-1740.000000,1818.181818,Speed,Off,On,0.000000,FALSE,0,,,,,0.000000,0.000000
09:38:20.340 AM 04/09/2016,Teleop Enabled,9,FALSE,0,NO ERROR,-0.000000,-13.808634,-0.000000,-95.922526,TRUE,FALSE,FALSE,FALSE,FALSE,FALSE,Disabled,0.000000,0.000000,0.000000,TRUE,0.289078,0.023514,0.000000,-0.270676,-0.579391,0.000000,-0.121000,0.121000,0.007000,176.280000,2.100000,2.920000,166.897334,Hold,0.586670,0.000000,Hold,-119.000000,2.000000,Suck,-1777.500000,1818.181818,Speed,-1740.000000,1818.181818,Speed,Off,On,0.000000,FALSE,0,,,,,0.000000,0.000000
09:38:20.441 AM 04/09/2016,Teleop Enabled,9,FALSE,0,NO ERROR,-0.000000,-11.100807,-0.000000,-98.482770,TRUE,FALSE,FALSE,FALSE,FALSE,FALSE,Disabled,0.000000,0.000000,0.000000,TRUE,0.271484,-0.006302,0.000000,-0.249405,-0.428223,0.000000,0.205000,0.348000,-0.120000,-170.220000,1.700000,2.730000,-179.171615,Hold,0.586670,0.000000,Hold,-119.000000,2.000000,Suck,-1785.000000,1818.181818,Speed,-1740.000000,1818.181818,Speed,Off,On,0.000000,FALSE,0,,,,,0.000000,0.000000
09:38:20.541 AM 04/09/2016,Teleop Enabled,12,FALSE,0,NO ERROR,-0.000000,-9.952227,-0.000000,-99.490184,TRUE,FALSE,FALSE,FALSE,FALSE,FALSE,Disabled,0.000000,0.000000,0.000000,TRUE,0.266678,-0.018234,0.000000,-0.022690,-0.135208,0.000000,0.099000,0.196000,0.031000,-165.340000,0.920000,1.880000,-171.300543,Hold,0.586670,0.000000,Hold,-119.000000,2.000000,Suck,-1785.000000,1818.181818,Speed,-1755.000000,1818.181818,Speed,Off,On,0.000000,FALSE,0,,,,,0.000000,0.000000
09:38:20.643 AM 04/09/2016,Teleop Enabled,11,FALSE,0,NO ERROR,-0.000000,-9.624977,-0.000000,-99.644184,TRUE,FALSE,FALSE,FALSE,FALSE,FALSE,Disabled,0.000000,0.000000,0.000000,TRUE,0.268127,-0.020950,0.000000,0.068512,-0.053986,0.000000,0.000000,-0.085000,0.160000,-164.340000,0.850000,1.540000,-169.915364,Hold,0.586670,0.000000,Hold,-119.000000,2.000000,Suck,-1785.000000,1818.181818,Speed,-1755.000000,1818.181818,Speed,Off,On,0.000000,FALSE,0,,,,,0.000000,0.000000
09:38:20.744 AM 04/09/2016,Teleop Enabled,9,FALSE,0,NO ERROR,-0.000000,-9.624977,-0.000000,-99.470934,TRUE,FALSE,FALSE,FALSE,FALSE,FALSE,Disabled,0.000000,0.000000,0.000000,TRUE,0.272141,-0.026489,0.000000,0.038071,-0.095367,0.000000,0.052000,0.062000,0.030000,-165.000000,0.770000,1.580000,-170.490757,Hold,0.586670,0.000000,Hold,-119.000000,2.000000,Suck,-1785.000000,1818.181818,Speed,-1747.500000,1818.181818,Speed,Off,On,0.000000,FALSE,0,,,,,0.000000,0.000000
09:38:20.844 AM 04/09/2016,Teleop Enabled,12,FALSE,0,NO ERROR,-0.000000,-9.624977,-0.000000,-99.470934,TRUE,FALSE,FALSE,FALSE,FALSE,FALSE,Disabled,0.000000,0.000000,0.000000,TRUE,0.272964,-0.030350,0.000000,-0.002426,-0.092041,0.000000,-0.041000,-0.078000,0.074000,-164.900000,1.010000,1.630000,-170.549249,Hold,0.586670,0.000000,Hold,-119.000000,2.000000,Suck,-1777.500000,1818.181818,Speed,-1747.500000,1818.181818,Speed,Off,On,0.000000,FALSE,0,,,,,0.000000,0.000000
09:38:20.946 AM 04/09/2016,Teleop Enabled,11,FALSE,0,NO ERROR,-0.000000,-9.624977,-0.000000,-99.496601,TRUE,FALSE,FALSE,FALSE,FALSE,FALSE,Disabled,0.000000,0.000000,0.000000,TRUE,0.272873,-0.036957,0.000000,0.009491,-0.136246,0.000000,0.037000,0.131000,-0.010000,-164.860000,1.000000,1.710000,-170.489648,Hold,0.586670,0.000000,Hold,-119.000000,2.000000,Suck,-1777.500000,1818.181818,Speed,-1755.000000,1818.181818,Speed,Off,On,0.000000,FALSE,0,,,,,0.000000,0.000000
09:38:21.046 AM 04/09/2016,Teleop Enabled,10,FALSE,0,NO ERROR,-0.000000,-9.624977,-0.000000,-99.509434,TRUE,FALSE,FALSE,FALSE,FALSE,FALSE,Disabled,0.000000,0.000000,0.000000,TRUE,0.272125,-0.042618,0.000000,-0.039734,-0.120575,0.000000,-0.029000,-0.068000,0.009000,-164.830000,0.910000,1.800000,-170.453804,Hold,0.586670,0.000000,Hold,-119.000000,2.000000,Suck,-1777.500000,1818.181818,Speed,-1755.000000,1818.181818,Speed,Off,On,0.000000,FALSE,0,,,,,0.000000,0.000000
09:38:21.146 AM 04/09/2016,Teleop Enabled,10,FALSE,0,NO ERROR,-0.000000,-9.624977,-0.000000,-99.509434,TRUE,FALSE,FALSE,FALSE,FALSE,FALSE,Disabled,0.000000,0.000000,0.000000,TRUE,0.270935,-0.052017,0.000000,-0.003693,-0.148773,0.000000,-0.073000,0.144000,-0.015000,-164.840000,0.980000,1.860000,-170.454410,Hold,0.586670,0.000000,Hold,-119.000000,2.000000,Suck,-1777.500000,1818.181818,Speed,-1747.500000,1818.181818,Speed,Off,On,0.000000,FALSE,0,,,,,0.000000,0.000000
09:38:21.248 AM 04/09/2016,Teleop Enabled,11,FALSE,0,NO ERROR,-0.000000,-9.624977,-0.000000,-99.509434,TRUE,FALSE,FALSE,FALSE,FALSE,FALSE,Disabled,0.000000,0.000000,0.000000,TRUE,0.270355,-0.057297,0.000000,-0.012573,-0.140823,0.000000,0.009000,-0.037000,-0.005000,-164.860000,1.010000,1.880000,-170.470429,Hold,0.586670,0.000000,Hold,-119.000000,2.000000,Suck,-1785.000000,1818.181818,Speed,-1755.000000,1818.181818,Speed,Off,On,0.000000,FALSE,0,,,,,0.000000,0.000000
09:38:21.349 AM 04/09/2016,Teleop Enabled,10,FALSE,0,NO ERROR,0.173228,-9.624977,0.173228,-99.509434,TRUE,FALSE,FALSE,FALSE,FALSE,FALSE,Disabled,0.000000,0.000000,0.000000,TRUE,0.270660,-0.066360,0.000000,0.000763,-0.128342,0.000000,0.021000,0.047000,0.003000,-164.850000,0.970000,1.930000,-170.464690,Hold,0.586670,0.000000,Hold,-119.000000,2.000000,Suck,-1785.000000,1818.181818,Speed,-1747.500000,1818.181818,Speed,Off,On,0.000000,FALSE,0,,,,,0.000000,0.000000
09:38:21.451 AM 04/09/2016,Teleop Enabled,10,FALSE,0,NO ERROR,0.228346,-9.926560,0.228346,-99.252768,TRUE,FALSE,FALSE,FALSE,FALSE,FALSE,Disabled,0.000000,0.000000,0.000000,TRUE,0.270538,-0.072067,0.000000,0.011688,-0.126022,0.000000,0.065000,0.018000,0.013000,-165.590000,0.850000,1.830000,-170.839216,Hold,0.586670,0.000000,Hold,-119.000000,2.000000,Suck,-1777.500000,1818.181818,Speed,-1747.500000,1818.181818,Speed,Off,On,0.000000,FALSE,0,,,,,0.000000,0.000000
09:38:21.550 AM 04/09/2016,Teleop Enabled,10,FALSE,0,NO ERROR,0.228346,-10.555392,0.228346,-98.707353,TRUE,FALSE,FALSE,FALSE,FALSE,FALSE,Disabled,0.000000,0.000000,0.000000,TRUE,0.273041,-0.075668,0.000000,0.000000,-0.016647,0.000000,0.032000,0.028000,-0.080000,-168.160000,0.480000,1.450000,-172.917681,Hold,0.586670,0.000000,Hold,-119.000000,2.000000,Suck,-1777.500000,1818.181818,Speed,-1755.000000,1818.181818,Speed,Off,On,0.000000,FALSE,0,,,,,0.000000,0.000000
09:38:21.650 AM 04/09/2016,Teleop Enabled,9,FALSE,0,NO ERROR,0.188976,-11.511473,0.188976,-97.892438,TRUE,FALSE,FALSE,FALSE,FALSE,FALSE,Disabled,0.000000,0.000000,0.000000,TRUE,0.272598,-0.075226,0.000000,-0.009018,-0.004349,0.000000,0.109000,0.034000,0.018000,-171.830000,0.550000,1.500000,-176.292837,Hold,0.586670,0.000000,Hold,-119.000000,2.000000,Suck,-1777.500000,1818.181818,Speed,-1755.000000,1818.181818,Speed,Off,On,0.000000,FALSE,0,,,,,0.000000,0.000000
09:38:21.751 AM 04/09/2016,Teleop Enabled,10,FALSE,0,NO ERROR,-0.000000,-12.332804,-0.000000,-97.096773,TRUE,FALSE,FALSE,FALSE,FALSE,FALSE,Disabled,0.000000,0.000000,0.000000,TRUE,0.273270,-0.074890,0.000000,0.017166,0.000000,0.000000,-0.152000,-0.012000,0.095000,-175.570000,0.630000,1.440000,179.300926,Hold,0.586670,0.000000,Hold,-119.000000,2.000000,Suck,-1777.500000,1818.181818,Speed,-1747.500000,1818.181818,Speed,Off,On,0.000000,FALSE,0,,,,,0.000000,0.000000
09:38:21.852 AM 04/09/2016,Teleop Enabled,9,FALSE,0,NO ERROR,-0.000000,-12.467554,-0.000000,-96.974857,TRUE,FALSE,FALSE,FALSE,FALSE,FALSE,Disabled,0.000000,0.000000,0.000000,TRUE,0.270325,-0.077881,0.000000,-0.099457,-0.097946,0.000000,-0.026000,-0.100000,0.057000,-177.070000,0.960000,1.940000,177.712560,Hold,0.586670,0.000000,Hold,-119.000000,2.000000,Suck,-1792.500000,1818.181818,Speed,-1747.500000,1818.181818,Speed,Off,On,0.000000,FALSE,0,,,,,0.000000,0.000000
09:38:21.952 AM 04/09/2016,Teleop Enabled,10,FALSE,0,NO ERROR,-0.000000,-12.454721,-0.000000,-97.058273,TRUE,FALSE,FALSE,FALSE,FALSE,FALSE,Disabled,0.000000,0.000000,0.000000,TRUE,0.263977,-0.083511,0.000000,-0.128357,-0.104370,0.000000,-0.059000,0.067000,0.025000,-176.580000,0.930000,1.900000,178.146374,Hold,0.586670,0.000000,Hold,-119.000000,2.000000,Suck,-1792.500000,1818.181818,Speed,-1755.000000,1818.181818,Speed,Off,On,0.000000,FALSE,0,,,,,0.000000,0.000000
09:38:22.052 AM 04/09/2016,Teleop Enabled,9,FALSE,0,NO ERROR,-0.000000,-12.403388,-0.000000,-97.071106,TRUE,FALSE,FALSE,FALSE,FALSE,FALSE,Disabled,0.000000,0.000000,0.000000,TRUE,0.257904,-0.088150,0.000000,-0.118958,-0.103531,0.000000,-0.081000,0.002000,0.120000,-176.450000,0.820000,1.970000,178.271398,Hold,0.586670,0.000000,Hold,-119.000000,2.000000,Suck,-1792.500000,1818.181818,Speed,-1755.000000,1818.181818,Speed,Off,On,0.000000,FALSE,0,,,,,0.000000,0.000000
09:38:22.154 AM 04/09/2016,Teleop Enabled,10,FALSE,0,NO ERROR,-0.000000,-12.403388,-0.000000,-97.000523,TRUE,FALSE,FALSE,FALSE,FALSE,FALSE,Disabled,0.000000,0.000000,0.000000,TRUE,0.251968,-0.094604,0.000000,-0.119827,-0.147720,0.000000,-0.081000,0.002000,0.120000,-176.650000,0.890000,1.900000,178.068934,Hold,0.586670,0.000000,Hold,-119.000000,2.000000,Suck,-1792.500000,1818.181818,Speed,-1762.500000,1818.181818,Speed,Off,On,0.000000,FALSE,0,,,,,0.000000,0.000000
09:38:22.255 AM 04/09/2016,Teleop Enabled,10,FALSE,0,NO ERROR,-0.000000,-12.384138,-0.000000,-97.006940,TRUE,FALSE,FALSE,FALSE,FALSE,FALSE,Disabled,0.000000,0.000000,0.000000,TRUE,0.245041,-0.094177,0.000000,-0.150101,0.019547,0.000000,-0.053000,0.007000,0.013000,-176.510000,0.860000,1.940000,178.187603,Hold,0.586670,0.000000,Hold,-119.000000,2.000000,Suck,-1792.500000,1818.181818,Speed,-1755.000000,1818.181818,Speed,Off,On,0.000000,FALSE,0,,,,,0.000000,0.000000
09:38:22.355 AM 04/09/2016,Teleop Enabled,10,FALSE,0,NO ERROR,-0.000000,-12.384138,-0.000000,-97.006940,TRUE,FALSE,FALSE,FALSE,FALSE,FALSE,Disabled,0.000000,0.000000,0.000000,TRUE,0.237808,-0.093643,0.000000,-0.145035,0.003922,0.000000,0.039000,0.029000,0.033000,-176.560000,0.960000,1.980000,178.166276,Hold,0.586670,0.000000,Hold,-119.000000,2.000000,Suck,-1785.000000,1818.181818,Speed,-1755.000000,1818.181818,Speed,Off,On,0.000000,FALSE,0,,,,,0.000000,0.000000
09:38:22.455 AM 04/09/2016,Teleop Enabled,10,FALSE,0,NO ERROR,-0.000000,-12.384138,-0.000000,-97.006940,TRUE,FALSE,FALSE,FALSE,FALSE,FALSE,Disabled,0.000000,0.000000,0.000000,TRUE,0.229706,-0.092361,0.000000,-0.183304,0.039093,0.000000,-0.062000,-0.034000,0.012000,-176.550000,0.930000,2.000000,178.153466,Hold,0.586670,0.000000,Hold,-119.000000,2.000000,Suck,-1785.000000,1818.181818,Speed,-1762.500000,1818.181818,Speed,Off,On,0.000000,FALSE,0,,,,,0.000000,0.000000
09:38:22.555 AM 04/09/2016,Teleop Enabled,10,FALSE,0,NO ERROR,-0.000000,-12.384138,-0.000000,-97.006940,TRUE,FALSE,FALSE,FALSE,FALSE,FALSE,Disabled,0.000000,0.000000,0.000000,TRUE,0.220352,-0.091568,0.000000,-0.188568,-0.006195,0.000000,-0.018000,-0.054000,0.098000,-176.560000,0.920000,1.970000,178.145125,Hold,0.586670,0.000000,Hold,-119.000000,2.000000,Suck,-1785.000000,1818.181818,Speed,-1755.000000,1818.181818,Speed,Off,On,0.000000,FALSE,0,,,,,0.000000,0.000000
09:38:22.655 AM 04/09/2016,Teleop Enabled,8,FALSE,0,NO ERROR,-0.000000,-12.384138,-0.000000,-97.006940,TRUE,FALSE,FALSE,FALSE,FALSE,FALSE,Disabled,0.000000,0.000000,0.000000,TRUE,0.210419,-0.093124,0.000000,-0.214783,-0.054535,0.000000,-0.050000,0.173000,-0.055000,-176.560000,0.890000,2.000000,178.147817,Hold,0.586670,0.000000,Hold,-119.000000,2.000000,Suck,-1785.000000,1818.181818,Speed,-1755.000000,1818.181818,Speed,Off,On,0.000000,FALSE,0,,,,,0.000000,0.000000
09:38:22.755 AM 04/09/2016,Teleop Enabled,9,FALSE,0,NO ERROR,-0.000000,-12.384138,-0.000000,-97.006940,TRUE,FALSE,FALSE,FALSE,FALSE,FALSE,Disabled,0.000000,0.000000,0.000000,TRUE,0.197266,-0.094086,0.000000,-0.224152,-0.011200,0.000000,-0.050000,0.173000,-0.055000,-176.560000,0.890000,2.000000,178.132732,Hold,0.586670,0.000000,Hold,-119.000000,2.000000,Suck,-1785.000000,1818.181818,Speed,-1762.500000,1818.181818,Speed,Off,On,0.000000,FALSE,0,,,,,0.000000,0.000000
09:38:22.855 AM 04/09/2016,Teleop Enabled,9,FALSE,0,NO ERROR,-0.000000,-12.384138,-0.000000,-97.006940,TRUE,FALSE,FALSE,FALSE,FALSE,FALSE,Disabled,0.000000,0.000000,0.000000,TRUE,0.197266,-0.094086,0.000000,-0.224152,-0.011200,0.000000,0.041000,-0.041000,0.099000,-176.560000,0.920000,1.990000,178.130924,Hold,0.586670,0.000000,Hold,-119.000000,2.000000,Suck,-1792.500000,1818.181818,Speed,-1762.500000,1818.181818,Speed,Off,On,0.000000,FALSE,0,,,,,0.000000,0.000000
09:38:22.956 AM 04/09/2016,Teleop Enabled,9,FALSE,0,NO ERROR,-0.000000,-12.384138,-0.000000,-97.006940,TRUE,FALSE,FALSE,FALSE,FALSE,FALSE,Disabled,0.000000,0.000000,0.000000,TRUE,0.186188,-0.095596,0.000000,-0.216110,-0.037857,0.000000,-0.052000,0.096000,-0.047000,-176.560000,0.930000,2.030000,178.138088,Hold,0.586670,0.000000,Hold,-119.000000,2.000000,Suck,-1785.000000,1818.181818,Speed,-1755.000000,1818.181818,Speed,Off,On,0.000000,FALSE,0,,,,,0.000000,0.000000
09:38:23.056 AM 04/09/2016,Teleop Enabled,11,FALSE,0,NO ERROR,-0.000000,-12.384138,-0.000000,-97.006940,TRUE,FALSE,FALSE,FALSE,FALSE,FALSE,Disabled,0.000000,0.000000,0.000000,TRUE,0.175049,-0.096390,0.000000,-0.229233,-0.011612,0.000000,-0.044000,-0.003000,0.002000,-176.560000,0.950000,2.050000,178.114204,Hold,0.586670,0.000000,Hold,-119.000000,2.000000,Suck,-1785.000000,1818.181818,Speed,-1755.000000,1818.181818,Speed,Off,On,0.000000,FALSE,0,,,,,0.000000,0.000000
09:38:23.157 AM 04/09/2016,Teleop Enabled,9,FALSE,0,NO ERROR,-0.000000,-12.384138,-0.000000,-97.006940,TRUE,FALSE,FALSE,FALSE,FALSE,FALSE,Disabled,0.000000,0.000000,0.000000,TRUE,0.163300,-0.097061,0.000000,-0.229919,-0.029709,0.000000,-0.109000,0.002000,0.054000,-176.560000,0.950000,2.030000,178.091593,Hold,0.586670,0.000000,Hold,-119.000000,2.000000,Suck,-1785.000000,1818.181818,Speed,-1762.500000,1818.181818,Speed,Off,On,0.000000,FALSE,0,,,,,0.000000,0.000000
09:38:23.257 AM 04/09/2016,Teleop Enabled,10,FALSE,0,NO ERROR,-0.000000,-12.384138,-0.000000,-97.006940,TRUE,FALSE,FALSE,FALSE,FALSE,FALSE,Disabled,0.000000,0.000000,0.000000,TRUE,0.139847,-0.098969,0.000000,-0.265915,0.010208,0.000000,-0.051000,0.074000,0.077000,-176.560000,0.880000,2.050000,178.081575,Hold,0.586670,0.000000,Hold,-119.000000,2.000000,Suck,-1792.500000,1818.181818,Speed,-1762.500000,1818.181818,Speed,Off,On,0.000000,FALSE,0,,,,,0.000000,0.000000
09:38:23.357 AM 04/09/2016,Teleop Enabled,9,FALSE,0,NO ERROR,-0.251969,-12.345638,-0.251969,-97.071106,TRUE,FALSE,FALSE,FALSE,FALSE,FALSE,Disabled,0.000000,0.000000,0.000000,TRUE,0.139847,-0.098969,0.000000,-0.265915,0.010208,0.000000,0.079000,-0.114000,0.088000,-176.560000,0.910000,2.020000,178.086347,Hold,0.586670,0.000000,Hold,-119.000000,2.000000,Suck,-1785.000000,1818.181818,Speed,-1755.000000,1818.181818,Speed,Off,On,0.000000,FALSE,0,,,,,0.000000,0.000000
09:38:23.458 AM 04/09/2016,Teleop Enabled,9,FALSE,0,NO ERROR,-0.354331,-11.479390,-0.354331,-97.886021,TRUE,FALSE,FALSE,FALSE,FALSE,FALSE,Disabled,0.000000,0.000000,0.000000,TRUE,0.109375,-0.105560,0.000000,-0.396423,-0.111923,0.000000,-0.160000,0.042000,0.089000,-176.560000,0.900000,2.060000,179.793177,Hold,0.586670,0.000000,Hold,-119.000000,2.000000,Suck,-1785.000000,1818.181818,Speed,-1762.500000,1818.181818,Speed,Off,On,0.000000,FALSE,0,,,,,0.000000,0.000000
09:38:23.558 AM 04/09/2016,Teleop Enabled,10,FALSE,0,NO ERROR,-0.354331,-9.875227,-0.354331,-99.406768,TRUE,FALSE,FALSE,FALSE,FALSE,FALSE,Disabled,0.000000,0.000000,0.000000,TRUE,0.109375,-0.105560,0.000000,-0.396423,-0.111923,0.000000,0.060000,-0.066000,0.029000,-174.120000,1.500000,2.580000,-174.566394,Hold,0.586670,0.000000,Hold,-119.000000,2.000000,Suck,-1785.000000,1818.181818,Speed,-1755.000000,1818.181818,Speed,Off,On,0.000000,FALSE,0,,,,,0.000000,0.000000
09:38:23.660 AM 04/09/2016,Teleop Enabled,8,FALSE,0,NO ERROR,-0.000000,-8.271064,-0.000000,-101.036597,FALSE,FALSE,FALSE,FALSE,FALSE,FALSE,Disabled,0.000000,0.000000,0.000000,TRUE,0.083649,-0.115936,0.000000,-0.450958,-0.210648,0.000000,0.087000,0.044000,0.009000,-167.840000,1.490000,3.120000,-167.156901,Hold,0.586670,0.000000,Hold,-119.000000,2.000000,Suck,-1785.000000,1818.181818,Speed,-1747.500000,1818.181818,Speed,Off,On,0.000000,FALSE,0,,,,,0.000000,0.000000
09:38:23.760 AM 04/09/2016,Teleop Enabled,11,FALSE,0,NO ERROR,-0.000000,-8.271064,-0.000000,-101.036597,FALSE,FALSE,FALSE,FALSE,FALSE,FALSE,Disabled,0.000000,0.000000,0.000000,TRUE,0.061783,-0.124023,0.000000,-0.395615,-0.129837,0.000000,0.145000,0.113000,0.199000,-160.210000,1.530000,3.080000,-167.156901,Hold,0.586670,0.000000,Hold,-119.000000,2.000000,Suck,-1777.500000,1818.181818,Speed,-1747.500000,1818.181818,Speed,Off,On,0.000000,FALSE,0,,,,,0.000000,0.000000
09:38:23.864 AM 04/09/2016,Teleop Enabled,9,FALSE,0,NO ERROR,-0.000000,-7.622982,-0.000000,-101.505013,TRUE,FALSE,FALSE,FALSE,FALSE,FALSE,Disabled,0.000000,0.000000,0.000000,TRUE,0.048233,-0.128387,0.000000,-0.191544,-0.065781,0.000000,0.053000,0.082000,0.036000,-156.040000,0.590000,2.400000,-162.424237,Hold,0.586670,0.000000,Hold,-119.000000,2.000000,Suck,-1785.000000,1818.181818,Speed,-1755.000000,1818.181818,Speed,Off,On,0.000000,FALSE,0,,,,,0.000000,0.000000
09:38:23.965 AM 04/09/2016,Teleop Enabled,12,FALSE,0,NO ERROR,-0.000000,-7.552399,-0.000000,-101.485763,TRUE,FALSE,FALSE,FALSE,FALSE,FALSE,Disabled,0.000000,0.000000,0.000000,TRUE,0.039719,-0.129883,0.000000,-0.176331,-0.026031,0.000000,-0.057000,-0.031000,-0.063000,-156.080000,0.570000,2.300000,-162.096268,Hold,0.586670,0.000000,Hold,-119.000000,2.000000,Suck,-1792.500000,1818.181818,Speed,-1770.000000,1818.181818,Speed,Off,On,0.000000,FALSE,0,,,,,0.000000,0.000000
09:38:24.065 AM 04/09/2016,Teleop Enabled,10,FALSE,0,NO ERROR,0.283465,-7.552399,0.283465,-101.447263,TRUE,FALSE,FALSE,FALSE,FALSE,FALSE,Disabled,0.000000,0.000000,0.000000,TRUE,0.028763,-0.130707,0.000000,-0.181549,-0.005295,0.000000,-0.030000,-0.009000,0.040000,-156.400000,0.880000,2.300000,-162.387681,Hold,0.586670,0.000000,Hold,-119.000000,2.000000,Suck,-1785.000000,1818.181818,Speed,-1762.500000,1818.181818,Speed,Off,On,0.000000,FALSE,0,,,,,0.000000,0.000000
09:38:24.165 AM 04/09/2016,Teleop Enabled,11,FALSE,0,NO ERROR,0.377953,-7.764149,0.377953,-101.306096,TRUE,FALSE,FALSE,FALSE,FALSE,FALSE,Disabled,0.000000,0.000000,0.000000,TRUE,0.020660,-0.131088,0.000000,-0.221558,-0.022278,0.000000,0.003000,0.201000,-0.047000,-156.330000,0.960000,2.280000,-162.254740,Hold,0.586670,0.000000,Hold,-119.000000,2.000000,Suck,-1785.000000,1818.181818,Speed,-1755.000000,1818.181818,Speed,Off,On,0.000000,FALSE,0,,,,,0.000000,0.000000
09:38:24.266 AM 04/09/2016,Teleop Enabled,11,FALSE,0,NO ERROR,0.385827,-9.028229,0.385827,-100.202432,TRUE,FALSE,FALSE,FALSE,FALSE,FALSE,Disabled,0.000000,0.000000,0.000000,TRUE,0.013092,-0.130585,0.000000,-0.070221,0.014542,0.000000,0.200000,0.104000,0.003000,-161.770000,0.060000,1.420000,-165.481597,Hold,0.586670,0.000000,Hold,-119.000000,2.000000,Suck,-1785.000000,1818.181818,Speed,-1755.000000,1818.181818,Speed,Off,On,0.000000,FALSE,0,,,,,0.000000,0.000000
09:38:24.366 AM 04/09/2016,Teleop Enabled,11,FALSE,0,NO ERROR,0.385827,-11.184224,0.385827,-98.303103,TRUE,FALSE,FALSE,FALSE,FALSE,FALSE,Disabled,0.000000,0.000000,0.000000,TRUE,0.011551,-0.125717,0.000000,-0.012146,0.105301,0.000000,-0.051000,0.145000,0.002000,-170.030000,0.000000,1.120000,-172.739009,Hold,0.586670,0.000000,Hold,-119.000000,2.000000,Suck,-1777.500000,1818.181818,Speed,-1747.500000,1818.181818,Speed,Off,On,0.000000,FALSE,0,,,,,0.000000,0.000000
09:38:24.466 AM 04/09/2016,Teleop Enabled,11,FALSE,0,NO ERROR,0.385827,-13.430052,0.385827,-96.044442,TRUE,FALSE,FALSE,FALSE,FALSE,FALSE,Disabled,0.000000,0.000000,0.000000,TRUE,0.010483,-0.118484,0.000000,-0.023590,0.148788,0.000000,0.008000,-0.007000,0.037000,-179.440000,-0.010000,0.900000,176.513548,Hold,0.586670,0.000000,Hold,-119.000000,2.000000,Suck,-1777.500000,1818.181818,Speed,-1755.000000,1818.181818,Speed,Off,On,0.000000,FALSE,0,,,,,0.000000,0.000000
09:38:24.566 AM 04/09/2016,Teleop Enabled,11,FALSE,0,NO ERROR,-0.000000,-15.740047,-0.000000,-93.728031,TRUE,FALSE,FALSE,FALSE,FALSE,FALSE,Disabled,0.000000,0.000000,0.000000,TRUE,0.007477,-0.109924,0.000000,-0.095398,0.188568,0.000000,-0.091000,0.020000,-0.079000,170.910000,-0.110000,0.650000,167.171850,Hold,0.586670,0.000000,Hold,-119.000000,2.000000,Suck,-1785.000000,1818.181818,Speed,-1755.000000,1818.181818,Speed,Off,On,0.000000,FALSE,0,,,,,0.000000,0.000000
09:38:24.666 AM 04/09/2016,Teleop Enabled,10,FALSE,0,NO ERROR,-0.000000,-17.305710,-0.000000,-92.066118,TRUE,FALSE,FALSE,FALSE,FALSE,FALSE,Disabled,0.000000,0.000000,0.000000,TRUE,0.000198,-0.100769,0.000000,-0.181625,0.161865,0.000000,-0.305000,-0.415000,0.097000,162.240000,0.100000,0.880000,158.488886,Hold,0.586670,0.000000,Hold,-119.000000,2.000000,Suck,-1785.000000,1818.181818,Speed,-1755.000000,1818.181818,Speed,Off,On,0.000000,FALSE,0,,,,,0.000000,0.000000
09:38:24.766 AM 04/09/2016,Teleop Enabled,10,FALSE,0,NO ERROR,-0.000000,-17.883208,-0.000000,-91.405203,TRUE,FALSE,FALSE,FALSE,FALSE,FALSE,Disabled,0.000000,0.000000,0.000000,TRUE,-0.013718,-0.102066,0.000000,-0.307297,-0.123703,0.000000,0.153000,-0.167000,0.038000,159.770000,0.830000,1.590000,155.189676,Hold,0.586670,0.000000,Hold,-119.000000,2.000000,Suck,-1792.500000,1818.181818,Speed,-1762.500000,1818.181818,Speed,Off,On,0.000000,FALSE,0,,,,,0.000000,0.000000
09:38:24.869 AM 04/09/2016,Teleop Enabled,9,FALSE,0,NO ERROR,0.283465,-17.857542,0.283465,-91.482203,TRUE,FALSE,FALSE,FALSE,FALSE,FALSE,Disabled,0.000000,0.000000,0.000000,TRUE,-0.029266,-0.111221,0.000000,-0.318588,-0.178177,0.000000,-0.073000,0.001000,0.022000,160.170000,0.960000,1.680000,155.531928,Hold,0.586670,0.000000,Hold,-119.000000,2.000000,Suck,-1792.500000,1818.181818,Speed,-1762.500000,1818.181818,Speed,Off,On,0.000000,FALSE,0,,,,,0.000000,0.000000
09:38:24.969 AM 04/09/2016,Teleop Enabled,9,FALSE,0,NO ERROR,0.283465,-18.454290,0.283465,-90.917537,TRUE,FALSE,FALSE,FALSE,FALSE,FALSE,Disabled,0.000000,0.000000,0.000000,TRUE,-0.045181,-0.117905,0.000000,-0.286514,-0.068359,0.000000,0.060000,0.013000,0.146000,159.280000,0.640000,1.530000,155.081672,Hold,0.586670,0.000000,Hold,-119.000000,2.000000,Suck,-1785.000000,1818.181818,Speed,-1755.000000,1818.181818,Speed,Off,On,0.000000,FALSE,0,,,,,0.000000,0.000000
09:38:25.070 AM 04/09/2016,Teleop Enabled,10,FALSE,0,NO ERROR,-0.000000,-19.654204,-0.000000,-89.858790,TRUE,FALSE,FALSE,FALSE,FALSE,FALSE,Disabled,0.000000,0.000000,0.000000,TRUE,-0.057922,-0.119583,0.000000,-0.250244,0.010025,0.000000,-0.003000,0.044000,0.122000,154.760000,0.260000,0.910000,150.888626,Hold,0.586670,0.000000,Hold,-119.000000,2.000000,Suck,-1777.500000,1818.181818,Speed,-1755.000000,1818.181818,Speed,Off,On,0.000000,FALSE,0,,,,,0.000000,0.000000
09:38:25.170 AM 04/09/2016,Teleop Enabled,10,FALSE,0,NO ERROR,-0.000000,-20.822035,-0.000000,-88.748709,TRUE,FALSE,FALSE,FALSE,FALSE,FALSE,Disabled,0.000000,0.000000,0.000000,TRUE,-0.073380,-0.119125,0.000000,-0.269714,-0.050720,0.000000,0.046000,-0.218000,0.056000,149.380000,0.440000,1.110000,145.658324,Hold,0.586670,0.000000,Hold,-119.000000,2.000000,Suck,-1777.500000,1818.181818,Speed,-1755.000000,1818.181818,Speed,Off,On,0.000000,FALSE,0,,,,,0.000000,0.000000
09:38:25.270 AM 04/09/2016,Teleop Enabled,9,FALSE,0,NO ERROR,-0.000000,-21.033784,-0.000000,-88.575460,TRUE,FALSE,FALSE,FALSE,FALSE,FALSE,Disabled,0.000000,0.000000,0.000000,TRUE,-0.087799,-0.126892,0.000000,-0.306290,-0.224533,0.000000,0.106000,0.003000,0.021000,147.050000,0.880000,1.590000,142.983711,Hold,0.586670,0.000000,Hold,-119.000000,2.000000,Suck,-1785.000000,1818.181818,Speed,-1762.500000,1818.181818,Speed,Off,On,0.000000,FALSE,0,,,,,0.000000,0.000000
09:38:25.371 AM 04/09/2016,Teleop Enabled,9,FALSE,0,NO ERROR,-0.000000,-20.969618,-0.000000,-88.678126,TRUE,FALSE,FALSE,FALSE,FALSE,FALSE,Disabled,0.000000,0.000000,0.000000,TRUE,-0.102600,-0.137939,0.000000,-0.307266,-0.187027,0.000000,0.103000,0.047000,0.023000,147.840000,0.950000,1.710000,143.775840,Hold,0.586670,0.000000,Hold,-119.000000,2.000000,Suck,-1792.500000,1818.181818,Speed,-1762.500000,1818.181818,Speed,Off,On,0.000000,FALSE,0,,,,,0.000000,0.000000
09:38:25.471 AM 04/09/2016,Teleop Enabled,10,FALSE,0,NO ERROR,-0.000000,-20.969618,-0.000000,-88.684543,TRUE,FALSE,FALSE,FALSE,FALSE,FALSE,Disabled,0.000000,0.000000,0.000000,TRUE,-0.117020,-0.145798,0.000000,-0.285492,-0.157944,0.000000,0.078000,-0.110000,0.004000,148.030000,0.810000,1.660000,143.835014,Hold,0.586670,0.000000,Hold,-119.000000,2.000000,Suck,-1785.000000,1818.181818,Speed,-1762.500000,1818.181818,Speed,Off,On,0.000000,FALSE,0,,,,,0.000000,0.000000
09:38:25.571 AM 04/09/2016,Teleop Enabled,9,FALSE,0,NO ERROR,-0.000000,-20.969618,-0.000000,-88.658876,TRUE,FALSE,FALSE,FALSE,FALSE,FALSE,Disabled,0.000000,0.000000,0.000000,TRUE,-0.132736,-0.156021,0.000000,-0.263367,-0.167099,0.000000,-0.076000,0.009000,-0.069000,147.740000,0.950000,1.640000,143.613293,Hold,0.586670,0.000000,Hold,-119.000000,2.000000,Suck,-1792.500000,1818.181818,Speed,-1755.000000,1818.181818,Speed,Off,On,0.000000,FALSE,0,,,,,0.000000,0.000000
09:38:25.671 AM 04/09/2016,Teleop Enabled,9,FALSE,0,NO ERROR,-0.000000,-20.969618,-0.000000,-88.658876,TRUE,FALSE,FALSE,FALSE,FALSE,FALSE,Disabled,0.000000,0.000000,0.000000,TRUE,-0.145660,-0.157623,0.000000,-0.264130,0.004547,0.000000,0.001000,-0.019000,0.002000,147.930000,0.830000,1.700000,143.772642,Hold,0.586670,0.000000,Hold,-119.000000,2.000000,Suck,-1792.500000,1818.181818,Speed,-1762.500000,1818.181818,Speed,Off,On,0.000000,FALSE,0,,,,,0.000000,0.000000
09:38:25.772 AM 04/09/2016,Teleop Enabled,11,FALSE,0,NO ERROR,-0.000000,-20.969618,-0.000000,-88.658876,TRUE,FALSE,FALSE,FALSE,FALSE,FALSE,Disabled,0.000000,0.000000,0.000000,TRUE,-0.155716,-0.157684,0.000000,-0.240875,-0.003738,0.000000,0.127000,-0.011000,0.013000,147.860000,0.800000,1.660000,143.719062,Hold,0.586670,0.000000,Hold,-119.000000,2.000000,Suck,-1785.000000,1818.181818,Speed,-1762.500000,1818.181818,Speed,Off,On,0.000000,FALSE,0,,,,,0.000000,0.000000
09:38:25.873 AM 04/09/2016,Teleop Enabled,13,FALSE,0,NO ERROR,-0.000000,-20.969618,-0.000000,-88.658876,TRUE,FALSE,FALSE,FALSE,FALSE,FALSE,Disabled,0.000000,0.000000,0.000000,TRUE,-0.168503,-0.157700,0.000000,-0.235184,0.010498,0.000000,0.040000,-0.058000,-0.081000,147.870000,0.810000,1.760000,143.710979,Hold,0.586670,0.000000,Hold,-119.000000,2.000000,Suck,-1792.500000,1818.181818,Speed,-1762.500000,1818.181818,Speed,Off,On,0.000000,FALSE,0,,,,,0.000000,0.000000
09:38:25.973 AM 04/09/2016,Teleop Enabled,10,FALSE,0,NO ERROR,0.228346,-20.969618,0.228346,-88.658876,TRUE,FALSE,FALSE,FALSE,FALSE,FALSE,Disabled,0.000000,0.000000,0.000000,TRUE,-0.180176,-0.157089,0.000000,-0.224213,0.009872,0.000000,-0.034000,-0.089000,0.082000,147.880000,0.790000,1.780000,143.708820,Hold,0.586670,0.000000,Hold,-119.000000,2.000000,Suck,-1792.500000,1818.181818,Speed,-1762.500000,1818.181818,Speed,Off,On,0.000000,FALSE,0,,,,,0.000000,0.000000
09:38:26.074 AM 04/09/2016,Teleop Enabled,9,FALSE,0,NO ERROR,0.244094,-21.373867,0.244094,-88.209710,TRUE,FALSE,FALSE,FALSE,FALSE,FALSE,Disabled,0.000000,0.000000,0.000000,TRUE,-0.190857,-0.155746,0.000000,-0.205231,0.075027,0.000000,0.136000,0.000000,0.040000,147.010000,0.590000,1.590000,143.448160,Hold,0.586670,0.000000,Hold,-119.000000,2.000000,Suck,-1792.500000,1818.181818,Speed,-1755.000000,1818.181818,Speed,Off,On,0.000000,FALSE,0,,,,,0.000000,0.000000
09:38:26.174 AM 04/09/2016,Teleop Enabled,11,FALSE,0,NO ERROR,0.204724,-22.291448,0.204724,-87.394796,TRUE,FALSE,FALSE,FALSE,FALSE,FALSE,Disabled,0.000000,0.000000,0.000000,TRUE,-0.200058,-0.149246,0.000000,-0.204895,0.162781,0.000000,0.023000,0.070000,0.095000,143.440000,0.280000,1.190000,140.347820,Hold,0.586670,0.000000,Hold,-119.000000,2.000000,Suck,-1785.000000,1818.181818,Speed,-1755.000000,1818.181818,Speed,Off,On,0.000000,FALSE,0,,,,,0.000000,0.000000
09:38:26.274 AM 04/09/2016,Teleop Enabled,11,FALSE,0,NO ERROR,0.204724,-23.298862,0.204724,-86.464381,TRUE,FALSE,FALSE,FALSE,FALSE,FALSE,Disabled,0.000000,0.000000,0.000000,TRUE,-0.210785,-0.140823,0.000000,-0.208511,0.153900,0.000000,-0.139000,-0.124000,0.072000,139.260000,0.350000,1.300000,136.311723,Hold,0.586670,0.000000,Hold,-119.000000,2.000000,Suck,-1777.500000,1818.181818,Speed,-1755.000000,1818.181818,Speed,Off,On,0.000000,FALSE,0,,,,,0.000000,0.000000
09:38:26.374 AM 04/09/2016,Teleop Enabled,9,FALSE,0,NO ERROR,0.385827,-24.364026,0.385827,-85.456967,TRUE,FALSE,FALSE,FALSE,FALSE,FALSE,Disabled,0.000000,0.000000,0.000000,TRUE,-0.222702,-0.134384,0.000000,-0.260956,0.144440,0.000000,0.022000,0.254000,0.111000,136.270000,0.350000,1.260000,131.807467,Hold,0.586670,0.000000,Hold,-119.000000,2.000000,Suck,-1785.000000,1818.181818,Speed,-1755.000000,1818.181818,Speed,Off,On,0.000000,FALSE,0,,,,,0.000000,0.000000
09:38:26.474 AM 04/09/2016,Teleop Enabled,10,FALSE,0,NO ERROR,0.417323,-26.115772,0.417323,-83.820721,TRUE,FALSE,FALSE,FALSE,FALSE,FALSE,Disabled,0.000000,0.000000,0.000000,TRUE,-0.235413,-0.123611,0.000000,-0.261398,0.235397,0.000000,-0.085000,0.094000,0.035000,128.790000,-0.280000,0.690000,125.500352,Hold,0.586670,0.000000,Hold,-119.000000,2.000000,Suck,-1785.000000,1818.181818,Speed,-1755.000000,1818.181818,Speed,Off,On,0.000000,FALSE,0,,,,,0.000000,0.000000
09:38:26.575 AM 04/09/2016,Teleop Enabled,10,FALSE,0,NO ERROR,0.425197,-28.387267,0.425197,-81.645476,TRUE,FALSE,FALSE,FALSE,FALSE,FALSE,Disabled,0.000000,0.000000,0.000000,TRUE,-0.250336,-0.110870,0.000000,-0.332977,0.265045,0.000000,-0.037000,-0.076000,0.028000,119.710000,-0.360000,0.450000,116.759742,Hold,0.586670,0.000000,Hold,-119.000000,2.000000,Suck,-1777.500000,1818.181818,Speed,-1755.000000,1818.181818,Speed,Off,On,0.000000,FALSE,0,,,,,0.000000,0.000000
09:38:26.675 AM 04/09/2016,Teleop Enabled,9,FALSE,0,NO ERROR,0.425197,-30.870511,0.425197,-79.226398,TRUE,FALSE,FALSE,FALSE,FALSE,FALSE,Disabled,0.000000,0.000000,0.000000,TRUE,-0.272141,-0.096436,0.000000,-0.409012,0.222275,0.000000,-0.138000,0.054000,0.004000,111.600000,-0.470000,0.320000,106.875249,Hold,0.586670,0.000000,Hold,-119.000000,2.000000,Suck,-1770.000000,1818.181818,Speed,-1747.500000,1818.181818,Speed,Off,On,0.000000,FALSE,0,,,,,0.000000,0.000000
09:38:26.775 AM 04/09/2016,Teleop Enabled,9,FALSE,0,NO ERROR,0.377953,-33.610421,0.377953,-76.550654,TRUE,FALSE,FALSE,FALSE,FALSE,FALSE,Disabled,0.000000,0.000000,0.000000,TRUE,-0.295242,-0.086380,0.000000,-0.479019,0.176804,0.000000,-0.024000,-0.036000,-0.025000,96.350000,-0.300000,0.080000,96.290350,Hold,0.586670,0.000000,Hold,-119.000000,2.000000,Suck,-1777.500000,1818.181818,Speed,-1747.500000,1818.181818,Speed,Off,On,0.000000,FALSE,0,,,,,0.000000,0.000000
09:38:26.876 AM 04/09/2016,Teleop Enabled,7,FALSE,0,NO ERROR,-0.000000,-36.087249,-0.000000,-74.131577,TRUE,FALSE,FALSE,FALSE,FALSE,FALSE,Disabled,0.000000,0.000000,0.000000,TRUE,-0.319244,-0.080170,0.000000,-0.474548,0.079651,0.000000,0.057000,-0.193000,0.101000,85.510000,-0.320000,0.140000,85.535602,Hold,0.586670,0.000000,Hold,-119.000000,2.000000,Suck,-1785.000000,1818.181818,Speed,-1755.000000,1818.181818,Speed,Off,On,0.000000,FALSE,0,,,,,0.000000,0.000000
09:38:26.976 AM 04/09/2016,Teleop Enabled,9,FALSE,0,NO ERROR,-0.000000,-37.056163,-0.000000,-73.175496,TRUE,FALSE,FALSE,FALSE,FALSE,FALSE,Disabled,0.000000,0.000000,0.000000,TRUE,-0.337509,-0.082275,0.000000,-0.248306,-0.118271,0.000000,0.096000,-0.052000,0.110000,80.320000,0.530000,0.990000,78.405989,Hold,0.586670,0.000000,Hold,-119.000000,2.000000,Suck,-1785.000000,1818.181818,Speed,-1762.500000,1818.181818,Speed,Off,On,0.000000,FALSE,0,,,,,0.000000,0.000000
09:38:27.077 AM 04/09/2016,Teleop Enabled,11,FALSE,0,NO ERROR,-0.000000,-37.235830,-0.000000,-73.015079,TRUE,FALSE,FALSE,FALSE,FALSE,FALSE,Disabled,0.000000,0.000000,0.000000,TRUE,-0.345886,-0.088577,0.000000,-0.128738,-0.141968,0.000000,-0.033000,-0.099000,0.128000,79.230000,0.810000,1.330000,77.266006,Hold,0.586670,0.000000,Hold,-119.000000,2.000000,Suck,-1785.000000,1818.181818,Speed,-1770.000000,1818.181818,Speed,Off,On,0.000000,FALSE,0,,,,,0.000000,0.000000
