Time,Robot Mode,Loop Time,Error Status,Error Code,Error Source,Left Motor Output,Left Motor Encoder,Right Motor Output,Right Motor Encoder,Is Level,Is Stalled,Ball Detector Photoeye,Vision Enabled,Vision Teleop Control,Vision Auto Control,Vision Current State,Vision X Output,Vision NavX Error,Vision NavX Target,NavX Connection Status,NavX Displacement X,NavX Displacement Y,NavX Displacement Z,NavX Velocity X,NavX Velocity Y,NavX Velocity Z,NavX Acceleration X,NavX Acceleration Y,NavX Acceleration Z,NavX Pitch,NavX Yaw,NavX Roll,Gyro Angle,Roller Arm State,Roller Arm Actual,Roller Arm Desired,Shooter Arm State,Shooter Arm Actual,Shooter Arm Desired,Shooter State,Actual RPM Left,Desired RPM Left,Control Mode Left,Actual RPM Right,Desired RPM Right,Control Mode Right,Ball Shooter Cylinder,Ball Halo Cylinder,Scaler Motor Output,Scaler Solenoid Fire,Auto To Run,Auto Current File,Auto File Status,Auto Current Command,Auto Trimmed Command,Shooter Amps Left,Shooter Amps Right
03:26:41.244 PM 04/09/2016,Teleop Enabled,10,FALSE,0,NO ERROR,-0.000000,0.006417,-0.000000,-0.032083,FALSE,FALSE,TRUE,FALSE,FALSE,FALSE,Disabled,0.300000,0.833747,38.866253,TRUE,13.170013,-5.061050,0.000000,0.000000,0.000000,0.000000,0.101000,0.137000,0.029000,3.100000,-0.070000,-6.410000,-0.272430,ResetBack,1.216064,-0.000049,ResetBack,-23166.000000,-0.250000,LowGoal,0.000000,0.000000,Speed,0.000000,0.000000,Speed,Off,Off,0.000000,FALSE,0,,,,,0.000000,0.000000
03:26:41.345 PM 04/09/2016,Teleop Enabled,13,FALSE,0,NO ERROR,-0.000000,-0.301583,-0.000000,-0.359332,FALSE,FALSE,TRUE,FALSE,FALSE,FALSE,Disabled,0.300000,0.833747,38.866253,TRUE,13.172760,-5.059464,0.000000,0.072617,0.028137,0.000000,0.036000,-0.036000,-0.055000,3.080000,-0.100000,-5.990000,-0.322915,ResetBack,-0.138672,-0.000049,ResetBack,-22090.000000,-0.250000,LowGoal,0.000000,-2181.818182,Speed,0.000000,-2181.818182,Speed,Off,Off,0.000000,FALSE,0,,,,,0.000000,0.000000
03:26:41.445 PM 04/09/2016,Teleop Enabled,10,FALSE,0,NO ERROR,-0.000000,-0.891915,-0.000000,-0.853415,FALSE,FALSE,TRUE,FALSE,FALSE,FALSE,Disabled,0.000000,0.833747,38.866253,TRUE,13.178970,-5.059204,0.000000,0.194260,-0.024017,0.000000,0.117000,-0.014000,0.048000,3.120000,-0.220000,-5.590000,-0.386992,ResetBack,-0.137695,-0.000049,ResetBack,-19181.000000,-0.250000,LowGoal,37.500000,-2181.818182,Speed,15.000000,-2181.818182,Speed,Off,Off,0.000000,FALSE,0,,,,,0.000000,0.000000
03:26:41.545 PM 04/09/2016,Teleop Enabled,11,FALSE,0,NO ERROR,-0.000000,-1.353914,-0.000000,-1.328247,FALSE,FALSE,TRUE,FALSE,FALSE,FALSE,Disabled,0.000000,0.833747,38.866253,TRUE,13.189041,-5.061325,0.000000,0.189011,0.000000,0.000000,0.089000,0.005000,0.057000,3.150000,-0.190000,-5.840000,-0.357190,Reset,-0.137695,0.000000,ResetBack,-15780.000000,-0.250000,LowGoal,487.500000,-2181.818182,Speed,285.000000,-2181.818182,Speed,Off,Off,0.000000,FALSE,0,,,,,0.000000,0.000000
03:26:41.646 PM 04/09/2016,Teleop Enabled,11,FALSE,0,NO ERROR,-0.000000,-2.046912,-0.000000,-2.001995,FALSE,FALSE,TRUE,FALSE,FALSE,FALSE,Disabled,0.000000,0.833747,38.866253,TRUE,13.199600,-5.061447,0.000000,0.217941,-0.010895,0.000000,-0.030000,-0.001000,0.029000,3.150000,-0.250000,-5.700000,-0.409706,Hold,1.126221,0.000000,ResetBack,-12665.000000,-0.250000,LowGoal,915.000000,-2181.818182,Speed,772.500000,-2181.818182,Speed,Off,Off,0.000000,FALSE,0,,,,,0.000000,0.000000
03:26:41.746 PM 04/09/2016,Teleop Enabled,10,FALSE,0,NO ERROR,-0.000000,-2.829743,-0.000000,-2.765577,FALSE,FALSE,TRUE,FALSE,FALSE,FALSE,Disabled,0.000000,0.833747,38.866253,TRUE,13.210678,-5.062119,0.000000,0.221527,-0.020111,0.000000,-0.050000,0.030000,0.059000,3.200000,-0.340000,-5.630000,-0.507061,Hold,1.138916,0.000000,ResetBack,-10329.000000,-0.250000,LowGoal,1372.500000,-2181.818182,Speed,1162.500000,-2181.818182,Speed,Off,Off,0.000000,FALSE,0,,,,,0.000000,0.000000
03:26:41.846 PM 04/09/2016,Teleop Enabled,10,FALSE,0,NO ERROR,-0.000000,-3.651075,-0.000000,-3.574075,FALSE,FALSE,TRUE,FALSE,FALSE,FALSE,Disabled,0.000000,0.833747,38.866253,TRUE,13.222565,-5.063171,0.000000,0.186569,-0.029037,0.000000,0.009000,0.022000,-0.024000,3.180000,-0.370000,-5.680000,-0.521121,Hold,1.128418,0.000000,ResetBack,-10329.000000,-0.250000,LowGoal,1755.000000,-2181.818182,Speed,1492.500000,-2181.818182,Speed,Off,Off,0.000000,FALSE,0,,,,,0.000000,0.000000
03:26:41.946 PM 04/09/2016,Teleop Enabled,10,FALSE,0,NO ERROR,-0.000000,-4.510906,-0.000000,-4.401823,FALSE,FALSE,TRUE,FALSE,FALSE,FALSE,Disabled,0.000000,0.833747,38.866253,TRUE,13.223648,-5.063568,0.000000,-0.045120,0.025238,0.000000,0.005000,0.108000,-0.031000,3.250000,-0.420000,-5.650000,-0.577995,Hold,1.127197,0.000000,ResetBack,-7601.000000,-0.250000,LowGoal,2040.000000,-2181.818182,Speed,1792.500000,-2181.818182,Speed,Off,Off,0.000000,FALSE,0,,,,,0.000000,0.000000
03:26:42.046 PM 04/09/2016,Teleop Enabled,11,FALSE,0,NO ERROR,-0.000000,-5.357904,-0.000000,-5.223154,FALSE,FALSE,TRUE,FALSE,FALSE,FALSE,Disabled,0.000000,0.833747,38.866253,TRUE,13.222229,-5.057892,0.000000,-0.074203,0.173782,0.000000,-0.061000,0.233000,-0.095000,3.290000,-0.470000,-5.680000,-0.613557,Hold,1.122559,0.000000,ResetBack,-4292.000000,-0.250000,LowGoal,2130.000000,-2181.818182,Speed,2025.000000,-2181.818182,Speed,Off,Off,0.000000,FALSE,0,,,,,0.000000,0.000000
03:26:42.146 PM 04/09/2016,Teleop Enabled,10,FALSE,0,NO ERROR,-0.000000,-6.236985,-0.000000,-6.115069,FALSE,FALSE,TRUE,FALSE,FALSE,FALSE,Disabled,0.000000,0.833747,38.866253,TRUE,13.217346,-5.042709,0.000000,-0.117981,0.388580,0.000000,-0.130000,0.029000,-0.085000,3.280000,-0.450000,-5.680000,-0.599002,Hold,1.066406,0.000000,ResetBack,-2294.000000,-0.250000,LowGoal,2107.500000,-2181.818182,Speed,2085.000000,-2181.818182,Speed,Off,Off,0.000000,FALSE,0,,,,,0.000000,0.000000
03:26:42.246 PM 04/09/2016,Teleop Enabled,11,FALSE,0,NO ERROR,-0.000000,-7.154567,-0.000000,-7.026234,FALSE,FALSE,TRUE,FALSE,FALSE,FALSE,Disabled,0.000000,0.833747,38.866253,TRUE,13.209946,-5.021667,0.000000,-0.138168,0.425705,0.000000,-0.130000,0.029000,-0.085000,3.350000,-0.450000,-5.750000,-0.603202,Hold,1.007324,0.000000,ResetBack,-842.000000,-0.250000,LowGoal,2085.000000,-2181.818182,Speed,2062.500000,-2181.818182,Speed,Off,Off,0.000000,FALSE,0,,,,,0.000000,0.000000
03:26:42.346 PM 04/09/2016,Teleop Enabled,9,FALSE,0,NO ERROR,-0.000000,-8.033648,-0.000000,-7.886065,FALSE,FALSE,TRUE,FALSE,FALSE,FALSE,Disabled,0.000000,0.833747,38.866253,TRUE,13.202576,-5.001663,0.000000,-0.079391,0.272186,0.000000,-0.069000,-0.116000,0.131000,3.350000,-0.450000,-5.750000,-0.652182,Hold,1.006104,0.000000,ResetBack,-659.000000,-0.250000,LowGoal,2077.500000,-2181.818182,Speed,2040.000000,-2181.818182,Speed,Off,Off,0.000000,FALSE,0,,,,,0.000000,0.000000
03:26:42.445 PM 04/09/2016,Teleop Enabled,10,FALSE,0,NO ERROR,-0.000000,-8.822896,-0.000000,-8.707396,FALSE,FALSE,TRUE,FALSE,FALSE,FALSE,Disabled,0.000000,0.833747,38.866253,TRUE,13.195908,-4.986130,0.000000,-0.192459,0.365524,0.000000,-0.054000,-0.057000,0.139000,3.350000,-0.500000,-5.860000,-0.639734,Hold,1.005615,0.000000,Reset,-659.000000,2.000000,LowGoal,2077.500000,-2181.818182,Speed,2040.000000,-2181.818182,Speed,Off,Off,0.000000,FALSE,0,,,,,0.000000,0.000000
03:26:42.546 PM 04/09/2016,Teleop Enabled,9,FALSE,0,NO ERROR,-0.000000,-9.246395,-0.000000,-9.143729,FALSE,FALSE,TRUE,FALSE,FALSE,FALSE,Disabled,0.000000,0.833747,38.866253,TRUE,13.195908,-4.986130,0.000000,-0.192459,0.365524,0.000000,-0.207000,0.101000,-0.141000,3.330000,-0.460000,-5.060000,-0.622473,Hold,1.003662,0.000000,Hold,45.000000,2.000000,LowGoal,2085.000000,-2181.818182,Speed,2047.500000,-2181.818182,Speed,Off,Off,0.000000,FALSE,0,,,,,0.000000,0.000000
03:26:42.646 PM 04/09/2016,Teleop Enabled,11,FALSE,0,NO ERROR,-0.000000,-9.554394,-0.000000,-9.470978,FALSE,FALSE,TRUE,FALSE,FALSE,FALSE,Disabled,0.000000,0.833747,38.866253,TRUE,13.182358,-4.964462,0.000000,-0.268661,0.462875,0.000000,-0.041000,0.067000,0.007000,3.270000,-0.460000,-5.260000,-0.634704,Hold,1.003174,0.000000,Hold,25.000000,2.000000,LowGoal,2107.500000,-2181.818182,Speed,2062.500000,-2181.818182,Speed,Off,Off,0.000000,FALSE,0,,,,,0.000000,0.000000
03:26:42.747 PM 04/09/2016,Teleop Enabled,9,FALSE,0,NO ERROR,-0.000000,-9.708394,-0.000000,-9.618561,FALSE,FALSE,TRUE,FALSE,FALSE,FALSE,Disabled,0.000000,0.833747,38.866253,TRUE,13.163712,-4.935944,0.000000,-0.320572,0.442902,0.000000,0.093000,-0.162000,0.108000,3.300000,-0.460000,-5.070000,-0.647910,Hold,1.000732,0.000000,Hold,22.000000,2.000000,LowGoal,2115.000000,-2181.818182,Speed,2062.500000,-2181.818182,Speed,Off,Off,0.000000,FALSE,0,,,,,0.000000,0.000000
03:26:42.848 PM 04/09/2016,Teleop Enabled,10,FALSE,0,NO ERROR,0.212598,-9.734061,-0.212598,-9.657061,FALSE,FALSE,TRUE,FALSE,FALSE,FALSE,Disabled,0.000000,0.833747,38.866253,TRUE,13.147919,-4.915131,0.000000,-0.316391,0.419968,0.000000,0.062000,0.054000,0.188000,3.240000,-0.470000,-5.110000,-0.657412,Hold,0.999756,0.000000,Hold,19.000000,2.000000,LowGoal,2107.500000,-2181.818182,Speed,2062.500000,-2181.818182,Speed,Off,Off,0.000000,FALSE,0,,,,,0.000000,0.000000
03:26:42.948 PM 04/09/2016,Teleop Enabled,11,FALSE,0,NO ERROR,0.401575,-9.310562,-0.401575,-9.657061,FALSE,FALSE,TRUE,FALSE,FALSE,FALSE,Disabled,0.000000,0.833747,38.866253,TRUE,13.134796,-4.897522,0.000000,-0.362274,0.452805,0.000000,-0.138000,-0.006000,0.012000,3.220000,-0.440000,-5.210000,-0.657412,Hold,0.999268,0.000000,Hold,16.000000,2.000000,LowGoal,2100.000000,-2181.818182,Speed,2055.000000,-2181.818182,Speed,Off,Off,0.000000,FALSE,0,,,,,0.000000,0.000000
03:26:43.049 PM 04/09/2016,Teleop Enabled,10,FALSE,0,NO ERROR,0.370079,-9.310562,-0.370079,-9.156562,FALSE,FALSE,TRUE,FALSE,FALSE,FALSE,Disabled,0.000000,0.833747,38.866253,TRUE,13.114456,-4.876678,0.000000,-0.438110,0.359253,0.000000,-0.218000,-0.068000,0.083000,3.240000,-0.430000,-6.350000,-0.680873,Hold,0.999268,0.000000,Hold,16.000000,2.000000,LowGoal,2085.000000,-2181.818182,Speed,2032.500000,-2181.818182,Speed,Off,Off,0.000000,FALSE,0,,,,,0.000000,0.000000
03:26:43.149 PM 04/09/2016,Teleop Enabled,9,FALSE,0,NO ERROR,0.370079,-8.149148,-0.370079,-8.027231,FALSE,FALSE,TRUE,FALSE,FALSE,FALSE,Disabled,0.000000,0.833747,38.866253,TRUE,13.086655,-4.861893,0.000000,-0.636688,0.262085,0.000000,-0.082000,0.082000,0.090000,3.280000,-0.220000,-7.980000,-0.573892,Hold,0.998779,0.000000,Hold,14.000000,2.000000,LowGoal,2055.000000,-2181.818182,Speed,2002.500000,-2181.818182,Speed,Off,Off,0.000000,FALSE,0,,,,,0.000000,0.000000
03:26:43.249 PM 04/09/2016,Teleop Enabled,10,FALSE,0,NO ERROR,0.283465,-6.666901,-0.283465,-6.519318,FALSE,FALSE,TRUE,FALSE,FALSE,FALSE,Disabled,0.000000,0.833747,38.866253,TRUE,13.046860,-4.842667,0.000000,-0.639984,0.358780,0.000000,-0.039000,-0.055000,-0.232000,3.370000,-0.320000,-8.140000,-0.582446,Hold,0.998779,0.000000,Hold,12.000000,2.000000,LowGoal,2040.000000,-2181.818182,Speed,2002.500000,-2181.818182,Speed,Off,Off,0.000000,FALSE,0,,,,,0.000000,0.000000
03:26:43.349 PM 04/09/2016,Teleop Enabled,10,FALSE,0,NO ERROR,-0.000000,-4.960072,-0.000000,-4.838155,FALSE,FALSE,TRUE,FALSE,FALSE,FALSE,Disabled,0.000000,0.833747,38.866253,TRUE,13.014114,-4.826706,0.000000,-0.622726,0.299591,0.000000,-0.062000,0.063000,-0.050000,3.390000,-0.240000,-8.200000,-0.533524,Hold,0.998047,0.000000,Hold,9.000000,2.000000,LowGoal,2040.000000,-2181.818182,Speed,2010.000000,-2181.818182,Speed,Off,Off,0.000000,FALSE,0,,,,,0.000000,0.000000
03:26:43.449 PM 04/09/2016,Teleop Enabled,10,FALSE,0,NO ERROR,-0.000000,-3.907741,-0.000000,-3.785824,FALSE,FALSE,TRUE,FALSE,FALSE,FALSE,Disabled,0.000000,0.833747,38.866253,TRUE,12.979645,-4.806274,0.000000,-0.482361,0.398926,0.000000,0.051000,0.101000,0.080000,3.150000,-0.280000,-6.640000,-0.471899,Hold,0.996826,0.000000,Hold,8.000000,2.000000,LowGoal,2077.500000,-2181.818182,Speed,2032.500000,-2181.818182,Speed,Off,Off,0.000000,FALSE,0,,,,,0.000000,0.000000
03:26:43.549 PM 04/09/2016,Teleop Enabled,10,FALSE,0,NO ERROR,0.220472,-3.208326,-0.220472,-2.990160,FALSE,FALSE,TRUE,FALSE,FALSE,FALSE,Disabled,0.000000,0.833747,38.866253,TRUE,12.961060,-4.786026,0.000000,-0.314774,0.371155,0.000000,0.109000,-0.163000,-0.018000,3.050000,-0.510000,-6.240000,-0.639445,Hold,0.996094,0.000000,Hold,6.000000,2.000000,LowGoal,2107.500000,-2181.818182,Speed,2062.500000,-2181.818182,Speed,Off,Off,0.000000,FALSE,0,,,,,0.000000,0.000000
03:26:43.650 PM 04/09/2016,Teleop Enabled,10,FALSE,0,NO ERROR,0.236220,-3.112076,-0.236220,-2.887493,FALSE,FALSE,TRUE,FALSE,FALSE,FALSE,Disabled,0.000000,0.833747,38.866253,TRUE,12.951996,-4.771561,0.000000,-0.096146,0.256622,0.000000,-0.444000,-0.099000,0.266000,3.230000,-0.430000,-5.570000,-0.635062,Hold,0.995850,0.000000,Hold,4.000000,2.000000,LowGoal,2122.500000,-2181.818182,Speed,2062.500000,-2181.818182,Speed,Off,Off,0.000000,FALSE,0,,,,,0.000000,0.000000
03:26:43.751 PM 04/09/2016,Teleop Enabled,10,FALSE,0,NO ERROR,0.236220,-2.771994,-0.236220,-2.630827,FALSE,FALSE,TRUE,FALSE,FALSE,FALSE,Disabled,0.000000,0.833747,38.866253,TRUE,12.945175,-4.761581,0.000000,-0.190430,0.252762,0.000000,-0.048000,-0.005000,-0.130000,3.170000,-0.380000,-6.550000,-0.557075,Hold,0.995605,0.000000,Hold,4.000000,2.000000,LowGoal,2107.500000,-2181.818182,Speed,2055.000000,-2181.818182,Speed,Off,Off,0.000000,FALSE,0,,,,,0.000000,0.000000
03:26:43.853 PM 04/09/2016,Teleop Enabled,10,FALSE,0,NO ERROR,0.236220,-2.624411,-0.236220,-2.457578,FALSE,FALSE,TRUE,FALSE,FALSE,FALSE,Disabled,0.000000,0.833747,38.866253,TRUE,12.933868,-4.746735,0.000000,-0.245316,0.335617,0.000000,0.197000,-0.125000,-0.006000,3.320000,-0.410000,-6.520000,-0.613388,Hold,0.995361,0.000000,Hold,2.000000,2.000000,LowGoal,2092.500000,-2181.818182,Speed,2032.500000,-2181.818182,Speed,Off,Off,0.000000,FALSE,0,,,,,0.000000,0.000000
03:26:43.954 PM 04/09/2016,Teleop Enabled,10,FALSE,0,NO ERROR,0.236220,-2.258661,-0.236220,-2.130328,FALSE,FALSE,TRUE,FALSE,FALSE,FALSE,Disabled,0.000000,0.833747,38.866253,TRUE,12.922806,-4.733597,0.000000,-0.242325,0.219772,0.000000,-0.026000,-0.094000,0.050000,3.300000,-0.350000,-6.610000,-0.544048,Hold,0.995361,50.000000,Hold,1.000000,143360.000000,LowGoal,2085.000000,-2181.818182,Speed,2032.500000,-2181.818182,Speed,Off,Off,0.000000,FALSE,0,,,,,0.000000,0.000000
03:26:44.054 PM 04/09/2016,Teleop Enabled,5,FALSE,0,NO ERROR,0.236220,-1.873662,-0.236220,-1.732496,FALSE,FALSE,TRUE,FALSE,FALSE,FALSE,Disabled,0.000000,0.833747,38.866253,TRUE,12.909729,-4.723465,0.000000,-0.267441,0.226715,0.000000,-0.077000,0.240000,0.052000,3.190000,-0.370000,-6.550000,-0.575613,Hold,3.470215,50.000000,Hold,-2574.000000,143360.000000,LowGoal,2085.000000,-2181.818182,Speed,2032.500000,-2181.818182,Speed,Off,Off,0.000000,FALSE,0,,,,,0.000000,0.000000
03:26:44.155 PM 04/09/2016,Teleop Enabled,11,FALSE,0,NO ERROR,0.236220,-1.392413,-0.236220,-1.289747,FALSE,FALSE,TRUE,FALSE,FALSE,FALSE,Disabled,0.000000,0.833747,38.866253,TRUE,12.894577,-4.709122,0.000000,-0.308594,0.265900,0.000000,0.106000,-0.111000,0.155000,3.240000,-0.290000,-6.610000,-0.510463,Hold,6.625244,50.000000,Hold,-14387.000000,143360.000000,LowGoal,2077.500000,-2181.818182,Speed,2032.500000,-2181.818182,Speed,Off,Off,0.000000,FALSE,0,,,,,0.000000,0.000000
03:26:44.255 PM 04/09/2016,Teleop Enabled,4,FALSE,0,NO ERROR,0.212598,-0.846998,-0.212598,-0.750748,FALSE,FALSE,TRUE,FALSE,FALSE,FALSE,Disabled,0.000000,0.833747,38.866253,TRUE,12.876221,-4.695419,0.000000,-0.307175,0.250778,0.000000,0.098000,0.022000,-0.004000,3.150000,-0.270000,-6.710000,-0.492110,Hold,10.872803,50.000000,Hold,-25987.000000,143360.000000,LowGoal,2077.500000,-2181.818182,Speed,2032.500000,-2181.818182,Speed,Off,Off,0.000000,FALSE,0,,,,,0.000000,0.000000
03:26:44.355 PM 04/09/2016,Teleop Enabled,10,FALSE,0,NO ERROR,0.212598,-0.224583,-0.212598,-0.121916,FALSE,FALSE,TRUE,FALSE,FALSE,FALSE,Disabled,0.000000,0.833747,38.866253,TRUE,12.863510,-4.682159,0.000000,-0.328400,0.388138,0.000000,-0.069000,0.040000,-0.154000,3.090000,-0.260000,-6.750000,-0.486258,Hold,15.791504,50.000000,Hold,-37555.000000,143360.000000,LowGoal,2077.500000,-2181.818182,Speed,2032.500000,-2181.818182,Speed,Off,Off,0.000000,FALSE,0,,,,,0.000000,0.000000
03:26:44.458 PM 04/09/2016,Teleop Enabled,10,FALSE,0,NO ERROR,0.212598,0.410666,-0.212598,0.506915,FALSE,FALSE,TRUE,FALSE,FALSE,FALSE,Disabled,0.000000,0.833747,38.866253,TRUE,12.841354,-4.658203,0.000000,-0.367615,0.386963,0.000000,0.051000,-0.025000,0.121000,3.120000,-0.210000,-6.690000,-0.426017,Hold,21.760986,50.000000,Hold,-37555.000000,143360.000000,LowGoal,2085.000000,-2181.818182,Speed,2032.500000,-2181.818182,Speed,Off,Off,0.000000,FALSE,0,,,,,0.000000,0.000000
03:26:44.558 PM 04/09/2016,Teleop Enabled,6,FALSE,0,NO ERROR,0.212598,1.033081,-0.212598,1.110081,FALSE,FALSE,TRUE,FALSE,FALSE,FALSE,Disabled,0.000000,0.833747,38.866253,TRUE,12.817978,-4.655487,0.000000,-0.390457,-0.046906,0.000000,0.022000,0.007000,0.111000,3.080000,-0.200000,-6.930000,-0.391763,Hold,28.494141,50.000000,Hold,-50173.000000,143360.000000,LowGoal,2085.000000,-2181.818182,Speed,2040.000000,-2181.818182,Speed,Off,Off,0.000000,FALSE,0,,,,,0.000000,0.000000
03:26:44.658 PM 04/09/2016,Teleop Enabled,10,FALSE,0,NO ERROR,0.212598,1.405247,-0.212598,1.456580,FALSE,FALSE,TRUE,FALSE,FALSE,FALSE,Disabled,0.000000,0.833747,38.866253,TRUE,12.799316,-4.658508,0.000000,-0.376740,-0.077362,0.000000,-0.126000,-0.035000,0.209000,3.110000,-0.170000,-6.560000,-0.356577,Hold,36.758789,50.000000,Hold,-65384.000000,143360.000000,LowGoal,2100.000000,-2181.818182,Speed,2040.000000,-2181.818182,Speed,Off,Off,0.000000,FALSE,0,,,,,0.000000,0.000000
03:26:44.758 PM 04/09/2016,Teleop Enabled,10,FALSE,0,NO ERROR,0.228346,1.783829,-0.228346,1.841579,FALSE,FALSE,TRUE,FALSE,FALSE,FALSE,Disabled,0.000000,0.833747,38.866253,TRUE,12.785706,-4.663834,0.000000,-0.283951,-0.180222,0.000000,0.028000,-0.124000,-0.089000,3.140000,-0.180000,-6.750000,-0.371359,Hold,46.291260,50.000000,Hold,-80432.000000,143360.000000,LowGoal,2107.500000,-2181.818182,Speed,2047.500000,-2181.818182,Speed,Off,Off,0.000000,FALSE,0,,,,,0.000000,0.000000
03:26:44.860 PM 04/09/2016,Teleop Enabled,10,FALSE,0,NO ERROR,0.228346,2.072578,-0.228346,2.123912,FALSE,FALSE,TRUE,FALSE,FALSE,FALSE,Disabled,0.000000,0.833747,38.866253,TRUE,12.772812,-4.675201,0.000000,-0.244019,-0.224899,0.000000,0.074000,0.089000,-0.024000,3.180000,-0.190000,-6.990000,-0.374798,Hold,52.666504,50.000000,Hold,-97544.000000,143360.000000,LowGoal,1995.000000,-2181.818182,Speed,2047.500000,-2181.818182,Speed,Off,Off,0.000000,FALSE,0,,,,,0.000000,0.000000
03:26:44.960 PM 04/09/2016,Teleop Enabled,10,FALSE,0,NO ERROR,0.236220,2.290745,-0.236220,2.290745,FALSE,FALSE,TRUE,FALSE,FALSE,FALSE,Disabled,0.000000,0.833747,38.866253,TRUE,12.763351,-4.685059,0.000000,0.003189,-0.109619,0.000000,0.039000,0.213000,-0.044000,3.130000,-0.090000,-6.990000,-0.300074,Hold,55.522461,50.000000,Hold,-114466.000000,143360.000000,LowGoal,1935.000000,-2181.818182,Speed,2040.000000,-2181.818182,Speed,Off,Off,0.000000,FALSE,0,,,,,0.000000,0.000000
03:26:45.060 PM 04/09/2016,Teleop Enabled,11,FALSE,0,NO ERROR,0.283465,2.476828,-0.283465,2.483244,FALSE,FALSE,TRUE,FALSE,FALSE,FALSE,Disabled,0.000000,0.833747,38.866253,TRUE,12.761703,-4.687943,0.000000,-0.064789,-0.012756,0.000000,-0.211000,0.094000,0.140000,3.120000,-0.090000,-6.800000,-0.271415,Hold,55.320068,50.000000,Hold,-131760.000000,143360.000000,LowGoal,2070.000000,-2181.818182,Speed,2017.500000,-2181.818182,Speed,Off,Off,0.000000,FALSE,0,,,,,0.000000,0.000000
03:26:45.160 PM 04/09/2016,Teleop Enabled,8,FALSE,0,NO ERROR,0.291339,2.816910,-0.291339,2.791243,FALSE,FALSE,TRUE,FALSE,FALSE,FALSE,Disabled,0.000000,0.833747,38.866253,TRUE,12.756317,-4.686798,0.000000,-0.157471,0.062759,0.000000,-0.181000,0.091000,0.061000,3.120000,-0.060000,-7.080000,-0.271009,Hold,55.276855,50.000000,Hold,-131760.000000,143360.000000,LowGoal,2115.000000,-2181.818182,Speed,2017.500000,-2181.818182,Speed,Off,Off,0.000000,FALSE,0,,,,,0.000000,0.000000
03:26:45.260 PM 04/09/2016,Teleop Enabled,9,FALSE,0,NO ERROR,0.322835,3.208326,-0.322835,3.163409,FALSE,FALSE,TRUE,FALSE,FALSE,FALSE,Disabled,0.000000,0.833747,38.866253,TRUE,12.738693,-4.675003,0.000000,-0.378647,0.257339,0.000000,-0.263000,-0.124000,-0.179000,3.160000,-0.030000,-7.060000,-0.232245,Hold,55.111572,50.000000,Hold,-144235.000000,143360.000000,LowGoal,2070.000000,-2181.818182,Speed,2010.000000,-2181.818182,Speed,Off,Off,0.000000,FALSE,0,,,,,0.000000,0.000000
03:26:45.362 PM 04/09/2016,Teleop Enabled,11,FALSE,0,NO ERROR,0.338583,3.843574,-0.338583,3.753741,FALSE,FALSE,TRUE,FALSE,FALSE,FALSE,Disabled,0.000000,0.833747,38.866253,TRUE,12.717819,-4.663834,0.000000,-0.447571,0.210846,0.000000,0.000000,0.045000,-0.006000,3.150000,0.060000,-7.340000,-0.155821,Hold,55.059082,50.000000,Hold,-143350.000000,143360.000000,LowGoal,2047.500000,-2181.818182,Speed,2002.500000,-2181.818182,Speed,Off,Off,0.000000,FALSE,0,,,,,0.000000,0.000000
03:26:45.462 PM 04/09/2016,Teleop Enabled,10,FALSE,0,NO ERROR,0.354331,4.632822,-0.354331,4.568656,FALSE,FALSE,TRUE,FALSE,FALSE,FALSE,Disabled,0.000000,0.833747,38.866253,TRUE,12.694473,-4.652191,0.000000,-0.502380,0.243484,0.000000,-0.085000,-0.005000,0.004000,3.150000,0.050000,-7.650000,-0.187213,Hold,55.055664,50.000000,Hold,-143350.000000,143360.000000,LowGoal,2062.500000,-2181.818182,Speed,2002.500000,-2181.818182,Speed,Off,Off,0.000000,FALSE,0,,,,,0.000000,0.000000
03:26:45.562 PM 04/09/2016,Teleop Enabled,10,FALSE,0,NO ERROR,0.354331,5.685153,-0.354331,5.633820,FALSE,FALSE,TRUE,FALSE,FALSE,FALSE,Disabled,0.000000,0.833747,38.866253,TRUE,12.660828,-4.636856,0.000000,-0.578598,0.282166,0.000000,-0.071000,0.026000,0.049000,3.130000,0.040000,-7.820000,-0.208850,Hold,55.055664,50.000000,Hold,-143350.000000,143360.000000,LowGoal,2070.000000,-2181.818182,Speed,2002.500000,-2181.818182,Speed,Off,Off,0.000000,FALSE,0,,,,,0.000000,0.000000
03:26:45.663 PM 04/09/2016,Teleop Enabled,10,FALSE,0,NO ERROR,0.354331,6.923567,-0.354331,6.923567,FALSE,FALSE,TRUE,FALSE,FALSE,FALSE,Disabled,0.000000,0.833747,38.866253,TRUE,12.631226,-4.624191,0.000000,-0.565521,0.222534,0.000000,-0.036000,-0.042000,0.022000,3.100000,-0.010000,-8.010000,-0.234087,Hold,55.017090,50.000000,Hold,-143351.000000,143360.000000,LowGoal,2070.000000,-2181.818182,Speed,2010.000000,-2181.818182,Speed,Off,Off,0.000000,FALSE,0,,,,,0.000000,0.000000
03:26:45.764 PM 04/09/2016,Teleop Enabled,11,FALSE,0,NO ERROR,0.354331,7.417649,-0.354331,7.507482,FALSE,FALSE,TRUE,FALSE,FALSE,FALSE,Disabled,0.000000,0.833747,38.866253,TRUE,12.616226,-4.614716,0.000000,-0.181686,0.259979,0.000000,0.030000,-0.049000,-0.235000,2.950000,-0.450000,-6.460000,-0.546158,Hold,55.018311,50.000000,Hold,-143351.000000,143360.000000,LowGoal,2055.000000,-2181.818182,Speed,2010.000000,-2181.818182,Speed,Off,Off,0.000000,FALSE,0,,,,,0.000000,0.000000
03:26:45.864 PM 04/09/2016,Teleop Enabled,11,FALSE,0,NO ERROR,0.354331,7.289316,-0.354331,7.270066,FALSE,FALSE,TRUE,FALSE,FALSE,FALSE,Disabled,0.000000,0.833747,38.866253,TRUE,12.606979,-4.601608,0.000000,-0.279846,0.280197,0.000000,-0.093000,0.077000,-0.098000,3.160000,-0.200000,-7.040000,-0.328430,Hold,55.006104,50.000000,Hold,-143351.000000,143360.000000,LowGoal,2032.500000,-2181.818182,Speed,1995.000000,-2181.818182,Speed,Off,Off,0.000000,FALSE,0,,,,,0.000000,0.000000
03:26:45.965 PM 04/09/2016,Teleop Enabled,11,FALSE,0,NO ERROR,0.354331,7.289316,-0.354331,7.302150,FALSE,FALSE,TRUE,FALSE,FALSE,FALSE,Disabled,0.000000,0.833747,38.866253,TRUE,12.589523,-4.583649,0.000000,-0.268539,0.284622,0.000000,0.099000,-0.063000,0.006000,3.120000,-0.240000,-6.910000,-0.401209,Hold,55.006104,50.000000,Hold,-143351.000000,143360.000000,LowGoal,2025.000000,-2181.818182,Speed,1980.000000,-2181.818182,Speed,Off,Off,0.000000,FALSE,0,,,,,0.000000,0.000000
03:26:46.067 PM 04/09/2016,Teleop Enabled,9,FALSE,0,NO ERROR,0.354331,7.289316,-0.354331,7.302150,FALSE,FALSE,TRUE,FALSE,FALSE,FALSE,Disabled,0.000000,0.833747,38.866253,TRUE,12.579056,-4.570557,0.000000,0.000000,0.265350,0.000000,0.066000,-0.003000,0.039000,3.120000,-0.230000,-7.030000,-0.410952,Hold,55.006104,50.000000,Hold,-143351.000000,143360.000000,LowGoal,2032.500000,-2181.818182,Speed,1980.000000,-2181.818182,Speed,Off,Off,0.000000,FALSE,0,,,,,0.000000,0.000000
03:26:46.167 PM 04/09/2016,Teleop Enabled,10,FALSE,0,NO ERROR,-0.000000,7.263650,-0.000000,7.257233,FALSE,FALSE,TRUE,FALSE,FALSE,FALSE,Disabled,0.000000,0.833747,38.866253,TRUE,12.580276,-4.564575,0.000000,0.036407,0.019241,0.000000,0.221000,-0.055000,-0.132000,3.080000,-0.240000,-7.040000,-0.417527,Hold,55.006104,50.000000,Hold,-143351.000000,143360.000000,LowGoal,2047.500000,-2181.818182,Speed,1972.500000,-2181.818182,Speed,Off,Off,0.000000,FALSE,0,,,,,0.000000,0.000000
03:26:46.270 PM 04/09/2016,Teleop Enabled,10,FALSE,0,NO ERROR,-0.000000,6.795234,-0.000000,6.795234,FALSE,FALSE,TRUE,FALSE,FALSE,FALSE,Disabled,0.000000,0.833747,38.866253,TRUE,12.585617,-4.563828,0.000000,0.118439,-0.002625,0.000000,0.044000,-0.058000,0.047000,3.090000,-0.210000,-6.080000,-0.408243,Hold,55.004395,50.000000,Hold,-143351.000000,143360.000000,LowGoal,2070.000000,-2181.818182,Speed,2017.500000,-2181.818182,Speed,Off,Off,0.000000,FALSE,0,,,,,0.000000,0.000000
03:26:46.370 PM 04/09/2016,Teleop Enabled,11,FALSE,0,NO ERROR,-0.000000,6.333235,-0.000000,6.249819,FALSE,FALSE,TRUE,FALSE,FALSE,FALSE,Disabled,0.000000,0.833747,38.866253,TRUE,12.593170,-4.565552,0.000000,0.161606,-0.057541,0.000000,-0.068000,-0.048000,0.020000,3.090000,-0.210000,-6.080000,-0.236745,Hold,55.004395,50.000000,Hold,-143351.000000,143360.000000,LowGoal,2100.000000,-2181.818182,Speed,2062.500000,-2181.818182,Speed,Off,Off,0.000000,FALSE,0,,,,,0.000000,0.000000
03:26:46.470 PM 04/09/2016,Teleop Enabled,9,FALSE,0,NO ERROR,-0.000000,5.768570,-0.000000,5.691570,FALSE,FALSE,TRUE,FALSE,FALSE,FALSE,Disabled,0.000000,0.833747,38.866253,TRUE,12.599960,-4.568924,0.000000,0.147614,-0.045349,0.000000,-0.001000,0.000000,0.070000,3.090000,-0.150000,-6.150000,-0.288239,Hold,55.001465,50.000000,Hold,-143351.000000,143360.000000,LowGoal,2107.500000,-2181.818182,Speed,2070.000000,-2181.818182,Speed,Off,Off,0.000000,FALSE,0,,,,,0.000000,0.000000
03:26:46.570 PM 04/09/2016,Teleop Enabled,10,FALSE,0,NO ERROR,-0.000000,5.242404,-0.000000,5.120488,FALSE,FALSE,TRUE,FALSE,FALSE,FALSE,Disabled,0.000000,0.833747,38.866253,TRUE,12.600723,-4.570129,0.000000,-0.032608,-0.005188,0.000000,-0.001000,0.000000,0.070000,3.090000,-0.150000,-6.150000,-0.211270,Hold,55.001221,50.000000,Hold,-143351.000000,143360.000000,LowGoal,2107.500000,-2181.818182,Speed,2062.500000,-2181.818182,Speed,Off,Off,0.000000,FALSE,0,,,,,0.000000,0.000000
03:26:46.673 PM 04/09/2016,Teleop Enabled,9,FALSE,0,NO ERROR,-0.000000,4.652072,-0.000000,4.536573,FALSE,FALSE,TRUE,FALSE,FALSE,FALSE,Disabled,0.000000,0.833747,38.866253,TRUE,12.597321,-4.571167,0.000000,-0.090210,-0.020432,0.000000,0.187000,-0.077000,0.115000,3.050000,-0.060000,-6.170000,-0.170823,Hold,55.001221,50.000000,Hold,-143351.000000,143360.000000,LowGoal,2107.500000,-2181.818182,Speed,2062.500000,-2181.818182,Speed,Off,Off,0.000000,FALSE,0,,,,,0.000000,0.000000
03:26:46.770 PM 04/09/2016,Teleop Enabled,11,FALSE,0,NO ERROR,-0.000000,4.048907,-0.000000,3.914158,FALSE,FALSE,TRUE,FALSE,FALSE,FALSE,Disabled,0.000000,0.833747,38.866253,TRUE,12.594742,-4.571899,0.000000,-0.050003,0.009613,0.000000,-0.018000,0.031000,0.136000,3.050000,-0.060000,-6.170000,-0.163494,Hold,55.001221,50.000000,Hold,-143351.000000,143360.000000,LowGoal,2107.500000,-2181.818182,Speed,2062.500000,-2181.818182,Speed,Off,Off,0.000000,FALSE,0,,,,,0.000000,0.000000
03:26:46.871 PM 04/09/2016,Teleop Enabled,9,FALSE,0,NO ERROR,-0.000000,3.413659,-0.000000,3.253242,FALSE,FALSE,TRUE,FALSE,FALSE,FALSE,Disabled,0.000000,0.833747,38.866253,TRUE,12.592010,-4.572098,0.000000,-0.061386,-0.032532,0.000000,-0.047000,-0.031000,0.111000,3.010000,0.000000,-6.080000,-0.108616,Hold,55.001221,50.000000,Hold,-143351.000000,143360.000000,LowGoal,2115.000000,-2181.818182,Speed,2062.500000,-2181.818182,Speed,Off,Off,0.000000,FALSE,0,,,,,0.000000,0.000000
03:26:46.971 PM 04/09/2016,Teleop Enabled,11,FALSE,0,NO ERROR,-0.000000,2.778410,-0.000000,2.617994,FALSE,FALSE,TRUE,FALSE,FALSE,FALSE,Disabled,0.000000,0.833747,38.866253,TRUE,12.588806,-4.574722,0.000000,-0.042145,-0.061493,0.000000,0.078000,-0.054000,0.060000,3.050000,0.000000,-6.090000,-0.096395,Hold,55.001221,50.000000,Hold,-143351.000000,143360.000000,LowGoal,2130.000000,-2181.818182,Speed,2062.500000,-2181.818182,Speed,Off,Off,0.000000,FALSE,0,,,,,0.000000,0.000000
03:26:47.071 PM 04/09/2016,Teleop Enabled,10,FALSE,0,NO ERROR,-0.000000,2.149578,-0.000000,2.014829,FALSE,FALSE,TRUE,FALSE,FALSE,FALSE,Disabled,0.000000,0.833747,38.866253,TRUE,12.587112,-4.580399,0.000000,-0.067398,-0.160263,0.000000,-0.354000,-0.033000,0.024000,3.030000,0.010000,-6.110000,-0.066748,Hold,55.001221,50.000000,Hold,-143352.000000,143360.000000,LowGoal,2137.500000,-2181.818182,Speed,2062.500000,-2181.818182,Speed,Off,Off,0.000000,FALSE,0,,,,,0.000000,0.000000
03:26:47.172 PM 04/09/2016,Teleop Enabled,10,FALSE,0,NO ERROR,-0.000000,2.123912,-0.000000,2.111078,FALSE,FALSE,TRUE,FALSE,FALSE,FALSE,Disabled,0.000000,0.833747,38.866253,TRUE,12.574432,-4.591644,0.000000,-0.187332,-0.126587,0.000000,-0.354000,-0.033000,0.024000,3.100000,-0.300000,-6.830000,-0.376351,Hold,55.000732,50.000000,Hold,-143352.000000,143360.000000,LowGoal,2137.500000,-2181.818182,Speed,2062.500000,-2181.818182,Speed,Off,Off,0.000000,FALSE,0,,,,,0.000000,0.000000
03:26:47.272 PM 04/09/2016,Teleop Enabled,9,FALSE,0,NO ERROR,-0.000000,2.111078,-0.000000,2.046912,FALSE,FALSE,TRUE,FALSE,FALSE,FALSE,Disabled,0.000000,0.833747,38.866253,TRUE,12.569122,-4.595657,0.000000,-0.124649,-0.127121,0.000000,0.076000,0.124000,0.106000,2.870000,-0.240000,-6.520000,-0.328365,Hold,55.000488,50.000000,Hold,-143352.000000,143360.000000,LowGoal,2130.000000,-2181.818182,Speed,2062.500000,-2181.818182,Speed,Off,Off,0.000000,FALSE,0,,,,,0.000000,0.000000
03:26:47.376 PM 04/09/2016,Teleop Enabled,10,FALSE,0,NO ERROR,-0.000000,2.098245,-0.000000,2.053329,FALSE,FALSE,TRUE,FALSE,FALSE,FALSE,Disabled,0.000000,0.833747,38.866253,TRUE,12.558456,-4.600525,0.000000,-0.239563,-0.057816,0.000000,-0.002000,0.017000,-0.058000,3.120000,-0.380000,-6.710000,-0.448438,Hold,54.984131,50.000000,Hold,-143352.000000,143360.000000,LowGoal,2115.000000,-2181.818182,Speed,2055.000000,-2181.818182,Speed,Off,Off,0.000000,FALSE,0,,,,,0.000000,0.000000
03:26:47.478 PM 04/09/2016,Teleop Enabled,10,FALSE,0,NO ERROR,-0.000000,2.098245,-0.000000,2.046912,FALSE,FALSE,TRUE,FALSE,FALSE,FALSE,Disabled,0.000000,0.833747,38.866253,TRUE,12.557846,-4.603134,0.000000,-0.015579,-0.066360,0.000000,0.056000,-0.006000,-0.008000,2.990000,-0.330000,-6.780000,-0.412260,Hold,54.980957,50.000000,Hold,-143352.000000,143360.000000,LowGoal,2115.000000,-2181.818182,Speed,2055.000000,-2181.818182,Speed,Off,Off,0.000000,FALSE,0,,,,,0.000000,0.000000
03:26:47.580 PM 04/09/2016,Teleop Enabled,10,FALSE,0,NO ERROR,-0.000000,2.098245,-0.000000,2.046912,FALSE,FALSE,TRUE,FALSE,FALSE,FALSE,Disabled,0.000000,0.833747,38.866253,TRUE,12.556763,-4.605545,0.000000,-0.042053,-0.019028,0.000000,0.000000,-0.041000,-0.096000,3.060000,-0.330000,-6.790000,-0.411902,Hold,54.975586,50.000000,Hold,-143352.000000,143360.000000,LowGoal,2115.000000,-2181.818182,Speed,2062.500000,-2181.818182,Speed,Off,Off,0.000000,FALSE,0,,,,,0.000000,0.000000
03:26:47.680 PM 04/09/2016,Teleop Enabled,10,FALSE,0,NO ERROR,-0.000000,2.098245,-0.000000,2.046912,FALSE,FALSE,TRUE,FALSE,FALSE,FALSE,Disabled,0.000000,0.833747,38.866253,TRUE,12.554184,-4.606293,0.000000,-0.050140,0.000000,0.000000,0.082000,-0.037000,0.025000,3.050000,-0.340000,-6.770000,-0.408866,Hold,54.974365,50.000000,Hold,-143352.000000,143360.000000,LowGoal,2115.000000,-2181.818182,Speed,2062.500000,-2181.818182,Speed,Off,Off,0.000000,FALSE,0,,,,,0.000000,0.000000
03:26:47.782 PM 04/09/2016,Teleop Enabled,10,FALSE,0,NO ERROR,-0.000000,2.098245,-0.000000,2.046912,FALSE,FALSE,TRUE,FALSE,FALSE,FALSE,Disabled,0.000000,0.833747,38.866253,TRUE,12.553574,-4.607727,0.000000,0.004196,-0.050461,0.000000,-0.012000,-0.091000,0.045000,3.060000,-0.340000,-6.720000,-0.409602,Hold,54.974365,50.000000,Hold,-143352.000000,143360.000000,LowGoal,2122.500000,-2181.818182,Speed,2062.500000,-2181.818182,Speed,Off,Off,0.000000,FALSE,0,,,,,0.000000,0.000000
03:26:47.882 PM 04/09/2016,Teleop Enabled,11,FALSE,0,NO ERROR,-0.000000,2.098245,-0.000000,2.046912,FALSE,FALSE,TRUE,FALSE,FALSE,FALSE,Disabled,0.000000,0.833747,38.866253,TRUE,12.553940,-4.612091,0.000000,0.009094,-0.095596,0.000000,0.083000,0.050000,0.084000,3.070000,-0.350000,-6.750000,-0.414250,Hold,54.973877,50.000000,Hold,-143352.000000,143360.000000,LowGoal,2115.000000,-2181.818182,Speed,2055.000000,-2181.818182,Speed,Off,Off,0.000000,FALSE,0,,,,,0.000000,0.000000
03:26:47.983 PM 04/09/2016,Teleop Enabled,10,FALSE,0,NO ERROR,-0.000000,2.098245,-0.000000,2.046912,FALSE,FALSE,TRUE,FALSE,FALSE,FALSE,Disabled,0.000000,0.833747,38.866253,TRUE,12.556610,-4.617325,0.000000,0.043015,-0.081024,0.000000,-0.139000,0.070000,-0.063000,3.030000,-0.350000,-6.700000,-0.412343,Hold,54.973389,50.000000,Hold,-143352.000000,143360.000000,LowGoal,2100.000000,-2181.818182,Speed,2062.500000,-2181.818182,Speed,Off,Off,0.000000,FALSE,0,,,,,0.000000,0.000000
03:26:48.084 PM 04/09/2016,Teleop Enabled,10,FALSE,0,NO ERROR,-0.000000,2.098245,-0.000000,2.046912,FALSE,FALSE,TRUE,FALSE,FALSE,FALSE,Disabled,0.000000,0.833747,38.866253,TRUE,12.556046,-4.620087,0.000000,-0.034592,-0.057022,0.000000,-0.058000,0.008000,0.147000,2.970000,-0.360000,-6.670000,-0.411458,Hold,54.972656,50.000000,Hold,-143352.000000,143360.000000,LowGoal,2115.000000,-2181.818182,Speed,2062.500000,-2181.818182,Speed,Off,Off,0.000000,FALSE,0,,,,,0.000000,0.000000
03:26:48.186 PM 04/09/2016,Teleop Enabled,10,FALSE,0,NO ERROR,-0.000000,2.098245,-0.000000,2.046912,FALSE,FALSE,TRUE,FALSE,FALSE,FALSE,Disabled,0.000000,0.833747,38.866253,TRUE,12.554596,-4.620560,0.000000,-0.000046,0.010742,0.000000,-0.008000,0.026000,0.109000,2.960000,-0.370000,-6.620000,-0.405055,Hold,54.972412,50.000000,Hold,-143352.000000,143360.000000,LowGoal,2115.000000,-2181.818182,Speed,2055.000000,-2181.818182,Speed,Off,Off,0.000000,FALSE,0,,,,,0.000000,0.000000
03:26:48.286 PM 04/09/2016,Teleop Enabled,11,FALSE,0,NO ERROR,-0.000000,2.098245,-0.000000,2.046912,FALSE,FALSE,TRUE,FALSE,FALSE,FALSE,Disabled,0.000000,0.833747,38.866253,TRUE,12.553482,-4.618530,0.000000,-0.033218,0.028870,0.000000,-0.008000,0.026000,0.109000,2.960000,-0.370000,-6.620000,-0.410195,Hold,54.972168,50.000000,Hold,-143352.000000,143360.000000,LowGoal,2115.000000,-2181.818182,Speed,2062.500000,-2181.818182,Speed,Off,Off,0.000000,FALSE,0,,,,,0.000000,0.000000
03:26:48.386 PM 04/09/2016,Teleop Enabled,10,FALSE,0,NO ERROR,-0.000000,2.098245,-0.000000,2.046912,FALSE,FALSE,TRUE,FALSE,FALSE,FALSE,Disabled,0.000000,0.833747,38.866253,TRUE,12.552811,-4.617599,0.000000,0.010254,0.020294,0.000000,-0.025000,-0.058000,0.113000,3.090000,-0.360000,-6.610000,-0.402459,Hold,54.971924,50.000000,Hold,-143352.000000,143360.000000,LowGoal,2115.000000,-2181.818182,Speed,2062.500000,-2181.818182,Speed,Off,Off,0.000000,FALSE,0,,,,,0.000000,0.000000
03:26:48.487 PM 04/09/2016,Teleop Enabled,10,FALSE,0,NO ERROR,-0.000000,2.098245,-0.000000,2.046912,FALSE,FALSE,TRUE,FALSE,FALSE,FALSE,Disabled,0.000000,0.833747,38.866253,TRUE,12.552795,-4.618591,0.000000,-0.022675,-0.042053,0.000000,0.032000,0.002000,0.067000,3.090000,-0.360000,-6.610000,-0.415823,Hold,54.971924,50.000000,Hold,-143352.000000,143360.000000,LowGoal,2115.000000,-2181.818182,Speed,2062.500000,-2181.818182,Speed,Off,Off,0.000000,FALSE,0,,,,,0.000000,0.000000
03:26:48.588 PM 04/09/2016,Teleop Enabled,10,FALSE,0,NO ERROR,-0.000000,2.098245,-0.000000,2.046912,FALSE,FALSE,TRUE,FALSE,FALSE,FALSE,Disabled,0.000000,0.833747,38.866253,TRUE,12.552795,-4.618591,0.000000,-0.022675,-0.042053,0.000000,-0.014000,-0.048000,0.040000,3.120000,-0.360000,-6.640000,-0.406845,Hold,54.971680,50.000000,Hold,-143352.000000,143360.000000,LowGoal,2122.500000,-2181.818182,Speed,2062.500000,-2181.818182,Speed,Off,Off,0.000000,FALSE,0,,,,,0.000000,0.000000
03:26:48.689 PM 04/09/2016,Teleop Enabled,9,FALSE,0,NO ERROR,-0.000000,2.098245,-0.000000,2.046912,FALSE,FALSE,TRUE,FALSE,FALSE,FALSE,Disabled,0.000000,0.833747,38.866253,TRUE,12.551132,-4.621292,0.000000,-0.020935,-0.009979,0.000000,-0.026000,0.048000,0.060000,3.090000,-0.360000,-6.660000,-0.415142,Hold,54.971680,50.000000,Hold,-143352.000000,143360.000000,LowGoal,2107.500000,-2181.818182,Speed,2062.500000,-2181.818182,Speed,Off,Off,0.000000,FALSE,0,,,,,0.000000,0.000000
03:26:48.789 PM 04/09/2016,Teleop Enabled,9,FALSE,0,NO ERROR,-0.000000,2.098245,-0.000000,2.046912,FALSE,FALSE,TRUE,FALSE,FALSE,FALSE,Disabled,0.000000,0.833747,38.866253,TRUE,12.548340,-4.620178,0.000000,-0.048950,0.053329,0.000000,-0.031000,0.012000,-0.102000,3.060000,-0.370000,-6.600000,-0.415637,Hold,54.971436,50.000000,Hold,-143352.000000,143360.000000,LowGoal,2107.500000,-2181.818182,Speed,2062.500000,-2181.818182,Speed,Off,Off,0.000000,FALSE,0,,,,,0.000000,0.000000
03:26:48.889 PM 04/09/2016,Teleop Enabled,9,FALSE,0,NO ERROR,-0.000000,2.098245,-0.000000,2.046912,FALSE,FALSE,TRUE,FALSE,FALSE,FALSE,Disabled,0.000000,0.833747,38.866253,TRUE,12.548340,-4.620178,0.000000,-0.048950,0.053329,0.000000,-0.010000,0.056000,0.022000,3.040000,-0.360000,-6.620000,-0.404855,Hold,54.966064,50.000000,Hold,-143352.000000,143360.000000,LowGoal,2130.000000,-2181.818182,Speed,2062.500000,-2181.818182,Speed,Off,Off,0.000000,FALSE,0,,,,,0.000000,0.000000
03:26:48.990 PM 04/09/2016,Teleop Enabled,9,FALSE,0,NO ERROR,-0.000000,2.098245,-0.000000,2.046912,FALSE,FALSE,TRUE,FALSE,FALSE,FALSE,Disabled,0.000000,0.833747,38.866253,TRUE,12.546204,-4.616394,0.000000,-0.028687,0.090454,0.000000,0.026000,0.005000,0.043000,3.090000,-0.370000,-6.600000,-0.407764,Hold,54.965332,50.000000,Hold,-143352.000000,143360.000000,LowGoal,2137.500000,-2181.818182,Speed,2070.000000,-2181.818182,Speed,Off,Off,0.000000,FALSE,0,,,,,0.000000,0.000000
03:26:49.090 PM 04/09/2016,Teleop Enabled,10,FALSE,0,NO ERROR,-0.000000,2.098245,-0.000000,2.046912,FALSE,FALSE,TRUE,FALSE,FALSE,FALSE,Disabled,0.000000,0.833747,38.866253,TRUE,12.543182,-4.610672,0.000000,-0.067703,0.098053,0.000000,0.029000,-0.013000,0.042000,3.040000,-0.370000,-6.640000,-0.426337,Hold,54.965332,50.000000,Hold,-143352.000000,143360.000000,LowGoal,2130.000000,-2181.818182,Speed,2070.000000,-2181.818182,Speed,Off,Off,0.000000,FALSE,0,,,,,0.000000,0.000000
03:26:49.192 PM 04/09/2016,Teleop Enabled,10,FALSE,0,NO ERROR,-0.000000,2.098245,-0.000000,2.046912,FALSE,FALSE,TRUE,FALSE,FALSE,FALSE,Disabled,0.000000,0.833747,38.866253,TRUE,12.540665,-4.607300,0.000000,-0.051559,0.076752,0.000000,0.029000,-0.026000,-0.028000,3.100000,-0.390000,-6.570000,-0.423225,Hold,54.963867,50.000000,Hold,-143352.000000,143360.000000,LowGoal,2122.500000,-2181.818182,Speed,2062.500000,-2181.818182,Speed,Off,Off,0.000000,FALSE,0,,,,,0.000000,0.000000
03:26:49.292 PM 04/09/2016,Teleop Enabled,10,FALSE,0,NO ERROR,-0.000000,2.098245,-0.000000,2.046912,FALSE,FALSE,TRUE,FALSE,FALSE,FALSE,Disabled,0.000000,0.833747,38.866253,TRUE,12.538040,-4.602921,0.000000,-0.029099,0.016113,0.000000,-0.109000,-0.004000,0.079000,3.050000,-0.390000,-6.610000,-0.424154,Hold,54.963623,50.000000,Hold,-143352.000000,143360.000000,LowGoal,2130.000000,-2181.818182,Speed,2070.000000,-2181.818182,Speed,Off,Off,0.000000,FALSE,0,,,,,0.000000,0.000000
03:26:49.392 PM 04/09/2016,Teleop Enabled,11,FALSE,0,NO ERROR,-0.000000,2.098245,-0.000000,2.046912,FALSE,FALSE,TRUE,FALSE,FALSE,FALSE,Disabled,0.000000,0.833747,38.866253,TRUE,12.538040,-4.602921,0.000000,-0.029099,0.016113,0.000000,0.055000,0.057000,-0.025000,3.090000,-0.380000,-6.600000,-0.437807,Hold,54.963623,50.000000,Hold,-143352.000000,143360.000000,LowGoal,2122.500000,-2181.818182,Speed,2070.000000,-2181.818182,Speed,Off,Off,0.000000,FALSE,0,,,,,0.000000,0.000000
03:26:49.492 PM 04/09/2016,Teleop Enabled,10,FALSE,0,NO ERROR,-0.000000,2.098245,-0.000000,2.046912,FALSE,FALSE,TRUE,FALSE,FALSE,FALSE,Disabled,0.000000,0.833747,38.866253,TRUE,12.538330,-4.601105,0.000000,0.034454,0.029724,0.000000,-0.007000,0.045000,-0.008000,3.060000,-0.390000,-6.620000,-0.438179,Hold,54.963623,50.000000,Hold,-143352.000000,143360.000000,LowGoal,2130.000000,-2181.818182,Speed,2070.000000,-2181.818182,Speed,Off,Off,0.000000,FALSE,0,,,,,0.000000,0.000000
03:26:49.593 PM 04/09/2016,Teleop Enabled,9,FALSE,0,NO ERROR,-0.000000,2.098245,-0.000000,2.046912,FALSE,FALSE,TRUE,FALSE,FALSE,FALSE,Disabled,0.000000,0.833747,38.866253,TRUE,12.539597,-4.598511,0.000000,-0.009171,0.070023,0.000000,-0.088000,0.059000,-0.046000,3.040000,-0.390000,-6.580000,-0.429562,Hold,54.963379,50.000000,Hold,-143352.000000,143360.000000,LowGoal,2130.000000,-2181.818182,Speed,2070.000000,-2181.818182,Speed,Off,Off,0.000000,FALSE,0,,,,,0.000000,0.000000
03:26:49.694 PM 04/09/2016,Teleop Enabled,9,FALSE,0,NO ERROR,-0.000000,2.098245,-0.000000,2.046912,FALSE,FALSE,TRUE,FALSE,FALSE,FALSE,Disabled,0.000000,0.833747,38.866253,TRUE,12.539154,-4.594376,0.000000,0.028137,0.003250,0.000000,0.115000,-0.099000,0.060000,3.030000,-0.390000,-6.580000,-0.421558,Hold,54.963379,50.000000,Hold,-143352.000000,143360.000000,LowGoal,2122.500000,-2181.818182,Speed,2070.000000,-2181.818182,Speed,Off,Off,0.000000,FALSE,0,,,,,0.000000,0.000000
03:26:49.795 PM 04/09/2016,Teleop Enabled,10,FALSE,0,NO ERROR,-0.000000,2.098245,-0.000000,2.046912,FALSE,FALSE,TRUE,FALSE,FALSE,FALSE,Disabled,0.000000,0.833747,38.866253,TRUE,12.539154,-4.594376,0.000000,0.028137,0.003250,0.000000,-0.075000,-0.009000,0.149000,3.090000,-0.400000,-6.500000,-0.414412,Hold,54.963379,50.000000,Hold,-143352.000000,143360.000000,LowGoal,2100.000000,-2181.818182,Speed,2070.000000,-2181.818182,Speed,Off,Off,0.000000,FALSE,0,,,,,0.000000,0.000000
03:26:49.896 PM 04/09/2016,Teleop Enabled,9,FALSE,0,NO ERROR,-0.000000,2.098245,-0.000000,2.046912,FALSE,FALSE,TRUE,FALSE,FALSE,FALSE,Disabled,0.000000,0.833747,38.866253,TRUE,12.539856,-4.594315,0.000000,0.021713,-0.002319,0.000000,0.137000,-0.097000,0.094000,3.110000,-0.390000,-6.530000,-0.414412,Hold,54.963379,50.000000,Hold,-143352.000000,143360.000000,LowGoal,2100.000000,-2181.818182,Speed,2070.000000,-2181.818182,Speed,Off,Off,0.000000,FALSE,0,,,,,0.000000,0.000000
03:26:49.998 PM 04/09/2016,Teleop Enabled,11,FALSE,0,NO ERROR,-0.000000,2.098245,-0.000000,2.046912,FALSE,FALSE,TRUE,FALSE,FALSE,FALSE,Disabled,0.000000,0.833747,38.866253,TRUE,12.541550,-4.596115,0.000000,-0.011505,-0.049469,0.000000,-0.070000,0.020000,0.061000,3.080000,-0.400000,-6.490000,-0.389298,Hold,54.963379,50.000000,Hold,-143352.000000,143360.000000,LowGoal,2122.500000,-2181.818182,Speed,2070.000000,-2181.818182,Speed,Off,Off,0.000000,FALSE,0,,,,,0.000000,0.000000
03:26:50.098 PM 04/09/2016,Teleop Enabled,11,FALSE,0,NO ERROR,-0.000000,2.098245,-0.000000,2.046912,FALSE,FALSE,TRUE,FALSE,FALSE,FALSE,Disabled,0.000000,0.833747,38.866253,TRUE,12.539520,-4.596863,0.000000,-0.043793,0.009445,0.000000,0.000000,-0.037000,0.008000,3.130000,-0.400000,-6.530000,-0.382554,Hold,54.963135,50.000000,Hold,-143352.000000,143360.000000,LowGoal,2130.000000,-2181.818182,Speed,2070.000000,-2181.818182,Speed,Off,Off,0.000000,FALSE,0,,,,,0.000000,0.000000
03:26:50.198 PM 04/09/2016,Teleop Enabled,11,FALSE,0,NO ERROR,-0.000000,2.098245,-0.000000,2.046912,FALSE,FALSE,TRUE,FALSE,FALSE,FALSE,Disabled,0.000000,0.833747,38.866253,TRUE,12.539139,-4.596436,0.000000,0.014206,0.022903,0.000000,-0.019000,0.049000,-0.088000,3.070000,-0.400000,-6.530000,-0.386823,Hold,54.963135,50.000000,Hold,-143352.000000,143360.000000,LowGoal,2115.000000,-2181.818182,Speed,2070.000000,-2181.818182,Speed,Off,Off,0.000000,FALSE,0,,,,,0.000000,0.000000
03:26:50.300 PM 04/09/2016,Teleop Enabled,11,FALSE,0,NO ERROR,-0.000000,2.098245,-0.000000,2.046912,FALSE,FALSE,TRUE,FALSE,FALSE,FALSE,Disabled,0.000000,0.833747,38.866253,TRUE,12.538986,-4.593964,0.000000,-0.024506,0.000000,0.000000,-0.052000,-0.013000,0.039000,3.070000,-0.400000,-6.470000,-0.392589,Hold,54.963135,50.000000,Hold,-143352.000000,143360.000000,LowGoal,2107.500000,-2181.818182,Speed,2070.000000,-2181.818182,Speed,Off,Off,0.000000,FALSE,0,,,,,0.000000,0.000000
03:26:50.400 PM 04/09/2016,Teleop Enabled,10,FALSE,0,NO ERROR,-0.000000,2.098245,-0.000000,2.046912,FALSE,FALSE,TRUE,FALSE,FALSE,FALSE,Disabled,0.000000,0.833747,38.866253,TRUE,12.537567,-4.593735,0.000000,-0.031006,0.018295,0.000000,-0.005000,0.173000,-0.021000,3.060000,-0.400000,-6.560000,-0.407375,Hold,54.963135,50.000000,Hold,-143352.000000,143360.000000,LowGoal,2115.000000,-2181.818182,Speed,2070.000000,-2181.818182,Speed,Off,Off,0.000000,FALSE,0,,,,,0.000000,0.000000
03:26:50.500 PM 04/09/2016,Teleop Enabled,10,FALSE,0,NO ERROR,-0.000000,2.098245,-0.000000,2.046912,FALSE,FALSE,TRUE,FALSE,FALSE,FALSE,Disabled,0.000000,0.833747,38.866253,TRUE,12.536850,-4.588699,0.000000,-0.034042,0.095139,0.000000,0.067000,-0.057000,0.002000,3.120000,-0.400000,-6.530000,-0.400259,Hold,54.962891,50.000000,Hold,-143352.000000,143360.000000,LowGoal,2130.000000,-2181.818182,Speed,2077.500000,-2181.818182,Speed,Off,Off,0.000000,FALSE,0,,,,,0.000000,0.000000
03:26:50.603 PM 04/09/2016,Teleop Enabled,7,FALSE,0,NO ERROR,-0.000000,2.098245,-0.000000,2.046912,FALSE,FALSE,TRUE,FALSE,FALSE,FALSE,Disabled,0.000000,0.833747,38.866253,TRUE,12.536224,-4.585587,0.000000,0.008087,0.036377,0.000000,0.005000,-0.073000,0.011000,3.130000,-0.410000,-6.560000,-0.402459,Hold,54.962891,50.000000,Hold,-143352.000000,143360.000000,LowGoal,2122.500000,-2181.818182,Speed,2070.000000,-2181.818182,Speed,Off,Off,0.000000,FALSE,0,,,,,0.000000,0.000000
03:26:50.703 PM 04/09/2016,Teleop Enabled,10,FALSE,0,NO ERROR,-0.000000,2.098245,-0.000000,2.046912,FALSE,FALSE,TRUE,FALSE,FALSE,FALSE,Disabled,0.000000,0.833747,38.866253,TRUE,12.537170,-4.583817,0.000000,0.042221,0.023651,0.000000,-0.043000,-0.067000,-0.011000,3.120000,-0.410000,-6.610000,-0.401877,Hold,54.962891,50.000000,Hold,-143352.000000,143360.000000,LowGoal,2122.500000,-2181.818182,Speed,2070.000000,-2181.818182,Speed,Off,Off,0.000000,FALSE,0,,,,,0.000000,0.000000
03:26:50.804 PM 04/09/2016,Teleop Enabled,10,FALSE,0,NO ERROR,-0.000000,2.098245,-0.000000,2.046912,FALSE,FALSE,TRUE,FALSE,FALSE,FALSE,Disabled,0.000000,0.833747,38.866253,TRUE,12.538773,-4.583771,0.000000,0.013306,0.015045,0.000000,0.055000,0.059000,-0.040000,3.150000,-0.400000,-6.610000,-0.398149,Hold,54.962646,50.000000,Hold,-143352.000000,143360.000000,LowGoal,2115.000000,-2181.818182,Speed,2070.000000,-2181.818182,Speed,Off,Off,0.000000,FALSE,0,,,,,0.000000,0.000000
03:26:50.904 PM 04/09/2016,Teleop Enabled,10,FALSE,0,NO ERROR,-0.000000,2.098245,-0.000000,2.046912,FALSE,FALSE,TRUE,FALSE,FALSE,FALSE,Disabled,0.000000,0.833747,38.866253,TRUE,12.540146,-4.582199,0.000000,0.058640,0.049179,0.000000,0.090000,-0.108000,-0.016000,3.100000,-0.410000,-6.610000,-0.434585,Hold,54.962646,50.000000,Hold,-143352.000000,143360.000000,LowGoal,2122.500000,-2181.818182,Speed,2070.000000,-2181.818182,Speed,Off,Off,0.000000,FALSE,0,,,,,0.000000,0.000000
03:26:51.004 PM 04/09/2016,Teleop Enabled,11,FALSE,0,NO ERROR,-0.000000,2.098245,-0.000000,2.046912,FALSE,FALSE,TRUE,FALSE,FALSE,FALSE,Disabled,0.000000,0.833747,38.866253,TRUE,12.545425,-4.581299,0.000000,0.065903,0.005554,0.000000,-0.138000,-0.026000,0.037000,3.180000,-0.420000,-6.570000,-0.423521,Hold,54.962646,50.000000,Hold,-143352.000000,143360.000000,LowGoal,2122.500000,-2181.818182,Speed,2070.000000,-2181.818182,Speed,Off,Off,0.000000,FALSE,0,,,,,0.000000,0.000000
03:26:51.105 PM 04/09/2016,Teleop Enabled,10,FALSE,0,NO ERROR,-0.000000,2.098245,-0.000000,2.046912,FALSE,FALSE,TRUE,FALSE,FALSE,FALSE,Disabled,0.000000,0.833747,38.866253,TRUE,12.545532,-4.580856,0.000000,-0.017090,0.023651,0.000000,0.082000,0.023000,-0.001000,3.130000,-0.420000,-6.650000,-0.416787,Hold,54.962646,50.000000,Hold,-143352.000000,143360.000000,LowGoal,2122.500000,-2181.818182,Speed,2070.000000,-2181.818182,Speed,Off,Off,0.000000,FALSE,0,,,,,0.000000,0.000000
03:26:51.205 PM 04/09/2016,Teleop Enabled,10,FALSE,0,NO ERROR,-0.000000,2.098245,-0.000000,2.046912,FALSE,FALSE,TRUE,FALSE,FALSE,FALSE,Disabled,0.000000,0.833747,38.866253,TRUE,12.546143,-4.579529,0.000000,0.006592,0.043381,0.000000,0.040000,0.100000,0.063000,3.160000,-0.430000,-6.580000,-0.412591,Hold,54.962646,50.000000,Hold,-143352.000000,143360.000000,LowGoal,2122.500000,-2181.818182,Speed,2070.000000,-2181.818182,Speed,Off,Off,0.000000,FALSE,0,,,,,0.000000,0.000000
03:26:51.305 PM 04/09/2016,Teleop Enabled,10,FALSE,0,NO ERROR,-0.000000,2.098245,-0.000000,2.046912,FALSE,FALSE,TRUE,FALSE,FALSE,FALSE,Disabled,0.000000,0.833747,38.866253,TRUE,12.545197,-4.576324,0.000000,-0.051880,0.056061,0.000000,0.054000,-0.073000,0.038000,3.160000,-0.420000,-6.660000,-0.408139,Hold,54.962402,50.000000,Hold,-143352.000000,143360.000000,LowGoal,2107.500000,-2181.818182,Speed,2070.000000,-2181.818182,Speed,Off,Off,0.000000,FALSE,0,,,,,0.000000,0.000000
03:26:51.405 PM 04/09/2016,Teleop Enabled,11,FALSE,0,NO ERROR,-0.000000,2.098245,-0.000000,2.046912,FALSE,FALSE,TRUE,FALSE,FALSE,FALSE,Disabled,0.000000,0.833747,38.866253,TRUE,12.544846,-4.576035,0.000000,0.027313,-0.040848,0.000000,-0.031000,-0.101000,-0.012000,3.150000,-0.420000,-6.670000,-0.416446,Hold,54.962402,50.000000,Hold,-143352.000000,143360.000000,LowGoal,2115.000000,-2181.818182,Speed,2070.000000,-2181.818182,Speed,Off,Off,0.637795,FALSE,0,,,,,0.000000,0.000000
03:26:51.507 PM 04/09/2016,Teleop Enabled,13,FALSE,0,NO ERROR,-0.000000,2.098245,-0.000000,2.046912,FALSE,FALSE,TRUE,FALSE,FALSE,FALSE,Disabled,0.000000,0.833747,38.866253,TRUE,12.545197,-4.580902,0.000000,-0.013702,-0.088760,0.000000,0.052000,0.037000,0.069000,3.150000,-0.430000,-6.630000,-0.407231,Hold,54.962158,50.000000,Hold,-143352.000000,143360.000000,LowGoal,2122.500000,-2181.818182,Speed,2070.000000,-2181.818182,Speed,Off,Off,0.716535,FALSE,0,,,,,0.000000,0.000000
03:26:51.607 PM 04/09/2016,Teleop Enabled,10,FALSE,0,NO ERROR,-0.000000,2.098245,-0.000000,2.046912,FALSE,FALSE,TRUE,FALSE,FALSE,FALSE,Disabled,0.000000,0.833747,38.866253,TRUE,12.545410,-4.584229,0.000000,0.017563,-0.056351,0.000000,0.088000,-0.033000,-0.055000,3.160000,-0.430000,-6.630000,-0.407912,Hold,54.962646,50.000000,Hold,-143352.000000,143360.000000,LowGoal,2115.000000,-2181.818182,Speed,2062.500000,-2181.818182,Speed,Off,Off,1.000000,FALSE,0,,,,,0.000000,0.000000
03:26:51.708 PM 04/09/2016,Teleop Enabled,10,FALSE,0,NO ERROR,-0.000000,2.098245,-0.000000,2.046912,FALSE,FALSE,TRUE,FALSE,FALSE,FALSE,Disabled,0.000000,0.833747,38.866253,TRUE,12.546967,-4.587280,0.000000,0.010406,-0.068970,0.000000,-0.031000,-0.043000,0.113000,3.200000,-0.440000,-6.660000,-0.414728,Hold,54.962646,50.000000,Hold,-143352.000000,143360.000000,LowGoal,2092.500000,-2181.818182,Speed,2032.500000,-2181.818182,Speed,Off,Off,1.000000,FALSE,0,,,,,0.000000,0.000000
03:26:51.809 PM 04/09/2016,Teleop Enabled,11,FALSE,0,NO ERROR,-0.000000,2.098245,-0.000000,2.046912,FALSE,FALSE,TRUE,FALSE,FALSE,FALSE,Disabled,0.000000,0.833747,38.866253,TRUE,12.546921,-4.591507,0.000000,0.000000,-0.075638,0.000000,-0.017000,-0.017000,-0.048000,3.220000,-0.430000,-6.650000,-0.427820,Hold,54.962891,50.000000,Hold,-143352.000000,143360.000000,LowGoal,2070.000000,-2181.818182,Speed,2017.500000,-2181.818182,Speed,Off,Off,1.000000,FALSE,0,,,,,0.000000,0.000000
03:26:51.909 PM 04/09/2016,Teleop Enabled,10,FALSE,0,NO ERROR,-0.000000,2.098245,-0.000000,2.046912,FALSE,FALSE,TRUE,FALSE,FALSE,FALSE,Disabled,0.000000,0.833747,38.866253,TRUE,12.546890,-4.592789,0.000000,0.004227,-0.032776,0.000000,-0.086000,-0.071000,0.043000,3.230000,-0.430000,-6.700000,-0.432337,Hold,54.962891,50.000000,Hold,-143352.000000,143360.000000,LowGoal,2047.500000,-2181.818182,Speed,1995.000000,-2181.818182,Speed,Off,Off,1.000000,FALSE,0,,,,,0.000000,0.000000
03:26:52.009 PM 04/09/2016,Teleop Enabled,10,FALSE,0,NO ERROR,-0.000000,2.098245,-0.000000,2.046912,FALSE,FALSE,TRUE,FALSE,FALSE,FALSE,Disabled,0.000000,0.833747,38.866253,TRUE,12.546265,-4.594742,0.000000,-0.015762,-0.032074,0.000000,0.023000,-0.046000,0.001000,3.240000,-0.430000,-6.710000,-0.437022,Hold,54.962891,50.000000,Hold,-143352.000000,143360.000000,LowGoal,2047.500000,-2181.818182,Speed,1987.500000,-2181.818182,Speed,Off,Off,1.000000,FALSE,0,,,,,0.000000,0.000000
03:26:52.109 PM 04/09/2016,Teleop Enabled,10,FALSE,0,NO ERROR,-0.000000,2.098245,-0.000000,2.046912,FALSE,FALSE,TRUE,FALSE,FALSE,FALSE,Disabled,0.000000,0.833747,38.866253,TRUE,12.545227,-4.595367,0.000000,-0.035858,0.011490,0.000000,-0.051000,-0.039000,0.147000,3.240000,-0.440000,-6.670000,-0.450159,Hold,54.962891,50.000000,Hold,-143352.000000,143360.000000,LowGoal,2040.000000,-2181.818182,Speed,1995.000000,-2181.818182,Speed,Off,Off,1.000000,FALSE,0,,,,,0.000000,0.000000
03:26:52.209 PM 04/09/2016,Teleop Enabled,10,FALSE,0,NO ERROR,-0.000000,2.098245,-0.000000,2.046912,FALSE,FALSE,TRUE,FALSE,FALSE,FALSE,Disabled,0.000000,0.833747,38.866253,TRUE,12.543655,-4.595123,0.000000,-0.029221,-0.014816,0.000000,0.111000,-0.006000,0.036000,3.240000,-0.450000,-6.740000,-0.454631,Hold,54.962891,50.000000,Hold,-143352.000000,143360.000000,LowGoal,2025.000000,-2181.818182,Speed,1987.500000,-2181.818182,Speed,Off,Off,1.000000,FALSE,0,,,,,0.000000,0.000000
03:26:52.309 PM 04/09/2016,Teleop Enabled,10,FALSE,0,NO ERROR,-0.000000,2.098245,-0.000000,2.046912,FALSE,FALSE,TRUE,FALSE,FALSE,FALSE,Disabled,0.000000,0.833747,38.866253,TRUE,12.542923,-4.596985,0.000000,0.003754,-0.037720,0.000000,-0.063000,0.002000,-0.120000,3.160000,-0.440000,-6.720000,-0.443818,Hold,54.962891,50.000000,Hold,-143352.000000,143360.000000,LowGoal,2025.000000,-2181.818182,Speed,1987.500000,-2181.818182,Speed,Off,Off,1.000000,FALSE,0,,,,,0.000000,0.000000
03:26:52.409 PM 04/09/2016,Teleop Enabled,11,FALSE,0,NO ERROR,-0.000000,2.098245,-0.000000,2.046912,FALSE,FALSE,TRUE,FALSE,FALSE,FALSE,Disabled,0.000000,0.833747,38.866253,TRUE,12.542801,-4.598022,0.000000,0.003204,-0.029526,0.000000,0.034000,-0.021000,0.024000,3.200000,-0.430000,-6.730000,-0.463892,Hold,54.962891,50.000000,Hold,-143352.000000,143360.000000,LowGoal,2032.500000,-2181.818182,Speed,1987.500000,-2181.818182,Speed,Off,Off,1.000000,FALSE,0,,,,,0.000000,0.000000
03:26:52.511 PM 04/09/2016,Teleop Enabled,8,FALSE,0,NO ERROR,-0.000000,2.098245,-0.000000,2.046912,FALSE,FALSE,TRUE,FALSE,FALSE,FALSE,Disabled,0.000000,0.833747,38.866253,TRUE,12.543411,-4.600098,0.000000,0.022110,-0.061493,0.000000,-0.039000,0.064000,0.028000,3.230000,-0.440000,-6.630000,-0.464986,Hold,54.962891,50.000000,Hold,-143352.000000,143360.000000,LowGoal,2032.500000,-2181.818182,Speed,1987.500000,-2181.818182,Speed,Off,Off,1.000000,FALSE,0,,,,,0.000000,0.000000
03:26:52.611 PM 04/09/2016,Teleop Enabled,10,FALSE,0,NO ERROR,-0.000000,2.098245,-0.000000,2.046912,FALSE,FALSE,TRUE,FALSE,FALSE,FALSE,Disabled,0.000000,0.833747,38.866253,TRUE,12.544098,-4.602646,0.000000,0.012787,-0.031540,0.000000,0.002000,0.019000,-0.066000,3.180000,-0.460000,-6.690000,-0.452452,Hold,54.962891,50.000000,Hold,-143352.000000,143360.000000,LowGoal,2040.000000,-2181.818182,Speed,1995.000000,-2181.818182,Speed,Off,Off,1.000000,FALSE,0,,,,,0.000000,0.000000
03:26:52.711 PM 04/09/2016,Teleop Enabled,8,FALSE,0,NO ERROR,-0.000000,2.098245,-0.000000,2.046912,FALSE,FALSE,TRUE,FALSE,FALSE,FALSE,Disabled,0.000000,0.833747,38.866253,TRUE,12.544235,-4.604370,0.000000,-0.013336,-0.043976,0.000000,0.063000,-0.026000,0.087000,3.160000,-0.460000,-6.730000,-0.427679,Hold,54.962891,50.000000,Hold,-143352.000000,143360.000000,LowGoal,2047.500000,-2181.818182,Speed,1995.000000,-2181.818182,Speed,Off,Off,1.000000,FALSE,0,,,,,0.000000,0.000000
03:26:52.811 PM 04/09/2016,Teleop Enabled,8,FALSE,0,NO ERROR,-0.000000,2.014829,-0.000000,2.046912,FALSE,FALSE,TRUE,FALSE,FALSE,FALSE,Disabled,0.000000,0.833747,38.866253,TRUE,12.545059,-4.606766,0.000000,0.024643,-0.053574,0.000000,0.027000,0.036000,0.220000,2.990000,-0.570000,-6.220000,-0.565815,Hold,54.962891,50.000000,Hold,-143352.000000,143360.000000,LowGoal,2055.000000,-2181.818182,Speed,1995.000000,-2181.818182,Speed,Off,Off,0.000000,FALSE,0,,,,,0.000000,0.000000
03:26:52.912 PM 04/09/2016,Teleop Enabled,8,FALSE,0,NO ERROR,-0.000000,2.021245,-0.000000,2.059745,FALSE,FALSE,TRUE,FALSE,FALSE,FALSE,Disabled,0.000000,0.833747,38.866253,TRUE,12.549545,-4.605667,0.000000,0.158051,0.022339,0.000000,-0.478000,-0.136000,0.185000,2.990000,-0.570000,-6.220000,-0.624900,Hold,55.076172,50.000000,Hold,-143352.000000,143360.000000,LowGoal,2055.000000,-2181.818182,Speed,1995.000000,-2181.818182,Speed,Off,Off,0.000000,FALSE,0,,,,,0.000000,0.000000
03:26:53.017 PM 04/09/2016,Teleop Enabled,11,FALSE,0,NO ERROR,-0.000000,1.944245,-0.000000,2.098245,FALSE,FALSE,TRUE,FALSE,FALSE,FALSE,Disabled,0.000000,0.833747,38.866253,TRUE,12.552887,-4.605850,0.000000,0.065292,0.032913,0.000000,-0.478000,-0.136000,0.185000,3.390000,-1.080000,-6.220000,-1.005520,Hold,54.420166,50.000000,Hold,-143353.000000,143360.000000,LowGoal,2062.500000,-2181.818182,Speed,2002.500000,-2181.818182,Speed,Off,Off,0.000000,TRUE,0,,,,,0.000000,0.000000
03:26:53.117 PM 04/09/2016,Teleop Enabled,10,FALSE,0,NO ERROR,-0.000000,1.944245,-0.000000,2.072578,FALSE,FALSE,TRUE,FALSE,FALSE,FALSE,Disabled,0.000000,0.833747,38.866253,TRUE,12.559204,-4.607361,0.000000,0.113098,-0.119232,0.000000,-0.043000,-0.098000,0.220000,3.190000,-0.960000,-6.600000,-0.929763,Hold,54.587402,50.000000,Hold,-143353.000000,143360.000000,LowGoal,2092.500000,-2181.818182,Speed,2055.000000,-2181.818182,Speed,Off,Off,0.000000,TRUE,0,,,,,0.000000,0.000000
03:26:53.217 PM 04/09/2016,Teleop Enabled,9,FALSE,0,NO ERROR,-0.000000,1.937829,-0.000000,2.085412,FALSE,FALSE,TRUE,FALSE,FALSE,FALSE,Disabled,0.000000,0.833747,38.866253,TRUE,12.566254,-4.613617,0.000000,0.140030,-0.130661,0.000000,-0.043000,-0.098000,0.220000,3.190000,-0.960000,-6.600000,-0.998297,Hold,54.549805,50.000000,Hold,-143353.000000,143360.000000,LowGoal,2100.000000,-2181.818182,Speed,2055.000000,-2181.818182,Speed,Off,Off,0.000000,TRUE,0,,,,,0.000000,0.000000
03:26:53.318 PM 04/09/2016,Teleop Enabled,10,FALSE,0,NO ERROR,-0.000000,1.944245,-0.000000,2.085412,FALSE,FALSE,TRUE,FALSE,FALSE,FALSE,Disabled,0.000000,0.833747,38.866253,TRUE,12.571899,-4.619858,0.000000,0.149109,-0.153091,0.000000,0.081000,0.098000,0.022000,3.230000,-1.020000,-6.490000,-0.980162,Hold,54.498047,50.000000,Hold,-143353.000000,143360.000000,LowGoal,2107.500000,-2181.818182,Speed,2070.000000,-2181.818182,Speed,Off,Off,0.000000,TRUE,0,,,,,0.000000,0.000000
03:26:53.418 PM 04/09/2016,Teleop Enabled,10,FALSE,0,NO ERROR,-0.000000,1.944245,-0.000000,2.085412,FALSE,FALSE,TRUE,FALSE,FALSE,FALSE,Disabled,0.000000,0.833747,38.866253,TRUE,12.583099,-4.626099,0.000000,0.206009,-0.081192,0.000000,0.005000,-0.074000,0.043000,3.240000,-1.010000,-6.440000,-0.988296,Hold,54.497803,50.000000,Hold,-143353.000000,143360.000000,LowGoal,2107.500000,-2181.818182,Speed,2070.000000,-2181.818182,Speed,Off,Off,0.000000,TRUE,0,,,,,0.000000,0.000000
03:26:53.521 PM 04/09/2016,Teleop Enabled,11,FALSE,0,NO ERROR,-0.000000,1.944245,-0.000000,2.085412,FALSE,FALSE,TRUE,FALSE,FALSE,FALSE,Disabled,0.000000,0.833747,38.866253,TRUE,12.591583,-4.630920,0.000000,0.162704,-0.105835,0.000000,0.057000,-0.002000,0.079000,3.290000,-1.020000,-6.440000,-1.005492,Hold,54.487549,50.000000,Hold,-143353.000000,143360.000000,LowGoal,2115.000000,-2181.818182,Speed,2070.000000,-2181.818182,Speed,Off,Off,0.000000,TRUE,0,,,,,0.000000,0.000000
03:26:53.622 PM 04/09/2016,Teleop Enabled,9,FALSE,0,NO ERROR,-0.000000,1.944245,-0.000000,2.085412,FALSE,FALSE,TRUE,FALSE,FALSE,FALSE,Disabled,0.000000,0.833747,38.866253,TRUE,12.595032,-4.635101,0.000000,0.000000,-0.060730,0.000000,0.013000,0.029000,0.033000,3.290000,-1.020000,-6.440000,-1.010473,Hold,54.487305,50.000000,Hold,-143353.000000,143360.000000,LowGoal,2115.000000,-2181.818182,Speed,2062.500000,-2181.818182,Speed,Off,Off,0.000000,TRUE,0,,,,,0.000000,0.000000
