Time,Robot Mode,Loop Time,Error Status,Error Code,Error Source,Left Motor Output,Left Motor Encoder,Right Motor Output,Right Motor Encoder,Is Level,Is Stalled,Ball Detector Photoeye,Vision Enabled,Vision Teleop Control,Vision Auto Control,Vision Current State,Vision X Output,Vision NavX Error,Vision NavX Target,NavX Connection Status,NavX Displacement X,NavX Displacement Y,NavX Displacement Z,NavX Velocity X,NavX Velocity Y,NavX Velocity Z,NavX Acceleration X,NavX Acceleration Y,NavX Acceleration Z,NavX Pitch,NavX Yaw,NavX Roll,Gyro Angle,Roller Arm State,Roller Arm Actual,Roller Arm Desired,Shooter Arm State,Shooter Arm Actual,Shooter Arm Desired,Shooter State,Actual RPM Left,Desired RPM Left,Control Mode Left,Actual RPM Right,Desired RPM Right,Control Mode Right,Ball Shooter Cylinder,Ball Halo Cylinder,Scaler Motor Output,Scaler Solenoid Fire,Auto To Run,Auto Current File,Auto File Status,Auto Current Command,Auto Trimmed Command,Shooter Amps Left,Shooter Amps Right
04:50:14.054 PM 04/09/2016,Autonomous Disabled,15956,FALSE,0,NO ERROR,-0.000000,-1065.998341,-0.000000,-1228.660460,TRUE,FALSE,TRUE,FALSE,FALSE,FALSE,Disabled,0.000000,-0.331427,-38.798573,FALSE,-3.410431,-54.476990,0.000000,0.615417,1.621124,0.000000,0.152000,0.158000,-0.170000,2.620000,88.860000,0.020000,85.459631,Hold,0.926758,0.000000,Hold,-8234.000000,8192.000000,LowGoal,2152.500000,-2181.818182,Speed,2130.000000,-2181.818182,Speed,Off,Off,0.000000,FALSE,0,Read: /home/lvuser/scripts/auto_12.bee,File good!,STOP_ALL,STOP_ALL,0.000000,0.000000
04:50:14.159 PM 04/09/2016,Teleop Disabled,15,FALSE,0,NO ERROR,-0.000000,0.000000,-0.000000,0.000000,TRUE,FALSE,TRUE,TRUE,FALSE,FALSE,Disabled,0.000000,-0.331427,-38.798573,TRUE,-3.112274,-54.292969,0.000000,0.000000,0.000000,0.000000,0.000000,-0.001000,0.020000,2.340000,-0.010000,0.190000,-0.003625,ResetBack,0.926758,-0.000049,ResetBack,-8234.000000,-0.250000,Empty,0.000000,0.000000,Speed,0.000000,0.000000,Speed,Off,On,0.000000,FALSE,0,Read: /home/lvuser/scripts/auto_12.bee,File good!,STOP_ALL,STOP_ALL,0.000000,0.000000
04:50:14.260 PM 04/09/2016,Teleop Disabled,10,FALSE,0,NO ERROR,-0.000000,0.000000,-0.000000,0.000000,TRUE,FALSE,TRUE,TRUE,FALSE,FALSE,Disabled,0.000000,-0.331427,-38.798573,TRUE,-3.112274,-54.292969,0.000000,0.000000,0.000000,0.000000,-0.001000,0.002000,0.022000,2.340000,-0.010000,0.190000,0.003463,ResetBack,0.926758,-0.000049,ResetBack,-8234.000000,-0.250000,Empty,0.000000,0.000000,Speed,0.000000,0.000000,Speed,Off,On,0.000000,FALSE,0,Read: /home/lvuser/scripts/auto_12.bee,File good!,STOP_ALL,STOP_ALL,0.000000,0.000000
04:50:14.360 PM 04/09/2016,Teleop Disabled,9,FALSE,0,NO ERROR,-0.000000,0.000000,-0.000000,0.000000,TRUE,FALSE,TRUE,TRUE,FALSE,FALSE,Disabled,0.000000,-0.331427,-38.798573,TRUE,-3.112274,-54.292969,0.000000,0.000000,0.000000,0.000000,0.000000,0.000000,0.021000,2.340000,-0.010000,0.190000,0.015746,ResetBack,0.926758,-0.000049,ResetBack,-8234.000000,-0.250000,Empty,0.000000,0.000000,Speed,0.000000,0.000000,Speed,Off,On,0.000000,FALSE,0,Read: /home/lvuser/scripts/auto_12.bee,File good!,STOP_ALL,STOP_ALL,0.000000,0.000000
04:50:14.460 PM 04/09/2016,Teleop Disabled,11,FALSE,0,NO ERROR,-0.000000,0.000000,-0.000000,0.000000,TRUE,FALSE,TRUE,TRUE,FALSE,FALSE,Disabled,0.000000,-0.331427,-38.798573,TRUE,-3.112274,-54.292969,0.000000,0.000000,0.000000,0.000000,0.001000,0.000000,0.024000,2.340000,-0.010000,0.190000,0.024032,ResetBack,0.926758,-0.000049,ResetBack,-8234.000000,-0.250000,Empty,0.000000,0.000000,Speed,0.000000,0.000000,Speed,Off,On,0.000000,FALSE,0,Read: /home/lvuser/scripts/auto_12.bee,File good!,STOP_ALL,STOP_ALL,0.000000,0.000000
04:50:14.561 PM 04/09/2016,Teleop Disabled,9,FALSE,0,NO ERROR,-0.000000,0.000000,-0.000000,0.000000,TRUE,FALSE,TRUE,TRUE,FALSE,FALSE,Disabled,0.000000,-0.331427,-38.798573,TRUE,-3.112274,-54.292969,0.000000,0.000000,0.000000,0.000000,0.000000,0.000000,0.018000,2.350000,-0.010000,0.180000,0.028683,ResetBack,0.926758,-0.000049,ResetBack,-8234.000000,-0.250000,Empty,0.000000,0.000000,Speed,0.000000,0.000000,Speed,Off,On,0.000000,FALSE,0,Read: /home/lvuser/scripts/auto_12.bee,File good!,STOP_ALL,STOP_ALL,0.000000,0.000000
04:50:14.663 PM 04/09/2016,Teleop Disabled,9,FALSE,0,NO ERROR,-0.000000,0.000000,-0.000000,0.000000,TRUE,FALSE,TRUE,TRUE,FALSE,FALSE,Disabled,0.000000,-0.331427,-38.798573,TRUE,-3.112274,-54.292969,0.000000,0.000000,0.000000,0.000000,0.000000,0.000000,0.022000,2.350000,-0.010000,0.180000,0.035792,ResetBack,0.926758,-0.000049,ResetBack,-8234.000000,-0.250000,Empty,0.000000,0.000000,Speed,0.000000,0.000000,Speed,Off,On,0.000000,FALSE,0,Read: /home/lvuser/scripts/auto_12.bee,File good!,STOP_ALL,STOP_ALL,0.000000,0.000000
04:50:14.764 PM 04/09/2016,Teleop Disabled,11,FALSE,0,NO ERROR,-0.000000,0.000000,-0.000000,0.000000,TRUE,FALSE,TRUE,TRUE,FALSE,FALSE,Disabled,0.000000,-0.331427,-38.798573,TRUE,-3.112274,-54.292969,0.000000,0.000000,0.000000,0.000000,-0.005000,0.000000,0.023000,2.350000,-0.010000,0.180000,0.037706,ResetBack,0.926758,-0.000049,ResetBack,-8234.000000,-0.250000,Empty,0.000000,0.000000,Speed,0.000000,0.000000,Speed,Off,On,0.000000,FALSE,0,Read: /home/lvuser/scripts/auto_12.bee,File good!,STOP_ALL,STOP_ALL,0.000000,0.000000
04:50:14.864 PM 04/09/2016,Teleop Disabled,10,FALSE,0,NO ERROR,-0.000000,0.000000,-0.000000,0.000000,TRUE,FALSE,TRUE,TRUE,FALSE,FALSE,Disabled,0.000000,-0.331427,-38.798573,TRUE,-3.112274,-54.292969,0.000000,0.000000,0.000000,0.000000,-0.003000,0.002000,0.020000,2.350000,-0.010000,0.180000,0.041844,ResetBack,0.926758,-0.000049,ResetBack,-8234.000000,-0.250000,Empty,0.000000,0.000000,Speed,0.000000,0.000000,Speed,Off,On,0.000000,FALSE,0,Read: /home/lvuser/scripts/auto_12.bee,File good!,STOP_ALL,STOP_ALL,0.000000,0.000000
04:50:14.965 PM 04/09/2016,Teleop Disabled,10,FALSE,0,NO ERROR,-0.000000,0.000000,-0.000000,0.000000,TRUE,FALSE,TRUE,TRUE,FALSE,FALSE,Disabled,0.000000,-0.331427,-38.798573,TRUE,-3.112274,-54.292969,0.000000,0.000000,0.000000,0.000000,-0.001000,-0.002000,0.021000,2.360000,-0.010000,0.180000,0.020397,ResetBack,0.926758,-0.000049,ResetBack,-8234.000000,-0.250000,Empty,0.000000,0.000000,Speed,0.000000,0.000000,Speed,Off,On,0.000000,FALSE,0,Read: /home/lvuser/scripts/auto_12.bee,File good!,STOP_ALL,STOP_ALL,0.000000,0.000000
04:50:15.065 PM 04/09/2016,Teleop Disabled,11,FALSE,0,NO ERROR,-0.000000,0.000000,-0.000000,0.000000,TRUE,FALSE,TRUE,TRUE,FALSE,FALSE,Disabled,0.000000,-0.331427,-38.798573,TRUE,-3.112274,-54.292969,0.000000,0.000000,0.000000,0.000000,0.000000,0.000000,0.022000,2.360000,-0.010000,0.180000,0.020556,ResetBack,0.926758,-0.000049,ResetBack,-8234.000000,-0.250000,Empty,0.000000,0.000000,Speed,0.000000,0.000000,Speed,Off,On,0.000000,FALSE,0,Read: /home/lvuser/scripts/auto_12.bee,File good!,STOP_ALL,STOP_ALL,0.000000,0.000000
04:50:15.166 PM 04/09/2016,Teleop Disabled,11,FALSE,0,NO ERROR,-0.000000,0.000000,-0.000000,0.000000,TRUE,FALSE,TRUE,TRUE,FALSE,FALSE,Disabled,0.000000,-0.331427,-38.798573,TRUE,-3.112274,-54.292969,0.000000,0.000000,0.000000,0.000000,0.000000,-0.001000,0.018000,2.360000,-0.010000,0.180000,0.017939,ResetBack,0.926758,-0.000049,ResetBack,-8234.000000,-0.250000,Empty,0.000000,0.000000,Speed,0.000000,0.000000,Speed,Off,On,0.000000,FALSE,0,Read: /home/lvuser/scripts/auto_12.bee,File good!,STOP_ALL,STOP_ALL,0.000000,0.000000
04:50:15.268 PM 04/09/2016,Teleop Disabled,10,FALSE,0,NO ERROR,-0.000000,0.000000,-0.000000,0.000000,TRUE,FALSE,TRUE,TRUE,FALSE,FALSE,Disabled,0.000000,-0.331427,-38.798573,TRUE,-3.112274,-54.292969,0.000000,0.000000,0.000000,0.000000,0.000000,0.001000,0.018000,2.360000,-0.010000,0.180000,0.012720,ResetBack,0.926758,-0.000049,ResetBack,-8234.000000,-0.250000,Empty,0.000000,0.000000,Speed,0.000000,0.000000,Speed,Off,On,0.000000,FALSE,0,Read: /home/lvuser/scripts/auto_12.bee,File good!,STOP_ALL,STOP_ALL,0.000000,0.000000
04:50:15.369 PM 04/09/2016,Teleop Disabled,11,FALSE,0,NO ERROR,-0.000000,0.000000,-0.000000,0.000000,TRUE,FALSE,TRUE,TRUE,FALSE,FALSE,Disabled,0.000000,-0.331427,-38.798573,TRUE,-3.112274,-54.292969,0.000000,0.000000,0.000000,0.000000,0.000000,-0.005000,0.022000,2.360000,-0.010000,0.180000,0.017791,ResetBack,0.926758,-0.000049,ResetBack,-8234.000000,-0.250000,Suck,0.000000,1818.181818,Speed,0.000000,1818.181818,Speed,Off,On,0.000000,FALSE,0,Read: /home/lvuser/scripts/auto_12.bee,File good!,STOP_ALL,STOP_ALL,0.000000,0.000000
04:50:15.468 PM 04/09/2016,Teleop Disabled,10,FALSE,0,NO ERROR,-0.000000,0.000000,-0.000000,0.000000,TRUE,FALSE,TRUE,TRUE,FALSE,FALSE,Disabled,0.000000,-0.331427,-38.798573,TRUE,-3.112274,-54.292969,0.000000,0.000000,0.000000,0.000000,0.000000,-0.001000,0.022000,2.360000,-0.010000,0.170000,0.009391,ResetBack,0.926758,-0.000049,ResetBack,-8234.000000,-0.250000,Hold,0.000000,0.000000,Speed,0.000000,0.000000,Speed,Off,Off,0.000000,FALSE,0,Read: /home/lvuser/scripts/auto_12.bee,File good!,STOP_ALL,STOP_ALL,0.000000,0.000000
04:50:15.570 PM 04/09/2016,Teleop Disabled,10,FALSE,0,NO ERROR,-0.000000,0.000000,-0.000000,0.000000,TRUE,FALSE,TRUE,TRUE,FALSE,FALSE,Disabled,0.000000,-0.331427,-38.798573,TRUE,-3.112274,-54.292969,0.000000,0.000000,0.000000,0.000000,-0.001000,-0.001000,0.022000,2.350000,-0.010000,0.160000,-0.012586,ResetBack,0.926758,-0.000049,ResetBack,-8234.000000,-0.250000,Hold,0.000000,0.000000,Speed,0.000000,0.000000,Speed,Off,Off,0.000000,FALSE,0,Read: /home/lvuser/scripts/auto_12.bee,File good!,STOP_ALL,STOP_ALL,0.000000,0.000000
04:50:15.671 PM 04/09/2016,Teleop Disabled,11,FALSE,0,NO ERROR,-0.000000,0.000000,-0.000000,0.000000,TRUE,FALSE,TRUE,TRUE,FALSE,FALSE,Disabled,0.000000,-0.331427,-38.798573,TRUE,-3.112274,-54.292969,0.000000,0.000000,0.000000,0.000000,-0.001000,0.000000,0.027000,2.360000,-0.010000,0.170000,0.000234,ResetBack,0.926758,-0.000049,ResetBack,-8234.000000,-0.250000,Hold,0.000000,0.000000,Speed,0.000000,0.000000,Speed,Off,Off,0.000000,FALSE,0,Read: /home/lvuser/scripts/auto_12.bee,File good!,STOP_ALL,STOP_ALL,0.000000,0.000000
04:50:15.772 PM 04/09/2016,Teleop Disabled,6,FALSE,0,NO ERROR,-0.000000,0.000000,-0.000000,0.000000,TRUE,FALSE,TRUE,TRUE,FALSE,FALSE,Disabled,0.000000,-0.331427,-38.798573,TRUE,-3.112274,-54.292969,0.000000,0.000000,0.000000,0.000000,0.000000,-0.003000,0.019000,2.360000,-0.010000,0.160000,-0.000386,ResetBack,0.926758,-0.000049,ResetBack,-8234.000000,-0.250000,Hold,0.000000,0.000000,Speed,0.000000,0.000000,Speed,Off,Off,0.000000,FALSE,0,Read: /home/lvuser/scripts/auto_12.bee,File good!,STOP_ALL,STOP_ALL,0.000000,0.000000
04:50:15.872 PM 04/09/2016,Teleop Disabled,9,FALSE,0,NO ERROR,-0.000000,0.000000,-0.000000,0.000000,TRUE,FALSE,TRUE,TRUE,FALSE,FALSE,Disabled,0.000000,-0.331427,-38.798573,TRUE,-3.112274,-54.292969,0.000000,0.000000,0.000000,0.000000,0.000000,-0.001000,0.025000,2.360000,-0.010000,0.160000,-0.001573,ResetBack,0.926758,-0.000049,ResetBack,-8234.000000,-0.250000,Hold,0.000000,0.000000,Speed,0.000000,0.000000,Speed,Off,Off,0.000000,FALSE,0,Read: /home/lvuser/scripts/auto_12.bee,File good!,STOP_ALL,STOP_ALL,0.000000,0.000000
04:50:15.972 PM 04/09/2016,Teleop Disabled,10,FALSE,0,NO ERROR,-0.000000,0.000000,-0.000000,0.000000,TRUE,FALSE,TRUE,TRUE,FALSE,FALSE,Disabled,0.000000,-0.331427,-38.798573,TRUE,-3.112274,-54.292969,0.000000,0.000000,0.000000,0.000000,0.000000,-0.002000,0.018000,2.360000,-0.010000,0.160000,-0.006310,ResetBack,0.926758,-0.000049,ResetBack,-8234.000000,-0.250000,Hold,0.000000,0.000000,Speed,0.000000,0.000000,Speed,Off,Off,0.000000,FALSE,0,Read: /home/lvuser/scripts/auto_12.bee,File good!,STOP_ALL,STOP_ALL,0.000000,0.000000
04:50:16.073 PM 04/09/2016,Teleop Disabled,11,FALSE,0,NO ERROR,-0.000000,0.000000,-0.000000,0.000000,TRUE,FALSE,TRUE,TRUE,FALSE,FALSE,Disabled,0.000000,-0.331427,-38.798573,TRUE,-3.112274,-54.292969,0.000000,0.000000,0.000000,0.000000,0.000000,0.000000,0.022000,2.360000,-0.010000,0.160000,-0.009880,ResetBack,0.926758,-0.000049,ResetBack,-8234.000000,-0.250000,Hold,0.000000,0.000000,Speed,0.000000,0.000000,Speed,Off,Off,0.000000,FALSE,0,Read: /home/lvuser/scripts/auto_12.bee,File good!,STOP_ALL,STOP_ALL,0.000000,0.000000
04:50:16.173 PM 04/09/2016,Teleop Disabled,8,FALSE,0,NO ERROR,-0.000000,0.000000,-0.000000,0.000000,TRUE,FALSE,TRUE,TRUE,FALSE,FALSE,Disabled,0.000000,-0.331427,-38.798573,TRUE,-3.112274,-54.292969,0.000000,0.000000,0.000000,0.000000,-0.001000,0.001000,0.022000,2.360000,-0.010000,0.160000,-0.016906,ResetBack,0.926758,-0.000049,ResetBack,-8234.000000,-0.250000,Hold,0.000000,0.000000,Speed,0.000000,0.000000,Speed,Off,Off,0.000000,FALSE,0,Read: /home/lvuser/scripts/auto_12.bee,File good!,STOP_ALL,STOP_ALL,0.000000,0.000000
04:50:16.276 PM 04/09/2016,Teleop Disabled,9,FALSE,0,NO ERROR,-0.000000,0.000000,-0.000000,0.000000,TRUE,FALSE,TRUE,TRUE,FALSE,FALSE,Disabled,0.000000,-0.331427,-38.798573,TRUE,-3.112274,-54.292969,0.000000,0.000000,0.000000,0.000000,0.002000,0.000000,0.023000,2.360000,-0.010000,0.160000,-0.011340,ResetBack,0.926758,-0.000049,ResetBack,-8234.000000,-0.250000,Hold,0.000000,0.000000,Speed,0.000000,0.000000,Speed,Off,Off,0.000000,FALSE,0,Read: /home/lvuser/scripts/auto_12.bee,File good!,STOP_ALL,STOP_ALL,0.000000,0.000000
04:50:16.376 PM 04/09/2016,Teleop Disabled,10,FALSE,0,NO ERROR,-0.000000,0.000000,-0.000000,0.000000,TRUE,FALSE,TRUE,TRUE,FALSE,FALSE,Disabled,0.000000,-0.331427,-38.798573,TRUE,-3.112274,-54.292969,0.000000,0.000000,0.000000,0.000000,-0.001000,-0.003000,0.022000,2.370000,-0.010000,0.170000,-0.015953,ResetBack,0.926758,-0.000049,ResetBack,-8234.000000,-0.250000,Hold,0.000000,0.000000,Speed,0.000000,0.000000,Speed,Off,Off,0.000000,FALSE,0,Read: /home/lvuser/scripts/auto_12.bee,File good!,STOP_ALL,STOP_ALL,0.000000,0.000000
04:50:16.477 PM 04/09/2016,Teleop Disabled,9,FALSE,0,NO ERROR,-0.000000,0.000000,-0.000000,0.000000,TRUE,FALSE,TRUE,TRUE,FALSE,FALSE,Disabled,0.000000,-0.331427,-38.798573,TRUE,-3.112274,-54.292969,0.000000,0.000000,0.000000,0.000000,0.000000,0.000000,0.023000,2.370000,-0.010000,0.170000,-0.008204,ResetBack,0.926758,-0.000049,ResetBack,-8234.000000,-0.250000,Hold,0.000000,0.000000,Speed,0.000000,0.000000,Speed,Off,Off,0.000000,FALSE,0,Read: /home/lvuser/scripts/auto_12.bee,File good!,STOP_ALL,STOP_ALL,0.000000,0.000000
04:50:16.577 PM 04/09/2016,Teleop Disabled,10,FALSE,0,NO ERROR,-0.000000,0.000000,-0.000000,0.000000,TRUE,FALSE,TRUE,TRUE,FALSE,FALSE,Disabled,0.000000,-0.331427,-38.798573,TRUE,-3.112274,-54.292969,0.000000,0.000000,0.000000,0.000000,0.001000,0.001000,0.019000,2.370000,-0.010000,0.170000,-0.003432,ResetBack,0.926758,-0.000049,ResetBack,-8234.000000,-0.250000,Hold,0.000000,0.000000,Speed,0.000000,0.000000,Speed,Off,Off,0.000000,FALSE,0,Read: /home/lvuser/scripts/auto_12.bee,File good!,STOP_ALL,STOP_ALL,0.000000,0.000000
04:50:16.678 PM 04/09/2016,Teleop Disabled,8,FALSE,0,NO ERROR,-0.000000,0.000000,-0.000000,0.000000,TRUE,FALSE,TRUE,TRUE,FALSE,FALSE,Disabled,0.000000,-0.331427,-38.798573,TRUE,-3.112274,-54.292969,0.000000,0.000000,0.000000,0.000000,0.001000,0.001000,0.019000,2.370000,-0.010000,0.160000,-0.015047,ResetBack,0.926758,-0.000049,ResetBack,-8234.000000,-0.250000,LowGoal,0.000000,-2181.818182,Speed,0.000000,-2181.818182,Speed,Off,Off,0.000000,FALSE,0,Read: /home/lvuser/scripts/auto_12.bee,File good!,STOP_ALL,STOP_ALL,0.000000,0.000000
04:50:16.777 PM 04/09/2016,Teleop Disabled,9,FALSE,0,NO ERROR,-0.000000,0.000000,-0.000000,0.000000,TRUE,FALSE,TRUE,TRUE,FALSE,FALSE,Disabled,0.000000,-0.331427,-38.798573,TRUE,-3.112274,-54.292969,0.000000,0.000000,0.000000,0.000000,-0.002000,-0.001000,0.024000,2.370000,-0.010000,0.160000,-0.007364,ResetBack,0.926758,-0.000049,ResetBack,-8234.000000,-0.250000,LowGoal,0.000000,-2181.818182,Speed,0.000000,-2181.818182,Speed,Off,Off,0.000000,FALSE,0,Read: /home/lvuser/scripts/auto_12.bee,File good!,STOP_ALL,STOP_ALL,0.000000,0.000000
04:50:16.878 PM 04/09/2016,Teleop Disabled,10,FALSE,0,NO ERROR,-0.000000,0.000000,-0.000000,0.000000,TRUE,FALSE,TRUE,TRUE,FALSE,FALSE,Disabled,0.000000,-0.331427,-38.798573,TRUE,-3.112274,-54.292969,0.000000,0.000000,0.000000,0.000000,-0.003000,-0.002000,0.020000,2.370000,-0.010000,0.170000,-0.010799,ResetBack,0.926758,-0.000049,ResetBack,-8234.000000,-0.250000,LowGoal,0.000000,-2181.818182,Speed,0.000000,-2181.818182,Speed,Off,Off,0.000000,FALSE,0,Read: /home/lvuser/scripts/auto_12.bee,File good!,STOP_ALL,STOP_ALL,0.000000,0.000000
04:50:16.978 PM 04/09/2016,Teleop Disabled,10,FALSE,0,NO ERROR,-0.000000,0.000000,-0.000000,0.000000,TRUE,FALSE,TRUE,TRUE,FALSE,FALSE,Disabled,0.000000,-0.331427,-38.798573,TRUE,-3.112274,-54.292969,0.000000,0.000000,0.000000,0.000000,0.001000,-0.001000,0.021000,2.360000,-0.010000,0.160000,-0.013209,ResetBack,0.926758,-0.000049,ResetBack,-8234.000000,-0.250000,LowGoal,0.000000,-2181.818182,Speed,0.000000,-2181.818182,Speed,Off,Off,0.000000,FALSE,0,Read: /home/lvuser/scripts/auto_12.bee,File good!,STOP_ALL,STOP_ALL,0.000000,0.000000
04:50:17.077 PM 04/09/2016,Teleop Disabled,10,FALSE,0,NO ERROR,-0.000000,0.000000,-0.000000,0.000000,TRUE,FALSE,TRUE,TRUE,FALSE,FALSE,Disabled,0.000000,-0.331427,-38.798573,TRUE,-3.112274,-54.292969,0.000000,0.000000,0.000000,0.000000,-0.002000,-0.001000,0.018000,2.370000,-0.010000,0.170000,-0.015918,ResetBack,0.926758,-0.000049,ResetBack,-8234.000000,-0.250000,LowGoal,0.000000,-2181.818182,Speed,0.000000,-2181.818182,Speed,Off,Off,0.000000,FALSE,0,Read: /home/lvuser/scripts/auto_12.bee,File good!,STOP_ALL,STOP_ALL,0.000000,0.000000
04:50:17.179 PM 04/09/2016,Teleop Disabled,9,FALSE,0,NO ERROR,-0.000000,0.000000,-0.000000,0.000000,TRUE,FALSE,TRUE,TRUE,FALSE,FALSE,Disabled,0.000000,-0.331427,-38.798573,TRUE,-3.112274,-54.292969,0.000000,0.000000,0.000000,0.000000,-0.001000,0.000000,0.021000,2.370000,-0.010000,0.170000,-0.002527,ResetBack,0.926758,-0.000049,ResetBack,-8234.000000,-0.250000,LowGoal,0.000000,-2181.818182,Speed,0.000000,-2181.818182,Speed,Off,Off,0.000000,FALSE,0,Read: /home/lvuser/scripts/auto_12.bee,File good!,STOP_ALL,STOP_ALL,0.000000,0.000000
04:50:17.279 PM 04/09/2016,Teleop Disabled,10,FALSE,0,NO ERROR,-0.000000,0.000000,-0.000000,0.000000,TRUE,FALSE,TRUE,TRUE,FALSE,FALSE,Disabled,0.000000,-0.331427,-38.798573,TRUE,-3.112274,-54.292969,0.000000,0.000000,0.000000,0.000000,0.000000,0.000000,0.023000,2.360000,-0.010000,0.160000,-0.008441,ResetBack,0.926758,-0.000049,ResetBack,-8234.000000,-0.250000,LowGoal,0.000000,-2181.818182,Speed,0.000000,-2181.818182,Speed,Off,Off,0.000000,FALSE,0,Read: /home/lvuser/scripts/auto_12.bee,File good!,STOP_ALL,STOP_ALL,0.000000,0.000000
04:50:17.382 PM 04/09/2016,Teleop Disabled,7,FALSE,0,NO ERROR,-0.000000,0.000000,-0.000000,0.000000,TRUE,FALSE,TRUE,TRUE,FALSE,FALSE,Disabled,0.000000,-0.331427,-38.798573,TRUE,-3.112274,-54.292969,0.000000,0.000000,0.000000,0.000000,-0.002000,-0.003000,0.024000,2.370000,-0.010000,0.170000,-0.012786,ResetBack,0.926758,-0.000049,ResetBack,-8234.000000,-0.250000,LowGoal,0.000000,-2181.818182,Speed,0.000000,-2181.818182,Speed,Off,Off,0.000000,FALSE,0,Read: /home/lvuser/scripts/auto_12.bee,File good!,STOP_ALL,STOP_ALL,0.000000,0.000000
04:50:17.486 PM 04/09/2016,Teleop Disabled,10,FALSE,0,NO ERROR,-0.000000,0.000000,-0.000000,0.000000,TRUE,FALSE,TRUE,TRUE,FALSE,FALSE,Disabled,0.000000,-0.331427,-38.798573,TRUE,-3.112274,-54.292969,0.000000,0.000000,0.000000,0.000000,0.000000,0.000000,0.021000,2.370000,-0.010000,0.170000,-0.012786,ResetBack,0.926758,-0.000049,ResetBack,-8234.000000,-0.250000,LowGoal,0.000000,-2181.818182,Speed,0.000000,-2181.818182,Speed,Off,Off,0.000000,FALSE,0,Read: /home/lvuser/scripts/auto_12.bee,File good!,STOP_ALL,STOP_ALL,0.000000,0.000000
04:50:17.583 PM 04/09/2016,Teleop Disabled,10,FALSE,0,NO ERROR,-0.000000,0.000000,-0.000000,0.000000,TRUE,FALSE,TRUE,TRUE,FALSE,FALSE,Disabled,0.000000,-0.331427,-38.798573,TRUE,-3.112274,-54.292969,0.000000,0.000000,0.000000,0.000000,-0.002000,0.000000,0.018000,2.370000,-0.010000,0.170000,-0.012111,ResetBack,0.926758,-0.000049,ResetBack,-8234.000000,-0.250000,LowGoal,0.000000,-2181.818182,Speed,0.000000,-2181.818182,Speed,Off,Off,0.000000,FALSE,0,Read: /home/lvuser/scripts/auto_12.bee,File good!,STOP_ALL,STOP_ALL,0.000000,0.000000
04:50:17.683 PM 04/09/2016,Teleop Disabled,10,FALSE,0,NO ERROR,-0.000000,0.000000,-0.000000,0.000000,TRUE,FALSE,TRUE,TRUE,FALSE,FALSE,Disabled,0.000000,-0.331427,-38.798573,TRUE,-3.112274,-54.292969,0.000000,0.000000,0.000000,0.000000,0.000000,-0.001000,0.023000,2.370000,-0.020000,0.170000,-0.018982,ResetBack,0.926758,-0.000049,ResetBack,-8234.000000,-0.250000,LowGoal,0.000000,-2181.818182,Speed,0.000000,-2181.818182,Speed,Off,Off,0.000000,FALSE,0,Read: /home/lvuser/scripts/auto_12.bee,File good!,STOP_ALL,STOP_ALL,0.000000,0.000000
04:50:17.783 PM 04/09/2016,Teleop Disabled,11,FALSE,0,NO ERROR,-0.000000,0.000000,-0.000000,0.000000,TRUE,FALSE,TRUE,TRUE,FALSE,FALSE,Disabled,0.000000,-0.331427,-38.798573,TRUE,-3.112274,-54.292969,0.000000,0.000000,0.000000,0.000000,-0.001000,0.000000,0.023000,2.370000,-0.020000,0.170000,-0.039927,ResetBack,0.926758,-0.000049,ResetBack,-8234.000000,-0.250000,LowGoal,0.000000,-2181.818182,Speed,0.000000,-2181.818182,Speed,Off,Off,0.000000,FALSE,0,Read: /home/lvuser/scripts/auto_12.bee,File good!,STOP_ALL,STOP_ALL,0.000000,0.000000
04:50:17.884 PM 04/09/2016,Teleop Disabled,11,FALSE,0,NO ERROR,-0.000000,0.000000,-0.000000,0.000000,TRUE,FALSE,TRUE,TRUE,FALSE,FALSE,Disabled,0.000000,-0.331427,-38.798573,TRUE,-3.112274,-54.292969,0.000000,0.000000,0.000000,0.000000,-0.001000,0.000000,0.021000,2.370000,-0.020000,0.170000,-0.032436,ResetBack,0.926758,-0.000049,ResetBack,-8234.000000,-0.250000,LowGoal,0.000000,-2181.818182,Speed,0.000000,-2181.818182,Speed,Off,Off,0.000000,FALSE,0,Read: /home/lvuser/scripts/auto_12.bee,File good!,STOP_ALL,STOP_ALL,0.000000,0.000000
04:50:17.984 PM 04/09/2016,Teleop Disabled,11,FALSE,0,NO ERROR,-0.000000,0.000000,-0.000000,0.000000,TRUE,FALSE,TRUE,TRUE,FALSE,FALSE,Disabled,0.000000,-0.331427,-38.798573,TRUE,-3.112274,-54.292969,0.000000,0.000000,0.000000,0.000000,0.000000,-0.001000,0.022000,2.370000,-0.020000,0.170000,-0.028033,ResetBack,0.926758,-0.000049,ResetBack,-8234.000000,-0.250000,LowGoal,0.000000,-2181.818182,Speed,0.000000,-2181.818182,Speed,Off,Off,0.000000,FALSE,0,Read: /home/lvuser/scripts/auto_12.bee,File good!,STOP_ALL,STOP_ALL,0.000000,0.000000
04:50:18.084 PM 04/09/2016,Teleop Disabled,11,FALSE,0,NO ERROR,-0.000000,0.000000,-0.000000,0.000000,TRUE,FALSE,TRUE,TRUE,FALSE,FALSE,Disabled,0.000000,-0.331427,-38.798573,TRUE,-3.112274,-54.292969,0.000000,0.000000,0.000000,0.000000,0.000000,0.000000,0.022000,2.370000,-0.020000,0.170000,-0.024273,ResetBack,0.926758,-0.000049,ResetBack,-8234.000000,-0.250000,LowGoal,0.000000,-2181.818182,Speed,0.000000,-2181.818182,Speed,Off,Off,0.000000,FALSE,0,Read: /home/lvuser/scripts/auto_12.bee,File good!,STOP_ALL,STOP_ALL,0.000000,0.000000
04:50:18.184 PM 04/09/2016,Teleop Disabled,9,FALSE,0,NO ERROR,-0.000000,0.000000,-0.000000,0.000000,TRUE,FALSE,TRUE,TRUE,FALSE,FALSE,Disabled,0.000000,-0.331427,-38.798573,TRUE,-3.112274,-54.292969,0.000000,0.000000,0.000000,0.000000,0.000000,0.000000,0.024000,2.370000,-0.020000,0.170000,-0.017922,ResetBack,0.926758,-0.000049,ResetBack,-8234.000000,-0.250000,LowGoal,0.000000,-2181.818182,Speed,0.000000,-2181.818182,Speed,Off,Off,0.000000,FALSE,0,Read: /home/lvuser/scripts/auto_12.bee,File good!,STOP_ALL,STOP_ALL,0.000000,0.000000
04:50:18.284 PM 04/09/2016,Teleop Disabled,10,FALSE,0,NO ERROR,-0.000000,0.000000,-0.000000,0.000000,TRUE,FALSE,TRUE,TRUE,FALSE,FALSE,Disabled,0.000000,-0.331427,-38.798573,TRUE,-3.112274,-54.292969,0.000000,0.000000,0.000000,0.000000,0.001000,-0.004000,0.023000,2.370000,-0.020000,0.170000,-0.024511,ResetBack,0.926758,-0.000049,ResetBack,-8234.000000,-0.250000,LowGoal,0.000000,-2181.818182,Speed,0.000000,-2181.818182,Speed,Off,Off,0.000000,FALSE,0,Read: /home/lvuser/scripts/auto_12.bee,File good!,STOP_ALL,STOP_ALL,0.000000,0.000000
04:50:18.385 PM 04/09/2016,Teleop Disabled,9,FALSE,0,NO ERROR,-0.000000,0.000000,-0.000000,0.000000,TRUE,FALSE,TRUE,TRUE,FALSE,FALSE,Disabled,0.000000,-0.331427,-38.798573,TRUE,-3.112274,-54.292969,0.000000,0.000000,0.000000,0.000000,0.001000,0.000000,0.019000,2.370000,-0.020000,0.170000,-0.033654,ResetBack,0.926758,-0.000049,ResetBack,-8234.000000,-0.250000,LowGoal,0.000000,-2181.818182,Speed,0.000000,-2181.818182,Speed,Off,Off,0.000000,FALSE,0,Read: /home/lvuser/scripts/auto_12.bee,File good!,STOP_ALL,STOP_ALL,0.000000,0.000000
04:50:18.484 PM 04/09/2016,Teleop Disabled,11,FALSE,0,NO ERROR,-0.000000,0.000000,-0.000000,0.000000,TRUE,FALSE,TRUE,TRUE,FALSE,FALSE,Disabled,0.000000,-0.331427,-38.798573,TRUE,-3.112274,-54.292969,0.000000,0.000000,0.000000,0.000000,0.000000,0.000000,0.024000,2.370000,-0.020000,0.170000,-0.033713,ResetBack,0.926758,-0.000049,ResetBack,-8234.000000,-0.250000,LowGoal,0.000000,-2181.818182,Speed,0.000000,-2181.818182,Speed,Off,Off,0.000000,FALSE,0,Read: /home/lvuser/scripts/auto_12.bee,File good!,STOP_ALL,STOP_ALL,0.000000,0.000000
04:50:18.585 PM 04/09/2016,Teleop Disabled,9,FALSE,0,NO ERROR,-0.000000,0.000000,-0.000000,0.000000,TRUE,FALSE,TRUE,TRUE,FALSE,FALSE,Disabled,0.000000,-0.331427,-38.798573,TRUE,-3.112274,-54.292969,0.000000,0.000000,0.000000,0.000000,0.000000,0.000000,0.020000,2.380000,-0.020000,0.180000,-0.032952,ResetBack,0.926758,-0.000049,ResetBack,-8234.000000,-0.250000,LowGoal,0.000000,-2181.818182,Speed,0.000000,-2181.818182,Speed,Off,Off,0.000000,FALSE,0,Read: /home/lvuser/scripts/auto_12.bee,File good!,STOP_ALL,STOP_ALL,0.000000,0.000000
04:50:18.685 PM 04/09/2016,Teleop Disabled,9,FALSE,0,NO ERROR,-0.000000,0.000000,-0.000000,0.000000,TRUE,FALSE,TRUE,TRUE,FALSE,FALSE,Disabled,0.000000,-0.331427,-38.798573,TRUE,-3.112274,-54.292969,0.000000,0.000000,0.000000,0.000000,0.001000,-0.001000,0.021000,2.370000,-0.020000,0.180000,-0.031727,ResetBack,0.926758,-0.000049,ResetBack,-8234.000000,-0.250000,LowGoal,0.000000,-2181.818182,Speed,0.000000,-2181.818182,Speed,Off,Off,0.000000,FALSE,0,Read: /home/lvuser/scripts/auto_12.bee,File good!,STOP_ALL,STOP_ALL,0.000000,0.000000
04:50:18.786 PM 04/09/2016,Teleop Disabled,10,FALSE,0,NO ERROR,-0.000000,0.000000,-0.000000,0.000000,TRUE,FALSE,TRUE,TRUE,FALSE,FALSE,Disabled,0.000000,-0.331427,-38.798573,TRUE,-3.112274,-54.292969,0.000000,0.000000,0.000000,0.000000,0.002000,0.000000,0.022000,2.380000,-0.020000,0.180000,-0.015984,ResetBack,0.926758,-0.000049,ResetBack,-8234.000000,-0.250000,LowGoal,0.000000,-2181.818182,Speed,0.000000,-2181.818182,Speed,Off,Off,0.000000,FALSE,0,Read: /home/lvuser/scripts/auto_12.bee,File good!,STOP_ALL,STOP_ALL,0.000000,0.000000
04:50:18.887 PM 04/09/2016,Teleop Disabled,9,FALSE,0,NO ERROR,-0.000000,0.000000,-0.000000,0.000000,TRUE,FALSE,TRUE,TRUE,FALSE,FALSE,Disabled,0.000000,-0.331427,-38.798573,TRUE,-3.112274,-54.292969,0.000000,0.000000,0.000000,0.000000,0.000000,-0.001000,0.023000,2.380000,-0.020000,0.180000,-0.017292,ResetBack,0.926758,-0.000049,ResetBack,-8234.000000,-0.250000,LowGoal,0.000000,-2181.818182,Speed,0.000000,-2181.818182,Speed,Off,Off,0.000000,FALSE,0,Read: /home/lvuser/scripts/auto_12.bee,File good!,STOP_ALL,STOP_ALL,0.000000,0.000000
04:50:18.988 PM 04/09/2016,Teleop Disabled,10,FALSE,0,NO ERROR,-0.000000,0.000000,-0.000000,0.000000,TRUE,TRUE,TRUE,TRUE,FALSE,FALSE,Disabled,0.000000,-0.331427,-38.798573,TRUE,-3.112274,-54.292969,0.000000,0.000000,0.000000,0.000000,-0.001000,0.002000,0.024000,2.370000,-0.020000,0.180000,-0.038422,ResetBack,0.926758,-0.000049,ResetBack,-8234.000000,-0.250000,LowGoal,0.000000,-2181.818182,Speed,0.000000,-2181.818182,Speed,Off,Off,0.000000,FALSE,0,Read: /home/lvuser/scripts/auto_12.bee,File good!,STOP_ALL,STOP_ALL,0.000000,0.000000
04:50:19.088 PM 04/09/2016,Teleop Disabled,10,FALSE,0,NO ERROR,-0.000000,0.000000,-0.000000,0.000000,TRUE,TRUE,TRUE,TRUE,FALSE,FALSE,Disabled,0.000000,-0.331427,-38.798573,TRUE,-3.112274,-54.292969,0.000000,0.000000,0.000000,0.000000,0.004000,0.000000,0.019000,2.370000,-0.020000,0.170000,-0.049518,ResetBack,0.926758,-0.000049,ResetBack,-8234.000000,-0.250000,LowGoal,0.000000,0.000000,Speed,0.000000,0.000000,Speed,Off,Off,0.000000,FALSE,0,Read: /home/lvuser/scripts/auto_12.bee,File good!,STOP_ALL,STOP_ALL,0.000000,0.000000
04:50:19.190 PM 04/09/2016,Teleop Disabled,11,FALSE,0,NO ERROR,-0.000000,0.000000,-0.000000,0.000000,TRUE,FALSE,TRUE,TRUE,FALSE,FALSE,Disabled,0.000000,-0.331427,-38.798573,TRUE,-3.112274,-54.292969,0.000000,0.000000,0.000000,0.000000,0.003000,0.000000,0.021000,2.370000,-0.020000,0.170000,-0.040113,ResetBack,0.926758,-0.000049,ResetBack,-8234.000000,-0.250000,LowGoal,0.000000,0.000000,Speed,0.000000,0.000000,Speed,Off,Off,0.000000,FALSE,0,Read: /home/lvuser/scripts/auto_12.bee,File good!,STOP_ALL,STOP_ALL,0.000000,0.000000
04:50:19.290 PM 04/09/2016,Teleop Disabled,11,FALSE,0,NO ERROR,-0.000000,0.000000,-0.000000,0.000000,TRUE,FALSE,TRUE,TRUE,FALSE,FALSE,Disabled,0.000000,-0.331427,-38.798573,TRUE,-3.112274,-54.292969,0.000000,0.000000,0.000000,0.000000,0.000000,0.002000,0.023000,2.370000,-0.020000,0.170000,-0.032580,ResetBack,0.926758,-0.000049,ResetBack,-8234.000000,-0.250000,LowGoal,0.000000,-2181.818182,Speed,0.000000,-2181.818182,Speed,Off,Off,0.000000,FALSE,0,Read: /home/lvuser/scripts/auto_12.bee,File good!,STOP_ALL,STOP_ALL,0.000000,0.000000
04:50:19.390 PM 04/09/2016,Teleop Disabled,10,FALSE,0,NO ERROR,-0.000000,0.000000,-0.000000,0.000000,TRUE,FALSE,TRUE,TRUE,FALSE,FALSE,Disabled,0.000000,-0.331427,-38.798573,TRUE,-3.112274,-54.292969,0.000000,0.000000,0.000000,0.000000,0.000000,0.000000,0.025000,2.370000,-0.030000,0.180000,-0.029961,ResetBack,0.926758,-0.000049,ResetBack,-8234.000000,-0.250000,LowGoal,0.000000,-2181.818182,Speed,0.000000,-2181.818182,Speed,Off,Off,0.000000,FALSE,0,Read: /home/lvuser/scripts/auto_12.bee,File good!,STOP_ALL,STOP_ALL,0.000000,0.000000
04:50:19.491 PM 04/09/2016,Teleop Disabled,11,FALSE,0,NO ERROR,-0.000000,0.000000,-0.000000,0.000000,TRUE,FALSE,TRUE,TRUE,FALSE,FALSE,Disabled,0.000000,-0.331427,-38.798573,TRUE,-3.112274,-54.292969,0.000000,0.000000,0.000000,0.000000,-0.001000,0.000000,0.021000,2.370000,-0.030000,0.170000,-0.029489,ResetBack,0.926758,-0.000049,ResetBack,-8234.000000,-0.250000,LowGoal,0.000000,-2181.818182,Speed,0.000000,-2181.818182,Speed,Off,Off,0.000000,FALSE,0,Read: /home/lvuser/scripts/auto_12.bee,File good!,STOP_ALL,STOP_ALL,0.000000,0.000000
04:50:19.591 PM 04/09/2016,Teleop Disabled,11,FALSE,0,NO ERROR,-0.000000,0.000000,-0.000000,0.000000,TRUE,FALSE,TRUE,TRUE,FALSE,FALSE,Disabled,0.000000,-0.331427,-38.798573,TRUE,-3.112274,-54.292969,0.000000,0.000000,0.000000,0.000000,0.003000,0.000000,0.021000,2.360000,-0.030000,0.160000,-0.022235,ResetBack,0.926758,-0.000049,ResetBack,-8234.000000,-0.250000,LowGoal,0.000000,-2181.818182,Speed,0.000000,-2181.818182,Speed,Off,Off,0.000000,FALSE,0,Read: /home/lvuser/scripts/auto_12.bee,File good!,STOP_ALL,STOP_ALL,0.000000,0.000000
04:50:19.692 PM 04/09/2016,Teleop Disabled,9,FALSE,0,NO ERROR,-0.000000,0.000000,-0.000000,0.000000,TRUE,FALSE,TRUE,TRUE,FALSE,FALSE,Disabled,0.000000,-0.331427,-38.798573,TRUE,-3.112274,-54.292969,0.000000,0.000000,0.000000,0.000000,0.001000,0.004000,0.020000,2.360000,-0.020000,0.160000,-0.017905,ResetBack,0.926758,-0.000049,ResetBack,-8234.000000,-0.250000,LowGoal,0.000000,-2181.818182,Speed,0.000000,-2181.818182,Speed,Off,Off,0.000000,FALSE,0,Read: /home/lvuser/scripts/auto_12.bee,File good!,STOP_ALL,STOP_ALL,0.000000,0.000000
04:50:19.792 PM 04/09/2016,Teleop Disabled,11,FALSE,0,NO ERROR,-0.000000,0.000000,-0.000000,0.000000,TRUE,FALSE,TRUE,TRUE,FALSE,FALSE,Disabled,0.000000,-0.331427,-38.798573,TRUE,-3.112274,-54.292969,0.000000,0.000000,0.000000,0.000000,-0.003000,0.000000,0.019000,2.360000,-0.020000,0.160000,-0.018018,ResetBack,0.926758,-0.000049,ResetBack,-8234.000000,-0.250000,LowGoal,0.000000,-2181.818182,Speed,0.000000,-2181.818182,Speed,Off,Off,0.000000,FALSE,0,Read: /home/lvuser/scripts/auto_12.bee,File good!,STOP_ALL,STOP_ALL,0.000000,0.000000
04:50:19.892 PM 04/09/2016,Teleop Disabled,9,FALSE,0,NO ERROR,-0.000000,0.000000,-0.000000,0.000000,TRUE,FALSE,TRUE,TRUE,FALSE,FALSE,Disabled,0.000000,-0.331427,-38.798573,TRUE,-3.112274,-54.292969,0.000000,0.000000,0.000000,0.000000,-0.002000,0.000000,0.018000,2.350000,-0.020000,0.150000,-0.026198,ResetBack,0.926758,-0.000049,ResetBack,-8234.000000,-0.250000,LowGoal,0.000000,-2181.818182,Speed,0.000000,-2181.818182,Speed,Off,Off,0.000000,FALSE,0,Read: /home/lvuser/scripts/auto_12.bee,File good!,STOP_ALL,STOP_ALL,0.000000,0.000000
04:50:19.992 PM 04/09/2016,Teleop Disabled,11,FALSE,0,NO ERROR,-0.000000,0.000000,-0.000000,0.000000,TRUE,FALSE,TRUE,TRUE,FALSE,FALSE,Disabled,0.000000,-0.331427,-38.798573,TRUE,-3.112274,-54.292969,0.000000,0.000000,0.000000,0.000000,0.001000,0.001000,0.018000,2.350000,-0.020000,0.150000,-0.017808,ResetBack,0.926758,-0.000049,ResetBack,-8234.000000,-0.250000,LowGoal,0.000000,-2181.818182,Speed,0.000000,-2181.818182,Speed,Off,Off,0.000000,FALSE,0,Read: /home/lvuser/scripts/auto_12.bee,File good!,STOP_ALL,STOP_ALL,0.000000,0.000000
04:50:20.092 PM 04/09/2016,Teleop Disabled,18,FALSE,0,NO ERROR,-0.000000,0.000000,-0.000000,0.000000,TRUE,FALSE,TRUE,TRUE,FALSE,FALSE,Disabled,0.000000,-0.331427,-38.798573,TRUE,-3.112274,-54.292969,0.000000,0.000000,0.000000,0.000000,0.000000,-0.001000,0.021000,2.350000,-0.020000,0.150000,-0.010617,ResetBack,0.926758,-0.000049,ResetBack,-8234.000000,-0.250000,LowGoal,0.000000,-2181.818182,Speed,0.000000,-2181.818182,Speed,Off,Off,0.000000,FALSE,0,Read: /home/lvuser/scripts/auto_12.bee,File good!,STOP_ALL,STOP_ALL,0.000000,0.000000
04:50:20.193 PM 04/09/2016,Teleop Disabled,8,FALSE,0,NO ERROR,-0.000000,0.000000,-0.000000,0.000000,TRUE,FALSE,TRUE,TRUE,FALSE,FALSE,Disabled,0.000000,-0.331427,-38.798573,TRUE,-3.112274,-54.292969,0.000000,0.000000,0.000000,0.000000,0.000000,0.000000,0.020000,2.350000,-0.020000,0.150000,-0.002768,ResetBack,0.926758,-0.000049,ResetBack,-8234.000000,-0.250000,LowGoal,0.000000,-2181.818182,Speed,0.000000,-2181.818182,Speed,Off,Off,0.000000,FALSE,0,Read: /home/lvuser/scripts/auto_12.bee,File good!,STOP_ALL,STOP_ALL,0.000000,0.000000
04:50:20.294 PM 04/09/2016,Teleop Disabled,9,FALSE,0,NO ERROR,-0.000000,0.000000,-0.000000,0.000000,TRUE,FALSE,TRUE,TRUE,FALSE,FALSE,Disabled,0.000000,-0.331427,-38.798573,TRUE,-3.112274,-54.292969,0.000000,0.000000,0.000000,0.000000,0.003000,0.001000,0.024000,2.350000,-0.020000,0.150000,0.008995,ResetBack,0.926758,-0.000049,ResetBack,-8234.000000,-0.250000,LowGoal,0.000000,-2181.818182,Speed,0.000000,-2181.818182,Speed,Off,Off,0.000000,FALSE,0,Read: /home/lvuser/scripts/auto_12.bee,File good!,STOP_ALL,STOP_ALL,0.000000,0.000000
04:50:20.395 PM 04/09/2016,Teleop Disabled,10,FALSE,0,NO ERROR,-0.000000,0.000000,-0.000000,0.000000,TRUE,FALSE,TRUE,TRUE,FALSE,FALSE,Disabled,0.000000,-0.331427,-38.798573,TRUE,-3.112274,-54.292969,0.000000,0.000000,0.000000,0.000000,0.000000,0.000000,0.019000,2.350000,-0.020000,0.150000,-0.005849,ResetBack,0.926758,-0.000049,ResetBack,-8234.000000,-0.250000,LowGoal,0.000000,-2181.818182,Speed,0.000000,-2181.818182,Speed,Off,Off,0.000000,FALSE,0,Read: /home/lvuser/scripts/auto_12.bee,File good!,STOP_ALL,STOP_ALL,0.000000,0.000000
04:50:20.495 PM 04/09/2016,Teleop Disabled,9,FALSE,0,NO ERROR,-0.000000,0.000000,-0.000000,0.000000,TRUE,FALSE,TRUE,TRUE,FALSE,FALSE,Disabled,0.000000,-0.331427,-38.798573,TRUE,-3.112274,-54.292969,0.000000,0.000000,0.000000,0.000000,-0.002000,0.002000,0.022000,2.350000,-0.020000,0.150000,0.005174,ResetBack,0.926758,-0.000049,ResetBack,-8234.000000,-0.250000,LowGoal,0.000000,-2181.818182,Speed,0.000000,-2181.818182,Speed,Off,Off,0.000000,FALSE,0,Read: /home/lvuser/scripts/auto_12.bee,File good!,STOP_ALL,STOP_ALL,0.000000,0.000000
04:50:20.595 PM 04/09/2016,Teleop Disabled,10,FALSE,0,NO ERROR,-0.000000,0.000000,-0.000000,0.000000,TRUE,FALSE,TRUE,TRUE,FALSE,FALSE,Disabled,0.000000,-0.331427,-38.798573,TRUE,-3.112274,-54.292969,0.000000,0.000000,0.000000,0.000000,0.000000,0.000000,0.020000,2.350000,-0.020000,0.140000,-0.013467,ResetBack,0.926758,-0.000049,ResetBack,-8234.000000,-0.250000,LowGoal,0.000000,-2181.818182,Speed,0.000000,-2181.818182,Speed,Off,Off,0.000000,FALSE,0,Read: /home/lvuser/scripts/auto_12.bee,File good!,STOP_ALL,STOP_ALL,0.000000,0.000000
04:50:20.695 PM 04/09/2016,Teleop Disabled,8,FALSE,0,NO ERROR,-0.000000,0.000000,-0.000000,0.000000,TRUE,FALSE,TRUE,TRUE,FALSE,FALSE,Disabled,0.000000,-0.331427,-38.798573,TRUE,-3.112274,-54.292969,0.000000,0.000000,0.000000,0.000000,0.002000,0.003000,0.021000,2.350000,-0.020000,0.140000,-0.031606,ResetBack,0.926758,-0.000049,ResetBack,-8234.000000,-0.250000,LowGoal,0.000000,-2181.818182,Speed,0.000000,-2181.818182,Speed,Off,Off,0.000000,FALSE,0,Read: /home/lvuser/scripts/auto_12.bee,File good!,STOP_ALL,STOP_ALL,0.000000,0.000000
04:50:20.797 PM 04/09/2016,Teleop Disabled,9,FALSE,0,NO ERROR,-0.000000,0.000000,-0.000000,0.000000,TRUE,FALSE,TRUE,TRUE,FALSE,FALSE,Disabled,0.000000,-0.331427,-38.798573,TRUE,-3.112274,-54.292969,0.000000,0.000000,0.000000,0.000000,0.002000,0.003000,0.021000,2.350000,-0.020000,0.140000,-0.042175,ResetBack,0.926758,-0.000049,ResetBack,-8234.000000,-0.250000,LowGoal,0.000000,-2181.818182,Speed,0.000000,-2181.818182,Speed,Off,Off,0.000000,FALSE,0,Read: /home/lvuser/scripts/auto_12.bee,File good!,STOP_ALL,STOP_ALL,0.000000,0.000000
04:50:20.898 PM 04/09/2016,Teleop Disabled,9,FALSE,0,NO ERROR,-0.000000,0.000000,-0.000000,0.000000,TRUE,FALSE,TRUE,TRUE,FALSE,FALSE,Disabled,0.000000,-0.331427,-38.798573,TRUE,-3.112274,-54.292969,0.000000,0.000000,0.000000,0.000000,0.000000,0.000000,0.023000,2.350000,-0.020000,0.130000,-0.043121,ResetBack,0.926758,-0.000049,ResetBack,-8234.000000,-0.250000,LowGoal,0.000000,-2181.818182,Speed,0.000000,-2181.818182,Speed,Off,Off,0.000000,FALSE,0,Read: /home/lvuser/scripts/auto_12.bee,File good!,STOP_ALL,STOP_ALL,0.000000,0.000000
04:50:20.998 PM 04/09/2016,Teleop Disabled,11,FALSE,0,NO ERROR,-0.000000,0.000000,-0.000000,0.000000,TRUE,FALSE,TRUE,TRUE,FALSE,FALSE,Disabled,0.000000,-0.331427,-38.798573,TRUE,-3.112274,-54.292969,0.000000,0.000000,0.000000,0.000000,0.000000,-0.001000,0.021000,2.350000,-0.020000,0.130000,-0.029214,ResetBack,0.926758,-0.000049,ResetBack,-8234.000000,-0.250000,LowGoal,0.000000,-2181.818182,Speed,0.000000,-2181.818182,Speed,Off,Off,0.000000,FALSE,0,Read: /home/lvuser/scripts/auto_12.bee,File good!,STOP_ALL,STOP_ALL,0.000000,0.000000
04:50:21.098 PM 04/09/2016,Teleop Disabled,10,FALSE,0,NO ERROR,-0.000000,0.000000,-0.000000,0.000000,TRUE,FALSE,TRUE,TRUE,FALSE,FALSE,Disabled,0.000000,-0.331427,-38.798573,TRUE,-3.112274,-54.292969,0.000000,0.000000,0.000000,0.000000,0.000000,-0.001000,0.021000,2.340000,-0.020000,0.130000,-0.032047,ResetBack,0.926758,-0.000049,ResetBack,-8234.000000,-0.250000,LowGoal,0.000000,-2181.818182,Speed,0.000000,-2181.818182,Speed,Off,Off,0.000000,FALSE,0,Read: /home/lvuser/scripts/auto_12.bee,File good!,STOP_ALL,STOP_ALL,0.000000,0.000000
04:50:21.199 PM 04/09/2016,Teleop Disabled,10,FALSE,0,NO ERROR,-0.000000,0.000000,-0.000000,0.000000,TRUE,FALSE,TRUE,TRUE,FALSE,FALSE,Disabled,0.000000,-0.331427,-38.798573,TRUE,-3.112274,-54.292969,0.000000,0.000000,0.000000,0.000000,0.000000,0.000000,0.020000,2.340000,-0.020000,0.130000,-0.035149,ResetBack,0.926758,-0.000049,ResetBack,-8234.000000,-0.250000,LowGoal,0.000000,-2181.818182,Speed,0.000000,-2181.818182,Speed,Off,Off,0.000000,FALSE,0,Read: /home/lvuser/scripts/auto_12.bee,File good!,STOP_ALL,STOP_ALL,0.000000,0.000000
04:50:21.302 PM 04/09/2016,Teleop Disabled,9,FALSE,0,NO ERROR,-0.000000,0.000000,-0.000000,0.000000,TRUE,FALSE,TRUE,TRUE,FALSE,FALSE,Disabled,0.000000,-0.331427,-38.798573,TRUE,-3.112274,-54.292969,0.000000,0.000000,0.000000,0.000000,0.000000,-0.004000,0.025000,2.340000,-0.020000,0.130000,-0.038199,ResetBack,0.926758,-0.000049,ResetBack,-8234.000000,-0.250000,LowGoal,0.000000,-2181.818182,Speed,0.000000,-2181.818182,Speed,Off,Off,0.000000,FALSE,0,Read: /home/lvuser/scripts/auto_12.bee,File good!,STOP_ALL,STOP_ALL,0.000000,0.000000
04:50:21.402 PM 04/09/2016,Teleop Disabled,10,FALSE,0,NO ERROR,-0.000000,0.000000,-0.000000,0.000000,TRUE,FALSE,TRUE,TRUE,FALSE,FALSE,Disabled,0.000000,-0.331427,-38.798573,TRUE,-3.112274,-54.292969,0.000000,0.000000,0.000000,0.000000,0.000000,-0.004000,0.025000,2.340000,-0.020000,0.130000,-0.054444,ResetBack,0.926758,-0.000049,ResetBack,-8234.000000,-0.250000,LowGoal,0.000000,-2181.818182,Speed,0.000000,-2181.818182,Speed,Off,Off,0.000000,FALSE,0,Read: /home/lvuser/scripts/auto_12.bee,File good!,STOP_ALL,STOP_ALL,0.000000,0.000000
04:50:21.503 PM 04/09/2016,Autonomous Disabled,10,FALSE,0,NO ERROR,-0.000000,0.000000,-0.000000,0.000000,TRUE,FALSE,TRUE,TRUE,FALSE,FALSE,Disabled,0.000000,-0.331427,-38.798573,TRUE,-3.112274,-54.292969,0.000000,0.000000,0.000000,0.000000,0.001000,-0.002000,0.020000,2.330000,-0.020000,0.120000,-0.057776,ResetBack,0.926758,-0.000049,ResetBack,-8234.000000,-0.250000,LowGoal,0.000000,-2181.818182,Speed,0.000000,-2181.818182,Speed,Off,Off,0.000000,FALSE,0,Read: /home/lvuser/scripts/auto_12.bee,File good!,STOP_ALL,STOP_ALL,0.000000,0.000000
04:50:21.604 PM 04/09/2016,Autonomous Disabled,11,FALSE,0,NO ERROR,-0.000000,0.000000,-0.000000,0.000000,TRUE,TRUE,TRUE,TRUE,FALSE,FALSE,Disabled,0.000000,-0.331427,-38.798573,TRUE,-3.112274,-54.292969,0.000000,0.000000,0.000000,0.000000,-0.001000,0.001000,0.022000,2.330000,-0.020000,0.120000,-0.066552,ResetBack,0.926758,-0.000049,ResetBack,-8234.000000,-0.250000,LowGoal,0.000000,-2181.818182,Speed,0.000000,-2181.818182,Speed,Off,Off,0.000000,FALSE,0,Read: /home/lvuser/scripts/auto_12.bee,File good!,STOP_ALL,STOP_ALL,0.000000,0.000000
04:50:21.703 PM 04/09/2016,Autonomous Disabled,11,FALSE,0,NO ERROR,-0.000000,0.000000,-0.000000,0.000000,TRUE,TRUE,TRUE,TRUE,FALSE,FALSE,Disabled,0.000000,-0.331427,-38.798573,TRUE,-3.112274,-54.292969,0.000000,0.000000,0.000000,0.000000,0.000000,0.001000,0.020000,2.330000,-0.020000,0.130000,-0.070807,ResetBack,0.926758,-0.000049,ResetBack,-8234.000000,-0.250000,LowGoal,0.000000,0.000000,Speed,0.000000,0.000000,Speed,Off,Off,0.000000,FALSE,0,Read: /home/lvuser/scripts/auto_12.bee,File good!,STOP_ALL,STOP_ALL,0.000000,0.000000
04:50:21.804 PM 04/09/2016,Autonomous Disabled,10,FALSE,0,NO ERROR,-0.000000,0.000000,-0.000000,0.000000,TRUE,FALSE,TRUE,TRUE,FALSE,FALSE,Disabled,0.000000,-0.331427,-38.798573,TRUE,-3.112274,-54.292969,0.000000,0.000000,0.000000,0.000000,-0.001000,0.000000,0.025000,2.330000,-0.020000,0.130000,-0.062107,ResetBack,0.926758,-0.000049,ResetBack,-8234.000000,-0.250000,LowGoal,0.000000,0.000000,Speed,0.000000,0.000000,Speed,Off,Off,0.000000,FALSE,0,Read: /home/lvuser/scripts/auto_12.bee,File good!,STOP_ALL,STOP_ALL,0.000000,0.000000
04:50:21.906 PM 04/09/2016,Autonomous Disabled,10,FALSE,0,NO ERROR,-0.000000,0.000000,-0.000000,0.000000,TRUE,FALSE,TRUE,TRUE,FALSE,FALSE,Disabled,0.000000,-0.331427,-38.798573,TRUE,-3.112274,-54.292969,0.000000,0.000000,0.000000,0.000000,0.004000,-0.001000,0.022000,2.330000,-0.020000,0.130000,-0.058403,ResetBack,0.926758,-0.000049,ResetBack,-8234.000000,-0.250000,LowGoal,0.000000,-2181.818182,Speed,0.000000,-2181.818182,Speed,Off,Off,0.000000,FALSE,0,Read: /home/lvuser/scripts/auto_12.bee,File good!,STOP_ALL,STOP_ALL,0.000000,0.000000
04:50:22.006 PM 04/09/2016,Autonomous Disabled,9,FALSE,0,NO ERROR,-0.000000,0.000000,-0.000000,0.000000,TRUE,FALSE,TRUE,TRUE,FALSE,FALSE,Disabled,0.000000,-0.331427,-38.798573,TRUE,-3.112274,-54.292969,0.000000,0.000000,0.000000,0.000000,-0.002000,0.002000,0.023000,2.330000,-0.020000,0.130000,-0.062204,ResetBack,0.926758,-0.000049,ResetBack,-8234.000000,-0.250000,LowGoal,0.000000,-2181.818182,Speed,0.000000,-2181.818182,Speed,Off,Off,0.000000,FALSE,0,Read: /home/lvuser/scripts/auto_12.bee,File good!,STOP_ALL,STOP_ALL,0.000000,0.000000
04:50:22.107 PM 04/09/2016,Autonomous Disabled,10,FALSE,0,NO ERROR,-0.000000,0.000000,-0.000000,0.000000,TRUE,FALSE,TRUE,TRUE,FALSE,FALSE,Disabled,0.000000,-0.331427,-38.798573,TRUE,-3.112274,-54.292969,0.000000,0.000000,0.000000,0.000000,0.001000,0.000000,0.021000,2.330000,-0.020000,0.130000,-0.069302,ResetBack,0.926758,-0.000049,ResetBack,-8234.000000,-0.250000,LowGoal,0.000000,-2181.818182,Speed,0.000000,-2181.818182,Speed,Off,Off,0.000000,FALSE,0,Read: /home/lvuser/scripts/auto_12.bee,File good!,STOP_ALL,STOP_ALL,0.000000,0.000000
04:50:22.214 PM 04/09/2016,Autonomous Disabled,10,FALSE,0,NO ERROR,-0.000000,0.000000,-0.000000,0.000000,TRUE,FALSE,TRUE,TRUE,FALSE,FALSE,Disabled,0.000000,-0.331427,-38.798573,TRUE,-3.112274,-54.292969,0.000000,0.000000,0.000000,0.000000,0.002000,0.001000,0.023000,2.330000,-0.020000,0.130000,-0.062630,ResetBack,0.926758,-0.000049,ResetBack,-8234.000000,-0.250000,LowGoal,0.000000,-2181.818182,Speed,0.000000,-2181.818182,Speed,Off,Off,0.000000,FALSE,0,Read: /home/lvuser/scripts/auto_12.bee,File good!,STOP_ALL,STOP_ALL,0.000000,0.000000
04:50:22.315 PM 04/09/2016,Autonomous Disabled,9,FALSE,0,NO ERROR,-0.000000,0.000000,-0.000000,0.000000,TRUE,FALSE,TRUE,TRUE,FALSE,FALSE,Disabled,0.000000,-0.331427,-38.798573,TRUE,-3.112274,-54.292969,0.000000,0.000000,0.000000,0.000000,0.000000,-0.002000,0.022000,2.330000,-0.020000,0.120000,-0.065209,ResetBack,0.926758,-0.000049,ResetBack,-8234.000000,-0.250000,LowGoal,0.000000,-2181.818182,Speed,0.000000,-2181.818182,Speed,Off,Off,0.000000,FALSE,0,Read: /home/lvuser/scripts/auto_12.bee,File good!,STOP_ALL,STOP_ALL,0.000000,0.000000
04:50:22.416 PM 04/09/2016,Autonomous Disabled,9,FALSE,0,NO ERROR,-0.000000,0.000000,-0.000000,0.000000,TRUE,FALSE,TRUE,TRUE,FALSE,FALSE,Disabled,0.000000,-0.331427,-38.798573,TRUE,-3.112274,-54.292969,0.000000,0.000000,0.000000,0.000000,0.002000,0.001000,0.021000,2.330000,-0.020000,0.120000,-0.075884,ResetBack,0.926758,-0.000049,ResetBack,-8234.000000,-0.250000,LowGoal,0.000000,-2181.818182,Speed,0.000000,-2181.818182,Speed,Off,Off,0.000000,FALSE,0,Read: /home/lvuser/scripts/auto_12.bee,File good!,STOP_ALL,STOP_ALL,0.000000,0.000000
04:50:22.516 PM 04/09/2016,Autonomous Disabled,9,FALSE,0,NO ERROR,-0.000000,0.000000,-0.000000,0.000000,TRUE,FALSE,TRUE,TRUE,FALSE,FALSE,Disabled,0.000000,-0.331427,-38.798573,TRUE,-3.112274,-54.292969,0.000000,0.000000,0.000000,0.000000,0.000000,-0.001000,0.017000,2.320000,-0.010000,0.120000,-0.085630,ResetBack,0.926758,-0.000049,ResetBack,-8234.000000,-0.250000,LowGoal,0.000000,-2181.818182,Speed,0.000000,-2181.818182,Speed,Off,Off,0.000000,FALSE,0,Read: /home/lvuser/scripts/auto_12.bee,File good!,STOP_ALL,STOP_ALL,0.000000,0.000000
04:50:22.617 PM 04/09/2016,Autonomous Disabled,10,FALSE,0,NO ERROR,-0.000000,0.000000,-0.000000,0.000000,TRUE,FALSE,TRUE,TRUE,FALSE,FALSE,Disabled,0.000000,-0.331427,-38.798573,TRUE,-3.112274,-54.292969,0.000000,0.000000,0.000000,0.000000,0.000000,0.001000,0.018000,2.320000,-0.010000,0.120000,-0.075378,ResetBack,0.926758,-0.000049,ResetBack,-8234.000000,-0.250000,LowGoal,0.000000,-2181.818182,Speed,0.000000,-2181.818182,Speed,Off,Off,0.000000,FALSE,0,Read: /home/lvuser/scripts/auto_12.bee,File good!,STOP_ALL,STOP_ALL,0.000000,0.000000
04:50:22.717 PM 04/09/2016,Autonomous Disabled,9,FALSE,0,NO ERROR,-0.000000,0.000000,-0.000000,0.000000,TRUE,FALSE,TRUE,TRUE,FALSE,FALSE,Disabled,0.000000,-0.331427,-38.798573,TRUE,-3.112274,-54.292969,0.000000,0.000000,0.000000,0.000000,0.000000,0.000000,0.020000,2.320000,-0.010000,0.120000,-0.085644,ResetBack,0.926758,-0.000049,ResetBack,-8234.000000,-0.250000,LowGoal,0.000000,-2181.818182,Speed,0.000000,-2181.818182,Speed,Off,Off,0.000000,FALSE,0,Read: /home/lvuser/scripts/auto_12.bee,File good!,STOP_ALL,STOP_ALL,0.000000,0.000000
04:50:22.817 PM 04/09/2016,Autonomous Disabled,10,FALSE,0,NO ERROR,-0.000000,0.000000,-0.000000,0.000000,TRUE,FALSE,TRUE,TRUE,FALSE,FALSE,Disabled,0.000000,-0.331427,-38.798573,TRUE,-3.112274,-54.292969,0.000000,0.000000,0.000000,0.000000,0.000000,0.000000,0.018000,2.320000,-0.010000,0.120000,-0.077747,ResetBack,0.926758,-0.000049,ResetBack,-8234.000000,-0.250000,LowGoal,0.000000,-2181.818182,Speed,0.000000,-2181.818182,Speed,Off,Off,0.000000,FALSE,0,Read: /home/lvuser/scripts/auto_12.bee,File good!,STOP_ALL,STOP_ALL,0.000000,0.000000
04:50:22.918 PM 04/09/2016,Autonomous Disabled,10,FALSE,0,NO ERROR,-0.000000,0.000000,-0.000000,0.000000,TRUE,FALSE,TRUE,TRUE,FALSE,FALSE,Disabled,0.000000,-0.331427,-38.798573,TRUE,-3.112274,-54.292969,0.000000,0.000000,0.000000,0.000000,0.002000,0.002000,0.021000,2.320000,-0.010000,0.120000,-0.083902,ResetBack,0.926758,-0.000049,ResetBack,-8234.000000,-0.250000,LowGoal,0.000000,-2181.818182,Speed,0.000000,-2181.818182,Speed,Off,Off,0.000000,FALSE,0,Read: /home/lvuser/scripts/auto_12.bee,File good!,STOP_ALL,STOP_ALL,0.000000,0.000000
04:50:23.020 PM 04/09/2016,Autonomous Disabled,9,FALSE,0,NO ERROR,-0.000000,0.000000,-0.000000,0.000000,TRUE,FALSE,TRUE,TRUE,FALSE,FALSE,Disabled,0.000000,-0.331427,-38.798573,TRUE,-3.112274,-54.292969,0.000000,0.000000,0.000000,0.000000,0.001000,-0.001000,0.021000,2.330000,-0.010000,0.120000,-0.085881,ResetBack,0.926758,-0.000049,ResetBack,-8234.000000,-0.250000,LowGoal,0.000000,-2181.818182,Speed,0.000000,-2181.818182,Speed,Off,Off,0.000000,FALSE,0,Read: /home/lvuser/scripts/auto_12.bee,File good!,STOP_ALL,STOP_ALL,0.000000,0.000000
04:50:23.120 PM 04/09/2016,Autonomous Disabled,10,FALSE,0,NO ERROR,-0.000000,0.000000,-0.000000,0.000000,TRUE,FALSE,TRUE,TRUE,FALSE,FALSE,Disabled,0.000000,-0.331427,-38.798573,TRUE,-3.112274,-54.292969,0.000000,0.000000,0.000000,0.000000,0.000000,0.001000,0.025000,2.320000,-0.010000,0.110000,-0.085881,ResetBack,0.926758,-0.000049,ResetBack,-8234.000000,-0.250000,LowGoal,0.000000,-2181.818182,Speed,0.000000,-2181.818182,Speed,Off,Off,0.000000,FALSE,0,Read: /home/lvuser/scripts/auto_12.bee,File good!,STOP_ALL,STOP_ALL,0.000000,0.000000
04:50:23.220 PM 04/09/2016,Autonomous Disabled,9,FALSE,0,NO ERROR,-0.000000,0.000000,-0.000000,0.000000,TRUE,FALSE,TRUE,TRUE,FALSE,FALSE,Disabled,0.000000,-0.331427,-38.798573,TRUE,-3.112274,-54.292969,0.000000,0.000000,0.000000,0.000000,0.000000,0.000000,0.025000,2.320000,0.000000,0.110000,-0.095559,ResetBack,0.926758,-0.000049,ResetBack,-8234.000000,-0.250000,LowGoal,0.000000,-2181.818182,Speed,0.000000,-2181.818182,Speed,Off,Off,0.000000,FALSE,0,Read: /home/lvuser/scripts/auto_12.bee,File good!,STOP_ALL,STOP_ALL,0.000000,0.000000
04:50:23.321 PM 04/09/2016,Autonomous Disabled,9,FALSE,0,NO ERROR,-0.000000,0.000000,-0.000000,0.000000,TRUE,FALSE,TRUE,TRUE,FALSE,FALSE,Disabled,0.000000,-0.331427,-38.798573,TRUE,-3.112274,-54.292969,0.000000,0.000000,0.000000,0.000000,0.002000,0.000000,0.022000,2.320000,0.000000,0.110000,-0.085437,ResetBack,0.926758,-0.000049,ResetBack,-8234.000000,-0.250000,LowGoal,0.000000,-2181.818182,Speed,0.000000,-2181.818182,Speed,Off,Off,0.000000,FALSE,0,Read: /home/lvuser/scripts/auto_12.bee,File good!,STOP_ALL,STOP_ALL,0.000000,0.000000
04:50:23.421 PM 04/09/2016,Autonomous Disabled,9,FALSE,0,NO ERROR,-0.000000,0.000000,-0.000000,0.000000,TRUE,FALSE,TRUE,TRUE,FALSE,FALSE,Disabled,0.000000,-0.331427,-38.798573,TRUE,-3.112274,-54.292969,0.000000,0.000000,0.000000,0.000000,0.003000,0.001000,0.020000,2.320000,0.000000,0.110000,-0.099063,ResetBack,0.926758,-0.000049,ResetBack,-8234.000000,-0.250000,LowGoal,0.000000,-2181.818182,Speed,0.000000,-2181.818182,Speed,Off,Off,0.000000,FALSE,0,Read: /home/lvuser/scripts/auto_12.bee,File good!,STOP_ALL,STOP_ALL,0.000000,0.000000
04:50:23.524 PM 04/09/2016,Autonomous Disabled,11,FALSE,0,NO ERROR,-0.000000,0.000000,-0.000000,0.000000,TRUE,FALSE,TRUE,TRUE,FALSE,FALSE,Disabled,0.000000,-0.331427,-38.798573,TRUE,-3.112274,-54.292969,0.000000,0.000000,0.000000,0.000000,0.000000,-0.001000,0.020000,2.320000,0.000000,0.110000,-0.088339,ResetBack,0.926758,-0.000049,ResetBack,-8234.000000,-0.250000,LowGoal,0.000000,-2181.818182,Speed,0.000000,-2181.818182,Speed,Off,Off,0.000000,FALSE,0,Read: /home/lvuser/scripts/auto_12.bee,File good!,STOP_ALL,STOP_ALL,0.000000,0.000000
04:50:23.624 PM 04/09/2016,Autonomous Disabled,11,FALSE,0,NO ERROR,-0.000000,0.000000,-0.000000,0.000000,TRUE,FALSE,TRUE,TRUE,FALSE,FALSE,Disabled,0.000000,-0.331427,-38.798573,TRUE,-3.112274,-54.292969,0.000000,0.000000,0.000000,0.000000,0.000000,0.001000,0.019000,2.320000,0.000000,0.110000,-0.087052,ResetBack,0.926758,-0.000049,ResetBack,-8234.000000,-0.250000,LowGoal,0.000000,-2181.818182,Speed,0.000000,-2181.818182,Speed,Off,Off,0.000000,FALSE,0,Read: /home/lvuser/scripts/auto_12.bee,File good!,STOP_ALL,STOP_ALL,0.000000,0.000000
04:50:23.725 PM 04/09/2016,Autonomous Disabled,10,FALSE,0,NO ERROR,-0.000000,0.000000,-0.000000,0.000000,TRUE,FALSE,TRUE,TRUE,FALSE,FALSE,Disabled,0.000000,-0.331427,-38.798573,TRUE,-3.112274,-54.292969,0.000000,0.000000,0.000000,0.000000,0.000000,0.000000,0.020000,2.320000,0.000000,0.110000,-0.097851,ResetBack,0.926758,-0.000049,ResetBack,-8234.000000,-0.250000,LowGoal,0.000000,-2181.818182,Speed,0.000000,-2181.818182,Speed,Off,Off,0.000000,FALSE,0,Read: /home/lvuser/scripts/auto_12.bee,File good!,STOP_ALL,STOP_ALL,0.000000,0.000000
04:50:23.827 PM 04/09/2016,Autonomous Disabled,11,FALSE,0,NO ERROR,-0.000000,0.000000,-0.000000,0.000000,TRUE,FALSE,TRUE,TRUE,FALSE,FALSE,Disabled,0.000000,-0.331427,-38.798573,TRUE,-3.112274,-54.292969,0.000000,0.000000,0.000000,0.000000,0.000000,0.000000,0.024000,2.320000,0.000000,0.110000,-0.092415,ResetBack,0.926758,-0.000049,ResetBack,-8234.000000,-0.250000,LowGoal,0.000000,-2181.818182,Speed,0.000000,-2181.818182,Speed,Off,Off,0.000000,FALSE,0,Read: /home/lvuser/scripts/auto_12.bee,File good!,STOP_ALL,STOP_ALL,0.000000,0.000000
04:50:23.927 PM 04/09/2016,Autonomous Disabled,11,FALSE,0,NO ERROR,-0.000000,0.000000,-0.000000,0.000000,TRUE,FALSE,TRUE,TRUE,FALSE,FALSE,Disabled,0.000000,-0.331427,-38.798573,TRUE,-3.112274,-54.292969,0.000000,0.000000,0.000000,0.000000,0.000000,0.001000,0.017000,2.320000,0.000000,0.110000,-0.077743,ResetBack,0.926758,-0.000049,ResetBack,-8234.000000,-0.250000,LowGoal,0.000000,-2181.818182,Speed,0.000000,-2181.818182,Speed,Off,Off,0.000000,FALSE,0,Read: /home/lvuser/scripts/auto_12.bee,File good!,STOP_ALL,STOP_ALL,0.000000,0.000000
04:50:24.028 PM 04/09/2016,Autonomous Disabled,10,FALSE,0,NO ERROR,-0.000000,0.000000,-0.000000,0.000000,TRUE,FALSE,TRUE,TRUE,FALSE,FALSE,Disabled,0.000000,-0.331427,-38.798573,TRUE,-3.112274,-54.292969,0.000000,0.000000,0.000000,0.000000,0.000000,0.000000,0.020000,2.320000,0.000000,0.110000,-0.067312,ResetBack,0.926758,-0.000049,ResetBack,-8234.000000,-0.250000,LowGoal,0.000000,-2181.818182,Speed,0.000000,-2181.818182,Speed,Off,Off,0.000000,FALSE,0,Read: /home/lvuser/scripts/auto_12.bee,File good!,STOP_ALL,STOP_ALL,0.000000,0.000000
04:50:24.130 PM 04/09/2016,Autonomous Disabled,8,FALSE,0,NO ERROR,-0.000000,0.000000,-0.000000,0.000000,TRUE,TRUE,TRUE,TRUE,FALSE,FALSE,Disabled,0.000000,-0.331427,-38.798573,TRUE,-3.112274,-54.292969,0.000000,0.000000,0.000000,0.000000,-0.001000,0.000000,0.021000,2.330000,0.000000,0.120000,-0.064582,ResetBack,0.926758,-0.000049,ResetBack,-8234.000000,-0.250000,LowGoal,0.000000,-2181.818182,Speed,0.000000,-2181.818182,Speed,Off,Off,0.000000,FALSE,0,Read: /home/lvuser/scripts/auto_12.bee,File good!,STOP_ALL,STOP_ALL,0.000000,0.000000
04:50:24.230 PM 04/09/2016,Autonomous Disabled,11,FALSE,0,NO ERROR,-0.000000,0.000000,-0.000000,0.000000,TRUE,TRUE,TRUE,TRUE,FALSE,FALSE,Disabled,0.000000,-0.331427,-38.798573,TRUE,-3.112274,-54.292969,0.000000,0.000000,0.000000,0.000000,0.000000,0.001000,0.019000,2.330000,0.000000,0.110000,-0.053408,ResetBack,0.926758,-0.000049,ResetBack,-8234.000000,-0.250000,LowGoal,0.000000,0.000000,Speed,0.000000,0.000000,Speed,Off,Off,0.000000,FALSE,0,Read: /home/lvuser/scripts/auto_12.bee,File good!,STOP_ALL,STOP_ALL,0.000000,0.000000
04:50:24.331 PM 04/09/2016,Autonomous Disabled,11,FALSE,0,NO ERROR,-0.000000,0.000000,-0.000000,0.000000,TRUE,FALSE,TRUE,TRUE,FALSE,FALSE,Disabled,0.000000,-0.331427,-38.798573,TRUE,-3.112274,-54.292969,0.000000,0.000000,0.000000,0.000000,0.000000,0.000000,0.022000,2.330000,0.000000,0.110000,-0.040195,ResetBack,0.926758,-0.000049,ResetBack,-8234.000000,-0.250000,LowGoal,0.000000,0.000000,Speed,0.000000,0.000000,Speed,Off,Off,0.000000,FALSE,0,Read: /home/lvuser/scripts/auto_12.bee,File good!,STOP_ALL,STOP_ALL,0.000000,0.000000
04:50:24.431 PM 04/09/2016,Autonomous Disabled,11,FALSE,0,NO ERROR,-0.000000,0.000000,-0.000000,0.000000,TRUE,FALSE,TRUE,TRUE,FALSE,FALSE,Disabled,0.000000,-0.331427,-38.798573,TRUE,-3.112274,-54.292969,0.000000,0.000000,0.000000,0.000000,-0.001000,0.001000,0.017000,2.330000,0.000000,0.110000,-0.032539,ResetBack,0.926758,-0.000049,ResetBack,-8234.000000,-0.250000,LowGoal,0.000000,-2181.818182,Speed,0.000000,-2181.818182,Speed,Off,Off,0.000000,FALSE,0,Read: /home/lvuser/scripts/auto_12.bee,File good!,STOP_ALL,STOP_ALL,0.000000,0.000000
04:50:24.531 PM 04/09/2016,Autonomous Disabled,11,FALSE,0,NO ERROR,-0.000000,0.000000,-0.000000,0.000000,TRUE,FALSE,TRUE,TRUE,FALSE,FALSE,Disabled,0.000000,-0.331427,-38.798573,TRUE,-3.112274,-54.292969,0.000000,0.000000,0.000000,0.000000,0.000000,0.000000,0.023000,2.330000,0.000000,0.110000,-0.045862,ResetBack,0.926758,-0.000049,ResetBack,-8234.000000,-0.250000,LowGoal,0.000000,-2181.818182,Speed,0.000000,-2181.818182,Speed,Off,Off,0.000000,FALSE,0,Read: /home/lvuser/scripts/auto_12.bee,File good!,STOP_ALL,STOP_ALL,0.000000,0.000000
04:50:24.632 PM 04/09/2016,Autonomous Disabled,9,FALSE,0,NO ERROR,-0.000000,0.000000,-0.000000,0.000000,TRUE,FALSE,TRUE,TRUE,FALSE,FALSE,Disabled,0.000000,-0.331427,-38.798573,TRUE,-3.112274,-54.292969,0.000000,0.000000,0.000000,0.000000,-0.003000,0.001000,0.017000,2.340000,0.000000,0.110000,-0.056534,ResetBack,0.926758,-0.000049,ResetBack,-8234.000000,-0.250000,LowGoal,0.000000,-2181.818182,Speed,0.000000,-2181.818182,Speed,Off,Off,0.000000,FALSE,0,Read: /home/lvuser/scripts/auto_12.bee,File good!,STOP_ALL,STOP_ALL,0.000000,0.000000
04:50:24.732 PM 04/09/2016,Autonomous Disabled,11,FALSE,0,NO ERROR,-0.000000,0.000000,-0.000000,0.000000,TRUE,FALSE,TRUE,TRUE,FALSE,FALSE,Disabled,0.000000,-0.331427,-38.798573,TRUE,-3.112274,-54.292969,0.000000,0.000000,0.000000,0.000000,0.000000,0.002000,0.021000,2.330000,0.000000,0.110000,-0.053470,ResetBack,0.926758,-0.000049,ResetBack,-8234.000000,-0.250000,LowGoal,0.000000,-2181.818182,Speed,0.000000,-2181.818182,Speed,Off,Off,0.000000,FALSE,0,Read: /home/lvuser/scripts/auto_12.bee,File good!,STOP_ALL,STOP_ALL,0.000000,0.000000
04:50:24.833 PM 04/09/2016,Autonomous Disabled,11,FALSE,0,NO ERROR,-0.000000,0.000000,-0.000000,0.000000,TRUE,FALSE,TRUE,TRUE,FALSE,FALSE,Disabled,0.000000,-0.331427,-38.798573,TRUE,-3.112274,-54.292969,0.000000,0.000000,0.000000,0.000000,0.002000,0.003000,0.017000,2.330000,0.000000,0.110000,-0.050444,ResetBack,0.926758,-0.000049,ResetBack,-8234.000000,-0.250000,LowGoal,0.000000,-2181.818182,Speed,0.000000,-2181.818182,Speed,Off,Off,0.000000,FALSE,0,Read: /home/lvuser/scripts/auto_12.bee,File good!,STOP_ALL,STOP_ALL,0.000000,0.000000
04:50:24.933 PM 04/09/2016,Autonomous Disabled,9,FALSE,0,NO ERROR,-0.000000,0.000000,-0.000000,0.000000,TRUE,FALSE,TRUE,TRUE,FALSE,FALSE,Disabled,0.000000,-0.331427,-38.798573,TRUE,-3.112274,-54.292969,0.000000,0.000000,0.000000,0.000000,0.000000,0.000000,0.018000,2.330000,0.000000,0.110000,-0.041328,ResetBack,0.926758,-0.000049,ResetBack,-8234.000000,-0.250000,LowGoal,0.000000,-2181.818182,Speed,0.000000,-2181.818182,Speed,Off,Off,0.000000,FALSE,0,Read: /home/lvuser/scripts/auto_12.bee,File good!,STOP_ALL,STOP_ALL,0.000000,0.000000
04:50:25.034 PM 04/09/2016,Autonomous Disabled,10,FALSE,0,NO ERROR,-0.000000,0.000000,-0.000000,0.000000,TRUE,FALSE,TRUE,TRUE,FALSE,FALSE,Disabled,0.000000,-0.331427,-38.798573,TRUE,-3.112274,-54.292969,0.000000,0.000000,0.000000,0.000000,-0.001000,0.000000,0.021000,2.340000,0.000000,0.110000,-0.042240,ResetBack,0.926758,-0.000049,ResetBack,-8234.000000,-0.250000,LowGoal,0.000000,-2181.818182,Speed,0.000000,-2181.818182,Speed,Off,Off,0.000000,FALSE,0,Read: /home/lvuser/scripts/auto_12.bee,File good!,STOP_ALL,STOP_ALL,0.000000,0.000000
