Time,Robot Mode,Loop Time,Error Status,Error Code,Error Source,Left Motor Output,Left Motor Encoder,Right Motor Output,Right Motor Encoder,Is Level,Is Stalled,Ball Detector Photoeye,Vision Enabled,Vision Teleop Control,Vision Auto Control,Vision Current State,Vision X Output,Vision NavX Error,Vision NavX Target,NavX Connection Status,NavX Displacement X,NavX Displacement Y,NavX Displacement Z,NavX Velocity X,NavX Velocity Y,NavX Velocity Z,NavX Acceleration X,NavX Acceleration Y,NavX Acceleration Z,NavX Pitch,NavX Yaw,NavX Roll,Gyro Angle,Roller Arm State,Roller Arm Actual,Roller Arm Desired,Shooter Arm State,Shooter Arm Actual,Shooter Arm Desired,Shooter State,Actual RPM Left,Desired RPM Left,Control Mode Left,Actual RPM Right,Desired RPM Right,Control Mode Right,Ball Shooter Cylinder,Ball Halo Cylinder,Scaler Motor Output,Scaler Solenoid Fire,Auto To Run,Auto Current File,Auto File Status,Auto Current Command,Auto Trimmed Command,Shooter Amps Left,Shooter Amps Right
03:04:10.855 PM 04/09/2016,Teleop Enabled,11,FALSE,0,NO ERROR,-0.000000,-1.238414,-0.000000,-0.988164,FALSE,TRUE,TRUE,FALSE,FALSE,FALSE,Disabled,0.000000,0.833747,38.866253,TRUE,13.205719,-4.809387,0.000000,0.097885,-0.125702,0.000000,-0.027000,-0.067000,-0.098000,3.280000,0.030000,-6.030000,-0.030560,ResetBack,0.926514,-0.000049,ResetBack,-98045.000000,-0.250000,Empty,0.000000,0.000000,Speed,0.000000,0.000000,Speed,Off,On,0.000000,FALSE,0,,,,,0.000000,0.000000
03:04:10.955 PM 04/09/2016,Teleop Enabled,9,FALSE,0,NO ERROR,-0.000000,-1.616996,-0.000000,-1.405247,FALSE,FALSE,TRUE,FALSE,FALSE,FALSE,Disabled,0.000000,0.833747,38.866253,TRUE,13.208664,-4.813461,0.000000,0.105835,-0.141479,0.000000,0.068000,-0.005000,-0.179000,3.100000,0.100000,-6.280000,0.139881,ResetBack,-0.145264,-0.000049,ResetBack,-90324.000000,-0.250000,Empty,0.000000,0.000000,Speed,0.000000,0.000000,Speed,Off,On,0.000000,FALSE,0,,,,,0.000000,0.000000
03:04:11.055 PM 04/09/2016,Teleop Enabled,10,FALSE,0,NO ERROR,-0.000000,-2.098245,-0.000000,-1.867246,FALSE,FALSE,TRUE,FALSE,FALSE,FALSE,Disabled,0.000000,0.833747,38.866253,TRUE,13.213593,-4.820633,0.000000,0.083176,-0.132202,0.000000,0.061000,-0.060000,-0.152000,3.060000,0.060000,-6.380000,0.104767,ResetBack,-0.295654,-0.000049,ResetBack,-87781.000000,-0.250000,Empty,0.000000,0.000000,Speed,0.000000,0.000000,Speed,Off,On,0.000000,FALSE,0,,,,,0.000000,0.000000
03:04:11.155 PM 04/09/2016,Teleop Enabled,9,FALSE,0,NO ERROR,-0.000000,-2.707827,-0.000000,-2.463994,FALSE,FALSE,TRUE,FALSE,FALSE,FALSE,Disabled,0.000000,0.833747,38.866253,TRUE,13.219391,-4.829666,0.000000,0.105377,-0.147537,0.000000,-0.008000,0.027000,0.083000,3.090000,0.010000,-6.100000,0.058479,Reset,-0.295654,0.000000,ResetBack,-87781.000000,-0.250000,Empty,0.000000,0.000000,Speed,0.000000,0.000000,Speed,Off,On,0.000000,FALSE,0,,,,,0.000000,0.000000
03:04:11.257 PM 04/09/2016,Teleop Enabled,10,FALSE,0,NO ERROR,-0.000000,-3.330242,-0.000000,-3.099243,FALSE,FALSE,TRUE,FALSE,FALSE,FALSE,Disabled,0.000000,0.833747,38.866253,TRUE,13.224899,-4.837128,0.000000,0.110565,-0.154205,0.000000,0.013000,0.010000,0.038000,3.090000,0.020000,-6.140000,0.080084,Hold,1.162109,0.000000,ResetBack,-85607.000000,-0.250000,Empty,0.000000,0.000000,Speed,0.000000,0.000000,Speed,Off,On,0.000000,FALSE,0,,,,,0.000000,0.000000
03:04:11.357 PM 04/09/2016,Teleop Enabled,11,FALSE,0,NO ERROR,-0.000000,-4.036074,-0.000000,-3.766575,FALSE,FALSE,TRUE,FALSE,FALSE,FALSE,Disabled,0.000000,0.833747,38.866253,TRUE,13.230286,-4.836960,0.000000,0.106964,0.005142,0.000000,0.013000,0.010000,0.038000,3.080000,-0.010000,-6.170000,0.071991,Hold,0.933594,0.000000,ResetBack,-83090.000000,-0.250000,Empty,0.000000,0.000000,Speed,0.000000,0.000000,Speed,Off,On,0.000000,FALSE,0,,,,,0.000000,0.000000
03:04:11.458 PM 04/09/2016,Teleop Enabled,11,FALSE,0,NO ERROR,0.409449,-4.645656,-0.409449,-4.337657,FALSE,FALSE,TRUE,FALSE,FALSE,FALSE,Disabled,0.000000,0.833747,38.866253,TRUE,13.224380,-4.837021,0.000000,-0.256256,-0.005966,0.000000,-0.021000,0.002000,0.017000,3.260000,0.080000,-7.740000,0.072425,Hold,0.933594,0.000000,ResetBack,-80653.000000,-0.250000,Empty,0.000000,0.000000,Speed,0.000000,0.000000,Speed,Off,On,0.000000,FALSE,0,,,,,0.000000,0.000000
03:04:11.558 PM 04/09/2016,Teleop Enabled,11,FALSE,0,NO ERROR,0.291339,-4.421073,-0.291339,-4.100240,FALSE,FALSE,TRUE,FALSE,FALSE,FALSE,Disabled,0.000000,0.833747,38.866253,TRUE,13.218170,-4.837204,0.000000,-0.328995,-0.006927,0.000000,-0.095000,0.022000,-0.028000,3.130000,0.040000,-8.330000,0.096860,Hold,0.933594,0.000000,ResetBack,-78958.000000,-0.250000,Empty,0.000000,0.000000,Speed,0.000000,0.000000,Speed,Off,On,0.000000,FALSE,0,,,,,0.000000,0.000000
03:04:11.660 PM 04/09/2016,Teleop Enabled,10,FALSE,0,NO ERROR,0.291339,-3.798658,-0.291339,-3.464992,FALSE,FALSE,TRUE,FALSE,FALSE,FALSE,Disabled,0.000000,0.833747,38.866253,TRUE,13.199005,-4.837082,0.000000,-0.402542,0.002991,0.000000,-0.091000,0.115000,0.335000,3.190000,-0.020000,-7.490000,-0.012514,Hold,0.933594,0.000000,ResetBack,-78023.000000,-0.250000,Empty,0.000000,0.000000,Speed,0.000000,0.000000,Speed,Off,On,0.000000,FALSE,0,,,,,0.000000,0.000000
03:04:11.760 PM 04/09/2016,Teleop Enabled,11,FALSE,0,NO ERROR,0.425197,-2.682160,-0.425197,-2.438328,FALSE,FALSE,TRUE,FALSE,FALSE,FALSE,Disabled,0.000000,0.833747,38.866253,TRUE,13.186325,-4.836258,0.000000,-0.001633,0.010208,0.000000,-0.027000,0.005000,-0.072000,3.140000,0.140000,-8.010000,0.162382,Hold,0.933594,0.000000,ResetBack,-75189.000000,-0.250000,Empty,0.000000,0.000000,Speed,0.000000,0.000000,Speed,Off,On,0.000000,FALSE,0,,,,,0.000000,0.000000
03:04:11.860 PM 04/09/2016,Teleop Enabled,9,FALSE,0,NO ERROR,0.433071,-1.385997,-0.433071,-1.129331,FALSE,FALSE,TRUE,FALSE,FALSE,FALSE,Disabled,0.000000,0.833747,38.866253,TRUE,13.183945,-4.836136,0.000000,-0.085648,-0.003098,0.000000,-0.240000,0.003000,0.079000,3.140000,0.160000,-8.290000,0.179044,Hold,0.933594,0.000000,ResetBack,-75189.000000,-0.250000,Empty,0.000000,0.000000,Speed,0.000000,0.000000,Speed,Off,On,0.000000,FALSE,0,,,,,0.000000,0.000000
03:04:11.960 PM 04/09/2016,Teleop Enabled,10,FALSE,0,NO ERROR,0.433071,0.372166,-0.433071,0.635249,FALSE,FALSE,TRUE,FALSE,FALSE,FALSE,Disabled,0.000000,0.833747,38.866253,TRUE,13.172882,-4.836807,0.000000,-0.221130,-0.008392,0.000000,-0.240000,0.003000,0.079000,3.140000,0.210000,-8.850000,0.196271,Hold,0.933594,0.000000,ResetBack,-73212.000000,-0.250000,Empty,0.000000,0.000000,Speed,0.000000,0.000000,Speed,Off,On,0.000000,FALSE,0,,,,,0.000000,0.000000
03:04:12.062 PM 04/09/2016,Teleop Enabled,11,FALSE,0,NO ERROR,0.425197,2.566661,-0.425197,2.848993,FALSE,FALSE,TRUE,FALSE,FALSE,FALSE,Disabled,0.000000,0.833747,38.866253,TRUE,13.161560,-4.837234,0.000000,-0.338715,-0.017242,0.000000,0.009000,-0.007000,0.023000,3.140000,0.230000,-9.150000,0.208626,Hold,0.933594,0.000000,Reset,-72351.000000,2.000000,Suck,0.000000,1818.181818,Speed,0.000000,1818.181818,Speed,Off,On,0.000000,FALSE,0,,,,,0.000000,0.000000
03:04:12.162 PM 04/09/2016,Teleop Enabled,10,FALSE,0,NO ERROR,0.291339,5.062738,-0.291339,5.473404,FALSE,FALSE,TRUE,FALSE,FALSE,FALSE,Disabled,0.000000,0.833747,38.866253,TRUE,13.141144,-4.837769,0.000000,-0.409760,-0.020615,0.000000,1.062000,-0.018000,0.431000,3.150000,0.150000,-8.940000,0.179254,Hold,0.933594,0.000000,Hold,-160.000000,2.000000,Hold,-30.000000,0.000000,Speed,-30.000000,0.000000,Speed,Off,Off,0.000000,FALSE,0,,,,,0.000000,0.000000
03:04:12.261 PM 04/09/2016,Teleop Enabled,11,FALSE,0,NO ERROR,-0.000000,5.633820,-0.000000,5.781403,FALSE,FALSE,TRUE,FALSE,FALSE,FALSE,Disabled,0.000000,0.833747,38.866253,TRUE,13.143127,-4.839859,0.000000,0.430008,-0.068680,0.000000,-0.258000,-0.046000,-0.790000,3.030000,0.320000,-5.680000,0.487180,Hold,0.933105,0.000000,Hold,-94.000000,2.000000,Hold,-435.000000,0.000000,Speed,-405.000000,0.000000,Speed,Off,Off,0.000000,FALSE,0,,,,,0.000000,0.000000
03:04:12.362 PM 04/09/2016,Teleop Enabled,5,FALSE,0,NO ERROR,-0.000000,4.645656,-0.000000,4.908739,FALSE,FALSE,TRUE,FALSE,FALSE,FALSE,Disabled,0.000000,0.833747,38.866253,TRUE,13.160095,-4.841568,0.000000,0.276520,-0.014130,0.000000,-0.014000,-0.041000,-0.053000,3.040000,0.090000,-5.330000,0.246845,Hold,0.933105,0.000000,Hold,-92.000000,2.000000,Hold,-555.000000,0.000000,Speed,-472.500000,0.000000,Speed,Off,Off,0.000000,FALSE,0,,,,,0.000000,0.000000
03:04:12.462 PM 04/09/2016,Teleop Enabled,11,FALSE,0,NO ERROR,0.283465,4.080990,-0.283465,4.311990,FALSE,FALSE,TRUE,FALSE,FALSE,FALSE,Disabled,0.000000,0.833747,38.866253,TRUE,13.175613,-4.845413,0.000000,0.277756,-0.055786,0.000000,-0.354000,-0.008000,0.082000,3.110000,0.130000,-5.850000,0.202381,Hold,0.933105,0.000000,Hold,-92.000000,2.000000,Hold,-495.000000,0.000000,Speed,-360.000000,0.000000,Speed,Off,Off,0.000000,FALSE,0,,,,,0.000000,0.000000
03:04:12.562 PM 04/09/2016,Teleop Enabled,11,FALSE,0,NO ERROR,0.275591,3.894908,-0.275591,4.087407,FALSE,FALSE,TRUE,FALSE,FALSE,FALSE,Disabled,0.000000,0.833747,38.866253,TRUE,13.182327,-4.845078,0.000000,0.083862,0.011719,0.000000,-0.162000,-0.030000,-0.257000,3.220000,0.330000,-7.630000,0.259218,Hold,0.933105,0.000000,Hold,-115.000000,2.000000,Hold,-412.500000,0.000000,Speed,-247.500000,0.000000,Speed,Off,Off,0.000000,FALSE,0,,,,,0.000000,0.000000
03:04:12.663 PM 04/09/2016,Teleop Enabled,9,FALSE,0,NO ERROR,0.275591,4.247823,-0.275591,4.478823,FALSE,FALSE,TRUE,FALSE,FALSE,FALSE,Disabled,0.000000,0.833747,38.866253,TRUE,13.179794,-4.845734,0.000000,-0.089813,0.003403,0.000000,-0.162000,-0.030000,-0.257000,3.220000,0.330000,-7.630000,0.124769,Hold,0.933105,50.000000,Hold,-116.000000,143360.000000,Hold,-360.000000,0.000000,Speed,-150.000000,0.000000,Speed,Off,Off,0.000000,FALSE,0,,,,,0.000000,0.000000
03:04:12.764 PM 04/09/2016,Teleop Enabled,11,FALSE,0,NO ERROR,0.283465,5.024238,-0.283465,5.274488,FALSE,FALSE,TRUE,FALSE,FALSE,FALSE,Disabled,0.000000,0.833747,38.866253,TRUE,13.173859,-4.846832,0.000000,-0.155212,-0.008987,0.000000,-0.049000,-0.011000,0.167000,3.210000,0.210000,-7.140000,0.049883,Hold,4.216553,50.000000,Hold,-2521.000000,143360.000000,Hold,-285.000000,0.000000,Speed,-75.000000,0.000000,Speed,Off,Off,0.000000,FALSE,0,,,,,0.000000,0.000000
03:04:12.864 PM 04/09/2016,Teleop Enabled,10,FALSE,0,NO ERROR,0.314961,5.717237,-0.314961,5.935403,FALSE,FALSE,TRUE,FALSE,FALSE,FALSE,Disabled,0.000000,0.833747,38.866253,TRUE,13.172623,-4.845978,0.000000,0.127762,-0.001480,0.000000,0.017000,0.189000,0.336000,3.170000,0.220000,-7.330000,0.090081,Hold,7.254395,50.000000,Hold,-16750.000000,143360.000000,Hold,-232.500000,0.000000,Speed,-15.000000,0.000000,Speed,Off,Off,0.000000,FALSE,0,,,,,0.000000,0.000000
03:04:12.964 PM 04/09/2016,Teleop Enabled,11,FALSE,0,NO ERROR,0.314961,5.582487,-0.314961,5.755737,FALSE,FALSE,TRUE,FALSE,FALSE,FALSE,Disabled,0.000000,0.833747,38.866253,TRUE,13.176697,-4.845825,0.000000,0.036606,-0.000458,0.000000,-0.047000,0.026000,-0.053000,3.260000,0.320000,-6.950000,0.110317,Hold,12.020996,50.000000,Hold,-33597.000000,143360.000000,Hold,-37.500000,0.000000,Speed,0.000000,0.000000,Speed,Off,Off,0.000000,FALSE,0,,,,,0.000000,0.000000
03:04:13.065 PM 04/09/2016,Teleop Enabled,10,FALSE,0,NO ERROR,0.314961,5.595320,-0.314961,5.768570,FALSE,FALSE,TRUE,FALSE,FALSE,FALSE,Disabled,0.000000,0.833747,38.866253,TRUE,13.178452,-4.846298,0.000000,0.049072,-0.010101,0.000000,0.019000,-0.071000,-0.102000,3.190000,0.340000,-6.930000,0.109198,Hold,18.180908,50.000000,Hold,-52529.000000,143360.000000,Hold,7.500000,0.000000,Speed,0.000000,0.000000,Speed,Off,Off,0.000000,FALSE,0,,,,,0.000000,0.000000
03:04:13.165 PM 04/09/2016,Teleop Enabled,11,FALSE,0,NO ERROR,0.314961,5.595320,-0.314961,5.768570,FALSE,FALSE,TRUE,FALSE,FALSE,FALSE,Disabled,0.000000,0.833747,38.866253,TRUE,13.180328,-4.846664,0.000000,0.039215,-0.010498,0.000000,-0.027000,0.039000,0.058000,3.190000,0.340000,-6.930000,0.039586,Hold,26.804932,50.000000,Hold,-52529.000000,143360.000000,Hold,0.000000,0.000000,Speed,0.000000,0.000000,Speed,Off,Off,0.000000,FALSE,0,,,,,0.000000,0.000000
03:04:13.265 PM 04/09/2016,Teleop Enabled,11,FALSE,0,NO ERROR,0.314961,5.595320,-0.314961,5.768570,FALSE,FALSE,TRUE,FALSE,FALSE,FALSE,Disabled,0.000000,0.833747,38.866253,TRUE,13.174622,-4.843002,0.000000,-0.164078,0.101669,0.000000,0.000000,-0.008000,-0.008000,3.170000,0.330000,-6.950000,-0.039118,Hold,33.202881,50.000000,Hold,-71189.000000,143360.000000,Hold,0.000000,0.000000,Speed,0.000000,0.000000,Speed,Off,Off,0.000000,FALSE,0,,,,,0.000000,0.000000
03:04:13.365 PM 04/09/2016,Teleop Enabled,8,FALSE,0,NO ERROR,0.314961,5.595320,-0.314961,5.768570,FALSE,FALSE,TRUE,FALSE,FALSE,FALSE,Disabled,0.000000,0.833747,38.866253,TRUE,13.165970,-4.841965,0.000000,-0.177139,0.000000,0.000000,0.056000,0.013000,0.117000,3.110000,0.330000,-6.870000,-0.137313,Hold,33.202881,50.000000,Hold,-87192.000000,143360.000000,LowGoal,0.000000,-2181.818182,Speed,0.000000,-2181.818182,Speed,Off,Off,0.000000,FALSE,0,,,,,0.000000,0.000000
03:04:13.467 PM 04/09/2016,Teleop Enabled,10,FALSE,0,NO ERROR,0.314961,5.588904,-0.314961,5.762153,FALSE,FALSE,TRUE,FALSE,FALSE,FALSE,Disabled,0.000000,0.833747,38.866253,TRUE,13.165970,-4.841965,0.000000,-0.177139,0.000000,0.000000,-0.070000,-0.003000,0.142000,3.130000,0.320000,-6.860000,-0.203414,Hold,51.773193,50.000000,Hold,-97505.000000,143360.000000,LowGoal,37.500000,-2181.818182,Speed,7.500000,-2181.818182,Speed,Off,Off,0.000000,FALSE,0,,,,,0.000000,0.000000
03:04:13.567 PM 04/09/2016,Teleop Enabled,9,FALSE,0,NO ERROR,0.314961,5.569654,-0.314961,5.762153,FALSE,FALSE,TRUE,FALSE,FALSE,FALSE,Disabled,0.000000,0.833747,38.866253,TRUE,13.155319,-4.841705,0.000000,-0.180344,0.004654,0.000000,-0.115000,-0.074000,0.046000,3.130000,0.310000,-6.690000,-0.302945,Hold,51.773193,50.000000,Hold,-99351.000000,143360.000000,LowGoal,480.000000,-2181.818182,Speed,375.000000,-2181.818182,Speed,Off,Off,0.000000,FALSE,0,,,,,0.000000,0.000000
03:04:13.668 PM 04/09/2016,Teleop Enabled,11,FALSE,0,NO ERROR,0.314961,5.569654,-0.314961,5.762153,FALSE,FALSE,TRUE,FALSE,FALSE,FALSE,Disabled,0.000000,0.833747,38.866253,TRUE,13.137100,-4.840454,0.000000,-0.212128,0.027649,0.000000,-0.043000,0.079000,-0.060000,3.110000,0.310000,-6.760000,-0.365286,Hold,55.237793,50.000000,Hold,-100141.000000,143360.000000,LowGoal,892.500000,-2181.818182,Speed,847.500000,-2181.818182,Speed,Off,Off,0.000000,FALSE,0,,,,,0.000000,0.000000
03:04:13.770 PM 04/09/2016,Teleop Enabled,10,FALSE,0,NO ERROR,0.314961,5.569654,-0.314961,5.762153,FALSE,FALSE,TRUE,FALSE,FALSE,FALSE,Disabled,0.000000,0.833747,38.866253,TRUE,13.137100,-4.840454,0.000000,-0.212128,0.027649,0.000000,0.044000,0.077000,0.009000,3.090000,0.300000,-6.690000,-0.434664,Hold,55.430908,50.000000,Hold,-100369.000000,143360.000000,LowGoal,1335.000000,-2181.818182,Speed,1207.500000,-2181.818182,Speed,Off,Off,0.000000,FALSE,0,,,,,0.000000,0.000000
03:04:13.872 PM 04/09/2016,Teleop Enabled,14,FALSE,0,NO ERROR,0.314961,5.569654,-0.314961,5.762153,FALSE,FALSE,TRUE,FALSE,FALSE,FALSE,Disabled,0.000000,0.833747,38.866253,TRUE,13.116608,-4.840057,0.000000,-0.212006,-0.006973,0.000000,-0.034000,-0.021000,0.015000,3.090000,0.300000,-6.690000,-0.499963,Hold,55.430908,50.000000,Hold,-100369.000000,143360.000000,LowGoal,1702.500000,-2181.818182,Speed,1500.000000,-2181.818182,Speed,Off,Off,0.000000,FALSE,0,,,,,0.000000,0.000000
03:04:13.975 PM 04/09/2016,Teleop Enabled,9,FALSE,0,NO ERROR,0.314961,5.569654,-0.314961,5.762153,FALSE,FALSE,TRUE,FALSE,FALSE,FALSE,Disabled,0.000000,0.833747,38.866253,TRUE,13.116608,-4.840057,0.000000,-0.212006,-0.006973,0.000000,0.048000,-0.009000,-0.029000,3.130000,0.300000,-6.630000,-0.573816,Hold,55.430176,50.000000,Hold,-100379.000000,143360.000000,LowGoal,1987.500000,-2181.818182,Speed,1755.000000,-2181.818182,Speed,Off,Off,0.000000,FALSE,0,,,,,0.000000,0.000000
03:04:14.074 PM 04/09/2016,Teleop Enabled,10,FALSE,0,NO ERROR,0.314961,5.569654,-0.314961,5.762153,FALSE,FALSE,TRUE,FALSE,FALSE,FALSE,Disabled,0.000000,0.833747,38.866253,TRUE,13.104279,-4.841431,0.000000,-0.202148,-0.032425,0.000000,-0.078000,-0.038000,0.099000,3.130000,0.300000,-6.630000,-0.641163,Hold,55.414307,50.000000,Hold,-101179.000000,143360.000000,LowGoal,2085.000000,-2181.818182,Speed,1957.500000,-2181.818182,Speed,Off,Off,0.000000,FALSE,0,,,,,0.000000,0.000000
03:04:14.175 PM 04/09/2016,Teleop Enabled,11,FALSE,0,NO ERROR,0.291339,5.569654,-0.291339,5.762153,FALSE,FALSE,TRUE,FALSE,FALSE,FALSE,Disabled,0.000000,0.833747,38.866253,TRUE,13.094528,-4.843246,0.000000,-0.189667,-0.027664,0.000000,-0.068000,-0.004000,-0.053000,3.100000,0.300000,-6.620000,-0.703876,Hold,55.266602,50.000000,Hold,-102778.000000,143360.000000,LowGoal,2085.000000,-2181.818182,Speed,2017.500000,-2181.818182,Speed,Off,Off,0.000000,FALSE,0,,,,,0.000000,0.000000
03:04:14.275 PM 04/09/2016,Teleop Enabled,6,FALSE,0,NO ERROR,-0.000000,5.563237,-0.000000,5.762153,FALSE,FALSE,TRUE,FALSE,FALSE,FALSE,Disabled,0.000000,0.833747,38.866253,TRUE,13.082794,-4.844223,0.000000,-0.247726,0.002045,0.000000,-0.025000,0.032000,-0.119000,3.070000,0.310000,-6.620000,-0.758196,Hold,55.186523,50.000000,Hold,-104114.000000,143360.000000,LowGoal,2062.500000,-2181.818182,Speed,2002.500000,-2181.818182,Speed,Off,Off,0.000000,FALSE,0,,,,,0.000000,0.000000
03:04:14.377 PM 04/09/2016,Teleop Enabled,7,FALSE,0,NO ERROR,-0.000000,5.126905,-0.000000,5.274488,FALSE,FALSE,TRUE,FALSE,FALSE,FALSE,Disabled,0.000000,0.833747,38.866253,TRUE,13.066711,-4.843613,0.000000,-0.268173,0.003052,0.000000,0.055000,0.023000,0.015000,3.100000,0.310000,-6.620000,-0.807538,Hold,55.156982,50.000000,Hold,-105364.000000,143360.000000,LowGoal,2062.500000,-2181.818182,Speed,1995.000000,-2181.818182,Speed,Off,Off,0.000000,FALSE,0,,,,,0.000000,0.000000
03:04:14.480 PM 04/09/2016,Teleop Enabled,13,FALSE,0,NO ERROR,-0.000000,4.677739,-0.000000,4.850989,FALSE,FALSE,TRUE,FALSE,FALSE,FALSE,Disabled,0.000000,0.833747,38.866253,TRUE,13.059250,-4.842865,0.000000,-0.157745,0.029541,0.000000,-0.062000,0.001000,0.107000,3.010000,0.280000,-5.080000,-0.961038,Hold,55.142090,50.000000,Hold,-105364.000000,143360.000000,LowGoal,2092.500000,-2181.818182,Speed,2017.500000,-2181.818182,Speed,Off,Off,0.000000,FALSE,0,,,,,0.000000,0.000000
03:04:14.580 PM 04/09/2016,Teleop Enabled,9,FALSE,0,NO ERROR,-0.000000,4.440323,-0.000000,4.619989,FALSE,FALSE,TRUE,FALSE,FALSE,FALSE,Disabled,0.000000,0.833747,38.866253,TRUE,13.035080,-4.837860,0.000000,-0.305786,0.092255,0.000000,-0.024000,0.086000,0.008000,2.910000,0.190000,-4.370000,-1.084044,Hold,54.784912,50.000000,Hold,-109275.000000,143360.000000,LowGoal,2107.500000,-2181.818182,Speed,2040.000000,-2181.818182,Speed,Off,Off,0.000000,FALSE,0,,,,,0.000000,0.000000
03:04:14.680 PM 04/09/2016,Teleop Enabled,10,FALSE,0,NO ERROR,-0.000000,4.286323,-0.000000,4.498073,FALSE,FALSE,TRUE,FALSE,FALSE,FALSE,Disabled,0.000000,0.833747,38.866253,TRUE,13.035080,-4.837860,0.000000,-0.305786,0.092255,0.000000,0.017000,-0.046000,0.097000,2.970000,0.160000,-4.490000,-1.186646,Hold,54.496338,50.000000,Hold,-111230.000000,143360.000000,LowGoal,2092.500000,-2181.818182,Speed,2040.000000,-2181.818182,Speed,Off,Off,0.000000,FALSE,0,,,,,0.000000,0.000000
03:04:14.781 PM 04/09/2016,Teleop Enabled,13,FALSE,0,NO ERROR,-0.000000,4.273490,-0.000000,4.472406,FALSE,FALSE,TRUE,FALSE,FALSE,FALSE,Disabled,0.000000,0.833747,38.866253,TRUE,13.017258,-4.833313,0.000000,-0.305603,0.074890,0.000000,-0.036000,-0.111000,0.018000,2.910000,0.110000,-4.260000,-1.227781,Hold,54.496338,50.000000,Hold,-112155.000000,143360.000000,LowGoal,2100.000000,-2181.818182,Speed,2032.500000,-2181.818182,Speed,Off,Off,0.000000,FALSE,0,,,,,0.000000,0.000000
03:04:14.883 PM 04/09/2016,Teleop Enabled,9,FALSE,0,NO ERROR,-0.000000,4.260657,-0.000000,4.465990,FALSE,FALSE,TRUE,FALSE,FALSE,FALSE,Disabled,0.000000,0.833747,38.866253,TRUE,12.991013,-4.829849,0.000000,-0.282516,0.010361,0.000000,0.107000,0.031000,0.030000,2.910000,0.110000,-4.260000,-1.280095,Hold,54.438965,50.000000,Hold,-112621.000000,143360.000000,LowGoal,2107.500000,-2181.818182,Speed,2025.000000,-2181.818182,Speed,Off,Off,0.000000,FALSE,0,,,,,0.000000,0.000000
03:04:14.982 PM 04/09/2016,Teleop Enabled,11,FALSE,0,NO ERROR,-0.000000,4.260657,-0.000000,4.459573,FALSE,FALSE,TRUE,FALSE,FALSE,FALSE,Disabled,0.000000,0.833747,38.866253,TRUE,12.991013,-4.829849,0.000000,-0.282516,0.010361,0.000000,0.040000,0.040000,0.063000,2.920000,0.100000,-4.280000,-1.332656,Hold,54.438965,50.000000,Hold,-112621.000000,143360.000000,LowGoal,2100.000000,-2181.818182,Speed,2025.000000,-2181.818182,Speed,Off,Off,0.000000,FALSE,0,,,,,0.000000,0.000000
03:04:15.082 PM 04/09/2016,Teleop Enabled,11,FALSE,0,NO ERROR,-0.000000,4.247823,-0.000000,4.446740,FALSE,FALSE,TRUE,FALSE,FALSE,FALSE,Disabled,0.000000,0.833747,38.866253,TRUE,12.976425,-4.828979,0.000000,-0.298706,0.013428,0.000000,0.000000,0.052000,-0.075000,2.920000,0.100000,-4.280000,-1.396973,Hold,54.438965,50.000000,Hold,-112627.000000,143360.000000,LowGoal,2092.500000,-2181.818182,Speed,2025.000000,-2181.818182,Speed,Off,Off,0.000000,FALSE,0,,,,,0.000000,0.000000
03:04:15.182 PM 04/09/2016,Teleop Enabled,10,FALSE,0,NO ERROR,-0.000000,4.241407,-0.000000,4.440323,FALSE,FALSE,TRUE,FALSE,FALSE,FALSE,Disabled,0.000000,0.833747,38.866253,TRUE,12.972565,-4.827881,0.000000,-0.043289,0.012833,0.000000,0.022000,0.081000,0.038000,2.940000,0.100000,-4.270000,-1.463913,Hold,54.438721,50.000000,Hold,-112627.000000,143360.000000,LowGoal,2100.000000,-2181.818182,Speed,2025.000000,-2181.818182,Speed,Off,Off,0.000000,FALSE,0,,,,,0.000000,0.000000
03:04:15.282 PM 04/09/2016,Teleop Enabled,11,FALSE,0,NO ERROR,-0.000000,4.228573,-0.000000,4.427490,FALSE,FALSE,TRUE,FALSE,FALSE,FALSE,Disabled,0.000000,0.833747,38.866253,TRUE,12.970123,-4.826004,0.000000,-0.061050,0.036102,0.000000,-0.059000,-0.039000,0.029000,2.950000,0.100000,-4.230000,-1.527332,Hold,54.438721,50.000000,Hold,-112627.000000,143360.000000,LowGoal,2107.500000,-2181.818182,Speed,2025.000000,-2181.818182,Speed,Off,Off,0.000000,FALSE,0,,,,,0.000000,0.000000
03:04:15.383 PM 04/09/2016,Teleop Enabled,11,FALSE,0,NO ERROR,-0.000000,4.209323,-0.000000,4.414656,FALSE,FALSE,TRUE,FALSE,FALSE,FALSE,Disabled,0.000000,0.833747,38.866253,TRUE,12.966110,-4.825699,0.000000,-0.075256,-0.021255,0.000000,0.052000,-0.014000,0.071000,2.920000,0.100000,-4.190000,-1.578189,Hold,54.438721,50.000000,Hold,-112635.000000,143360.000000,LowGoal,2107.500000,-2181.818182,Speed,2025.000000,-2181.818182,Speed,Off,Off,0.000000,FALSE,0,,,,,0.000000,0.000000
03:04:15.486 PM 04/09/2016,Teleop Enabled,11,FALSE,0,NO ERROR,-0.275591,3.760158,0.275591,4.061741,FALSE,FALSE,TRUE,FALSE,FALSE,FALSE,Disabled,0.000000,0.833747,38.866253,TRUE,12.964142,-4.827286,0.000000,0.000000,-0.044754,0.000000,-0.017000,-0.032000,0.023000,2.880000,0.100000,-4.250000,-1.578189,Hold,54.438721,50.000000,Hold,-112853.000000,143360.000000,LowGoal,2107.500000,-2181.818182,Speed,2025.000000,-2181.818182,Speed,Off,Off,0.000000,FALSE,0,,,,,0.000000,0.000000
03:04:15.585 PM 04/09/2016,Teleop Enabled,10,FALSE,0,NO ERROR,-0.000000,3.760158,-0.000000,4.061741,FALSE,FALSE,TRUE,FALSE,FALSE,FALSE,Disabled,0.000000,0.833747,38.866253,TRUE,12.966705,-4.828949,0.000000,0.124100,-0.008835,0.000000,0.041000,0.068000,-0.118000,2.920000,0.090000,-4.180000,-1.633167,Hold,54.438721,50.000000,Hold,-113061.000000,143360.000000,LowGoal,2107.500000,-2181.818182,Speed,2025.000000,-2181.818182,Speed,Off,Off,0.000000,FALSE,0,,,,,0.000000,0.000000
03:04:15.687 PM 04/09/2016,Teleop Enabled,10,FALSE,0,NO ERROR,-0.000000,3.381575,-0.000000,3.638241,FALSE,FALSE,TRUE,FALSE,FALSE,FALSE,Disabled,0.000000,0.833747,38.866253,TRUE,12.976822,-4.827896,0.000000,0.204620,0.062057,0.000000,-0.059000,0.039000,-0.081000,2.930000,-0.110000,-3.180000,-1.873137,Hold,54.229248,50.000000,Hold,-113213.000000,143360.000000,LowGoal,2100.000000,-2181.818182,Speed,2017.500000,-2181.818182,Speed,Off,Off,0.000000,FALSE,0,,,,,0.000000,0.000000
03:04:15.790 PM 04/09/2016,Teleop Enabled,14,FALSE,0,NO ERROR,-0.000000,2.938826,-0.000000,3.266076,FALSE,FALSE,TRUE,FALSE,FALSE,FALSE,Disabled,0.000000,0.833747,38.866253,TRUE,12.984375,-4.824280,0.000000,0.182343,0.107986,0.000000,0.040000,0.017000,0.016000,2.980000,-0.190000,-3.620000,-2.038514,Hold,54.095947,50.000000,Hold,-113784.000000,143360.000000,LowGoal,2077.500000,-2181.818182,Speed,2017.500000,-2181.818182,Speed,Off,Off,0.000000,FALSE,0,,,,,0.000000,0.000000
03:04:15.890 PM 04/09/2016,Teleop Enabled,9,FALSE,0,NO ERROR,-0.000000,2.451161,-0.000000,2.784827,FALSE,FALSE,TRUE,FALSE,FALSE,FALSE,Disabled,0.000000,0.833747,38.866253,TRUE,12.994858,-4.819458,0.000000,0.142792,0.045013,0.000000,-0.009000,-0.052000,0.031000,2.980000,-0.170000,-3.700000,-2.081340,Hold,54.092285,50.000000,Hold,-113798.000000,143360.000000,LowGoal,2077.500000,-2181.818182,Speed,2025.000000,-2181.818182,Speed,Off,Off,0.000000,FALSE,0,,,,,0.000000,0.000000
03:04:15.990 PM 04/09/2016,Teleop Enabled,10,FALSE,0,NO ERROR,-0.000000,2.130328,-0.000000,2.463994,FALSE,FALSE,TRUE,FALSE,FALSE,FALSE,Disabled,0.000000,0.833747,38.866253,TRUE,12.995392,-4.818054,0.000000,-0.054718,0.028961,0.000000,0.028000,-0.019000,-0.096000,2.970000,-0.160000,-3.890000,-2.140920,Hold,54.068604,50.000000,Hold,-113798.000000,143360.000000,LowGoal,2077.500000,-2181.818182,Speed,2025.000000,-2181.818182,Speed,Off,Off,0.000000,FALSE,0,,,,,0.000000,0.000000
03:04:16.091 PM 04/09/2016,Teleop Disabled,10,FALSE,0,NO ERROR,-0.000000,1.886496,-0.000000,2.239411,FALSE,FALSE,TRUE,TRUE,FALSE,FALSE,Disabled,0.000000,0.833747,38.866253,TRUE,12.993332,-4.816330,0.000000,0.000000,0.036316,0.000000,-0.084000,-0.110000,0.036000,2.970000,-0.170000,-3.920000,-2.220873,Hold,54.068604,50.000000,Hold,-113807.000000,143360.000000,LowGoal,2085.000000,-2181.818182,Speed,2025.000000,-2181.818182,Speed,Off,Off,0.000000,FALSE,0,,,,,0.000000,0.000000
03:04:16.193 PM 04/09/2016,Teleop Disabled,10,FALSE,0,NO ERROR,-0.000000,1.738913,-0.000000,2.098245,FALSE,FALSE,TRUE,TRUE,FALSE,FALSE,Disabled,0.000000,0.833747,38.866253,TRUE,12.991638,-4.816406,0.000000,-0.064835,0.023865,0.000000,-0.070000,0.000000,-0.105000,2.970000,-0.170000,-3.990000,-2.282733,Hold,55.109131,50.000000,Hold,-113623.000000,143360.000000,LowGoal,2070.000000,-2181.818182,Speed,2002.500000,-2181.818182,Speed,Off,Off,0.000000,FALSE,0,,,,,0.000000,0.000000
03:04:16.293 PM 04/09/2016,Teleop Disabled,10,FALSE,0,NO ERROR,-0.000000,1.738913,-0.000000,2.098245,FALSE,FALSE,TRUE,TRUE,FALSE,FALSE,Disabled,0.000000,0.833747,38.866253,TRUE,12.988907,-4.816299,0.000000,-0.055466,-0.014236,0.000000,0.054000,0.000000,0.061000,3.040000,-0.130000,-5.340000,-2.312139,Hold,58.351074,50.000000,Hold,-105292.000000,143360.000000,LowGoal,1965.000000,-2181.818182,Speed,1875.000000,-2181.818182,Speed,Off,Off,0.000000,FALSE,0,,,,,0.000000,0.000000
03:04:16.393 PM 04/09/2016,Teleop Disabled,10,FALSE,0,NO ERROR,-0.000000,1.559246,-0.000000,1.873662,FALSE,FALSE,TRUE,TRUE,FALSE,FALSE,Disabled,0.000000,0.833747,38.866253,TRUE,12.988037,-4.816589,0.000000,0.018356,-0.010361,0.000000,-0.242000,0.067000,0.075000,3.070000,0.010000,-6.610000,-2.273810,Hold,63.373291,50.000000,Hold,-94390.000000,143360.000000,LowGoal,1867.500000,-2181.818182,Speed,1687.500000,-2181.818182,Speed,Off,Off,0.000000,FALSE,0,,,,,0.000000,0.000000
03:04:16.493 PM 04/09/2016,Teleop Disabled,9,FALSE,0,NO ERROR,-0.000000,1.238414,-0.000000,1.488663,FALSE,FALSE,TRUE,TRUE,FALSE,FALSE,Disabled,0.000000,0.833747,38.866253,TRUE,12.989563,-4.817337,0.000000,0.063049,0.007263,0.000000,-0.052000,0.030000,0.279000,3.120000,0.080000,-5.940000,-2.229160,Hold,66.452881,50.000000,Hold,-90088.000000,143360.000000,LowGoal,1732.500000,-2181.818182,Speed,1507.500000,-2181.818182,Speed,Off,Off,0.000000,FALSE,0,,,,,0.000000,0.000000
03:04:16.593 PM 04/09/2016,Teleop Disabled,10,FALSE,0,NO ERROR,-0.000000,0.859831,-0.000000,1.116497,FALSE,FALSE,TRUE,TRUE,FALSE,FALSE,Disabled,0.000000,0.833747,38.866253,TRUE,12.992264,-4.816925,0.000000,0.067978,-0.005951,0.000000,0.038000,-0.054000,-0.205000,3.050000,0.070000,-6.290000,-2.279855,Hold,64.514893,50.000000,Hold,-90088.000000,143360.000000,LowGoal,1552.500000,-2181.818182,Speed,1335.000000,-2181.818182,Speed,Off,Off,0.000000,FALSE,0,,,,,0.000000,0.000000
03:04:16.693 PM 04/09/2016,Teleop Disabled,9,FALSE,0,NO ERROR,-0.000000,0.340083,-0.000000,0.583915,FALSE,FALSE,TRUE,TRUE,FALSE,FALSE,Disabled,0.000000,0.833747,38.866253,TRUE,12.995285,-4.817322,0.000000,0.059799,0.000000,0.000000,-0.383000,-0.007000,-0.004000,3.030000,0.040000,-6.060000,-2.404307,Hold,65.229492,50.000000,Hold,-90088.000000,143360.000000,LowGoal,1432.500000,-2181.818182,Speed,1170.000000,-2181.818182,Speed,Off,Off,0.000000,FALSE,0,,,,,0.000000,0.000000
03:04:16.794 PM 04/09/2016,Teleop Disabled,9,FALSE,0,NO ERROR,-0.000000,0.372166,-0.000000,0.545415,FALSE,FALSE,TRUE,TRUE,FALSE,FALSE,Disabled,0.000000,0.833747,38.866253,TRUE,12.992249,-4.817383,0.000000,-0.102310,-0.037201,0.000000,0.158000,0.011000,0.164000,2.900000,0.240000,-7.110000,-2.325042,Hold,65.265137,50.000000,Hold,-90088.000000,143360.000000,LowGoal,1320.000000,-2181.818182,Speed,1042.500000,-2181.818182,Speed,Off,Off,0.000000,FALSE,0,,,,,0.000000,0.000000
03:04:16.895 PM 04/09/2016,Teleop Disabled,10,FALSE,0,NO ERROR,-0.000000,0.365749,-0.000000,0.538999,FALSE,FALSE,TRUE,TRUE,FALSE,FALSE,Disabled,0.000000,0.833747,38.866253,TRUE,12.990265,-4.818542,0.000000,-0.025711,0.006805,0.000000,-0.195000,-0.001000,0.043000,3.100000,0.270000,-6.800000,-2.386757,Hold,65.264648,50.000000,Hold,-90088.000000,143360.000000,LowGoal,1207.500000,-2181.818182,Speed,885.000000,-2181.818182,Speed,Off,Off,0.000000,FALSE,0,,,,,0.000000,0.000000
03:04:16.995 PM 04/09/2016,Teleop Disabled,11,FALSE,0,NO ERROR,-0.000000,0.365749,-0.000000,0.538999,FALSE,FALSE,TRUE,TRUE,FALSE,FALSE,Disabled,0.000000,0.833747,38.866253,TRUE,12.986008,-4.819580,0.000000,-0.065872,-0.035049,0.000000,0.039000,0.045000,0.094000,2.940000,0.200000,-6.680000,-2.445707,Hold,65.264893,50.000000,Hold,-90088.000000,143360.000000,LowGoal,1110.000000,-2181.818182,Speed,750.000000,-2181.818182,Speed,Off,Off,0.000000,FALSE,0,,,,,0.000000,0.000000
03:04:17.095 PM 04/09/2016,Teleop Disabled,10,FALSE,0,NO ERROR,-0.000000,0.365749,-0.000000,0.538999,FALSE,FALSE,TRUE,TRUE,FALSE,FALSE,Disabled,0.000000,0.833747,38.866253,TRUE,12.982910,-4.820435,0.000000,-0.054962,-0.023926,0.000000,-0.103000,-0.029000,0.031000,3.020000,0.250000,-6.720000,-2.443139,Hold,65.264893,50.000000,Hold,-90088.000000,143360.000000,LowGoal,1027.500000,-2181.818182,Speed,607.500000,-2181.818182,Speed,Off,Off,0.000000,FALSE,0,,,,,0.000000,0.000000
03:04:17.195 PM 04/09/2016,Teleop Disabled,9,FALSE,0,NO ERROR,-0.000000,0.365749,-0.000000,0.538999,FALSE,FALSE,TRUE,TRUE,FALSE,FALSE,Disabled,0.000000,0.833747,38.866253,TRUE,12.982376,-4.821564,0.000000,0.008438,-0.021805,0.000000,-0.068000,0.008000,0.096000,3.030000,0.230000,-6.680000,-2.518496,Hold,65.264893,50.000000,Hold,-90088.000000,143360.000000,LowGoal,915.000000,-2181.818182,Speed,480.000000,-2181.818182,Speed,Off,Off,0.000000,FALSE,0,,,,,0.000000,0.000000
03:04:17.296 PM 04/09/2016,Teleop Disabled,9,FALSE,0,NO ERROR,-0.000000,0.365749,-0.000000,0.538999,FALSE,FALSE,TRUE,TRUE,FALSE,FALSE,Disabled,0.000000,0.833747,38.866253,TRUE,12.982208,-4.821762,0.000000,0.000000,0.001938,0.000000,-0.002000,0.017000,0.043000,3.020000,0.240000,-6.780000,-2.568166,Hold,65.264893,50.000000,Hold,-90088.000000,143360.000000,LowGoal,817.500000,-2181.818182,Speed,367.500000,-2181.818182,Speed,Off,Off,0.000000,FALSE,0,,,,,0.000000,0.000000
03:04:17.398 PM 04/09/2016,Teleop Disabled,11,FALSE,0,NO ERROR,-0.000000,0.365749,-0.000000,0.538999,FALSE,FALSE,TRUE,TRUE,FALSE,FALSE,Disabled,0.000000,0.833747,38.866253,TRUE,12.982712,-4.821640,0.000000,0.009155,0.000000,0.000000,-0.015000,0.001000,-0.011000,3.040000,0.240000,-6.730000,-2.620444,Hold,65.264893,50.000000,Hold,-90088.000000,143360.000000,LowGoal,750.000000,-2181.818182,Speed,255.000000,-2181.818182,Speed,Off,Off,0.000000,FALSE,0,,,,,0.000000,0.000000
03:04:17.499 PM 04/09/2016,Teleop Disabled,11,FALSE,0,NO ERROR,-0.000000,0.365749,-0.000000,0.538999,FALSE,FALSE,TRUE,TRUE,FALSE,FALSE,Disabled,0.000000,0.833747,38.866253,TRUE,12.982712,-4.821808,0.000000,-0.002975,-0.003525,0.000000,0.011000,0.022000,0.007000,3.030000,0.240000,-6.680000,-2.662912,Hold,65.264893,50.000000,Hold,-90088.000000,143360.000000,LowGoal,660.000000,-2181.818182,Speed,157.500000,-2181.818182,Speed,Off,Off,0.000000,FALSE,0,,,,,0.000000,0.000000
03:04:17.600 PM 04/09/2016,Teleop Disabled,10,FALSE,0,NO ERROR,-0.000000,0.365749,-0.000000,0.538999,FALSE,FALSE,TRUE,TRUE,FALSE,FALSE,Disabled,0.000000,0.833747,38.866253,TRUE,12.982712,-4.822006,0.000000,0.000000,-0.008255,0.000000,-0.003000,-0.022000,0.017000,3.030000,0.240000,-6.680000,-2.716540,Hold,65.264893,50.000000,Hold,-90088.000000,143360.000000,LowGoal,577.500000,-2181.818182,Speed,75.000000,-2181.818182,Speed,Off,Off,0.000000,FALSE,0,,,,,0.000000,0.000000
03:04:17.700 PM 04/09/2016,Teleop Disabled,9,FALSE,0,NO ERROR,-0.000000,0.365749,-0.000000,0.538999,FALSE,FALSE,TRUE,TRUE,FALSE,FALSE,Disabled,0.000000,0.833747,38.866253,TRUE,12.982712,-4.822357,0.000000,0.000000,0.003082,0.000000,-0.005000,0.005000,0.055000,3.040000,0.230000,-6.660000,-2.782007,Hold,65.264893,50.000000,Hold,-90088.000000,143360.000000,LowGoal,495.000000,-2181.818182,Speed,0.000000,-2181.818182,Speed,Off,Off,0.000000,FALSE,0,,,,,0.000000,0.000000
03:04:17.800 PM 04/09/2016,Teleop Disabled,10,FALSE,0,NO ERROR,-0.000000,0.365749,-0.000000,0.538999,FALSE,FALSE,TRUE,TRUE,FALSE,FALSE,Disabled,0.000000,0.833747,38.866253,TRUE,12.982712,-4.822327,0.000000,0.000000,0.000000,0.000000,-0.012000,0.005000,0.045000,3.050000,0.230000,-6.650000,-2.839511,Hold,65.264893,50.000000,Hold,-90088.000000,143360.000000,LowGoal,420.000000,-2181.818182,Speed,0.000000,-2181.818182,Speed,Off,Off,0.000000,FALSE,0,,,,,0.000000,0.000000
03:04:17.901 PM 04/09/2016,Teleop Disabled,11,FALSE,0,NO ERROR,-0.000000,0.365749,-0.000000,0.538999,FALSE,FALSE,TRUE,TRUE,FALSE,FALSE,Disabled,0.000000,0.833747,38.866253,TRUE,12.982712,-4.822327,0.000000,0.000000,0.000000,0.000000,-0.002000,0.009000,0.029000,3.050000,0.230000,-6.630000,-2.890165,Hold,65.264893,50.000000,Hold,-90088.000000,143360.000000,LowGoal,360.000000,-2181.818182,Speed,0.000000,-2181.818182,Speed,Off,Off,0.000000,FALSE,0,,,,,0.000000,0.000000
03:04:18.001 PM 04/09/2016,Teleop Disabled,9,FALSE,0,NO ERROR,-0.000000,0.365749,-0.000000,0.538999,FALSE,FALSE,TRUE,TRUE,FALSE,FALSE,Disabled,0.000000,0.833747,38.866253,TRUE,12.982712,-4.822327,0.000000,0.000000,0.000000,0.000000,0.012000,-0.001000,0.017000,3.050000,0.230000,-6.630000,-2.942292,Hold,65.264893,50.000000,Hold,-90088.000000,143360.000000,LowGoal,292.500000,-2181.818182,Speed,0.000000,-2181.818182,Speed,Off,Off,0.000000,FALSE,0,,,,,0.000000,0.000000
03:04:18.101 PM 04/09/2016,Teleop Disabled,11,FALSE,0,NO ERROR,-0.000000,0.365749,-0.000000,0.538999,FALSE,FALSE,TRUE,TRUE,FALSE,FALSE,Disabled,0.000000,0.833747,38.866253,TRUE,12.982712,-4.822327,0.000000,0.000000,0.000000,0.000000,0.001000,0.010000,0.016000,3.040000,0.230000,-6.620000,-3.000396,Hold,65.264893,50.000000,Hold,-90088.000000,143360.000000,LowGoal,217.500000,-2181.818182,Speed,0.000000,-2181.818182,Speed,Off,Off,0.000000,FALSE,0,,,,,0.000000,0.000000
03:04:18.202 PM 04/09/2016,Teleop Disabled,11,FALSE,0,NO ERROR,-0.000000,0.365749,-0.000000,0.538999,FALSE,FALSE,TRUE,TRUE,FALSE,FALSE,Disabled,0.000000,0.833747,38.866253,TRUE,12.982712,-4.822327,0.000000,0.000000,0.000000,0.000000,0.007000,0.000000,0.021000,3.050000,0.230000,-6.610000,-3.059370,Hold,65.264893,50.000000,Hold,-90088.000000,143360.000000,LowGoal,157.500000,-2181.818182,Speed,0.000000,-2181.818182,Speed,Off,Off,0.000000,FALSE,0,,,,,0.000000,0.000000
03:04:18.302 PM 04/09/2016,Teleop Disabled,9,FALSE,0,NO ERROR,-0.000000,0.365749,-0.000000,0.538999,FALSE,FALSE,TRUE,TRUE,FALSE,FALSE,Disabled,0.000000,0.833747,38.866253,TRUE,12.982712,-4.822327,0.000000,0.000000,0.000000,0.000000,0.001000,0.004000,0.017000,3.060000,0.230000,-6.600000,-3.120101,Hold,65.264893,50.000000,Hold,-90088.000000,143360.000000,LowGoal,97.500000,-2181.818182,Speed,0.000000,-2181.818182,Speed,Off,Off,0.000000,FALSE,0,,,,,0.000000,0.000000
03:04:18.402 PM 04/09/2016,Teleop Disabled,11,FALSE,0,NO ERROR,-0.000000,0.365749,-0.000000,0.538999,FALSE,FALSE,TRUE,TRUE,FALSE,FALSE,Disabled,0.000000,0.833747,38.866253,TRUE,12.982712,-4.822327,0.000000,0.000000,0.000000,0.000000,0.001000,0.000000,0.021000,3.060000,0.230000,-6.580000,-3.178597,Hold,65.264893,50.000000,Hold,-90088.000000,143360.000000,LowGoal,45.000000,-2181.818182,Speed,0.000000,-2181.818182,Speed,Off,Off,0.000000,FALSE,0,,,,,0.000000,0.000000
03:04:18.503 PM 04/09/2016,Teleop Disabled,11,FALSE,0,NO ERROR,-0.000000,0.365749,-0.000000,0.538999,FALSE,FALSE,TRUE,TRUE,FALSE,FALSE,Disabled,0.000000,0.833747,38.866253,TRUE,12.982712,-4.822327,0.000000,0.000000,0.000000,0.000000,0.002000,0.000000,0.022000,3.050000,0.230000,-6.580000,-3.239891,Hold,65.264893,50.000000,Hold,-90088.000000,143360.000000,LowGoal,7.500000,-2181.818182,Speed,0.000000,-2181.818182,Speed,Off,Off,0.000000,FALSE,0,,,,,0.000000,0.000000
03:04:18.603 PM 04/09/2016,Teleop Disabled,10,FALSE,0,NO ERROR,-0.000000,0.365749,-0.000000,0.538999,FALSE,FALSE,TRUE,TRUE,FALSE,FALSE,Disabled,0.000000,0.833747,38.866253,TRUE,12.982712,-4.822327,0.000000,0.000000,0.000000,0.000000,0.000000,0.000000,0.022000,3.060000,0.230000,-6.570000,-3.293974,Hold,65.264893,50.000000,Hold,-90088.000000,143360.000000,LowGoal,0.000000,-2181.818182,Speed,0.000000,-2181.818182,Speed,Off,Off,0.000000,FALSE,0,,,,,0.000000,0.000000
03:04:18.702 PM 04/09/2016,Teleop Disabled,11,FALSE,0,NO ERROR,-0.000000,0.365749,-0.000000,0.538999,FALSE,FALSE,TRUE,TRUE,FALSE,FALSE,Disabled,0.000000,0.833747,38.866253,TRUE,12.982712,-4.822327,0.000000,0.000000,0.000000,0.000000,0.003000,0.001000,0.024000,3.060000,0.230000,-6.560000,-3.325976,Hold,65.264893,50.000000,Hold,-90088.000000,143360.000000,LowGoal,0.000000,-2181.818182,Speed,0.000000,-2181.818182,Speed,Off,Off,0.000000,FALSE,0,,,,,0.000000,0.000000
03:04:18.803 PM 04/09/2016,Teleop Disabled,10,FALSE,0,NO ERROR,-0.000000,0.365749,-0.000000,0.538999,FALSE,FALSE,TRUE,TRUE,FALSE,FALSE,Disabled,0.000000,0.833747,38.866253,TRUE,12.982712,-4.822327,0.000000,0.000000,0.000000,0.000000,0.002000,0.001000,0.020000,3.060000,0.230000,-6.560000,-3.380303,Hold,65.264893,50.000000,Hold,-90088.000000,143360.000000,LowGoal,0.000000,-2181.818182,Speed,0.000000,-2181.818182,Speed,Off,Off,0.000000,FALSE,0,,,,,0.000000,0.000000
03:04:18.904 PM 04/09/2016,Teleop Disabled,10,FALSE,0,NO ERROR,-0.000000,0.365749,-0.000000,0.538999,FALSE,FALSE,TRUE,TRUE,FALSE,FALSE,Disabled,0.000000,0.833747,38.866253,TRUE,12.982712,-4.822327,0.000000,0.000000,0.000000,0.000000,0.001000,0.000000,0.020000,3.060000,0.230000,-6.550000,-3.440785,Hold,65.264893,50.000000,Hold,-90088.000000,143360.000000,LowGoal,0.000000,-2181.818182,Speed,0.000000,-2181.818182,Speed,Off,Off,0.000000,FALSE,0,,,,,0.000000,0.000000
03:04:19.003 PM 04/09/2016,Teleop Disabled,11,FALSE,0,NO ERROR,-0.000000,0.365749,-0.000000,0.538999,FALSE,FALSE,TRUE,TRUE,FALSE,FALSE,Disabled,0.000000,0.833747,38.866253,TRUE,12.982712,-4.822327,0.000000,0.000000,0.000000,0.000000,0.004000,-0.001000,0.019000,3.060000,0.230000,-6.550000,-3.494561,Hold,65.264893,50.000000,Hold,-90088.000000,143360.000000,LowGoal,0.000000,-2181.818182,Speed,0.000000,-2181.818182,Speed,Off,Off,0.000000,FALSE,0,,,,,0.000000,0.000000
03:04:19.104 PM 04/09/2016,Teleop Disabled,9,FALSE,0,NO ERROR,-0.000000,0.365749,-0.000000,0.538999,FALSE,FALSE,TRUE,TRUE,FALSE,FALSE,Disabled,0.000000,0.833747,38.866253,TRUE,12.982712,-4.822327,0.000000,0.000000,0.000000,0.000000,0.002000,0.000000,0.022000,3.060000,0.230000,-6.540000,-3.544361,Hold,65.264893,50.000000,Hold,-90088.000000,143360.000000,LowGoal,0.000000,-2181.818182,Speed,0.000000,-2181.818182,Speed,Off,Off,0.000000,FALSE,0,,,,,0.000000,0.000000
03:04:19.204 PM 04/09/2016,Teleop Disabled,10,FALSE,0,NO ERROR,-0.000000,0.365749,-0.000000,0.538999,FALSE,FALSE,TRUE,TRUE,FALSE,FALSE,Disabled,0.000000,0.833747,38.866253,TRUE,12.982712,-4.822327,0.000000,0.000000,0.000000,0.000000,0.000000,0.002000,0.024000,3.060000,0.230000,-6.530000,-3.586929,Hold,65.264893,50.000000,Hold,-90088.000000,143360.000000,LowGoal,0.000000,-2181.818182,Speed,0.000000,-2181.818182,Speed,Off,Off,0.000000,FALSE,0,,,,,0.000000,0.000000
03:04:19.304 PM 04/09/2016,Teleop Disabled,5,FALSE,0,NO ERROR,-0.000000,0.365749,-0.000000,0.538999,FALSE,FALSE,TRUE,TRUE,FALSE,FALSE,Disabled,0.000000,0.833747,38.866253,TRUE,12.982712,-4.822327,0.000000,0.000000,0.000000,0.000000,0.000000,0.000000,0.023000,3.060000,0.230000,-6.530000,-3.643665,Hold,65.264893,50.000000,Hold,-90088.000000,143360.000000,LowGoal,0.000000,-2181.818182,Speed,0.000000,-2181.818182,Speed,Off,Off,0.000000,FALSE,0,,,,,0.000000,0.000000
03:04:19.404 PM 04/09/2016,Teleop Disabled,10,FALSE,0,NO ERROR,-0.000000,0.365749,-0.000000,0.538999,FALSE,FALSE,TRUE,TRUE,FALSE,FALSE,Disabled,0.000000,0.833747,38.866253,TRUE,12.982712,-4.822327,0.000000,0.000000,0.000000,0.000000,0.000000,0.000000,0.020000,3.070000,0.230000,-6.530000,-3.692502,Hold,65.264893,50.000000,Hold,-90088.000000,143360.000000,LowGoal,0.000000,-2181.818182,Speed,0.000000,-2181.818182,Speed,Off,Off,0.000000,FALSE,0,,,,,0.000000,0.000000
03:04:19.504 PM 04/09/2016,Teleop Disabled,10,FALSE,0,NO ERROR,-0.000000,0.365749,-0.000000,0.538999,FALSE,FALSE,TRUE,TRUE,FALSE,FALSE,Disabled,0.000000,0.833747,38.866253,TRUE,12.982712,-4.822327,0.000000,0.000000,0.000000,0.000000,0.000000,0.000000,0.020000,3.070000,0.230000,-6.520000,-3.757700,Hold,65.264893,50.000000,Hold,-90088.000000,143360.000000,LowGoal,0.000000,-2181.818182,Speed,0.000000,-2181.818182,Speed,Off,Off,0.000000,FALSE,0,,,,,0.000000,0.000000
03:04:19.604 PM 04/09/2016,Teleop Disabled,9,FALSE,0,NO ERROR,-0.000000,0.365749,-0.000000,0.538999,FALSE,FALSE,TRUE,TRUE,FALSE,FALSE,Disabled,0.000000,0.833747,38.866253,TRUE,12.982712,-4.822327,0.000000,0.000000,0.000000,0.000000,-0.001000,-0.004000,0.023000,3.070000,0.230000,-6.530000,-3.799035,Hold,65.264893,50.000000,Hold,-90088.000000,143360.000000,LowGoal,0.000000,-2181.818182,Speed,0.000000,-2181.818182,Speed,Off,Off,0.000000,FALSE,0,,,,,0.000000,0.000000
03:04:19.705 PM 04/09/2016,Teleop Disabled,8,FALSE,0,NO ERROR,-0.000000,0.365749,-0.000000,0.538999,FALSE,FALSE,TRUE,TRUE,FALSE,FALSE,Disabled,0.000000,0.833747,38.866253,TRUE,12.982712,-4.822327,0.000000,0.000000,0.000000,0.000000,0.001000,-0.002000,0.021000,3.070000,0.230000,-6.530000,-3.853173,Hold,65.264893,50.000000,Hold,-90088.000000,143360.000000,LowGoal,0.000000,-2181.818182,Speed,0.000000,-2181.818182,Speed,Off,Off,0.000000,FALSE,0,,,,,0.000000,0.000000
03:04:19.805 PM 04/09/2016,Teleop Disabled,10,FALSE,0,NO ERROR,-0.000000,0.365749,-0.000000,0.538999,FALSE,FALSE,TRUE,TRUE,FALSE,FALSE,Disabled,0.000000,0.833747,38.866253,TRUE,12.982712,-4.822327,0.000000,0.000000,0.000000,0.000000,0.001000,-0.002000,0.021000,3.070000,0.230000,-6.530000,-3.903696,Hold,65.264893,50.000000,Hold,-90088.000000,143360.000000,LowGoal,0.000000,-2181.818182,Speed,0.000000,-2181.818182,Speed,Off,Off,0.000000,FALSE,0,,,,,0.000000,0.000000
03:04:19.905 PM 04/09/2016,Teleop Disabled,10,FALSE,0,NO ERROR,-0.000000,0.365749,-0.000000,0.538999,FALSE,FALSE,TRUE,TRUE,FALSE,FALSE,Disabled,0.000000,0.833747,38.866253,TRUE,12.982712,-4.822327,0.000000,0.000000,0.000000,0.000000,0.000000,0.000000,0.018000,3.060000,0.230000,-6.510000,-3.942101,Hold,65.264893,50.000000,Hold,-90088.000000,143360.000000,LowGoal,0.000000,-2181.818182,Speed,0.000000,-2181.818182,Speed,Off,Off,0.000000,FALSE,0,,,,,0.000000,0.000000
03:04:20.005 PM 04/09/2016,Teleop Disabled,9,FALSE,0,NO ERROR,-0.000000,0.365749,-0.000000,0.538999,FALSE,FALSE,TRUE,TRUE,FALSE,FALSE,Disabled,0.000000,0.833747,38.866253,TRUE,12.982712,-4.822327,0.000000,0.000000,0.000000,0.000000,0.004000,-0.002000,0.019000,3.060000,0.230000,-6.510000,-3.995753,Hold,65.264893,50.000000,Hold,-90088.000000,143360.000000,LowGoal,0.000000,-2181.818182,Speed,0.000000,-2181.818182,Speed,Off,Off,0.000000,FALSE,0,,,,,0.000000,0.000000
03:04:20.106 PM 04/09/2016,Teleop Disabled,8,FALSE,0,NO ERROR,-0.000000,0.365749,-0.000000,0.538999,FALSE,FALSE,TRUE,TRUE,FALSE,FALSE,Disabled,0.000000,0.833747,38.866253,TRUE,12.982712,-4.822327,0.000000,0.000000,0.000000,0.000000,0.000000,0.000000,0.022000,3.070000,0.220000,-6.500000,-4.072646,Hold,65.264893,50.000000,Hold,-90088.000000,143360.000000,LowGoal,0.000000,-2181.818182,Speed,0.000000,-2181.818182,Speed,Off,Off,0.000000,FALSE,0,,,,,0.000000,0.000000
03:04:20.206 PM 04/09/2016,Teleop Disabled,10,FALSE,0,NO ERROR,-0.000000,0.365749,-0.000000,0.538999,FALSE,FALSE,TRUE,TRUE,FALSE,FALSE,Disabled,0.000000,0.833747,38.866253,TRUE,12.982712,-4.822327,0.000000,0.000000,0.000000,0.000000,0.000000,0.001000,0.023000,3.070000,0.220000,-6.510000,-4.116879,Hold,65.264893,50.000000,Hold,-90088.000000,143360.000000,LowGoal,0.000000,-2181.818182,Speed,0.000000,-2181.818182,Speed,Off,Off,0.000000,FALSE,0,,,,,0.000000,0.000000
03:04:20.310 PM 04/09/2016,Teleop Disabled,10,FALSE,0,NO ERROR,-0.000000,0.365749,-0.000000,0.538999,FALSE,FALSE,TRUE,TRUE,FALSE,FALSE,Disabled,0.000000,0.833747,38.866253,TRUE,12.982712,-4.822327,0.000000,0.000000,0.000000,0.000000,0.000000,0.001000,0.021000,3.070000,0.220000,-6.510000,-4.169206,Hold,65.264893,50.000000,Hold,-90088.000000,143360.000000,LowGoal,0.000000,-2181.818182,Speed,0.000000,-2181.818182,Speed,Off,Off,0.000000,FALSE,0,,,,,0.000000,0.000000
03:04:20.410 PM 04/09/2016,Teleop Disabled,11,FALSE,0,NO ERROR,-0.000000,0.365749,-0.000000,0.538999,FALSE,FALSE,TRUE,TRUE,FALSE,FALSE,Disabled,0.000000,0.833747,38.866253,TRUE,12.982712,-4.822327,0.000000,0.000000,0.000000,0.000000,0.001000,0.001000,0.024000,3.080000,0.220000,-6.510000,-4.216049,Hold,65.264893,50.000000,Hold,-90088.000000,143360.000000,LowGoal,0.000000,-2181.818182,Speed,0.000000,-2181.818182,Speed,Off,Off,0.000000,FALSE,0,,,,,0.000000,0.000000
03:04:20.511 PM 04/09/2016,Teleop Disabled,9,FALSE,0,NO ERROR,-0.000000,0.365749,-0.000000,0.538999,FALSE,TRUE,TRUE,TRUE,FALSE,FALSE,Disabled,0.000000,0.833747,38.866253,TRUE,12.982712,-4.822327,0.000000,0.000000,0.000000,0.000000,-0.003000,0.004000,0.029000,3.090000,0.220000,-6.510000,-4.260716,Hold,65.264893,50.000000,Hold,-90088.000000,143360.000000,LowGoal,0.000000,-2181.818182,Speed,0.000000,-2181.818182,Speed,Off,Off,0.000000,FALSE,0,,,,,0.000000,0.000000
03:04:20.612 PM 04/09/2016,Teleop Disabled,9,FALSE,0,NO ERROR,-0.000000,0.365749,-0.000000,0.538999,FALSE,TRUE,TRUE,TRUE,FALSE,FALSE,Disabled,0.000000,0.833747,38.866253,TRUE,12.982712,-4.822327,0.000000,0.000000,0.000000,0.000000,0.005000,0.002000,0.022000,3.090000,0.220000,-6.510000,-4.309876,Hold,65.264893,50.000000,Hold,-90088.000000,143360.000000,LowGoal,0.000000,0.000000,Speed,0.000000,0.000000,Speed,Off,Off,0.000000,FALSE,0,,,,,0.000000,0.000000
03:04:20.712 PM 04/09/2016,Teleop Disabled,9,FALSE,0,NO ERROR,-0.000000,0.365749,-0.000000,0.538999,FALSE,FALSE,TRUE,TRUE,FALSE,FALSE,Disabled,0.000000,0.833747,38.866253,TRUE,12.982712,-4.822327,0.000000,0.000000,0.000000,0.000000,-0.001000,-0.003000,0.018000,3.090000,0.210000,-6.500000,-4.364341,Hold,65.264893,50.000000,Hold,-90088.000000,143360.000000,LowGoal,0.000000,0.000000,Speed,0.000000,0.000000,Speed,Off,Off,0.000000,FALSE,0,,,,,0.000000,0.000000
03:04:20.812 PM 04/09/2016,Teleop Disabled,10,FALSE,0,NO ERROR,-0.000000,0.365749,-0.000000,0.538999,FALSE,FALSE,TRUE,TRUE,FALSE,FALSE,Disabled,0.000000,0.833747,38.866253,TRUE,12.982712,-4.822327,0.000000,0.000000,0.000000,0.000000,-0.002000,-0.003000,0.012000,3.090000,0.210000,-6.500000,-4.406347,Hold,65.264893,50.000000,Hold,-90088.000000,143360.000000,LowGoal,0.000000,-2181.818182,Speed,0.000000,-2181.818182,Speed,Off,Off,0.000000,FALSE,0,,,,,0.000000,0.000000
03:04:20.914 PM 04/09/2016,Teleop Disabled,9,FALSE,0,NO ERROR,-0.000000,0.365749,-0.000000,0.538999,FALSE,FALSE,TRUE,TRUE,FALSE,FALSE,Disabled,0.000000,0.833747,38.866253,TRUE,12.982712,-4.822327,0.000000,0.000000,0.000000,0.000000,-0.001000,0.000000,0.014000,3.100000,0.210000,-6.500000,-4.458932,Hold,65.264893,50.000000,Hold,-90088.000000,143360.000000,LowGoal,0.000000,-2181.818182,Speed,0.000000,-2181.818182,Speed,Off,Off,0.000000,FALSE,0,,,,,0.000000,0.000000
03:04:21.015 PM 04/09/2016,Teleop Disabled,10,FALSE,0,NO ERROR,-0.000000,0.365749,-0.000000,0.538999,FALSE,FALSE,TRUE,TRUE,FALSE,FALSE,Disabled,0.000000,0.833747,38.866253,TRUE,12.982712,-4.822327,0.000000,0.000000,0.000000,0.000000,0.000000,-0.003000,0.021000,3.110000,0.210000,-6.490000,-4.529577,Hold,65.264893,50.000000,Hold,-90088.000000,143360.000000,LowGoal,0.000000,-2181.818182,Speed,0.000000,-2181.818182,Speed,Off,Off,0.000000,FALSE,0,,,,,0.000000,0.000000
03:04:21.115 PM 04/09/2016,Teleop Disabled,11,FALSE,0,NO ERROR,-0.000000,0.365749,-0.000000,0.538999,FALSE,FALSE,TRUE,TRUE,FALSE,FALSE,Disabled,0.000000,0.833747,38.866253,TRUE,12.982712,-4.822327,0.000000,0.000000,0.000000,0.000000,-0.006000,0.000000,0.008000,3.110000,0.210000,-6.500000,-4.580692,Hold,65.264893,50.000000,Hold,-90088.000000,143360.000000,LowGoal,0.000000,-2181.818182,Speed,0.000000,-2181.818182,Speed,Off,Off,0.000000,FALSE,0,,,,,0.000000,0.000000
03:04:21.217 PM 04/09/2016,Teleop Disabled,9,FALSE,0,NO ERROR,-0.000000,0.365749,-0.000000,0.538999,FALSE,FALSE,TRUE,TRUE,FALSE,FALSE,Disabled,0.000000,0.833747,38.866253,TRUE,12.982712,-4.822327,0.000000,0.000000,0.000000,0.000000,-0.006000,0.000000,0.008000,3.110000,0.210000,-6.500000,-4.625352,Hold,65.264893,50.000000,Hold,-90088.000000,143360.000000,LowGoal,0.000000,-2181.818182,Speed,0.000000,-2181.818182,Speed,Off,Off,0.000000,FALSE,0,,,,,0.000000,0.000000
03:04:21.318 PM 04/09/2016,Teleop Disabled,4,FALSE,0,NO ERROR,-0.000000,0.365749,-0.000000,0.538999,FALSE,FALSE,TRUE,TRUE,FALSE,FALSE,Disabled,0.000000,0.833747,38.866253,TRUE,12.982712,-4.822327,0.000000,0.000000,0.000000,0.000000,-0.004000,-0.001000,0.009000,3.110000,0.210000,-6.500000,-4.678433,Hold,65.264893,50.000000,Hold,-90088.000000,143360.000000,LowGoal,0.000000,-2181.818182,Speed,0.000000,-2181.818182,Speed,Off,Off,0.000000,FALSE,0,,,,,0.000000,0.000000
03:04:21.418 PM 04/09/2016,Teleop Disabled,9,FALSE,0,NO ERROR,-0.000000,0.359332,-0.000000,0.538999,FALSE,FALSE,TRUE,TRUE,FALSE,FALSE,Disabled,0.000000,0.833747,38.866253,TRUE,12.982712,-4.822327,0.000000,0.000000,0.000000,0.000000,-0.007000,0.011000,-0.005000,3.100000,0.200000,-6.440000,-4.734323,Hold,65.089111,50.000000,Hold,-90088.000000,143360.000000,LowGoal,0.000000,-2181.818182,Speed,0.000000,-2181.818182,Speed,Off,Off,0.000000,FALSE,0,,,,,0.000000,0.000000
03:04:21.518 PM 04/09/2016,Teleop Disabled,11,FALSE,0,NO ERROR,-0.000000,0.333666,-0.000000,0.513332,FALSE,FALSE,TRUE,TRUE,FALSE,FALSE,Disabled,0.000000,0.833747,38.866253,TRUE,12.982712,-4.822327,0.000000,0.000000,0.000000,0.000000,-0.003000,0.000000,0.035000,3.070000,0.190000,-6.320000,-4.785855,Hold,65.089111,50.000000,Hold,-90088.000000,143360.000000,LowGoal,0.000000,-2181.818182,Speed,0.000000,-2181.818182,Speed,Off,Off,0.000000,FALSE,0,,,,,0.000000,0.000000
03:04:21.620 PM 04/09/2016,Teleop Disabled,11,FALSE,0,NO ERROR,-0.000000,0.333666,-0.000000,0.513332,FALSE,FALSE,TRUE,TRUE,FALSE,FALSE,Disabled,0.000000,0.833747,38.866253,TRUE,12.982468,-4.822830,0.000000,0.000000,0.000000,0.000000,-0.044000,-0.064000,0.065000,3.040000,0.160000,-5.980000,-4.846554,Hold,63.733887,50.000000,Hold,-90088.000000,143360.000000,LowGoal,0.000000,-2181.818182,Speed,0.000000,-2181.818182,Speed,Off,Off,0.000000,FALSE,0,,,,,0.000000,0.000000
03:04:21.720 PM 04/09/2016,Teleop Disabled,11,FALSE,0,NO ERROR,-0.000000,0.333666,-0.000000,0.513332,FALSE,FALSE,TRUE,TRUE,FALSE,FALSE,Disabled,0.000000,0.833747,38.866253,TRUE,12.982468,-4.822998,0.000000,0.000000,0.000000,0.000000,0.003000,0.007000,0.036000,3.040000,0.160000,-5.980000,-4.900117,Hold,60.698242,50.000000,Hold,-90088.000000,143360.000000,LowGoal,0.000000,-2181.818182,Speed,0.000000,-2181.818182,Speed,Off,Off,0.000000,FALSE,0,,,,,0.000000,0.000000
03:04:21.821 PM 04/09/2016,Teleop Disabled,12,FALSE,0,NO ERROR,-0.000000,0.327249,-0.000000,0.500499,FALSE,FALSE,TRUE,TRUE,FALSE,FALSE,Disabled,0.000000,0.833747,38.866253,TRUE,12.982468,-4.822998,0.000000,0.000000,0.000000,0.000000,0.001000,0.000000,0.044000,3.020000,0.170000,-6.000000,-4.956609,Hold,57.823730,50.000000,Hold,-90088.000000,143360.000000,LowGoal,0.000000,-2181.818182,Speed,0.000000,-2181.818182,Speed,Off,Off,0.000000,FALSE,0,,,,,0.000000,0.000000
03:04:21.921 PM 04/09/2016,Teleop Disabled,10,FALSE,0,NO ERROR,-0.000000,0.301583,-0.000000,0.500499,FALSE,FALSE,TRUE,TRUE,FALSE,FALSE,Disabled,0.000000,0.833747,38.866253,TRUE,12.982468,-4.823151,0.000000,0.000000,0.000000,0.000000,-0.016000,-0.012000,0.021000,3.000000,0.170000,-5.900000,-5.071745,Hold,53.251709,50.000000,Hold,-90088.000000,143360.000000,LowGoal,0.000000,-2181.818182,Speed,0.000000,-2181.818182,Speed,Off,Off,0.000000,FALSE,0,,,,,0.000000,0.000000
03:04:22.021 PM 04/09/2016,Teleop Disabled,10,FALSE,0,NO ERROR,-0.000000,0.301583,-0.000000,0.487666,FALSE,FALSE,TRUE,TRUE,FALSE,FALSE,Disabled,0.000000,0.833747,38.866253,TRUE,12.982468,-4.822830,0.000000,0.000000,0.000000,0.000000,0.015000,0.033000,0.029000,3.000000,0.110000,-5.720000,-5.077794,Hold,48.350098,50.000000,Hold,-90088.000000,143360.000000,LowGoal,0.000000,-2181.818182,Speed,0.000000,-2181.818182,Speed,Off,Off,0.000000,FALSE,0,,,,,0.000000,0.000000
03:04:22.123 PM 04/09/2016,Teleop Disabled,10,FALSE,0,NO ERROR,-0.000000,0.301583,-0.000000,0.487666,FALSE,FALSE,TRUE,TRUE,FALSE,FALSE,Disabled,0.000000,0.833747,38.866253,TRUE,12.982468,-4.822830,0.000000,0.000000,0.000000,0.000000,-0.007000,-0.033000,0.033000,2.980000,0.130000,-5.700000,-5.104639,Hold,42.588623,50.000000,Hold,-90088.000000,143360.000000,LowGoal,0.000000,-2181.818182,Speed,0.000000,-2181.818182,Speed,Off,Off,0.000000,FALSE,0,,,,,0.000000,0.000000
03:04:22.224 PM 04/09/2016,Teleop Disabled,11,FALSE,0,NO ERROR,-0.000000,0.314416,-0.000000,0.494082,FALSE,FALSE,TRUE,TRUE,FALSE,FALSE,Disabled,0.000000,0.833747,38.866253,TRUE,12.982468,-4.823029,0.000000,0.000000,0.000000,0.000000,-0.011000,-0.008000,0.058000,3.000000,0.150000,-5.810000,-5.129171,Hold,36.468018,50.000000,Hold,-90088.000000,143360.000000,LowGoal,0.000000,-2181.818182,Speed,0.000000,-2181.818182,Speed,Off,Off,0.000000,FALSE,0,,,,,0.000000,0.000000
03:04:22.324 PM 04/09/2016,Teleop Disabled,11,FALSE,0,NO ERROR,-0.000000,0.314416,-0.000000,0.494082,FALSE,FALSE,TRUE,TRUE,FALSE,FALSE,Disabled,0.000000,0.833747,38.866253,TRUE,12.982559,-4.823029,0.000000,0.005783,0.000000,0.000000,0.011000,0.014000,0.015000,3.050000,0.170000,-6.310000,-5.176637,Hold,32.177490,50.000000,Hold,-90088.000000,143360.000000,LowGoal,0.000000,-2181.818182,Speed,0.000000,-2181.818182,Speed,Off,Off,0.000000,FALSE,0,,,,,0.000000,0.000000
03:04:22.426 PM 04/09/2016,Teleop Disabled,7,FALSE,0,NO ERROR,-0.000000,0.314416,-0.000000,0.494082,FALSE,FALSE,TRUE,TRUE,FALSE,FALSE,Disabled,0.000000,0.833747,38.866253,TRUE,12.982635,-4.823029,0.000000,0.000000,0.000000,0.000000,-0.003000,-0.016000,0.042000,3.050000,0.170000,-6.270000,-5.210728,Hold,31.621094,50.000000,Hold,-90088.000000,143360.000000,LowGoal,0.000000,-2181.818182,Speed,0.000000,-2181.818182,Speed,Off,Off,0.000000,FALSE,0,,,,,0.000000,0.000000
03:04:22.525 PM 04/09/2016,Teleop Disabled,9,FALSE,0,NO ERROR,-0.000000,0.314416,-0.000000,0.494082,FALSE,FALSE,TRUE,TRUE,FALSE,FALSE,Disabled,0.000000,0.833747,38.866253,TRUE,12.982635,-4.823029,0.000000,0.000000,0.000000,0.000000,-0.005000,-0.005000,-0.002000,3.090000,0.180000,-6.420000,-5.255006,Hold,33.278320,50.000000,Hold,-90088.000000,143360.000000,LowGoal,0.000000,-2181.818182,Speed,0.000000,-2181.818182,Speed,Off,Off,0.000000,FALSE,0,,,,,0.000000,0.000000
03:04:22.625 PM 04/09/2016,Teleop Disabled,11,FALSE,0,NO ERROR,-0.000000,0.314416,-0.000000,0.494082,FALSE,FALSE,TRUE,TRUE,FALSE,FALSE,Disabled,0.000000,0.833747,38.866253,TRUE,12.982605,-4.822876,0.000000,-0.003311,-0.000488,0.000000,-0.003000,-0.002000,0.011000,3.080000,0.190000,-6.270000,-5.255006,Hold,36.596680,50.000000,Hold,-90088.000000,143360.000000,LowGoal,0.000000,-2181.818182,Speed,0.000000,-2181.818182,Speed,Off,Off,0.000000,FALSE,0,,,,,0.000000,0.000000
03:04:22.727 PM 04/09/2016,Teleop Disabled,10,FALSE,0,NO ERROR,-0.000000,0.314416,-0.000000,0.494082,FALSE,FALSE,TRUE,TRUE,FALSE,FALSE,Disabled,0.000000,0.833747,38.866253,TRUE,12.982529,-4.822769,0.000000,0.002502,0.008591,0.000000,-0.018000,-0.026000,0.014000,3.070000,0.180000,-6.250000,-5.315592,Hold,39.079834,50.000000,Hold,-90088.000000,143360.000000,LowGoal,0.000000,-2181.818182,Speed,0.000000,-2181.818182,Speed,Off,Off,0.000000,FALSE,0,,,,,0.000000,0.000000
03:04:22.828 PM 04/09/2016,Teleop Disabled,10,FALSE,0,NO ERROR,-0.000000,0.314416,-0.000000,0.494082,FALSE,FALSE,TRUE,TRUE,FALSE,FALSE,Disabled,0.000000,0.833747,38.866253,TRUE,12.982605,-4.822601,0.000000,0.003403,0.000000,0.000000,0.002000,-0.006000,0.013000,3.070000,0.180000,-6.200000,-5.360404,Hold,41.953369,50.000000,Hold,-90088.000000,143360.000000,LowGoal,0.000000,-2181.818182,Speed,0.000000,-2181.818182,Speed,Off,Off,0.000000,FALSE,0,,,,,0.000000,0.000000
03:04:22.928 PM 04/09/2016,Teleop Disabled,9,FALSE,0,NO ERROR,-0.000000,0.314416,-0.000000,0.494082,FALSE,FALSE,TRUE,TRUE,FALSE,FALSE,Disabled,0.000000,0.833747,38.866253,TRUE,12.982605,-4.822601,0.000000,0.000000,0.000000,0.000000,0.004000,0.000000,0.028000,3.060000,0.180000,-6.190000,-5.422222,Hold,42.206787,50.000000,Hold,-90088.000000,143360.000000,LowGoal,0.000000,-2181.818182,Speed,0.000000,-2181.818182,Speed,Off,Off,0.000000,FALSE,0,,,,,0.000000,0.000000
03:04:23.028 PM 04/09/2016,Teleop Disabled,11,FALSE,0,NO ERROR,-0.000000,0.314416,-0.000000,0.494082,FALSE,FALSE,TRUE,TRUE,FALSE,FALSE,Disabled,0.000000,0.833747,38.866253,TRUE,12.982605,-4.822601,0.000000,0.000000,0.000000,0.000000,0.013000,-0.012000,0.015000,3.040000,0.170000,-6.070000,-5.485055,Hold,42.204834,50.000000,Hold,-90088.000000,143360.000000,LowGoal,0.000000,-2181.818182,Speed,0.000000,-2181.818182,Speed,Off,Off,0.000000,FALSE,0,,,,,0.000000,0.000000
03:04:23.128 PM 04/09/2016,Teleop Disabled,10,FALSE,0,NO ERROR,-0.000000,0.314416,-0.000000,0.487666,FALSE,TRUE,TRUE,TRUE,FALSE,FALSE,Disabled,0.000000,0.833747,38.866253,TRUE,12.982605,-4.822357,0.000000,0.000000,0.000000,0.000000,-0.007000,0.003000,0.000000,3.090000,0.280000,-5.940000,-5.424074,Hold,41.922119,50.000000,Hold,-90088.000000,143360.000000,LowGoal,0.000000,-2181.818182,Speed,0.000000,-2181.818182,Speed,Off,Off,0.000000,FALSE,0,,,,,0.000000,0.000000
03:04:23.230 PM 04/09/2016,Teleop Disabled,9,FALSE,0,NO ERROR,-0.000000,0.314416,-0.000000,0.487666,FALSE,TRUE,TRUE,TRUE,FALSE,FALSE,Disabled,0.000000,0.833747,38.866253,TRUE,12.982666,-4.822357,0.000000,0.002853,0.000000,0.000000,-0.035000,0.014000,0.021000,3.050000,0.310000,-6.110000,-5.436966,Hold,40.557129,50.000000,Hold,-90088.000000,143360.000000,LowGoal,0.000000,0.000000,Speed,0.000000,0.000000,Speed,Off,Off,0.000000,FALSE,0,,,,,0.000000,0.000000
03:04:23.331 PM 04/09/2016,Teleop Disabled,10,FALSE,0,NO ERROR,-0.000000,0.314416,-0.000000,0.474832,FALSE,FALSE,TRUE,TRUE,FALSE,FALSE,Disabled,0.000000,0.833747,38.866253,TRUE,12.982758,-4.822357,0.000000,0.006439,0.000000,0.000000,0.010000,-0.009000,0.057000,3.030000,0.320000,-5.940000,-5.474848,Hold,36.486572,50.000000,Hold,-90088.000000,143360.000000,LowGoal,0.000000,0.000000,Speed,0.000000,0.000000,Speed,Off,Off,0.000000,FALSE,0,,,,,0.000000,0.000000
03:04:23.431 PM 04/09/2016,Teleop Disabled,10,FALSE,0,NO ERROR,-0.000000,0.314416,-0.000000,0.474832,FALSE,FALSE,TRUE,TRUE,FALSE,FALSE,Disabled,0.000000,0.833747,38.866253,TRUE,12.982803,-4.822311,0.000000,0.000000,-0.000381,0.000000,0.008000,0.004000,0.056000,3.040000,0.320000,-6.100000,-5.524624,Hold,30.064941,50.000000,Hold,-90088.000000,143360.000000,LowGoal,0.000000,-2181.818182,Speed,0.000000,-2181.818182,Speed,Off,Off,0.000000,FALSE,0,,,,,0.000000,0.000000
