Time,Robot Mode,Loop Time,Error Status,Error Code,Error Source,Left Motor Output,Left Motor Encoder,Right Motor Output,Right Motor Encoder,Is Level,Is Stalled,Ball Detector Photoeye,Vision Enabled,Vision Teleop Control,Vision Auto Control,Vision Current State,Vision X Output,Vision NavX Error,Vision NavX Target,NavX Connection Status,NavX Displacement X,NavX Displacement Y,NavX Displacement Z,NavX Velocity X,NavX Velocity Y,NavX Velocity Z,NavX Acceleration X,NavX Acceleration Y,NavX Acceleration Z,NavX Pitch,NavX Yaw,NavX Roll,Gyro Angle,Roller Arm State,Roller Arm Actual,Roller Arm Desired,Shooter Arm State,Shooter Arm Actual,Shooter Arm Desired,Shooter State,Actual RPM Left,Desired RPM Left,Control Mode Left,Actual RPM Right,Desired RPM Right,Control Mode Right,Ball Shooter Cylinder,Ball Halo Cylinder,Scaler Motor Output,Scaler Solenoid Fire,Auto To Run,Auto Current File,Auto File Status,Auto Current Command,Auto Trimmed Command,Shooter Amps Left,Shooter Amps Right
03:54:36.353 PM 04/09/2016,Autonomous Enabled,10,FALSE,0,NO ERROR,0.000000,0.000000,-0.000000,0.000000,TRUE,FALSE,TRUE,TRUE,FALSE,FALSE,Disabled,0.000000,-0.590355,58.550355,TRUE,9.470200,5.953842,0.000000,0.000000,0.000000,0.000000,0.001000,-0.001000,0.019000,2.540000,-0.040000,-0.140000,-0.080053,ResetBack,0.947998,-0.000049,ResetBack,-8155.000000,-0.250000,LowGoal,0.000000,0.000000,Speed,0.000000,0.000000,Speed,Off,Off,0.000000,FALSE,13,,,,,0.000000,0.000000
03:54:36.455 PM 04/09/2016,Autonomous Enabled,9,FALSE,0,NO ERROR,0.000000,0.000000,-0.000000,0.000000,TRUE,FALSE,TRUE,TRUE,FALSE,FALSE,Disabled,0.000000,-0.590355,58.550355,TRUE,9.470200,5.953751,0.000000,0.000000,0.000000,0.000000,0.003000,0.015000,0.036000,2.540000,-0.040000,-0.140000,-0.075915,ResetBack,0.433105,-0.000049,ResetBack,-7990.000000,-0.250000,LowGoal,0.000000,0.000000,Speed,0.000000,0.000000,Speed,Off,Off,0.000000,FALSE,13,Read: /home/lvuser/scripts/auto_13.bee,File good!,WAIT 1500,WAIT,0.000000,0.000000
03:54:36.555 PM 04/09/2016,Autonomous Enabled,11,FALSE,0,NO ERROR,0.000000,0.000000,-0.000000,0.000000,TRUE,FALSE,TRUE,TRUE,FALSE,FALSE,Disabled,0.000000,-0.590355,58.550355,TRUE,9.470200,5.953751,0.000000,0.000000,0.000000,0.000000,0.002000,0.000000,0.028000,2.540000,-0.040000,-0.150000,-0.092178,ResetBack,0.012939,-0.000049,ResetBack,-2590.000000,-0.250000,LowGoal,0.000000,-2181.818182,Speed,52.500000,-2181.818182,Speed,Off,Off,0.000000,FALSE,13,Read: /home/lvuser/scripts/auto_13.bee,File good!,WAIT 1500,WAIT,0.000000,0.000000
03:54:36.655 PM 04/09/2016,Autonomous Enabled,10,FALSE,0,NO ERROR,0.000000,0.000000,-0.000000,0.000000,TRUE,FALSE,TRUE,TRUE,FALSE,FALSE,Disabled,0.000000,-0.590355,58.550355,TRUE,9.470367,5.953217,0.000000,0.011536,-0.021896,0.000000,0.003000,0.006000,0.083000,2.530000,-0.040000,-0.120000,-0.090708,Reset,0.012939,-0.000049,ResetBack,-857.000000,-0.250000,LowGoal,97.500000,-2181.818182,Speed,52.500000,-2181.818182,Speed,Off,Off,0.000000,FALSE,13,Read: /home/lvuser/scripts/auto_13.bee,File good!,WAIT 1500,WAIT,0.000000,0.000000
03:54:36.756 PM 04/09/2016,Autonomous Enabled,9,FALSE,0,NO ERROR,0.000000,0.000000,-0.000000,0.000000,TRUE,FALSE,TRUE,TRUE,FALSE,FALSE,Disabled,0.000000,-0.590355,58.550355,TRUE,9.470917,5.952271,0.000000,0.010330,-0.025696,0.000000,0.004000,-0.043000,0.058000,2.510000,-0.040000,-0.120000,-0.091386,Hold,0.012939,0.000000,ResetBack,-857.000000,-0.250000,LowGoal,697.500000,-2181.818182,Speed,667.500000,-2181.818182,Speed,Off,Off,0.000000,FALSE,13,Read: /home/lvuser/scripts/auto_13.bee,File good!,WAIT 1500,WAIT,0.000000,0.000000
03:54:36.859 PM 04/09/2016,Autonomous Enabled,8,FALSE,0,NO ERROR,0.000000,0.000000,-0.000000,0.000000,TRUE,FALSE,TRUE,TRUE,FALSE,FALSE,Disabled,0.000000,-0.590355,58.550355,TRUE,9.470642,5.950150,0.000000,-0.034012,-0.034546,0.000000,-0.007000,-0.016000,0.057000,2.480000,-0.040000,-0.120000,-0.101008,Hold,1.174072,0.000000,ResetBack,-838.000000,-0.250000,LowGoal,1305.000000,-2181.818182,Speed,1110.000000,-2181.818182,Speed,Off,Off,0.000000,FALSE,13,Read: /home/lvuser/scripts/auto_13.bee,File good!,WAIT 1500,WAIT,0.000000,0.000000
03:54:36.958 PM 04/09/2016,Autonomous Enabled,9,FALSE,0,NO ERROR,0.000000,0.000000,-0.000000,0.000000,TRUE,FALSE,TRUE,TRUE,FALSE,FALSE,Disabled,0.000000,-0.590355,58.550355,TRUE,9.468201,5.948318,0.000000,-0.062592,-0.035324,0.000000,0.112000,-0.068000,-0.067000,2.450000,-0.040000,-0.120000,-0.101008,Hold,0.973877,0.000000,ResetBack,-781.000000,-0.250000,LowGoal,1717.500000,-2181.818182,Speed,1582.500000,-2181.818182,Speed,Off,Off,0.000000,FALSE,13,Read: /home/lvuser/scripts/auto_13.bee,File good!,WAIT 1500,WAIT,0.000000,0.000000
03:54:37.059 PM 04/09/2016,Autonomous Enabled,11,FALSE,0,NO ERROR,0.000000,0.000000,-0.000000,0.000000,TRUE,FALSE,TRUE,TRUE,FALSE,FALSE,Disabled,0.000000,-0.590355,58.550355,TRUE,9.465546,5.947983,0.000000,-0.065842,0.037369,0.000000,-0.151000,0.177000,-0.094000,2.430000,-0.050000,-0.030000,-0.104805,Hold,0.947021,0.000000,ResetBack,-189.000000,-0.250000,LowGoal,2122.500000,-2181.818182,Speed,1972.500000,-2181.818182,Speed,Off,Off,0.000000,FALSE,13,Read: /home/lvuser/scripts/auto_13.bee,File good!,WAIT 1500,WAIT,0.000000,0.000000
03:54:37.160 PM 04/09/2016,Autonomous Enabled,9,FALSE,0,NO ERROR,0.000000,0.000000,-0.000000,0.000000,TRUE,FALSE,TRUE,TRUE,FALSE,FALSE,Disabled,0.000000,-0.590355,58.550355,TRUE,9.459991,5.953323,0.000000,-0.172043,0.197906,0.000000,-0.056000,0.331000,-0.211000,2.350000,-0.050000,-0.090000,-0.105852,Hold,0.947021,0.000000,ResetBack,145.000000,-0.250000,LowGoal,2242.500000,-2181.818182,Speed,2167.500000,-2181.818182,Speed,Off,Off,0.000000,FALSE,13,Read: /home/lvuser/scripts/auto_13.bee,File good!,WAIT 1500,WAIT,0.000000,0.000000
03:54:37.260 PM 04/09/2016,Autonomous Enabled,10,FALSE,0,NO ERROR,0.000000,0.000000,-0.000000,0.000000,TRUE,FALSE,TRUE,TRUE,FALSE,FALSE,Disabled,0.000000,-0.590355,58.550355,TRUE,9.447403,5.977905,0.000000,-0.263046,0.572311,0.000000,-0.139000,0.349000,-0.206000,2.380000,-0.050000,-0.010000,-0.107332,Hold,0.947021,0.000000,ResetBack,558.000000,-0.250000,LowGoal,2182.500000,-2181.818182,Speed,2175.000000,-2181.818182,Speed,Off,Off,0.000000,FALSE,13,Read: /home/lvuser/scripts/auto_13.bee,File good!,WAIT 1500,WAIT,0.000000,0.000000
03:54:37.359 PM 04/09/2016,Autonomous Enabled,10,FALSE,0,NO ERROR,0.000000,0.000000,-0.000000,0.000000,TRUE,FALSE,TRUE,TRUE,FALSE,FALSE,Disabled,0.000000,-0.590355,58.550355,TRUE,9.431931,6.015686,0.000000,-0.300308,0.873199,0.000000,-0.006000,0.312000,-0.093000,2.320000,-0.050000,-0.030000,-0.111666,Hold,0.947021,0.000000,ResetBack,1226.000000,-0.250000,LowGoal,2152.500000,-2181.818182,Speed,2100.000000,-2181.818182,Speed,Off,Off,0.000000,FALSE,13,Read: /home/lvuser/scripts/auto_13.bee,File good!,WAIT 1500,WAIT,0.000000,0.000000
03:54:37.459 PM 04/09/2016,Autonomous Enabled,10,FALSE,0,NO ERROR,0.000000,0.000000,-0.000000,0.000000,TRUE,FALSE,TRUE,TRUE,FALSE,FALSE,Disabled,0.000000,-0.590355,58.550355,TRUE,9.415390,6.068573,0.000000,-0.375153,1.179977,0.000000,-0.171000,0.248000,-0.002000,2.310000,-0.050000,-0.030000,-0.128476,Hold,0.947021,0.000000,ResetBack,1226.000000,-0.250000,LowGoal,2152.500000,-2181.818182,Speed,2100.000000,-2181.818182,Speed,Off,Off,0.000000,FALSE,13,Read: /home/lvuser/scripts/auto_13.bee,File good!,WAIT 1500,WAIT,0.000000,0.000000
03:54:37.559 PM 04/09/2016,Autonomous Enabled,11,FALSE,0,NO ERROR,0.000000,0.000000,-0.000000,0.000000,TRUE,FALSE,TRUE,TRUE,FALSE,FALSE,Disabled,0.000000,-0.590355,58.550355,TRUE,9.387955,6.146713,0.000000,-0.492584,1.315262,0.000000,0.012000,-0.085000,0.028000,2.380000,-0.050000,-0.090000,-0.134425,Hold,0.947021,0.000000,ResetBack,1560.000000,-0.250000,LowGoal,2160.000000,-2181.818182,Speed,2115.000000,-2181.818182,Speed,Off,Off,0.000000,FALSE,13,Read: /home/lvuser/scripts/auto_13.bee,File good!,WAIT 1500,WAIT,0.000000,0.000000
03:54:37.660 PM 04/09/2016,Autonomous Enabled,9,FALSE,0,NO ERROR,0.000000,0.000000,-0.000000,0.000000,TRUE,FALSE,TRUE,TRUE,FALSE,FALSE,Disabled,0.000000,-0.590355,58.550355,TRUE,9.361984,6.209442,0.000000,-0.548203,1.202103,0.000000,-0.149000,-0.184000,0.163000,2.420000,-0.060000,-0.030000,-0.156065,Hold,0.947021,0.000000,Reset,1758.000000,2.000000,LowGoal,2160.000000,-2181.818182,Speed,2122.500000,-2181.818182,Speed,Off,Off,0.000000,FALSE,13,Read: /home/lvuser/scripts/auto_13.bee,File good!,WAIT 1500,WAIT,0.000000,0.000000
03:54:37.760 PM 04/09/2016,Autonomous Enabled,10,FALSE,0,NO ERROR,0.000000,0.000000,-0.000000,0.000000,TRUE,FALSE,TRUE,TRUE,FALSE,FALSE,Disabled,0.000000,-0.590355,58.550355,TRUE,9.337250,6.254196,0.000000,-0.653305,1.073837,0.000000,0.084000,-0.146000,0.180000,2.410000,-0.060000,-0.110000,-0.149015,Hold,0.947021,0.000000,Hold,-99.000000,2.000000,LowGoal,2145.000000,-2181.818182,Speed,2122.500000,-2181.818182,Speed,Off,Off,0.000000,FALSE,13,Read: /home/lvuser/scripts/auto_13.bee,File good!,WAIT 1500,WAIT,0.000000,0.000000
03:54:37.861 PM 04/09/2016,Autonomous Enabled,11,FALSE,0,NO ERROR,0.000000,0.000000,-0.000000,0.000000,TRUE,FALSE,TRUE,TRUE,FALSE,FALSE,Disabled,0.000000,-0.590355,58.550355,TRUE,9.301910,6.312790,0.000000,-0.529373,0.921402,0.000000,0.060000,-0.018000,0.223000,2.430000,-0.060000,-0.120000,-0.149448,Hold,0.947021,0.000000,Hold,-99.000000,2.000000,LowGoal,2145.000000,-2181.818182,Speed,2122.500000,-2181.818182,Speed,Off,Off,0.000000,FALSE,13,Read: /home/lvuser/scripts/auto_13.bee,File good!,WAIT 1500,WAIT,0.000000,0.000000
03:54:37.962 PM 04/09/2016,Autonomous Enabled,11,FALSE,0,NO ERROR,0.000000,0.000000,-0.000000,0.000000,TRUE,FALSE,TRUE,TRUE,FALSE,FALSE,Disabled,0.000000,-0.590355,58.550355,TRUE,9.280365,6.349380,0.000000,-0.560944,0.927734,0.000000,-0.069000,0.120000,0.049000,2.390000,-0.060000,-0.080000,-0.156740,Hold,0.947021,0.000000,Hold,-100.000000,2.000000,LowGoal,2145.000000,-2181.818182,Speed,2122.500000,-2181.818182,Speed,Off,Off,0.000000,FALSE,13,Read: /home/lvuser/scripts/auto_13.bee,File good!,NAVX_ZERO_YAW,NAVX_ZERO_YAW,0.000000,0.000000
03:54:38.063 PM 04/09/2016,Autonomous Enabled,11,FALSE,0,NO ERROR,0.000000,0.000000,-0.000000,0.000000,TRUE,FALSE,TRUE,TRUE,FALSE,FALSE,Disabled,0.000000,-0.590355,58.550355,TRUE,9.240845,6.420990,0.000000,-0.549011,1.107025,0.000000,-0.040000,0.151000,0.076000,2.390000,0.000000,-0.110000,-0.000750,Hold,0.947021,0.000000,Hold,-100.000000,2.000000,LowGoal,2152.500000,-2181.818182,Speed,2122.500000,-2181.818182,Speed,Off,Off,0.000000,FALSE,13,Read: /home/lvuser/scripts/auto_13.bee,File good!,WAIT 750,WAIT,0.000000,0.000000
03:54:38.164 PM 04/09/2016,Autonomous Enabled,10,FALSE,0,NO ERROR,0.000000,0.000000,-0.000000,0.000000,TRUE,FALSE,TRUE,TRUE,FALSE,FALSE,Disabled,0.000000,-0.590355,58.550355,TRUE,9.218048,6.467865,0.000000,-0.590637,1.206299,0.000000,-0.091000,0.089000,0.044000,2.390000,0.000000,-0.130000,-0.002320,Hold,0.947021,58.000000,Hold,-100.000000,139264.000000,LowGoal,2152.500000,-2181.818182,Speed,2122.500000,-2181.818182,Speed,Off,Off,0.000000,FALSE,13,Read: /home/lvuser/scripts/auto_13.bee,File good!,WAIT 750,WAIT,0.000000,0.000000
03:54:38.265 PM 04/09/2016,Autonomous Enabled,10,FALSE,0,NO ERROR,0.000000,0.000000,-0.000000,0.000000,TRUE,FALSE,TRUE,TRUE,FALSE,FALSE,Disabled,0.000000,-0.590355,58.550355,TRUE,9.186371,6.529465,0.000000,-0.631393,1.226593,0.000000,0.203000,-0.161000,-0.074000,2.470000,0.020000,-0.130000,0.006286,Hold,3.936035,58.000000,Hold,-666.000000,139264.000000,LowGoal,2137.500000,-2181.818182,Speed,2130.000000,-2181.818182,Speed,Off,Off,0.000000,FALSE,13,Read: /home/lvuser/scripts/auto_13.bee,File good!,WAIT 750,WAIT,0.000000,0.000000
03:54:38.366 PM 04/09/2016,Autonomous Enabled,10,FALSE,0,NO ERROR,0.000000,0.012833,-0.000000,0.006417,TRUE,FALSE,TRUE,TRUE,FALSE,FALSE,Disabled,0.000000,-0.590355,58.550355,TRUE,9.159195,6.588135,0.000000,-0.485657,1.142715,0.000000,-0.076000,0.139000,-0.102000,2.350000,0.030000,-0.040000,0.017054,Hold,8.132324,58.000000,Hold,-15541.000000,139264.000000,LowGoal,2137.500000,-2181.818182,Speed,2122.500000,-2181.818182,Speed,Off,Off,0.000000,FALSE,13,Read: /home/lvuser/scripts/auto_13.bee,File good!,WAIT 750,WAIT,0.000000,0.000000
03:54:38.467 PM 04/09/2016,Autonomous Enabled,10,FALSE,0,NO ERROR,0.000000,0.032083,-0.000000,0.057750,TRUE,FALSE,TRUE,TRUE,FALSE,FALSE,Disabled,0.000000,-0.590355,58.550355,TRUE,9.132217,6.648285,0.000000,-0.584839,1.251984,0.000000,0.116000,0.199000,-0.344000,2.390000,0.060000,-0.060000,0.031165,Hold,12.743164,58.000000,Hold,-29815.000000,139264.000000,LowGoal,2152.500000,-2181.818182,Speed,2122.500000,-2181.818182,Speed,Off,Off,0.000000,FALSE,13,Read: /home/lvuser/scripts/auto_13.bee,File good!,WAIT 750,WAIT,0.000000,0.000000
03:54:38.568 PM 04/09/2016,Autonomous Enabled,9,FALSE,0,NO ERROR,0.000000,0.077000,-0.000000,0.109083,TRUE,FALSE,TRUE,TRUE,FALSE,FALSE,Disabled,0.000000,-0.590355,58.550355,TRUE,9.105820,6.715836,0.000000,-0.484985,1.411011,0.000000,-0.016000,0.080000,-0.202000,2.450000,0.040000,-0.030000,0.023623,Hold,20.764893,58.000000,Hold,-44018.000000,139264.000000,LowGoal,2152.500000,-2181.818182,Speed,2122.500000,-2181.818182,Speed,Off,Off,0.000000,FALSE,13,Read: /home/lvuser/scripts/auto_13.bee,File good!,WAIT 750,WAIT,0.000000,0.000000
03:54:38.668 PM 04/09/2016,Autonomous Enabled,10,FALSE,0,NO ERROR,0.000000,0.070583,-0.000000,0.109083,TRUE,FALSE,TRUE,TRUE,FALSE,FALSE,Disabled,0.000000,-0.590355,58.550355,TRUE,9.079483,6.790176,0.000000,-0.592575,1.543533,0.000000,-0.162000,0.197000,0.196000,2.480000,0.000000,-0.100000,-0.039820,Hold,27.135986,58.000000,Hold,-60317.000000,139264.000000,LowGoal,2145.000000,-2181.818182,Speed,2122.500000,-2181.818182,Speed,Off,Off,0.000000,FALSE,13,Read: /home/lvuser/scripts/auto_13.bee,File good!,WAIT 750,WAIT,0.000000,0.000000
03:54:38.769 PM 04/09/2016,Autonomous Enabled,10,FALSE,0,NO ERROR,0.000000,0.070583,-0.000000,0.102666,TRUE,FALSE,TRUE,TRUE,FALSE,FALSE,Disabled,0.000000,-0.590355,58.550355,TRUE,9.046387,6.871918,0.000000,-0.680267,1.692413,0.000000,0.092000,0.098000,0.082000,2.430000,0.010000,-0.240000,-0.027809,Hold,35.826660,58.000000,Hold,-60317.000000,139264.000000,LowGoal,2152.500000,-2181.818182,Speed,2122.500000,-2181.818182,Speed,Off,Off,0.000000,FALSE,13,Read: /home/lvuser/scripts/auto_13.bee,File good!,WAIT 750,WAIT,0.000000,0.000000
03:54:38.869 PM 04/09/2016,Autonomous Enabled,10,FALSE,0,NO ERROR,0.000000,0.012833,-0.000000,-0.032083,TRUE,FALSE,TRUE,TRUE,FALSE,FALSE,Disabled,0.000000,-0.590355,58.550355,TRUE,9.013809,6.959915,0.000000,-0.661606,1.795639,0.000000,-0.170000,0.113000,0.251000,2.410000,0.020000,-0.190000,-0.031647,Hold,49.344727,58.000000,Hold,-78655.000000,139264.000000,LowGoal,2152.500000,-2181.818182,Speed,2130.000000,-2181.818182,Speed,Off,Off,0.000000,FALSE,13,Read: /home/lvuser/scripts/auto_13.bee,File good!,DRIVE_STRAIGHT_TARGET 206 1000 10000 75,DRIVE_STRAIGHT_TARGET,0.000000,0.000000
03:54:38.970 PM 04/09/2016,Autonomous Enabled,10,FALSE,0,NO ERROR,-0.562500,-0.096250,0.562500,-0.006417,TRUE,FALSE,TRUE,TRUE,FALSE,FALSE,Disabled,0.000000,-0.590355,58.550355,TRUE,8.969360,7.069687,0.000000,-0.737152,1.807022,0.000000,0.065000,-0.183000,-0.077000,2.440000,0.030000,-0.540000,-0.049501,Hold,57.115234,58.000000,Hold,-98145.000000,139264.000000,LowGoal,2040.000000,-2181.818182,Speed,2130.000000,-2181.818182,Speed,Off,Off,0.000000,FALSE,13,Read: /home/lvuser/scripts/auto_13.bee,File good!,DRIVE_STRAIGHT_TARGET 206 1000 10000 75,DRIVE_STRAIGHT_TARGET,0.000000,0.000000
03:54:39.071 PM 04/09/2016,Autonomous Enabled,10,FALSE,0,NO ERROR,-0.562500,-1.045914,0.562500,-1.418080,TRUE,FALSE,TRUE,TRUE,FALSE,FALSE,Disabled,0.000000,-0.590355,58.550355,TRUE,8.944519,7.139084,0.000000,-0.436722,1.725876,0.000000,0.355000,0.030000,-0.891000,2.200000,0.810000,2.040000,0.729055,Hold,62.883789,58.000000,Hold,-117375.000000,139264.000000,LowGoal,2025.000000,-2181.818182,Speed,2100.000000,-2181.818182,Speed,Off,Off,0.000000,FALSE,13,Read: /home/lvuser/scripts/auto_13.bee,File good!,DRIVE_STRAIGHT_TARGET 206 1000 10000 75,DRIVE_STRAIGHT_TARGET,0.000000,0.000000
03:54:39.172 PM 04/09/2016,Autonomous Enabled,11,FALSE,0,NO ERROR,-0.562500,-3.497075,0.562500,-4.119490,FALSE,FALSE,TRUE,TRUE,FALSE,FALSE,Disabled,0.000000,-0.590355,58.550355,TRUE,8.929077,7.242676,0.000000,-0.136642,1.763641,0.000000,-0.016000,-0.008000,-0.082000,2.250000,1.190000,3.010000,1.132006,Hold,62.479492,58.000000,Hold,-135246.000000,139264.000000,LowGoal,2107.500000,-2181.818182,Speed,2077.500000,-2181.818182,Speed,Off,Off,0.000000,FALSE,13,Read: /home/lvuser/scripts/auto_13.bee,File good!,DRIVE_STRAIGHT_TARGET 206 1000 10000 75,DRIVE_STRAIGHT_TARGET,0.000000,0.000000
03:54:39.274 PM 04/09/2016,Autonomous Enabled,11,FALSE,0,NO ERROR,-0.562500,-6.820901,0.562500,-7.578066,TRUE,FALSE,TRUE,TRUE,FALSE,FALSE,Disabled,0.000000,-0.590355,58.550355,TRUE,8.921341,7.334473,0.000000,-0.156540,1.911987,0.000000,0.325000,-0.024000,0.088000,2.230000,1.290000,2.180000,1.240760,Hold,62.080811,58.000000,Hold,-139705.000000,139264.000000,LowGoal,2130.000000,-2181.818182,Speed,2077.500000,-2181.818182,Speed,Off,Off,0.000000,FALSE,13,Read: /home/lvuser/scripts/auto_13.bee,File good!,DRIVE_STRAIGHT_TARGET 206 1000 10000 75,DRIVE_STRAIGHT_TARGET,0.000000,0.000000
03:54:39.373 PM 04/09/2016,Autonomous Enabled,9,FALSE,0,NO ERROR,-0.534961,-10.645225,0.590731,-11.517890,TRUE,FALSE,TRUE,TRUE,FALSE,FALSE,Disabled,0.000000,-0.590355,58.550355,TRUE,8.918228,7.430389,0.000000,-0.041870,1.902634,0.000000,-0.078000,-0.122000,0.199000,2.250000,1.440000,2.910000,1.420702,Hold,62.149414,58.000000,Hold,-139336.000000,139264.000000,LowGoal,2115.000000,-2181.818182,Speed,2092.500000,-2181.818182,Speed,Off,Off,0.000000,FALSE,13,Read: /home/lvuser/scripts/auto_13.bee,File good!,DRIVE_STRAIGHT_TARGET 206 1000 10000 75,DRIVE_STRAIGHT_TARGET,0.000000,0.000000
03:54:39.474 PM 04/09/2016,Autonomous Enabled,10,FALSE,0,NO ERROR,-0.535151,-14.642799,0.590531,-15.521880,TRUE,FALSE,TRUE,TRUE,FALSE,FALSE,Disabled,0.000000,-0.590355,58.550355,TRUE,8.913330,7.521744,0.000000,-0.119019,1.743576,0.000000,0.116000,-0.304000,-0.404000,2.190000,1.450000,2.330000,1.507345,Hold,61.541260,58.000000,Hold,-139338.000000,139264.000000,LowGoal,2137.500000,-2181.818182,Speed,2107.500000,-2181.818182,Speed,Off,Off,0.000000,FALSE,13,Read: /home/lvuser/scripts/auto_13.bee,File good!,DRIVE_STRAIGHT_TARGET 206 1000 10000 75,DRIVE_STRAIGHT_TARGET,0.000000,0.000000
03:54:39.573 PM 04/09/2016,Autonomous Enabled,9,FALSE,0,NO ERROR,-0.539534,-18.903456,0.585944,-19.673454,TRUE,FALSE,TRUE,TRUE,FALSE,FALSE,Disabled,0.000000,-0.590355,58.550355,TRUE,8.910202,7.600906,0.000000,-0.022339,1.468094,0.000000,0.106000,-0.412000,0.019000,2.230000,1.150000,2.830000,1.311515,Hold,61.685303,58.000000,Hold,-139338.000000,139264.000000,LowGoal,2152.500000,-2181.818182,Speed,2115.000000,-2181.818182,Speed,Off,Off,0.000000,FALSE,13,Read: /home/lvuser/scripts/auto_13.bee,File good!,DRIVE_STRAIGHT_TARGET 206 1000 10000 75,DRIVE_STRAIGHT_TARGET,0.000000,0.000000
03:54:39.673 PM 04/09/2016,Autonomous Enabled,9,FALSE,0,NO ERROR,-0.546816,-23.221862,0.578406,-23.882777,TRUE,FALSE,TRUE,TRUE,FALSE,FALSE,Disabled,0.000000,-0.590355,58.550355,TRUE,8.911011,7.664841,0.000000,0.031113,1.169846,0.000000,0.065000,-0.276000,-0.032000,2.190000,0.840000,2.610000,0.929401,Hold,61.521729,58.000000,Hold,-139339.000000,139264.000000,LowGoal,2152.500000,-2181.818182,Speed,2122.500000,-2181.818182,Speed,Off,Off,0.000000,FALSE,13,Read: /home/lvuser/scripts/auto_13.bee,File good!,DRIVE_STRAIGHT_TARGET 206 1000 10000 75,DRIVE_STRAIGHT_TARGET,0.000000,0.000000
03:54:39.773 PM 04/09/2016,Autonomous Enabled,11,FALSE,0,NO ERROR,-0.550089,-27.469686,0.575049,-28.034351,TRUE,FALSE,TRUE,TRUE,FALSE,FALSE,Disabled,0.000000,-0.590355,58.550355,TRUE,8.915802,7.725220,0.000000,0.117004,0.917648,0.000000,-0.095000,-0.021000,0.170000,2.210000,0.580000,2.400000,0.621626,Hold,61.549805,58.000000,Hold,-139339.000000,139264.000000,LowGoal,2152.500000,-2181.818182,Speed,2115.000000,-2181.818182,Speed,Off,Off,0.000000,FALSE,13,Read: /home/lvuser/scripts/auto_13.bee,File good!,DRIVE_STRAIGHT_TARGET 206 1000 10000 75,DRIVE_STRAIGHT_TARGET,0.000000,0.000000
03:54:39.873 PM 04/09/2016,Autonomous Enabled,9,FALSE,0,NO ERROR,-0.554533,-31.826592,0.570523,-32.346341,TRUE,FALSE,TRUE,TRUE,FALSE,FALSE,Disabled,0.000000,-0.590355,58.550355,TRUE,8.919861,7.770782,0.000000,0.066010,0.901627,0.000000,-0.095000,-0.021000,0.170000,2.210000,0.580000,2.400000,0.457602,Hold,61.544434,58.000000,Hold,-139339.000000,139264.000000,LowGoal,2145.000000,-2181.818182,Speed,2122.500000,-2181.818182,Speed,Off,Off,0.000000,FALSE,13,Read: /home/lvuser/scripts/auto_13.bee,File good!,DRIVE_STRAIGHT_TARGET 206 1000 10000 75,DRIVE_STRAIGHT_TARGET,0.000000,0.000000
03:54:39.973 PM 04/09/2016,Autonomous Enabled,9,FALSE,0,NO ERROR,-0.557636,-36.228415,0.567386,-36.722497,TRUE,FALSE,TRUE,TRUE,FALSE,FALSE,Disabled,0.000000,-0.590355,58.550355,TRUE,8.923248,7.816681,0.000000,0.063889,0.922073,0.000000,-0.034000,0.063000,-0.119000,2.240000,0.280000,2.620000,0.307107,Hold,61.544434,58.000000,Hold,-139339.000000,139264.000000,LowGoal,2152.500000,-2181.818182,Speed,2115.000000,-2181.818182,Speed,Off,Off,0.000000,FALSE,13,Read: /home/lvuser/scripts/auto_13.bee,File good!,DRIVE_STRAIGHT_TARGET 206 1000 10000 75,DRIVE_STRAIGHT_TARGET,0.000000,0.000000
03:54:40.073 PM 04/09/2016,Autonomous Enabled,9,FALSE,0,NO ERROR,-0.560746,-40.527572,0.564256,-40.918988,TRUE,FALSE,TRUE,TRUE,FALSE,FALSE,Disabled,0.000000,-0.590355,58.550355,TRUE,8.924179,7.864975,0.000000,-0.028290,1.002563,0.000000,-0.034000,0.063000,-0.119000,2.240000,0.280000,2.620000,0.037228,Hold,60.989746,58.000000,Hold,-139337.000000,139264.000000,LowGoal,2152.500000,-2181.818182,Speed,2115.000000,-2181.818182,Speed,Off,Off,0.000000,FALSE,13,Read: /home/lvuser/scripts/auto_13.bee,File good!,DRIVE_STRAIGHT_TARGET 206 1000 10000 75,DRIVE_STRAIGHT_TARGET,0.000000,0.000000
03:54:40.173 PM 04/09/2016,Autonomous Enabled,11,FALSE,0,NO ERROR,-0.566602,-44.756145,0.558412,-45.128311,FALSE,FALSE,TRUE,TRUE,FALSE,FALSE,Disabled,0.000000,-0.590355,58.550355,TRUE,8.919128,7.929703,0.000000,-0.121414,1.119461,0.000000,-0.117000,0.192000,-0.158000,2.350000,-0.050000,3.730000,-0.230428,Hold,60.982666,58.000000,Hold,-139337.000000,139264.000000,LowGoal,2145.000000,-2181.818182,Speed,2115.000000,-2181.818182,Speed,Off,Off,0.000000,FALSE,13,Read: /home/lvuser/scripts/auto_13.bee,File good!,DRIVE_STRAIGHT_TARGET 206 1000 10000 75,DRIVE_STRAIGHT_TARGET,0.000000,0.000000
03:54:40.274 PM 04/09/2016,Autonomous Enabled,9,FALSE,0,NO ERROR,-0.572096,-48.618970,0.552986,-48.965469,FALSE,FALSE,TRUE,TRUE,FALSE,FALSE,Disabled,0.000000,-0.590355,58.550355,TRUE,8.912964,7.975052,0.000000,-0.178116,1.127808,0.000000,-0.154000,0.001000,-0.144000,2.180000,-0.260000,5.810000,-0.466264,Hold,60.984619,58.000000,Hold,-139337.000000,139264.000000,LowGoal,2145.000000,-2181.818182,Speed,2115.000000,-2181.818182,Speed,Off,Off,0.000000,FALSE,13,Read: /home/lvuser/scripts/auto_13.bee,File good!,DRIVE_STRAIGHT_TARGET 206 1000 10000 75,DRIVE_STRAIGHT_TARGET,0.000000,0.000000
03:54:40.375 PM 04/09/2016,Autonomous Enabled,9,FALSE,0,NO ERROR,-0.575049,-52.520294,0.550089,-52.879626,FALSE,FALSE,TRUE,TRUE,FALSE,FALSE,Disabled,0.000000,-0.590355,58.550355,TRUE,8.898819,8.033585,0.000000,-0.356262,1.227615,0.000000,-0.060000,0.104000,0.036000,2.250000,-0.630000,9.640000,-0.665002,Hold,61.072510,58.000000,Hold,-139390.000000,139264.000000,LowGoal,2145.000000,-2181.818182,Speed,2107.500000,-2181.818182,Speed,Off,Off,0.000000,FALSE,13,Read: /home/lvuser/scripts/auto_13.bee,File good!,DRIVE_STRAIGHT_TARGET 206 1000 10000 75,DRIVE_STRAIGHT_TARGET,0.000000,0.000000
03:54:40.475 PM 04/09/2016,Autonomous Enabled,11,FALSE,0,NO ERROR,-0.576825,-56.152119,0.548355,-56.472951,FALSE,FALSE,TRUE,TRUE,FALSE,FALSE,Disabled,0.000000,-0.590355,58.550355,TRUE,8.876755,8.110992,0.000000,-0.379791,1.334641,0.000000,-0.060000,0.104000,0.036000,2.250000,-0.630000,9.640000,-0.790680,Hold,60.522705,58.000000,Hold,-139377.000000,139264.000000,LowGoal,2145.000000,-2181.818182,Speed,2107.500000,-2181.818182,Speed,Off,Off,0.000000,FALSE,13,Read: /home/lvuser/scripts/auto_13.bee,File good!,DRIVE_STRAIGHT_TARGET 206 1000 10000 75,DRIVE_STRAIGHT_TARGET,0.000000,0.000000
03:54:40.575 PM 04/09/2016,Autonomous Enabled,11,FALSE,0,NO ERROR,-0.579197,-59.796777,0.546047,-60.111193,FALSE,FALSE,TRUE,TRUE,FALSE,FALSE,Disabled,0.000000,-0.590355,58.550355,TRUE,8.849304,8.184433,0.000000,-0.581238,1.534271,0.000000,-0.533000,0.321000,0.724000,2.330000,-0.840000,8.680000,-0.857149,Hold,61.172607,58.000000,Hold,-139399.000000,139264.000000,LowGoal,2145.000000,-2181.818182,Speed,2107.500000,-2181.818182,Speed,Off,Off,0.000000,FALSE,13,Read: /home/lvuser/scripts/auto_13.bee,File good!,DRIVE_STRAIGHT_TARGET 206 1000 10000 75,DRIVE_STRAIGHT_TARGET,0.000000,0.000000
03:54:40.675 PM 04/09/2016,Autonomous Enabled,9,FALSE,0,NO ERROR,-0.573670,-63.216852,0.551440,-63.685268,FALSE,FALSE,TRUE,TRUE,FALSE,FALSE,Disabled,0.000000,-0.590355,58.550355,TRUE,8.820999,8.265045,0.000000,-0.586182,1.632858,0.000000,0.094000,-0.158000,-0.567000,2.430000,-0.730000,6.490000,-0.576074,Hold,61.258301,58.000000,Hold,-139380.000000,139264.000000,LowGoal,2137.500000,-2181.818182,Speed,2107.500000,-2181.818182,Speed,Off,Off,0.000000,FALSE,13,Read: /home/lvuser/scripts/auto_13.bee,File good!,DRIVE_STRAIGHT_TARGET 206 1000 10000 75,DRIVE_STRAIGHT_TARGET,0.000000,0.000000
03:54:40.775 PM 04/09/2016,Autonomous Enabled,10,FALSE,0,NO ERROR,-0.566015,-66.989843,0.558995,-67.650758,FALSE,FALSE,TRUE,TRUE,FALSE,FALSE,Disabled,0.000000,-0.590355,58.550355,TRUE,8.795761,8.342682,0.000000,-0.414536,1.504028,0.000000,0.137000,-0.104000,0.048000,2.580000,-0.440000,4.200000,-0.249554,Hold,60.955322,58.000000,Hold,-139380.000000,139264.000000,LowGoal,2145.000000,-2181.818182,Speed,2100.000000,-2181.818182,Speed,Off,Off,0.000000,FALSE,13,Read: /home/lvuser/scripts/auto_13.bee,File good!,DRIVE_STRAIGHT_TARGET 206 1000 10000 75,DRIVE_STRAIGHT_TARGET,0.000000,0.000000
03:54:40.875 PM 04/09/2016,Autonomous Enabled,9,FALSE,0,NO ERROR,-0.560941,-71.147834,0.564061,-71.904999,FALSE,FALSE,TRUE,TRUE,FALSE,FALSE,Disabled,0.000000,-0.590355,58.550355,TRUE,8.776230,8.409561,0.000000,-0.352951,1.191574,0.000000,0.137000,-0.104000,0.048000,2.420000,-0.080000,3.480000,0.082659,Hold,60.955322,58.000000,Hold,-139380.000000,139264.000000,LowGoal,2152.500000,-2181.818182,Speed,2115.000000,-2181.818182,Speed,Off,Off,0.000000,FALSE,13,Read: /home/lvuser/scripts/auto_13.bee,File good!,DRIVE_STRAIGHT_TARGET 206 1000 10000 75,DRIVE_STRAIGHT_TARGET,0.000000,0.000000
03:54:40.975 PM 04/09/2016,Autonomous Enabled,11,FALSE,0,NO ERROR,-0.556859,-75.203157,0.568169,-76.082239,TRUE,FALSE,TRUE,TRUE,FALSE,FALSE,Disabled,0.000000,-0.590355,58.550355,TRUE,8.762772,8.462112,0.000000,-0.243149,0.970444,0.000000,0.145000,-0.186000,-0.179000,2.030000,0.300000,0.580000,0.198763,Hold,61.294922,58.000000,Hold,-139380.000000,139264.000000,LowGoal,2152.500000,-2181.818182,Speed,2115.000000,-2181.818182,Speed,Off,Off,0.000000,FALSE,13,Read: /home/lvuser/scripts/auto_13.bee,File good!,DRIVE_STRAIGHT_TARGET 206 1000 10000 75,DRIVE_STRAIGHT_TARGET,0.000000,0.000000
03:54:41.075 PM 04/09/2016,Autonomous Enabled,11,FALSE,0,NO ERROR,-0.555696,-79.662730,0.569346,-80.561062,TRUE,FALSE,TRUE,TRUE,FALSE,FALSE,Disabled,0.787500,-0.590355,58.550355,TRUE,8.762772,8.462112,0.000000,-0.243149,0.970444,0.000000,0.205000,-0.077000,-0.322000,2.110000,0.360000,0.150000,0.267635,Hold,61.213623,58.000000,Hold,-139380.000000,139264.000000,LowGoal,2137.500000,-2181.818182,Speed,2122.500000,-2181.818182,Speed,Off,Off,0.000000,FALSE,13,Read: /home/lvuser/scripts/auto_13.bee,File good!,DRIVE_STRAIGHT_TARGET 206 1000 10000 75,DRIVE_STRAIGHT_TARGET,0.000000,0.000000
03:54:41.176 PM 04/09/2016,Autonomous Enabled,10,FALSE,0,NO ERROR,-0.554340,-83.949054,0.570720,-84.911551,TRUE,FALSE,TRUE,TRUE,FALSE,FALSE,Disabled,0.787500,-0.590355,58.550355,TRUE,8.749878,8.515442,0.000000,-0.192429,0.824829,0.000000,0.070000,0.027000,0.008000,2.030000,0.470000,1.040000,0.280482,Hold,61.300049,58.000000,Hold,-139379.000000,139264.000000,LowGoal,2137.500000,-2181.818182,Speed,2122.500000,-2181.818182,Speed,Off,Off,0.000000,FALSE,13,Read: /home/lvuser/scripts/auto_13.bee,File good!,DRIVE_STRAIGHT_TARGET 206 1000 10000 75,DRIVE_STRAIGHT_TARGET,0.000000,0.000000
03:54:41.279 PM 04/09/2016,Autonomous Enabled,12,FALSE,0,NO ERROR,-0.558995,-88.350877,0.566015,-89.165791,TRUE,FALSE,TRUE,TRUE,FALSE,FALSE,Disabled,0.787500,-0.590355,58.550355,TRUE,8.733627,8.589844,0.000000,-0.191818,0.897720,0.000000,0.058000,0.112000,-0.227000,2.000000,0.360000,0.300000,0.031320,Hold,61.027588,58.000000,Hold,-139376.000000,139264.000000,LowGoal,2152.500000,-2181.818182,Speed,2122.500000,-2181.818182,Speed,Off,Off,0.000000,FALSE,13,Read: /home/lvuser/scripts/auto_13.bee,File good!,DRIVE_STRAIGHT_TARGET 206 1000 10000 75,DRIVE_STRAIGHT_TARGET,0.000000,0.000000
03:54:41.378 PM 04/09/2016,Autonomous Enabled,9,FALSE,0,NO ERROR,-0.564842,-92.771950,0.560162,-93.420032,TRUE,FALSE,TRUE,TRUE,FALSE,FALSE,Disabled,0.787500,-0.590355,58.550355,TRUE,8.721725,8.639130,0.000000,-0.225800,1.059372,0.000000,-0.144000,0.158000,0.292000,2.400000,0.070000,-1.200000,-0.240738,Hold,61.003906,58.000000,Hold,-139368.000000,139264.000000,LowGoal,2152.500000,-2181.818182,Speed,2122.500000,-2181.818182,Speed,Off,Off,0.000000,FALSE,13,Read: /home/lvuser/scripts/auto_13.bee,File good!,DRIVE_STRAIGHT_TARGET 206 1000 10000 75,DRIVE_STRAIGHT_TARGET,0.000000,0.000000
03:54:41.478 PM 04/09/2016,Autonomous Enabled,10,FALSE,0,NO ERROR,-0.568757,-97.513855,0.556277,-98.194020,FALSE,FALSE,TRUE,TRUE,FALSE,FALSE,Disabled,0.787500,-0.590355,58.550355,TRUE,8.721725,8.639130,0.000000,-0.225800,1.059372,0.000000,0.045000,0.129000,-0.724000,2.070000,-0.190000,-4.900000,-0.521272,Hold,60.930176,58.000000,Hold,-139372.000000,139264.000000,LowGoal,2152.500000,-2181.818182,Speed,2122.500000,-2181.818182,Speed,Off,Off,0.000000,FALSE,13,Read: /home/lvuser/scripts/auto_13.bee,File good!,DRIVE_STRAIGHT_TARGET 206 1000 10000 75,DRIVE_STRAIGHT_TARGET,0.000000,0.000000
03:54:41.580 PM 04/09/2016,Autonomous Enabled,10,FALSE,0,NO ERROR,-0.565038,-102.146678,0.559968,-102.955176,FALSE,FALSE,TRUE,TRUE,FALSE,FALSE,Disabled,0.787500,-0.590355,58.550355,TRUE,8.710938,8.672470,0.000000,-0.109573,0.052780,0.000000,0.025000,0.202000,0.624000,3.040000,-0.290000,-6.930000,-0.231684,Hold,61.777344,58.000000,Hold,-139353.000000,139264.000000,LowGoal,2152.500000,-2181.818182,Speed,2115.000000,-2181.818182,Speed,Off,Off,0.000000,FALSE,13,Read: /home/lvuser/scripts/auto_13.bee,File good!,DRIVE_STRAIGHT_TARGET 206 1000 10000 75,DRIVE_STRAIGHT_TARGET,0.000000,0.000000
03:54:41.681 PM 04/09/2016,Autonomous Enabled,10,FALSE,0,NO ERROR,-0.560357,-107.215833,0.564647,-108.139830,FALSE,FALSE,TRUE,TRUE,FALSE,FALSE,Disabled,0.787500,-0.590355,58.550355,TRUE,8.689774,8.682556,0.000000,-0.321579,0.079391,0.000000,-0.008000,-0.063000,-0.639000,2.660000,0.080000,-6.230000,-0.028687,Hold,61.361816,58.000000,Hold,-139353.000000,139264.000000,LowGoal,2137.500000,-2181.818182,Speed,2115.000000,-2181.818182,Speed,Off,Off,0.000000,FALSE,13,Read: /home/lvuser/scripts/auto_13.bee,File good!,DRIVE_STRAIGHT_TARGET 206 1000 10000 75,DRIVE_STRAIGHT_TARGET,0.000000,0.000000
03:54:41.781 PM 04/09/2016,Autonomous Enabled,11,FALSE,0,NO ERROR,-0.561136,-112.060405,0.563866,-112.939486,TRUE,FALSE,TRUE,TRUE,FALSE,FALSE,Disabled,0.787500,-0.590355,58.550355,TRUE,8.689774,8.682556,0.000000,-0.321579,0.079391,0.000000,-0.055000,-0.375000,0.641000,2.430000,0.150000,-2.990000,-0.140869,Hold,61.183594,58.000000,Hold,-139346.000000,139264.000000,LowGoal,2137.500000,-2181.818182,Speed,2115.000000,-2181.818182,Speed,Off,Off,0.000000,FALSE,13,Read: /home/lvuser/scripts/auto_13.bee,File good!,DRIVE_STRAIGHT_TARGET 206 1000 10000 75,DRIVE_STRAIGHT_TARGET,0.000000,0.000000
03:54:41.881 PM 04/09/2016,Autonomous Enabled,10,FALSE,0,NO ERROR,-0.562890,-116.924227,0.562110,-117.668558,TRUE,FALSE,TRUE,TRUE,FALSE,FALSE,Disabled,0.787500,-0.590355,58.550355,TRUE,8.666458,8.687729,0.000000,-0.362839,0.163681,0.000000,-0.308000,0.212000,0.627000,2.550000,0.010000,0.400000,-0.273921,Hold,61.137207,58.000000,Hold,-139346.000000,139264.000000,LowGoal,2145.000000,-2181.818182,Speed,2122.500000,-2181.818182,Speed,Off,Off,0.000000,FALSE,13,Read: /home/lvuser/scripts/auto_13.bee,File good!,DRIVE_STRAIGHT_TARGET 206 1000 10000 75,DRIVE_STRAIGHT_TARGET,0.000000,0.000000
03:54:41.980 PM 04/09/2016,Autonomous Enabled,10,FALSE,0,NO ERROR,-0.569542,-121.255466,0.555502,-122.057548,TRUE,FALSE,TRUE,TRUE,FALSE,FALSE,Disabled,0.787500,-0.590355,58.550355,TRUE,8.652725,8.695129,0.000000,-0.502319,0.272232,0.000000,-0.068000,0.190000,0.297000,2.310000,-0.110000,-0.050000,-0.614731,Hold,60.829590,58.000000,Hold,-139346.000000,139264.000000,LowGoal,2152.500000,-2181.818182,Speed,2130.000000,-2181.818182,Speed,Off,Off,0.000000,FALSE,13,Read: /home/lvuser/scripts/auto_13.bee,File good!,DRIVE_STRAIGHT_TARGET 206 1000 10000 75,DRIVE_STRAIGHT_TARGET,0.000000,0.000000
03:54:42.080 PM 04/09/2016,Autonomous Enabled,10,FALSE,0,NO ERROR,-0.569934,-125.528956,0.555114,-122.057548,TRUE,FALSE,TRUE,TRUE,FALSE,FALSE,Disabled,0.921875,-0.590355,58.550355,TRUE,8.611908,8.724274,0.000000,-0.522461,0.387299,0.000000,-0.062000,-0.002000,-0.097000,2.630000,-0.380000,-0.320000,-0.614731,Hold,60.894531,58.000000,Hold,-139346.000000,139264.000000,LowGoal,2145.000000,-2181.818182,Speed,2130.000000,-2181.818182,Speed,Off,Off,0.000000,FALSE,13,Read: /home/lvuser/scripts/auto_13.bee,File good!,DRIVE_STRAIGHT_TARGET 206 1000 10000 75,DRIVE_STRAIGHT_TARGET,0.000000,0.000000
03:54:42.180 PM 04/09/2016,Autonomous Enabled,10,FALSE,0,NO ERROR,-0.565233,-125.528956,0.559773,-126.472204,TRUE,FALSE,TRUE,TRUE,FALSE,FALSE,Disabled,0.921875,-0.590355,58.550355,TRUE,8.595734,8.735199,0.000000,-0.545578,0.346817,0.000000,-0.062000,-0.134000,-0.121000,2.570000,-0.240000,-0.360000,-0.562924,Hold,60.887939,58.000000,Hold,-139355.000000,139264.000000,LowGoal,2145.000000,-2181.818182,Speed,2122.500000,-2181.818182,Speed,Off,Off,0.000000,FALSE,13,Read: /home/lvuser/scripts/auto_13.bee,File good!,DRIVE_STRAIGHT_TARGET 206 1000 10000 75,DRIVE_STRAIGHT_TARGET,0.000000,0.000000
03:54:42.280 PM 04/09/2016,Autonomous Enabled,10,FALSE,0,NO ERROR,-0.563866,-129.840946,0.561136,-130.874027,TRUE,FALSE,TRUE,TRUE,FALSE,FALSE,Disabled,0.921875,-0.590355,58.550355,TRUE,8.567078,8.747879,0.000000,-0.579514,0.185760,0.000000,-0.031000,-0.187000,0.449000,2.530000,-0.070000,0.000000,-0.379501,Hold,60.911621,58.000000,Hold,-139355.000000,139264.000000,LowGoal,2145.000000,-2181.818182,Speed,2122.500000,-2181.818182,Speed,Off,Off,0.000000,FALSE,13,Read: /home/lvuser/scripts/auto_13.bee,File good!,DRIVE_STRAIGHT_TARGET 206 1000 10000 75,DRIVE_STRAIGHT_TARGET,0.000000,0.000000
03:54:42.381 PM 04/09/2016,Autonomous Enabled,9,FALSE,0,NO ERROR,-0.561720,-134.165770,0.563280,-135.346434,TRUE,FALSE,TRUE,TRUE,FALSE,FALSE,Disabled,0.921875,-0.590355,58.550355,TRUE,8.542404,8.752243,0.000000,-0.428467,0.019485,0.000000,0.075000,-0.227000,-0.072000,2.630000,0.000000,-0.540000,-0.281801,Hold,60.896729,58.000000,Hold,-139355.000000,139264.000000,LowGoal,2137.500000,-2181.818182,Speed,2122.500000,-2181.818182,Speed,Off,Off,0.000000,FALSE,13,Read: /home/lvuser/scripts/auto_13.bee,File good!,DRIVE_STRAIGHT_TARGET 206 1000 10000 75,DRIVE_STRAIGHT_TARGET,0.000000,0.000000
03:54:42.481 PM 04/09/2016,Autonomous Enabled,11,FALSE,0,NO ERROR,-0.560162,-138.657426,0.564842,-139.799590,TRUE,FALSE,TRUE,TRUE,FALSE,FALSE,Disabled,0.921875,-0.590355,58.550355,TRUE,8.522308,8.746063,0.000000,-0.419128,-0.203262,0.000000,-0.148000,-0.194000,0.029000,2.610000,0.110000,-0.370000,-0.182934,Hold,61.024658,58.000000,Hold,-139355.000000,139264.000000,LowGoal,2137.500000,-2181.818182,Speed,2130.000000,-2181.818182,Speed,Off,Off,0.000000,FALSE,13,Read: /home/lvuser/scripts/auto_13.bee,File good!,DRIVE_STRAIGHT_TARGET 206 1000 10000 75,DRIVE_STRAIGHT_TARGET,0.000000,0.000000
03:54:42.581 PM 04/09/2016,Autonomous Enabled,10,FALSE,0,NO ERROR,-0.558024,-142.975832,0.566994,-144.201413,TRUE,FALSE,TRUE,TRUE,FALSE,FALSE,Disabled,0.921875,-0.590355,58.550355,TRUE,8.499802,8.731476,0.000000,-0.422058,-0.340836,0.000000,0.105000,-0.039000,-0.110000,2.480000,0.220000,-0.430000,-0.077492,Hold,61.024658,58.000000,Hold,-139355.000000,139264.000000,LowGoal,2145.000000,-2181.818182,Speed,2122.500000,-2181.818182,Speed,Off,Off,0.000000,FALSE,13,Read: /home/lvuser/scripts/auto_13.bee,File good!,DRIVE_STRAIGHT_TARGET 206 1000 10000 75,DRIVE_STRAIGHT_TARGET,0.000000,0.000000
03:54:42.681 PM 04/09/2016,Autonomous Enabled,10,FALSE,0,NO ERROR,-0.555114,-147.230072,0.569934,-148.539069,TRUE,FALSE,TRUE,TRUE,FALSE,FALSE,Disabled,0.921875,-0.590355,58.550355,TRUE,8.483231,8.714111,0.000000,-0.271072,-0.335785,0.000000,0.080000,0.079000,-0.210000,2.540000,0.370000,-0.460000,0.031314,Hold,61.024658,58.000000,Hold,-139355.000000,139264.000000,LowGoal,2145.000000,-2181.818182,Speed,2122.500000,-2181.818182,Speed,Off,Off,0.000000,FALSE,13,Read: /home/lvuser/scripts/auto_13.bee,File good!,DRIVE_STRAIGHT_TARGET 206 1000 10000 75,DRIVE_STRAIGHT_TARGET,0.000000,0.000000
03:54:42.781 PM 04/09/2016,Autonomous Enabled,10,FALSE,0,NO ERROR,-0.552599,-151.490729,0.572489,-152.895976,TRUE,FALSE,TRUE,TRUE,FALSE,FALSE,Disabled,0.921875,-0.590355,58.550355,TRUE,8.470932,8.699768,0.000000,-0.255417,-0.244720,0.000000,-0.088000,0.160000,-0.016000,2.500000,0.520000,-0.310000,0.167064,Hold,61.024658,58.000000,Hold,-139355.000000,139264.000000,LowGoal,2152.500000,-2181.818182,Speed,2130.000000,-2181.818182,Speed,Off,Off,0.000000,FALSE,13,Read: /home/lvuser/scripts/auto_13.bee,File good!,DRIVE_STRAIGHT_TARGET 206 1000 10000 75,DRIVE_STRAIGHT_TARGET,0.000000,0.000000
03:54:42.881 PM 04/09/2016,Autonomous Enabled,10,FALSE,0,NO ERROR,-0.553759,-155.783469,0.571309,-157.214382,TRUE,FALSE,TRUE,TRUE,FALSE,FALSE,Disabled,0.921875,-0.590355,58.550355,TRUE,8.462509,8.691528,0.000000,-0.020599,-0.050751,0.000000,-0.107000,0.202000,-0.088000,2.460000,0.500000,-0.210000,0.208832,Hold,61.024658,58.000000,Hold,-139355.000000,139264.000000,LowGoal,2160.000000,-2181.818182,Speed,2122.500000,-2181.818182,Speed,Off,Off,0.000000,FALSE,13,Read: /home/lvuser/scripts/auto_13.bee,File good!,DRIVE_STRAIGHT_TARGET 206 1000 10000 75,DRIVE_STRAIGHT_TARGET,0.000000,0.000000
03:54:42.982 PM 04/09/2016,Autonomous Enabled,11,FALSE,0,NO ERROR,-0.554533,-160.146792,0.570523,-161.539206,TRUE,FALSE,TRUE,TRUE,FALSE,FALSE,Disabled,0.921875,-0.590355,58.550355,TRUE,8.457504,8.694778,0.000000,-0.171738,0.143402,0.000000,-0.185000,0.207000,-0.086000,2.520000,0.440000,-0.190000,0.145593,Hold,61.024658,58.000000,Hold,-139355.000000,139264.000000,LowGoal,2152.500000,-2181.818182,Speed,2122.500000,-2181.818182,Speed,Off,Off,0.000000,FALSE,13,Read: /home/lvuser/scripts/auto_13.bee,File good!,DRIVE_STRAIGHT_TARGET 206 1000 10000 75,DRIVE_STRAIGHT_TARGET,0.000000,0.000000
03:54:43.082 PM 04/09/2016,Autonomous Enabled,10,FALSE,0,NO ERROR,-0.556471,-164.619198,0.568561,-165.966695,TRUE,FALSE,TRUE,TRUE,FALSE,FALSE,Disabled,0.000000,-0.590355,58.550355,TRUE,8.444595,8.706924,0.000000,-0.284988,0.299026,0.000000,-0.008000,0.079000,0.129000,2.540000,0.320000,-0.740000,0.048127,Hold,61.024658,58.000000,Hold,-139355.000000,139264.000000,LowGoal,2137.500000,-2181.818182,Speed,2130.000000,-2181.818182,Speed,Off,Off,0.000000,FALSE,13,Read: /home/lvuser/scripts/auto_13.bee,File good!,DRIVE_STRAIGHT_TARGET 206 1000 10000 75,DRIVE_STRAIGHT_TARGET,0.000000,0.000000
03:54:43.183 PM 04/09/2016,Autonomous Enabled,10,FALSE,0,NO ERROR,-0.557053,-169.001771,0.567973,-170.355685,TRUE,FALSE,TRUE,TRUE,FALSE,FALSE,Disabled,0.000000,-0.590355,58.550355,TRUE,8.430969,8.724426,0.000000,-0.265015,0.353317,0.000000,-0.025000,-0.038000,0.096000,2.570000,0.310000,-0.800000,-0.007653,Hold,61.024658,58.000000,Hold,-139355.000000,139264.000000,LowGoal,2145.000000,-2181.818182,Speed,2122.500000,-2181.818182,Speed,Off,Off,0.000000,FALSE,13,Read: /home/lvuser/scripts/auto_13.bee,File good!,DRIVE_STRAIGHT_TARGET 206 1000 10000 75,DRIVE_STRAIGHT_TARGET,0.000000,0.000000
03:54:43.284 PM 04/09/2016,Autonomous Enabled,10,FALSE,0,NO ERROR,-0.556665,-173.288095,0.568365,-174.706175,TRUE,FALSE,TRUE,TRUE,FALSE,FALSE,Disabled,0.000000,-0.590355,58.550355,TRUE,8.417313,8.739990,0.000000,-0.278748,0.277771,0.000000,-0.068000,-0.072000,0.072000,2.710000,0.330000,-0.610000,0.008383,Hold,61.024658,58.000000,Hold,-139355.000000,139264.000000,LowGoal,2145.000000,-2181.818182,Speed,2130.000000,-2181.818182,Speed,Off,Off,0.000000,FALSE,13,Read: /home/lvuser/scripts/auto_13.bee,File good!,DRIVE_STRAIGHT_TARGET 206 1000 10000 75,DRIVE_STRAIGHT_TARGET,0.000000,0.000000
03:54:43.385 PM 04/09/2016,Autonomous Enabled,10,FALSE,0,NO ERROR,-0.554533,-177.606501,0.570523,-179.107998,TRUE,FALSE,TRUE,TRUE,FALSE,FALSE,Disabled,0.000000,-0.590355,58.550355,TRUE,8.398178,8.750320,0.000000,-0.313431,0.084152,0.000000,0.054000,-0.127000,0.101000,2.680000,0.420000,-0.630000,0.085021,Hold,61.024658,58.000000,Hold,-139355.000000,139264.000000,LowGoal,2130.000000,-2181.818182,Speed,2130.000000,-2181.818182,Speed,Off,Off,0.000000,FALSE,13,Read: /home/lvuser/scripts/auto_13.bee,File good!,DRIVE_STRAIGHT_TARGET 206 1000 10000 75,DRIVE_STRAIGHT_TARGET,0.000000,0.000000
03:54:43.485 PM 04/09/2016,Autonomous Enabled,10,FALSE,0,NO ERROR,-0.553566,-181.886408,0.571506,-183.432821,TRUE,FALSE,TRUE,TRUE,FALSE,FALSE,Disabled,0.000000,-0.590355,58.550355,TRUE,8.386658,8.751114,0.000000,-0.282608,-0.017059,0.000000,-0.024000,-0.083000,-0.061000,2.710000,0.500000,-0.810000,0.167580,Hold,61.024658,58.000000,Hold,-139355.000000,139264.000000,LowGoal,2130.000000,-2181.818182,Speed,2122.500000,-2181.818182,Speed,Off,Off,0.000000,FALSE,13,Read: /home/lvuser/scripts/auto_13.bee,File good!,DRIVE_STRAIGHT_TARGET 206 1000 10000 75,DRIVE_STRAIGHT_TARGET,0.000000,0.000000
03:54:43.585 PM 04/09/2016,Autonomous Enabled,10,FALSE,0,NO ERROR,-0.556859,-186.243314,0.568169,-187.731978,TRUE,FALSE,TRUE,TRUE,FALSE,FALSE,Disabled,0.000000,-0.590355,58.550355,TRUE,8.370300,8.746536,0.000000,-0.280869,-0.110352,0.000000,0.078000,-0.079000,0.061000,2.610000,0.320000,-0.410000,0.065144,Hold,61.024658,58.000000,Hold,-139355.000000,139264.000000,LowGoal,2137.500000,-2181.818182,Speed,2122.500000,-2181.818182,Speed,Off,Off,0.000000,FALSE,13,Read: /home/lvuser/scripts/auto_13.bee,File good!,DRIVE_STRAIGHT_TARGET 206 1000 10000 75,DRIVE_STRAIGHT_TARGET,0.000000,0.000000
03:54:43.686 PM 04/09/2016,Autonomous Enabled,10,FALSE,0,NO ERROR,-0.558218,-190.542471,0.566798,-191.979801,TRUE,FALSE,TRUE,TRUE,FALSE,FALSE,Disabled,0.000000,-0.590355,58.550355,TRUE,8.359177,8.741074,0.000000,-0.171707,-0.081238,0.000000,0.050000,0.098000,-0.302000,2.690000,0.240000,-0.410000,-0.071918,Hold,61.024658,58.000000,Hold,-139355.000000,139264.000000,LowGoal,2137.500000,-2181.818182,Speed,2130.000000,-2181.818182,Speed,Off,Off,0.000000,FALSE,13,Read: /home/lvuser/scripts/auto_13.bee,File good!,DRIVE_STRAIGHT_TARGET 206 1000 10000 75,DRIVE_STRAIGHT_TARGET,0.000000,0.000000
03:54:43.786 PM 04/09/2016,Autonomous Enabled,10,FALSE,0,NO ERROR,-0.557441,-194.796711,0.567581,-196.311041,TRUE,FALSE,TRUE,TRUE,FALSE,FALSE,Disabled,0.000000,-0.590355,58.550355,TRUE,8.348541,8.738876,0.000000,-0.200638,-0.010605,0.000000,-0.006000,0.055000,-0.178000,2.710000,0.290000,-0.430000,-0.075006,Hold,61.024658,58.000000,Hold,-139355.000000,139264.000000,LowGoal,2152.500000,-2181.818182,Speed,2122.500000,-2181.818182,Speed,Off,Off,0.000000,FALSE,13,Read: /home/lvuser/scripts/auto_13.bee,File good!,DRIVE_STRAIGHT_TARGET 206 1000 10000 75,DRIVE_STRAIGHT_TARGET,0.000000,0.000000
03:54:43.886 PM 04/09/2016,Autonomous Enabled,10,FALSE,0,NO ERROR,-0.556665,-199.044535,0.568365,-200.590948,TRUE,FALSE,TRUE,TRUE,FALSE,FALSE,Disabled,0.000000,-0.590355,58.550355,TRUE,8.340637,8.739151,0.000000,-0.179688,0.011124,0.000000,0.086000,-0.053000,-0.119000,2.730000,0.330000,-0.250000,0.006713,Hold,61.024658,58.000000,Hold,-139355.000000,139264.000000,LowGoal,2152.500000,-2181.818182,Speed,2122.500000,-2181.818182,Speed,Off,Off,0.000000,FALSE,13,Read: /home/lvuser/scripts/auto_13.bee,File good!,DRIVE_STRAIGHT_TARGET 206 1000 10000 75,DRIVE_STRAIGHT_TARGET,0.000000,0.000000
03:54:43.986 PM 04/09/2016,Autonomous Enabled,11,FALSE,0,NO ERROR,-0.250000,-203.433524,-0.250000,-204.915771,TRUE,FALSE,TRUE,TRUE,FALSE,FALSE,Disabled,0.000000,-0.590355,58.550355,TRUE,8.334366,8.738525,0.000000,-0.090683,-0.022568,0.000000,0.050000,0.007000,-0.141000,2.720000,0.330000,-0.330000,0.005632,Hold,61.024658,58.000000,Hold,-139355.000000,139264.000000,LowGoal,2152.500000,-2181.818182,Speed,2122.500000,-2181.818182,Speed,Off,Off,0.000000,FALSE,13,Read: /home/lvuser/scripts/auto_13.bee,File good!,SET_HEADING 58 50,SET_HEADING,0.000000,0.000000
03:54:44.088 PM 04/09/2016,Autonomous Enabled,6,FALSE,0,NO ERROR,-0.250000,-206.596934,-0.250000,-209.028845,TRUE,FALSE,TRUE,TRUE,FALSE,FALSE,Disabled,0.000000,-0.590355,58.550355,TRUE,8.329926,8.736908,0.000000,-0.122025,-0.038330,0.000000,-0.683000,0.443000,0.460000,2.780000,0.460000,-0.630000,0.059787,Hold,60.897461,58.000000,Hold,-139355.000000,77824.000000,LowGoal,2145.000000,-3272.727273,Speed,2130.000000,-3272.727273,Speed,Off,Off,0.000000,FALSE,13,Read: /home/lvuser/scripts/auto_13.bee,File good!,SET_HEADING 58 50,SET_HEADING,0.000000,0.000000
03:54:44.190 PM 04/09/2016,Autonomous Enabled,10,FALSE,0,NO ERROR,-0.250000,-207.341265,-0.250000,-211.768755,FALSE,FALSE,TRUE,TRUE,FALSE,FALSE,Disabled,0.000000,-0.590355,58.550355,TRUE,8.305908,8.748322,0.000000,-0.680969,0.401337,0.000000,-0.245000,0.226000,-0.400000,4.060000,3.720000,-4.550000,3.999908,Hold,60.728760,58.000000,Hold,-137236.000000,77824.000000,LowGoal,2152.500000,-3272.727273,Speed,2100.000000,-3272.727273,Speed,Off,Off,0.000000,FALSE,13,Read: /home/lvuser/scripts/auto_13.bee,File good!,SET_HEADING 58 50,SET_HEADING,0.000000,0.000000
03:54:44.292 PM 04/09/2016,Autonomous Enabled,10,FALSE,0,NO ERROR,-0.250000,-207.257849,-0.250000,-213.584667,FALSE,FALSE,TRUE,TRUE,FALSE,FALSE,Disabled,0.000000,-0.590355,58.550355,TRUE,8.265686,8.773560,0.000000,-0.874237,0.536987,0.000000,-0.148000,-0.187000,0.273000,3.230000,8.060000,-4.670000,8.010371,Hold,61.200928,58.000000,Hold,-130873.000000,77824.000000,LowGoal,2385.000000,-3272.727273,Speed,2235.000000,-3272.727273,Speed,Off,Off,0.000000,FALSE,13,Read: /home/lvuser/scripts/auto_13.bee,File good!,SET_HEADING 58 50,SET_HEADING,0.000000,0.000000
03:54:44.394 PM 04/09/2016,Autonomous Enabled,10,FALSE,0,NO ERROR,-0.250000,-206.603350,-0.250000,-214.611331,FALSE,FALSE,TRUE,TRUE,FALSE,FALSE,Disabled,0.000000,-0.590355,58.550355,TRUE,8.218033,8.789398,0.000000,-0.937851,0.154266,0.000000,0.155000,0.466000,-0.474000,2.150000,12.230000,-3.690000,10.651010,Hold,60.958496,58.000000,Hold,-122736.000000,77824.000000,LowGoal,2632.500000,-3272.727273,Speed,2527.500000,-3272.727273,Speed,Off,Off,0.000000,FALSE,13,Read: /home/lvuser/scripts/auto_13.bee,File good!,SET_HEADING 58 50,SET_HEADING,0.000000,0.000000
03:54:44.494 PM 04/09/2016,Autonomous Enabled,8,FALSE,0,NO ERROR,-0.250000,-205.865435,-0.250000,-215.458329,FALSE,FALSE,TRUE,TRUE,FALSE,FALSE,Disabled,0.000000,-0.590355,58.550355,TRUE,8.176895,8.807343,0.000000,-0.788788,0.503204,0.000000,-0.060000,-0.054000,0.224000,2.770000,15.300000,-3.540000,13.833314,Hold,61.207031,58.000000,Hold,-122736.000000,77824.000000,LowGoal,2887.500000,-3272.727273,Speed,2790.000000,-3272.727273,Speed,Off,Off,0.000000,FALSE,13,Read: /home/lvuser/scripts/auto_13.bee,File good!,SET_HEADING 58 50,SET_HEADING,0.000000,0.000000
03:54:44.594 PM 04/09/2016,Autonomous Enabled,10,FALSE,0,NO ERROR,-0.250000,-205.275103,-0.250000,-216.112828,FALSE,FALSE,TRUE,TRUE,FALSE,FALSE,Disabled,0.000000,-0.590355,58.550355,TRUE,8.136108,8.827469,0.000000,-0.865356,0.310471,0.000000,0.239000,0.017000,0.171000,1.740000,17.270000,-3.380000,16.158937,Hold,61.205811,58.000000,Hold,-114352.000000,77824.000000,LowGoal,3097.500000,-3272.727273,Speed,3015.000000,-3272.727273,Speed,Off,Off,0.000000,FALSE,13,Read: /home/lvuser/scripts/auto_13.bee,File good!,SET_HEADING 58 50,SET_HEADING,0.000000,0.000000
03:54:44.694 PM 04/09/2016,Autonomous Enabled,10,FALSE,0,NO ERROR,-0.250000,-204.691188,-0.250000,-216.748076,TRUE,FALSE,TRUE,TRUE,FALSE,FALSE,Disabled,0.000000,-0.590355,58.550355,TRUE,8.090454,8.846985,0.000000,-0.671906,0.402710,0.000000,0.265000,0.003000,0.045000,2.540000,20.150000,-2.970000,18.407527,Hold,61.205811,58.000000,Hold,-105160.000000,77824.000000,LowGoal,3210.000000,-3272.727273,Speed,3195.000000,-3272.727273,Speed,Off,Off,0.000000,FALSE,13,Read: /home/lvuser/scripts/auto_13.bee,File good!,SET_HEADING 58 50,SET_HEADING,0.000000,0.000000
03:54:44.794 PM 04/09/2016,Autonomous Enabled,11,FALSE,0,NO ERROR,-0.250000,-204.113689,-0.250000,-217.428242,TRUE,FALSE,TRUE,TRUE,FALSE,FALSE,Disabled,0.000000,-0.590355,58.550355,TRUE,8.051956,8.869644,0.000000,-0.664001,0.320328,0.000000,0.265000,0.003000,0.045000,2.540000,20.150000,-2.970000,20.748112,Hold,61.205811,58.000000,Hold,-95206.000000,77824.000000,LowGoal,3202.500000,-3272.727273,Speed,3247.500000,-3272.727273,Speed,Off,Off,0.000000,FALSE,13,Read: /home/lvuser/scripts/auto_13.bee,File good!,SET_HEADING 58 50,SET_HEADING,0.000000,0.000000
03:54:44.895 PM 04/09/2016,Autonomous Enabled,12,FALSE,0,NO ERROR,-0.250000,-203.529774,-0.250000,-218.134073,TRUE,FALSE,TRUE,TRUE,FALSE,FALSE,Disabled,0.000000,-0.590355,58.550355,TRUE,8.025497,8.881210,0.000000,-0.632553,0.292221,0.000000,0.124000,0.325000,-0.063000,2.100000,24.700000,-2.460000,23.143000,Hold,61.205811,58.000000,Hold,-84157.000000,77824.000000,LowGoal,3037.500000,-3272.727273,Speed,3232.500000,-3272.727273,Speed,Off,Off,0.000000,FALSE,13,Read: /home/lvuser/scripts/auto_13.bee,File good!,SET_HEADING 58 50,SET_HEADING,0.000000,0.000000
03:54:44.994 PM 04/09/2016,Autonomous Enabled,10,FALSE,0,NO ERROR,-0.250000,-202.933025,-0.250000,-218.846322,TRUE,FALSE,TRUE,TRUE,FALSE,FALSE,Disabled,0.000000,-0.590355,58.550355,TRUE,7.996277,8.900177,0.000000,-0.558517,0.396042,0.000000,0.124000,0.325000,-0.063000,2.190000,27.860000,-2.260000,25.658649,Hold,61.205811,58.000000,Hold,-78216.000000,77824.000000,LowGoal,3022.500000,-3272.727273,Speed,3202.500000,-3272.727273,Speed,Off,Off,0.000000,FALSE,13,Read: /home/lvuser/scripts/auto_13.bee,File good!,SET_HEADING 58 50,SET_HEADING,0.000000,0.000000
03:54:45.095 PM 04/09/2016,Autonomous Enabled,11,FALSE,0,NO ERROR,-0.250000,-202.233610,-0.250000,-219.507237,TRUE,FALSE,TRUE,TRUE,FALSE,FALSE,Disabled,0.715625,-0.590355,58.550355,TRUE,7.966904,8.918640,0.000000,-0.562607,0.365982,0.000000,0.202000,0.248000,-0.009000,1.810000,29.990000,-1.990000,28.181851,Hold,61.205811,58.000000,Hold,-77936.000000,77824.000000,LowGoal,3195.000000,-3272.727273,Speed,3187.500000,-3272.727273,Speed,Off,Off,0.000000,FALSE,13,Read: /home/lvuser/scripts/auto_13.bee,File good!,SET_HEADING 58 50,SET_HEADING,0.000000,0.000000
03:54:45.196 PM 04/09/2016,Autonomous Enabled,10,FALSE,0,NO ERROR,-0.250000,-201.521362,-0.250000,-220.232318,TRUE,FALSE,TRUE,TRUE,FALSE,FALSE,Disabled,0.715625,-0.590355,58.550355,TRUE,7.945663,8.940353,0.000000,-0.318329,0.463730,0.000000,0.108000,-0.015000,0.082000,2.720000,33.490000,-2.130000,30.976207,Hold,61.206055,58.000000,Hold,-77936.000000,77824.000000,LowGoal,3247.500000,-3272.727273,Speed,3210.000000,-3272.727273,Speed,Off,Off,0.000000,FALSE,13,Read: /home/lvuser/scripts/auto_13.bee,File good!,SET_HEADING 58 50,SET_HEADING,0.000000,0.000000
03:54:45.296 PM 04/09/2016,Autonomous Enabled,10,FALSE,0,NO ERROR,-0.250000,-200.828364,-0.250000,-221.060066,TRUE,FALSE,TRUE,TRUE,FALSE,FALSE,Disabled,0.715625,-0.590355,58.550355,TRUE,7.929291,8.960327,0.000000,-0.367584,0.317734,0.000000,-0.046000,-0.231000,0.121000,1.780000,35.940000,-1.680000,34.401858,Hold,61.202881,58.000000,Hold,-77936.000000,77824.000000,LowGoal,3225.000000,-3272.727273,Speed,3232.500000,-3272.727273,Speed,Off,Off,0.000000,FALSE,13,Read: /home/lvuser/scripts/auto_13.bee,File good!,SET_HEADING 58 50,SET_HEADING,0.000000,0.000000
03:54:45.397 PM 04/09/2016,Autonomous Enabled,9,FALSE,0,NO ERROR,-0.250000,-200.013449,-0.250000,-221.855731,TRUE,FALSE,TRUE,TRUE,FALSE,FALSE,Disabled,0.715625,-0.590355,58.550355,TRUE,7.913101,8.975891,0.000000,-0.239319,0.390396,0.000000,0.223000,0.222000,0.128000,2.740000,39.710000,-1.680000,37.469288,Hold,61.204590,58.000000,Hold,-77934.000000,77824.000000,LowGoal,3210.000000,-3272.727273,Speed,3232.500000,-3272.727273,Speed,Off,Off,0.000000,FALSE,13,Read: /home/lvuser/scripts/auto_13.bee,File good!,SET_HEADING 58 50,SET_HEADING,0.000000,0.000000
03:54:45.497 PM 04/09/2016,Autonomous Enabled,10,FALSE,0,NO ERROR,-0.250000,-199.314034,-0.250000,-222.625729,TRUE,FALSE,TRUE,TRUE,FALSE,FALSE,Disabled,0.715625,-0.590355,58.550355,TRUE,7.903412,8.999283,0.000000,-0.221069,0.446808,0.000000,-0.219000,-0.021000,0.043000,2.740000,39.710000,-1.680000,40.306176,Hold,61.208252,58.000000,Hold,-77934.000000,77824.000000,LowGoal,3210.000000,-3272.727273,Speed,3217.500000,-3272.727273,Speed,Off,Off,0.000000,FALSE,13,Read: /home/lvuser/scripts/auto_13.bee,File good!,SET_HEADING 58 50,SET_HEADING,0.000000,0.000000
03:54:45.598 PM 04/09/2016,Autonomous Enabled,10,FALSE,0,NO ERROR,-0.250000,-198.563286,-0.250000,-223.382894,TRUE,FALSE,TRUE,TRUE,FALSE,FALSE,Disabled,0.715625,-0.590355,58.550355,TRUE,7.885101,9.019073,0.000000,-0.271881,0.312973,0.000000,0.211000,0.172000,-0.027000,2.240000,46.220000,-1.440000,43.048139,Hold,61.208252,58.000000,Hold,-77934.000000,77824.000000,LowGoal,3217.500000,-3272.727273,Speed,3217.500000,-3272.727273,Speed,Off,Off,0.000000,FALSE,13,Read: /home/lvuser/scripts/auto_13.bee,File good!,SET_HEADING 58 50,SET_HEADING,0.000000,0.000000
03:54:45.699 PM 04/09/2016,Autonomous Enabled,10,FALSE,0,NO ERROR,-0.250000,-197.806121,-0.250000,-224.165726,TRUE,FALSE,TRUE,TRUE,FALSE,FALSE,Disabled,0.715625,-0.590355,58.550355,TRUE,7.875458,9.036987,0.000000,-0.175903,0.357620,0.000000,0.211000,0.172000,-0.027000,2.470000,49.320000,-1.430000,46.050222,Hold,61.208252,58.000000,Hold,-77934.000000,77824.000000,LowGoal,3225.000000,-3272.727273,Speed,3225.000000,-3272.727273,Speed,Off,Off,0.000000,FALSE,13,Read: /home/lvuser/scripts/auto_13.bee,File good!,SET_HEADING 58 50,SET_HEADING,0.000000,0.000000
03:54:45.799 PM 04/09/2016,Autonomous Enabled,10,FALSE,0,NO ERROR,-0.250000,-197.048956,-0.250000,-224.967807,TRUE,FALSE,TRUE,TRUE,FALSE,FALSE,Disabled,0.715625,-0.590355,58.550355,TRUE,7.861801,9.052963,0.000000,-0.328049,0.307556,0.000000,0.005000,0.032000,0.232000,1.770000,52.380000,-1.140000,48.954629,Hold,61.208252,58.000000,Hold,-77934.000000,77824.000000,LowGoal,3217.500000,-3272.727273,Speed,3225.000000,-3272.727273,Speed,Off,Off,0.000000,FALSE,13,Read: /home/lvuser/scripts/auto_13.bee,File good!,SET_HEADING 58 50,SET_HEADING,0.000000,0.000000
03:54:45.900 PM 04/09/2016,Autonomous Enabled,10,FALSE,0,NO ERROR,-0.250000,-196.253291,-0.250000,-225.757055,TRUE,FALSE,TRUE,TRUE,FALSE,FALSE,Disabled,0.715625,-0.590355,58.550355,TRUE,7.848846,9.071472,0.000000,-0.188599,0.414047,0.000000,0.126000,0.076000,-0.066000,2.520000,54.850000,-1.190000,51.927615,Hold,61.208252,58.000000,Hold,-77933.000000,77824.000000,LowGoal,3217.500000,-3272.727273,Speed,3225.000000,-3272.727273,Speed,Off,Off,0.000000,FALSE,13,Read: /home/lvuser/scripts/auto_13.bee,File good!,SET_HEADING 58 50,SET_HEADING,0.000000,0.000000
03:54:46.000 PM 04/09/2016,Autonomous Enabled,10,FALSE,0,NO ERROR,-0.250000,-195.496126,-0.250000,-226.533470,TRUE,FALSE,TRUE,TRUE,FALSE,FALSE,Disabled,0.715625,-0.590355,58.550355,TRUE,7.848846,9.071472,0.000000,-0.188599,0.414047,0.000000,0.126000,0.076000,-0.066000,2.520000,54.850000,-1.190000,54.936308,Hold,61.208252,58.000000,Hold,-77933.000000,77824.000000,LowGoal,3217.500000,-3272.727273,Speed,3225.000000,-3272.727273,Speed,Off,Off,0.000000,FALSE,13,Read: /home/lvuser/scripts/auto_13.bee,File good!,SET_HEADING 58 50,SET_HEADING,0.000000,0.000000
03:54:46.100 PM 04/09/2016,Autonomous Enabled,10,FALSE,0,NO ERROR,0.250000,-194.867294,0.250000,-227.194385,TRUE,FALSE,TRUE,TRUE,FALSE,FALSE,Disabled,-0.034375,-0.590355,58.550355,TRUE,7.829330,9.105530,0.000000,-0.176590,0.253708,0.000000,0.014000,-0.174000,0.073000,2.070000,59.280000,-0.980000,58.209674,Hold,61.208252,58.000000,Hold,-77933.000000,77824.000000,LowGoal,3225.000000,-3272.727273,Speed,3225.000000,-3272.727273,Speed,Off,Off,0.000000,FALSE,13,Read: /home/lvuser/scripts/auto_13.bee,File good!,SET_HEADING 58 50,SET_HEADING,0.000000,0.000000
03:54:46.202 PM 04/09/2016,Autonomous Enabled,10,FALSE,0,NO ERROR,0.250000,-195.425543,0.250000,-226.623303,TRUE,FALSE,TRUE,TRUE,FALSE,FALSE,Disabled,-0.034375,-0.590355,58.550355,TRUE,7.814728,9.120529,0.000000,-0.400055,0.326950,0.000000,0.022000,0.046000,-0.052000,2.380000,62.050000,-0.950000,58.332832,Hold,61.208252,58.000000,Hold,-77933.000000,77824.000000,LowGoal,3225.000000,-3272.727273,Speed,3225.000000,-3272.727273,Speed,Off,Off,0.000000,FALSE,13,Read: /home/lvuser/scripts/auto_13.bee,File good!,SET_HEADING 58 50,SET_HEADING,0.000000,0.000000
03:54:46.303 PM 04/09/2016,Autonomous Enabled,10,FALSE,0,NO ERROR,0.250000,-196.112125,0.250000,-225.769889,TRUE,FALSE,TRUE,TRUE,FALSE,FALSE,Disabled,-0.034375,-0.590355,58.550355,TRUE,7.797058,9.133133,0.000000,-0.453110,0.337753,0.000000,-0.105000,-0.161000,0.037000,1.700000,62.010000,-1.710000,55.287635,Hold,61.208252,58.000000,Hold,-77933.000000,77824.000000,LowGoal,3225.000000,-3272.727273,Speed,3217.500000,-3272.727273,Speed,Off,Off,0.000000,FALSE,13,Read: /home/lvuser/scripts/auto_13.bee,File good!,SET_HEADING 58 50,SET_HEADING,0.000000,0.000000
03:54:46.404 PM 04/09/2016,Autonomous Enabled,11,FALSE,0,NO ERROR,0.000000,-196.484291,-0.000000,-225.153890,TRUE,FALSE,TRUE,TRUE,FALSE,TRUE,Disabled,-0.034375,-0.590355,58.550355,TRUE,7.778397,9.150223,0.000000,-0.334473,0.345734,0.000000,0.081000,-0.156000,0.127000,1.950000,56.320000,-1.580000,52.802046,Hold,61.206787,58.000000,Hold,-77933.000000,77824.000000,LowGoal,3217.500000,-3272.727273,Speed,3217.500000,-3272.727273,Speed,Off,Off,0.000000,FALSE,13,Read: /home/lvuser/scripts/auto_13.bee,File good!,SEARCH_FOR_GOAL,SEARCH_FOR_GOAL,0.000000,0.000000
03:54:46.504 PM 04/09/2016,Autonomous Enabled,11,FALSE,0,NO ERROR,0.000000,-196.388041,-0.000000,-225.147474,TRUE,FALSE,TRUE,TRUE,FALSE,TRUE,Disabled,-0.034375,-0.590355,58.550355,TRUE,7.766876,9.165100,0.000000,-0.147263,0.255112,0.000000,0.041000,-0.072000,-0.084000,1.950000,56.320000,-1.580000,52.749116,Hold,61.206787,58.000000,Hold,-77933.000000,77824.000000,LowGoal,3217.500000,-3272.727273,Speed,3225.000000,-3272.727273,Speed,Off,Off,0.000000,FALSE,13,Read: /home/lvuser/scripts/auto_13.bee,File good!,SEARCH_FOR_GOAL,SEARCH_FOR_GOAL,0.000000,0.000000
03:54:46.606 PM 04/09/2016,Autonomous Enabled,11,FALSE,0,NO ERROR,0.000000,-196.362374,-0.000000,-225.192390,TRUE,FALSE,TRUE,TRUE,FALSE,TRUE,Disabled,-0.034375,-0.590355,58.550355,TRUE,7.758698,9.179153,0.000000,-0.156494,0.255020,0.000000,0.041000,-0.072000,-0.084000,2.420000,56.080000,-0.840000,52.954000,Hold,61.206543,58.000000,Hold,-77933.000000,77824.000000,LowGoal,3225.000000,-3272.727273,Speed,3232.500000,-3272.727273,Speed,Off,Off,0.000000,FALSE,13,Read: /home/lvuser/scripts/auto_13.bee,File good!,SEARCH_FOR_GOAL,SEARCH_FOR_GOAL,0.000000,0.000000
03:54:46.706 PM 04/09/2016,Autonomous Enabled,10,FALSE,0,NO ERROR,0.000000,-196.362374,-0.000000,-225.192390,TRUE,FALSE,TRUE,TRUE,FALSE,TRUE,Disabled,-0.034375,-0.590355,58.550355,TRUE,7.750290,9.194031,0.000000,-0.187454,0.330231,0.000000,0.075000,0.018000,0.089000,2.320000,56.350000,-0.970000,52.931630,Hold,61.206543,58.000000,Hold,-77933.000000,77824.000000,LowGoal,3240.000000,-3272.727273,Speed,3240.000000,-3272.727273,Speed,Off,Off,0.000000,FALSE,13,Read: /home/lvuser/scripts/auto_13.bee,File good!,SEARCH_FOR_GOAL,SEARCH_FOR_GOAL,0.000000,0.000000
