Time,Robot Mode,Loop Time,Error Status,Error Code,Error Source,Left Motor Output,Left Motor Encoder,Right Motor Output,Right Motor Encoder,Is Level,Is Stalled,Ball Detector Photoeye,Vision Enabled,Vision Teleop Control,Vision Auto Control,Vision Current State,Vision X Output,Vision NavX Error,Vision NavX Target,NavX Connection Status,NavX Displacement X,NavX Displacement Y,NavX Displacement Z,NavX Velocity X,NavX Velocity Y,NavX Velocity Z,NavX Acceleration X,NavX Acceleration Y,NavX Acceleration Z,NavX Pitch,NavX Yaw,NavX Roll,Gyro Angle,Roller Arm State,Roller Arm Actual,Roller Arm Desired,Shooter Arm State,Shooter Arm Actual,Shooter Arm Desired,Shooter State,Actual RPM Left,Desired RPM Left,Control Mode Left,Actual RPM Right,Desired RPM Right,Control Mode Right,Ball Shooter Cylinder,Ball Halo Cylinder,Scaler Motor Output,Scaler Solenoid Fire,Auto To Run,Auto Current File,Auto File Status,Auto Current Command,Auto Trimmed Command,Shooter Amps Left,Shooter Amps Right
03:01:30.082 PM 04/09/2016,Teleop Enabled,10,TRUE,-44005,<LOCATION>WPI_CameraWait for Raw Image String.vi:6640001<CALLSTACK>WPI_CameraWait for Raw Image String.vi:6640001< <WPI_CameraGet Image.vi< <Vision Processing.vi< <Robot Main.vi,-0.000000,0.000000,-0.000000,0.000000,FALSE,FALSE,TRUE,FALSE,FALSE,FALSE,Disabled,0.000000,0.833747,38.866253,TRUE,13.315872,-4.873962,0.000000,0.000000,0.000000,0.000000,0.057000,-0.016000,0.019000,3.080000,-0.040000,-6.240000,-0.122459,ResetBack,1.805176,-0.000049,ResetBack,-21480.000000,-0.250000,LowGoal,22.500000,-2181.818182,Speed,30.000000,-2181.818182,Speed,Off,Off,0.000000,FALSE,0,,,,,0.000000,0.000000
03:01:30.182 PM 04/09/2016,Teleop Enabled,9,FALSE,0,NO ERROR,-0.000000,-0.083416,-0.000000,-0.057750,FALSE,FALSE,TRUE,FALSE,FALSE,FALSE,Disabled,0.000000,0.833747,38.866253,TRUE,13.316727,-4.872208,0.000000,0.035431,0.075562,0.000000,0.008000,0.001000,-0.049000,3.040000,-0.060000,-6.120000,-0.130934,ResetBack,1.087158,-0.000049,ResetBack,-21480.000000,-0.250000,LowGoal,450.000000,-2181.818182,Speed,457.500000,-2181.818182,Speed,Off,Off,0.000000,FALSE,0,,,,,0.000000,0.000000
03:01:30.284 PM 04/09/2016,Teleop Enabled,10,FALSE,0,NO ERROR,-0.000000,-0.173250,-0.000000,-0.154000,FALSE,FALSE,TRUE,FALSE,FALSE,FALSE,Disabled,0.000000,0.833747,38.866253,TRUE,13.319504,-4.871033,0.000000,0.064072,0.015991,0.000000,0.102000,0.019000,0.056000,3.080000,-0.080000,-6.050000,-0.127048,ResetBack,0.290771,-0.000049,ResetBack,-20356.000000,-0.250000,LowGoal,1027.500000,-2181.818182,Speed,877.500000,-2181.818182,Speed,Off,Off,0.000000,FALSE,0,,,,,0.000000,0.000000
03:01:30.386 PM 04/09/2016,Teleop Enabled,9,FALSE,0,NO ERROR,-0.000000,-0.256666,-0.000000,-0.224583,FALSE,FALSE,TRUE,FALSE,FALSE,FALSE,Disabled,0.000000,0.833747,38.866253,TRUE,13.322693,-4.869827,0.000000,0.000000,0.019485,0.000000,-0.021000,-0.020000,0.008000,3.110000,-0.110000,-5.990000,-0.141524,Reset,0.290527,-0.000049,ResetBack,-18776.000000,-0.250000,LowGoal,1515.000000,-2181.818182,Speed,1305.000000,-2181.818182,Speed,Off,Off,0.000000,FALSE,0,,,,,0.000000,0.000000
03:01:30.487 PM 04/09/2016,Teleop Enabled,9,FALSE,0,NO ERROR,-0.000000,-0.307999,-0.000000,-0.282333,FALSE,FALSE,TRUE,FALSE,FALSE,FALSE,Disabled,0.000000,0.833747,38.866253,TRUE,13.322388,-4.868896,0.000000,-0.007690,0.027695,0.000000,-0.129000,0.009000,-0.065000,3.160000,-0.100000,-5.980000,-0.147551,Hold,0.290527,0.000000,ResetBack,-16059.000000,-0.250000,LowGoal,1920.000000,-2181.818182,Speed,1672.500000,-2181.818182,Speed,Off,Off,0.000000,FALSE,0,,,,,0.000000,0.000000
03:01:30.589 PM 04/09/2016,Teleop Enabled,12,FALSE,0,NO ERROR,-0.000000,-0.327249,-0.000000,-0.295166,FALSE,FALSE,TRUE,FALSE,FALSE,FALSE,Disabled,0.000000,0.833747,38.866253,TRUE,13.319229,-4.865402,0.000000,-0.075302,0.117905,0.000000,-0.102000,0.143000,-0.105000,3.060000,-0.120000,-5.970000,-0.152216,Hold,0.745850,0.000000,ResetBack,-12014.000000,-0.250000,LowGoal,2130.000000,-2181.818182,Speed,1980.000000,-2181.818182,Speed,Off,Off,0.000000,FALSE,0,,,,,0.000000,0.000000
03:01:30.688 PM 04/09/2016,Teleop Enabled,11,FALSE,0,NO ERROR,-0.000000,-0.333666,-0.000000,-0.307999,FALSE,FALSE,TRUE,FALSE,FALSE,FALSE,Disabled,0.000000,0.833747,38.866253,TRUE,13.314224,-4.857239,0.000000,-0.091858,0.157166,0.000000,0.116000,-0.086000,-0.025000,3.060000,-0.120000,-5.970000,-0.159866,Hold,0.913818,0.000000,ResetBack,-12014.000000,-0.250000,LowGoal,2182.500000,-2181.818182,Speed,2122.500000,-2181.818182,Speed,Off,Off,0.000000,FALSE,0,,,,,0.000000,0.000000
03:01:30.789 PM 04/09/2016,Teleop Enabled,7,FALSE,0,NO ERROR,-0.000000,-0.327249,-0.000000,-0.301583,FALSE,FALSE,TRUE,FALSE,FALSE,FALSE,Disabled,0.000000,0.833747,38.866253,TRUE,13.312668,-4.852158,0.000000,0.000000,0.067825,0.000000,0.116000,-0.086000,-0.025000,3.110000,-0.110000,-6.020000,-0.173997,Hold,0.913818,0.000000,ResetBack,-7321.000000,-0.250000,LowGoal,2137.500000,-2181.818182,Speed,2100.000000,-2181.818182,Speed,Off,Off,0.000000,FALSE,0,,,,,0.000000,0.000000
03:01:30.889 PM 04/09/2016,Teleop Enabled,10,FALSE,0,NO ERROR,-0.000000,-0.352916,-0.000000,-0.307999,FALSE,FALSE,TRUE,FALSE,FALSE,FALSE,Disabled,0.000000,0.833747,38.866253,TRUE,13.313416,-4.849564,0.000000,0.032211,0.046509,0.000000,0.012000,-0.066000,-0.019000,3.040000,-0.120000,-6.030000,-0.174872,Hold,0.913818,0.000000,ResetBack,-2804.000000,-0.250000,LowGoal,2100.000000,-2181.818182,Speed,2062.500000,-2181.818182,Speed,Off,Off,0.000000,FALSE,0,,,,,0.000000,0.000000
03:01:30.992 PM 04/09/2016,Teleop Enabled,11,FALSE,0,NO ERROR,-0.000000,-0.372166,-0.000000,-0.346499,FALSE,FALSE,TRUE,FALSE,FALSE,FALSE,Disabled,0.000000,0.833747,38.866253,TRUE,13.314087,-4.844742,0.000000,0.003143,0.141571,0.000000,0.075000,0.053000,0.034000,3.100000,-0.140000,-5.990000,-0.195568,Hold,0.913818,0.000000,ResetBack,-576.000000,-0.250000,LowGoal,2107.500000,-2181.818182,Speed,2055.000000,-2181.818182,Speed,Off,Off,0.000000,FALSE,0,,,,,0.000000,0.000000
03:01:31.094 PM 04/09/2016,Teleop Enabled,10,FALSE,0,NO ERROR,-0.000000,-0.384999,-0.000000,-0.346499,FALSE,FALSE,TRUE,FALSE,FALSE,FALSE,Disabled,0.000000,0.833747,38.866253,TRUE,13.313766,-4.840103,0.000000,-0.036804,-0.002914,0.000000,0.067000,-0.161000,-0.041000,3.080000,-0.130000,-6.010000,-0.189623,Hold,0.913818,0.000000,ResetBack,328.000000,-0.250000,LowGoal,2122.500000,-2181.818182,Speed,2062.500000,-2181.818182,Speed,Off,Off,0.000000,FALSE,0,,,,,0.000000,0.000000
03:01:31.194 PM 04/09/2016,Teleop Enabled,10,FALSE,0,NO ERROR,-0.000000,-0.384999,-0.000000,-0.352916,FALSE,FALSE,TRUE,FALSE,FALSE,FALSE,Disabled,0.000000,0.833747,38.866253,TRUE,13.315628,-4.848618,0.000000,0.088257,-0.270111,0.000000,0.123000,-0.251000,0.072000,3.150000,-0.130000,-6.010000,-0.197317,Hold,0.913818,0.000000,ResetBack,1218.000000,-0.250000,LowGoal,2122.500000,-2181.818182,Speed,2062.500000,-2181.818182,Speed,Off,Off,0.000000,FALSE,0,,,,,0.000000,0.000000
03:01:31.295 PM 04/09/2016,Teleop Enabled,9,FALSE,0,NO ERROR,-0.000000,-0.391416,-0.000000,-0.352916,FALSE,FALSE,TRUE,FALSE,FALSE,FALSE,Disabled,0.000000,0.833747,38.866253,TRUE,13.321869,-4.862732,0.000000,0.182068,-0.382980,0.000000,-0.114000,0.062000,0.001000,3.100000,-0.130000,-5.970000,-0.191806,Hold,0.913818,0.000000,Reset,1218.000000,2.000000,LowGoal,2107.500000,-2181.818182,Speed,2062.500000,-2181.818182,Speed,Off,Off,0.000000,FALSE,0,,,,,0.000000,0.000000
03:01:31.395 PM 04/09/2016,Teleop Enabled,13,FALSE,0,NO ERROR,-0.000000,-0.391416,-0.000000,-0.359332,FALSE,FALSE,TRUE,FALSE,FALSE,FALSE,Disabled,0.000000,0.833747,38.866253,TRUE,13.321869,-4.862732,0.000000,0.182068,-0.382980,0.000000,-0.114000,0.062000,0.001000,3.100000,-0.130000,-5.970000,-0.198247,Hold,0.913818,0.000000,Hold,2353.000000,2.000000,LowGoal,2100.000000,-2181.818182,Speed,2062.500000,-2181.818182,Speed,Off,Off,0.000000,FALSE,0,,,,,0.000000,0.000000
03:01:31.496 PM 04/09/2016,Teleop Enabled,19,FALSE,0,NO ERROR,-0.000000,-0.397832,-0.000000,-0.359332,FALSE,FALSE,TRUE,FALSE,FALSE,FALSE,Disabled,0.000000,0.833747,38.866253,TRUE,13.323959,-4.887177,0.000000,-0.131744,-0.060791,0.000000,-0.113000,0.272000,-0.126000,3.120000,-0.140000,-5.960000,-0.209287,Hold,0.913818,0.000000,Hold,-101.000000,2.000000,LowGoal,2107.500000,-2181.818182,Speed,2070.000000,-2181.818182,Speed,Off,Off,0.000000,FALSE,0,,,,,0.000000,0.000000
03:01:31.596 PM 04/09/2016,Teleop Enabled,12,FALSE,0,NO ERROR,-0.000000,-0.397832,-0.000000,-0.365749,FALSE,FALSE,TRUE,FALSE,FALSE,FALSE,Disabled,0.000000,0.833747,38.866253,TRUE,13.316772,-4.892014,0.000000,-0.149811,-0.139145,0.000000,0.008000,-0.049000,-0.068000,3.120000,-0.140000,-5.960000,-0.208354,Hold,0.913818,0.000000,Hold,-101.000000,2.000000,LowGoal,2115.000000,-2181.818182,Speed,2070.000000,-2181.818182,Speed,Off,Off,0.000000,FALSE,0,,,,,0.000000,0.000000
03:01:31.698 PM 04/09/2016,Teleop Enabled,10,FALSE,0,NO ERROR,-0.000000,-0.404249,-0.000000,-0.365749,FALSE,FALSE,TRUE,FALSE,FALSE,FALSE,Disabled,0.000000,0.833747,38.866253,TRUE,13.316772,-4.892014,0.000000,-0.149811,-0.139145,0.000000,0.163000,-0.130000,0.196000,3.150000,-0.140000,-6.050000,-0.205696,Hold,0.913818,0.000000,Hold,-101.000000,2.000000,LowGoal,2107.500000,-2181.818182,Speed,2070.000000,-2181.818182,Speed,Off,Off,0.000000,FALSE,0,,,,,0.000000,0.000000
03:01:31.798 PM 04/09/2016,Teleop Enabled,9,FALSE,0,NO ERROR,0.496063,-0.417082,-0.496063,-0.141166,FALSE,FALSE,TRUE,FALSE,FALSE,FALSE,Disabled,0.000000,0.833747,38.866253,TRUE,13.308060,-4.904144,0.000000,-0.036270,0.050140,0.000000,0.130000,0.097000,0.109000,3.130000,-0.140000,-6.080000,-0.203221,Hold,0.913818,0.000000,Hold,-101.000000,2.000000,LowGoal,2115.000000,-2181.818182,Speed,2077.500000,-2181.818182,Speed,Off,Off,0.000000,FALSE,0,,,,,0.000000,0.000000
03:01:31.898 PM 04/09/2016,Teleop Enabled,9,FALSE,0,NO ERROR,0.346457,0.769998,-0.346457,0.782832,FALSE,FALSE,TRUE,FALSE,FALSE,FALSE,Disabled,0.000000,0.833747,38.866253,TRUE,13.300980,-4.902435,0.000000,-0.267761,0.013901,0.000000,-0.460000,-0.219000,-0.131000,3.130000,-0.140000,-6.160000,-0.422808,Hold,0.913818,0.000000,Hold,-101.000000,2.000000,LowGoal,2100.000000,-2181.818182,Speed,2077.500000,-2181.818182,Speed,Off,Off,0.000000,FALSE,0,,,,,0.000000,0.000000
03:01:31.998 PM 04/09/2016,Teleop Enabled,10,FALSE,0,NO ERROR,0.346457,1.924995,-0.346457,1.860829,FALSE,FALSE,TRUE,FALSE,FALSE,FALSE,Disabled,0.000000,0.833747,38.866253,TRUE,13.286316,-4.904587,0.000000,-0.269592,-0.067032,0.000000,-0.211000,-0.067000,-0.118000,3.040000,-0.320000,-8.080000,-0.286827,Hold,0.914062,0.000000,Hold,-101.000000,2.000000,LowGoal,2100.000000,-2181.818182,Speed,2047.500000,-2181.818182,Speed,Off,Off,0.000000,FALSE,0,,,,,0.000000,0.000000
03:01:32.098 PM 04/09/2016,Teleop Enabled,10,FALSE,0,NO ERROR,0.338583,3.381575,-0.338583,3.336659,FALSE,FALSE,TRUE,FALSE,FALSE,FALSE,Disabled,0.000000,0.833747,38.866253,TRUE,13.286316,-4.904587,0.000000,-0.269592,-0.067032,0.000000,-0.225000,0.035000,0.207000,3.030000,-0.170000,-7.440000,-0.271577,Hold,0.914062,0.000000,Hold,-101.000000,2.000000,LowGoal,2077.500000,-2181.818182,Speed,2010.000000,-2181.818182,Speed,Off,Off,0.000000,FALSE,0,,,,,0.000000,0.000000
03:01:32.198 PM 04/09/2016,Teleop Enabled,10,FALSE,0,NO ERROR,0.346457,5.049905,-0.346457,4.979322,FALSE,FALSE,TRUE,FALSE,FALSE,FALSE,Disabled,0.000000,0.833747,38.866253,TRUE,13.268265,-4.906815,0.000000,-0.304474,0.014847,0.000000,-0.031000,0.018000,0.018000,2.990000,-0.150000,-7.860000,-0.235264,Hold,0.914062,0.000000,Hold,-101.000000,2.000000,LowGoal,2085.000000,-2181.818182,Speed,2032.500000,-2181.818182,Speed,Off,Off,0.000000,FALSE,0,,,,,0.000000,0.000000
03:01:32.299 PM 04/09/2016,Teleop Enabled,9,FALSE,0,NO ERROR,0.393701,6.833734,-0.393701,6.698984,FALSE,FALSE,TRUE,FALSE,FALSE,FALSE,Disabled,0.000000,0.833747,38.866253,TRUE,13.249847,-4.907120,0.000000,-0.312668,-0.084946,0.000000,0.139000,-0.303000,0.085000,2.990000,-0.120000,-7.650000,-0.171587,Hold,0.914062,0.000000,Hold,-101.000000,2.000000,LowGoal,2100.000000,-2181.818182,Speed,2047.500000,-2181.818182,Speed,Off,Off,0.000000,FALSE,0,,,,,0.000000,0.000000
03:01:32.399 PM 04/09/2016,Teleop Enabled,10,FALSE,0,NO ERROR,0.393701,8.867813,-0.393701,8.707396,FALSE,FALSE,TRUE,FALSE,FALSE,FALSE,Disabled,0.000000,0.833747,38.866253,TRUE,13.237411,-4.917404,0.000000,-0.220535,-0.263397,0.000000,0.043000,-0.001000,0.184000,3.000000,-0.060000,-7.850000,-0.054940,Hold,0.914062,0.000000,Hold,-101.000000,2.000000,LowGoal,2092.500000,-2181.818182,Speed,2047.500000,-2181.818182,Speed,Off,Off,0.000000,FALSE,0,,,,,0.000000,0.000000
03:01:32.501 PM 04/09/2016,Teleop Enabled,11,FALSE,0,NO ERROR,0.393701,11.158557,-0.393701,10.946808,FALSE,FALSE,TRUE,FALSE,FALSE,FALSE,Disabled,0.000000,0.833747,38.866253,TRUE,13.223953,-4.930511,0.000000,-0.295563,-0.239365,0.000000,-0.301000,0.223000,-0.125000,2.850000,0.040000,-8.060000,0.054857,Hold,0.914062,0.000000,Hold,-101.000000,2.000000,LowGoal,2077.500000,-2181.818182,Speed,2040.000000,-2181.818182,Speed,Off,Off,0.000000,FALSE,0,,,,,0.000000,0.000000
03:01:32.601 PM 04/09/2016,Teleop Enabled,9,FALSE,0,NO ERROR,0.362205,11.158557,-0.362205,10.946808,FALSE,FALSE,TRUE,FALSE,FALSE,FALSE,Disabled,0.000000,0.833747,38.866253,TRUE,13.202438,-4.938339,0.000000,-0.505051,-0.130554,0.000000,-0.096000,-0.171000,0.054000,2.890000,0.190000,-8.170000,0.054857,Hold,0.914062,0.000000,Hold,-101.000000,2.000000,LowGoal,2077.500000,-2181.818182,Speed,2032.500000,-2181.818182,Speed,Off,Off,0.000000,FALSE,0,,,,,0.000000,0.000000
03:01:32.702 PM 04/09/2016,Teleop Enabled,10,FALSE,0,NO ERROR,0.362205,13.564802,-0.362205,13.385135,FALSE,FALSE,TRUE,FALSE,FALSE,FALSE,Disabled,0.000000,0.833747,38.866253,TRUE,13.178635,-4.948166,0.000000,-0.439178,-0.236771,0.000000,0.000000,-0.048000,0.200000,2.880000,0.240000,-8.310000,0.111997,Hold,0.914062,0.000000,Hold,-101.000000,2.000000,LowGoal,2085.000000,-2181.818182,Speed,2032.500000,-2181.818182,Speed,Off,Off,0.000000,FALSE,0,,,,,0.000000,0.000000
03:01:32.803 PM 04/09/2016,Teleop Enabled,9,FALSE,0,NO ERROR,0.330709,15.688713,-0.330709,15.566797,FALSE,FALSE,TRUE,FALSE,FALSE,FALSE,Disabled,0.000000,0.833747,38.866253,TRUE,13.158524,-4.959579,0.000000,-0.221527,-0.198196,0.000000,0.730000,0.229000,-0.569000,2.830000,0.190000,-8.230000,0.029262,Hold,0.913574,0.000000,Hold,-101.000000,2.000000,LowGoal,2100.000000,-2181.818182,Speed,2040.000000,-2181.818182,Speed,Off,Off,0.000000,FALSE,0,,,,,0.000000,0.000000
03:01:32.903 PM 04/09/2016,Teleop Enabled,9,FALSE,0,NO ERROR,0.314961,15.014965,-0.314961,14.719799,FALSE,FALSE,TRUE,FALSE,FALSE,FALSE,Disabled,0.000000,0.833747,38.866253,TRUE,13.170212,-4.967392,0.000000,0.262466,-0.202850,0.000000,-0.576000,-0.135000,-0.154000,3.380000,0.070000,-5.050000,0.087465,Hold,0.914062,0.000000,Hold,-101.000000,2.000000,LowGoal,2085.000000,-2181.818182,Speed,2040.000000,-2181.818182,Speed,Off,Off,0.000000,FALSE,0,,,,,0.000000,0.000000
03:01:33.004 PM 04/09/2016,Teleop Enabled,10,FALSE,0,NO ERROR,0.307087,15.136881,-0.307087,14.835299,FALSE,FALSE,TRUE,FALSE,FALSE,FALSE,Disabled,0.000000,0.833747,38.866253,TRUE,13.172363,-4.981857,0.000000,-0.072891,-0.264282,0.000000,0.116000,0.156000,0.229000,2.980000,0.240000,-6.720000,0.249733,Hold,0.914307,0.000000,Hold,-101.000000,2.000000,LowGoal,2062.500000,-2181.818182,Speed,2025.000000,-2181.818182,Speed,Off,Off,0.000000,FALSE,0,,,,,0.000000,0.000000
03:01:33.104 PM 04/09/2016,Teleop Enabled,10,FALSE,0,NO ERROR,0.322835,15.342214,-0.322835,15.079131,FALSE,FALSE,TRUE,FALSE,FALSE,FALSE,Disabled,0.000000,0.833747,38.866253,TRUE,13.170532,-4.989304,0.000000,0.034729,-0.147736,0.000000,-0.047000,-0.004000,0.110000,2.970000,0.130000,-6.080000,0.159986,Hold,0.914307,0.000000,Hold,-101.000000,2.000000,LowGoal,2077.500000,-2181.818182,Speed,2032.500000,-2181.818182,Speed,Off,Off,0.000000,FALSE,0,,,,,0.000000,0.000000
03:01:33.204 PM 04/09/2016,Teleop Enabled,9,FALSE,0,NO ERROR,0.322835,15.342214,-0.322835,15.040631,FALSE,FALSE,TRUE,FALSE,FALSE,FALSE,Disabled,0.000000,0.833747,38.866253,TRUE,13.172638,-4.999283,0.000000,0.017242,-0.229416,0.000000,0.202000,-0.211000,0.061000,3.050000,0.160000,-6.350000,0.229126,Hold,0.914307,0.000000,Hold,-101.000000,2.000000,LowGoal,2100.000000,-2181.818182,Speed,2040.000000,-2181.818182,Speed,Off,Off,0.000000,FALSE,0,,,,,0.000000,0.000000
03:01:33.304 PM 04/09/2016,Teleop Enabled,10,FALSE,0,NO ERROR,0.314961,15.342214,-0.314961,15.047048,FALSE,FALSE,TRUE,FALSE,FALSE,FALSE,Disabled,0.000000,0.833747,38.866253,TRUE,13.177139,-5.016602,0.000000,0.117142,-0.391205,0.000000,-0.012000,-0.026000,-0.060000,3.110000,0.190000,-6.480000,0.248054,Hold,0.914307,0.000000,Hold,-101.000000,2.000000,LowGoal,2100.000000,-2181.818182,Speed,2040.000000,-2181.818182,Speed,Off,Off,0.000000,FALSE,0,,,,,0.000000,0.000000
03:01:33.405 PM 04/09/2016,Teleop Enabled,9,FALSE,0,NO ERROR,0.314961,15.342214,-0.314961,15.047048,FALSE,FALSE,TRUE,FALSE,FALSE,FALSE,Disabled,0.000000,0.833747,38.866253,TRUE,13.181183,-5.031128,0.000000,0.084244,-0.335876,0.000000,-0.089000,0.153000,-0.128000,3.060000,0.200000,-6.520000,0.261968,Hold,0.914307,0.000000,Hold,-101.000000,2.000000,LowGoal,2077.500000,-2181.818182,Speed,2032.500000,-2181.818182,Speed,Off,Off,0.000000,FALSE,0,,,,,0.000000,0.000000
03:01:33.506 PM 04/09/2016,Teleop Enabled,10,FALSE,0,NO ERROR,0.314961,15.342214,-0.314961,15.047048,FALSE,FALSE,TRUE,FALSE,FALSE,FALSE,Disabled,0.000000,0.833747,38.866253,TRUE,13.182846,-5.045898,0.000000,0.023438,-0.220917,0.000000,-0.148000,-0.033000,-0.117000,3.080000,0.180000,-6.470000,0.283106,Hold,0.914307,50.000000,Hold,-104.000000,143360.000000,LowGoal,2077.500000,-2181.818182,Speed,2032.500000,-2181.818182,Speed,Off,Off,0.000000,FALSE,0,,,,,0.000000,0.000000
03:01:33.607 PM 04/09/2016,Teleop Enabled,11,FALSE,0,NO ERROR,0.291339,15.342214,-0.291339,15.047048,FALSE,FALSE,TRUE,FALSE,FALSE,FALSE,Disabled,0.000000,0.833747,38.866253,TRUE,13.183807,-5.054703,0.000000,0.058182,-0.220245,0.000000,0.029000,-0.058000,0.118000,3.150000,0.190000,-6.570000,0.307527,Hold,3.093994,50.000000,Hold,-104.000000,143360.000000,LowGoal,2085.000000,-2181.818182,Speed,2032.500000,-2181.818182,Speed,Off,Off,0.000000,FALSE,0,,,,,0.000000,0.000000
03:01:33.708 PM 04/09/2016,Teleop Enabled,10,FALSE,0,NO ERROR,0.251969,15.342214,-0.251969,15.047048,FALSE,FALSE,TRUE,FALSE,FALSE,FALSE,Disabled,0.000000,0.833747,38.866253,TRUE,13.188110,-5.059570,0.000000,0.089096,-0.027161,0.000000,-0.075000,0.135000,-0.027000,3.100000,0.200000,-6.630000,0.331322,Hold,6.186523,50.000000,Hold,-10594.000000,143360.000000,LowGoal,2092.500000,-2181.818182,Speed,2025.000000,-2181.818182,Speed,Off,Off,0.000000,FALSE,0,,,,,0.000000,0.000000
03:01:33.808 PM 04/09/2016,Teleop Enabled,12,FALSE,0,NO ERROR,0.259843,15.342214,-0.259843,15.047048,FALSE,FALSE,TRUE,FALSE,FALSE,FALSE,Disabled,0.000000,0.833747,38.866253,TRUE,13.194977,-5.062134,0.000000,0.072861,-0.035309,0.000000,0.008000,0.138000,-0.015000,3.120000,0.170000,-6.580000,0.338717,Hold,10.775146,50.000000,Hold,-23151.000000,143360.000000,LowGoal,2085.000000,-2181.818182,Speed,2032.500000,-2181.818182,Speed,Off,Off,0.000000,FALSE,0,,,,,0.000000,0.000000
03:01:33.909 PM 04/09/2016,Teleop Enabled,10,FALSE,0,NO ERROR,0.291339,15.342214,-0.291339,15.047048,FALSE,FALSE,TRUE,FALSE,FALSE,FALSE,Disabled,0.000000,0.833747,38.866253,TRUE,13.196869,-5.059326,0.000000,0.024734,0.105957,0.000000,0.035000,0.026000,-0.078000,3.060000,0.180000,-6.730000,0.341715,Hold,16.226318,50.000000,Hold,-34216.000000,143360.000000,LowGoal,2085.000000,-2181.818182,Speed,2040.000000,-2181.818182,Speed,Off,Off,0.000000,FALSE,0,,,,,0.000000,0.000000
03:01:34.011 PM 04/09/2016,Teleop Enabled,10,FALSE,0,NO ERROR,0.291339,15.342214,-0.291339,15.047048,FALSE,FALSE,TRUE,FALSE,FALSE,FALSE,Disabled,0.000000,0.833747,38.866253,TRUE,13.198425,-5.055405,0.000000,0.019852,0.012665,0.000000,-0.002000,-0.170000,0.055000,3.110000,0.190000,-6.740000,0.372320,Hold,21.302246,50.000000,Hold,-46994.000000,143360.000000,LowGoal,2092.500000,-2181.818182,Speed,2047.500000,-2181.818182,Speed,Off,Off,0.000000,FALSE,0,,,,,0.000000,0.000000
03:01:34.112 PM 04/09/2016,Teleop Enabled,10,FALSE,0,NO ERROR,0.291339,15.342214,-0.291339,15.047048,FALSE,FALSE,TRUE,FALSE,FALSE,FALSE,Disabled,0.000000,0.833747,38.866253,TRUE,13.200623,-5.060272,0.000000,0.065231,-0.195679,0.000000,0.128000,-0.059000,0.253000,3.110000,0.210000,-6.900000,0.396627,Hold,28.347412,50.000000,Hold,-62260.000000,143360.000000,LowGoal,2085.000000,-2181.818182,Speed,2040.000000,-2181.818182,Speed,Off,Off,0.000000,FALSE,0,,,,,0.000000,0.000000
03:01:34.212 PM 04/09/2016,Teleop Enabled,10,FALSE,0,NO ERROR,0.291339,15.342214,-0.291339,15.047048,FALSE,FALSE,TRUE,FALSE,FALSE,FALSE,Disabled,0.000000,0.833747,38.866253,TRUE,13.205048,-5.071533,0.000000,0.108749,-0.188354,0.000000,0.000000,0.171000,0.011000,3.110000,0.200000,-6.910000,0.406287,Hold,37.051270,50.000000,Hold,-62260.000000,143360.000000,LowGoal,2085.000000,-2181.818182,Speed,2040.000000,-2181.818182,Speed,Off,Off,0.000000,FALSE,0,,,,,0.000000,0.000000
03:01:34.313 PM 04/09/2016,Teleop Enabled,9,FALSE,0,NO ERROR,0.291339,15.342214,-0.291339,15.047048,FALSE,FALSE,TRUE,FALSE,FALSE,FALSE,Disabled,0.000000,0.833747,38.866253,TRUE,13.208633,-5.074310,0.000000,0.024063,0.031250,0.000000,0.067000,0.069000,-0.257000,3.120000,0.190000,-6.990000,0.423782,Hold,46.665039,50.000000,Hold,-77869.000000,143360.000000,LowGoal,2085.000000,-2181.818182,Speed,2040.000000,-2181.818182,Speed,Off,Off,0.000000,FALSE,0,,,,,0.000000,0.000000
03:01:34.414 PM 04/09/2016,Teleop Enabled,10,FALSE,0,NO ERROR,0.291339,15.342214,-0.291339,15.047048,FALSE,FALSE,TRUE,FALSE,FALSE,FALSE,Disabled,0.000000,0.833747,38.866253,TRUE,13.207840,-5.072128,0.000000,-0.021057,0.000229,0.000000,0.150000,-0.216000,-0.161000,3.180000,0.200000,-7.170000,0.445254,Hold,52.808105,50.000000,Hold,-94670.000000,143360.000000,LowGoal,1980.000000,-2181.818182,Speed,2040.000000,-2181.818182,Speed,Off,Off,0.000000,FALSE,0,,,,,0.000000,0.000000
03:01:34.514 PM 04/09/2016,Teleop Enabled,10,FALSE,0,NO ERROR,0.291339,15.342214,-0.291339,15.053465,FALSE,FALSE,TRUE,FALSE,FALSE,FALSE,Disabled,0.000000,0.833747,38.866253,TRUE,13.206833,-5.076019,0.000000,-0.047592,0.004868,0.000000,-0.055000,0.261000,0.177000,3.150000,0.210000,-7.180000,0.465943,Hold,55.219727,50.000000,Hold,-112349.000000,143360.000000,LowGoal,1965.000000,-2181.818182,Speed,2040.000000,-2181.818182,Speed,Off,Off,0.000000,FALSE,0,,,,,0.000000,0.000000
03:01:34.614 PM 04/09/2016,Teleop Enabled,9,FALSE,0,NO ERROR,0.291339,15.342214,-0.291339,15.053465,FALSE,FALSE,TRUE,FALSE,FALSE,FALSE,Disabled,0.000000,0.833747,38.866253,TRUE,13.203491,-5.068008,0.000000,-0.071838,0.264877,0.000000,0.107000,0.156000,0.026000,3.110000,0.210000,-7.210000,0.478185,Hold,55.016357,50.000000,Hold,-130322.000000,143360.000000,LowGoal,2100.000000,-2181.818182,Speed,2032.500000,-2181.818182,Speed,Off,Off,0.000000,FALSE,0,,,,,0.000000,0.000000
03:01:34.715 PM 04/09/2016,Teleop Enabled,9,FALSE,0,NO ERROR,0.291339,15.342214,-0.291339,15.040631,FALSE,FALSE,TRUE,FALSE,FALSE,FALSE,Disabled,0.000000,0.833747,38.866253,TRUE,13.199753,-5.053329,0.000000,-0.089310,0.282791,0.000000,0.188000,-0.038000,0.000000,3.130000,0.210000,-7.340000,0.483920,Hold,54.897217,50.000000,Hold,-144838.000000,143360.000000,LowGoal,2130.000000,-2181.818182,Speed,2040.000000,-2181.818182,Speed,Off,Off,0.000000,FALSE,0,,,,,0.000000,0.000000
03:01:34.815 PM 04/09/2016,Teleop Enabled,10,FALSE,0,NO ERROR,0.291339,15.342214,-0.291339,15.047048,FALSE,FALSE,TRUE,FALSE,FALSE,FALSE,Disabled,0.000000,0.833747,38.866253,TRUE,13.198395,-5.046249,0.000000,-0.040604,0.222076,0.000000,-0.029000,-0.080000,0.058000,3.130000,0.210000,-7.300000,0.499539,Hold,54.773682,50.000000,Hold,-143389.000000,143360.000000,LowGoal,2085.000000,-2181.818182,Speed,2040.000000,-2181.818182,Speed,Off,Off,0.000000,FALSE,0,,,,,0.000000,0.000000
03:01:34.915 PM 04/09/2016,Teleop Enabled,10,FALSE,0,NO ERROR,0.291339,15.342214,-0.291339,15.047048,FALSE,FALSE,TRUE,FALSE,FALSE,FALSE,Disabled,0.000000,0.833747,38.866253,TRUE,13.196930,-5.036972,0.000000,-0.022003,0.159149,0.000000,-0.075000,-0.031000,-0.019000,3.120000,0.220000,-7.360000,0.509970,Hold,54.737549,50.000000,Hold,-143446.000000,143360.000000,LowGoal,2085.000000,-2181.818182,Speed,2040.000000,-2181.818182,Speed,Off,Off,0.000000,FALSE,0,,,,,0.000000,0.000000
03:01:35.016 PM 04/09/2016,Teleop Enabled,11,FALSE,0,NO ERROR,-0.000000,15.310131,-0.000000,15.021382,FALSE,FALSE,TRUE,FALSE,FALSE,FALSE,Disabled,0.000000,0.833747,38.866253,TRUE,13.196121,-5.028397,0.000000,0.018280,0.187073,0.000000,-0.056000,0.013000,0.015000,3.160000,0.200000,-7.210000,0.519695,Hold,54.737305,50.000000,Hold,-143446.000000,143360.000000,LowGoal,2100.000000,-2181.818182,Speed,2040.000000,-2181.818182,Speed,Off,Off,0.000000,FALSE,0,,,,,0.000000,0.000000
03:01:35.118 PM 04/09/2016,Teleop Enabled,11,FALSE,0,NO ERROR,-0.000000,14.867382,-0.000000,14.591466,FALSE,FALSE,TRUE,FALSE,FALSE,FALSE,Disabled,0.000000,0.833747,38.866253,TRUE,13.199310,-5.016022,0.000000,0.076675,0.251190,0.000000,-0.128000,0.081000,0.079000,3.150000,0.160000,-6.590000,0.494572,Hold,54.675781,50.000000,Hold,-143446.000000,143360.000000,LowGoal,2115.000000,-2181.818182,Speed,2055.000000,-2181.818182,Speed,Off,Off,0.000000,FALSE,0,,,,,0.000000,0.000000
03:01:35.218 PM 04/09/2016,Teleop Enabled,9,FALSE,0,NO ERROR,-0.000000,14.405383,-0.000000,14.110217,FALSE,FALSE,TRUE,FALSE,FALSE,FALSE,Disabled,0.000000,0.833747,38.866253,TRUE,13.201355,-4.997696,0.000000,0.036011,0.348480,0.000000,-0.046000,0.107000,0.155000,3.130000,0.170000,-6.480000,0.518126,Hold,54.650879,50.000000,Hold,-143446.000000,143360.000000,LowGoal,2122.500000,-2181.818182,Speed,2085.000000,-2181.818182,Speed,Off,Off,0.000000,FALSE,0,,,,,0.000000,0.000000
03:01:35.318 PM 04/09/2016,Teleop Enabled,9,FALSE,0,NO ERROR,-0.000000,13.866384,-0.000000,13.558385,FALSE,FALSE,TRUE,FALSE,FALSE,FALSE,Disabled,0.000000,0.833747,38.866253,TRUE,13.201599,-4.981827,0.000000,-0.033539,0.420517,0.000000,0.029000,0.002000,0.110000,3.150000,0.190000,-6.450000,0.538581,Hold,54.649170,50.000000,Hold,-143446.000000,143360.000000,LowGoal,2115.000000,-2181.818182,Speed,2092.500000,-2181.818182,Speed,Off,Off,0.000000,FALSE,0,,,,,0.000000,0.000000
03:01:35.418 PM 04/09/2016,Teleop Enabled,10,FALSE,0,NO ERROR,-0.000000,13.301719,-0.000000,12.987303,FALSE,FALSE,TRUE,FALSE,FALSE,FALSE,Disabled,0.000000,0.833747,38.866253,TRUE,13.198975,-4.957153,0.000000,0.012650,0.378250,0.000000,0.029000,0.002000,0.110000,3.190000,0.220000,-6.380000,0.585018,Hold,54.648193,50.000000,Hold,-143446.000000,143360.000000,LowGoal,2107.500000,-2181.818182,Speed,2085.000000,-2181.818182,Speed,Off,Off,0.000000,FALSE,0,,,,,0.000000,0.000000
03:01:35.519 PM 04/09/2016,Teleop Enabled,10,FALSE,0,NO ERROR,-0.000000,12.717804,-0.000000,12.358471,FALSE,FALSE,TRUE,FALSE,FALSE,FALSE,Disabled,0.000000,0.833747,38.866253,TRUE,13.199570,-4.942429,0.000000,0.044632,0.000000,0.000000,0.185000,-0.017000,-0.019000,3.170000,0.240000,-6.410000,0.613760,Hold,54.646240,50.000000,Hold,-143446.000000,143360.000000,LowGoal,2115.000000,-2181.818182,Speed,2085.000000,-2181.818182,Speed,Off,Off,0.000000,FALSE,0,,,,,0.000000,0.000000
03:01:35.619 PM 04/09/2016,Teleop Enabled,10,FALSE,0,NO ERROR,-0.000000,12.108222,-0.000000,11.742473,FALSE,FALSE,TRUE,FALSE,FALSE,FALSE,Disabled,0.000000,0.833747,38.866253,TRUE,13.201935,-4.942841,0.000000,0.077515,-0.022095,0.000000,0.001000,0.026000,0.001000,3.190000,0.260000,-6.370000,0.649903,Hold,54.644531,50.000000,Hold,-143446.000000,143360.000000,LowGoal,2122.500000,-2181.818182,Speed,2085.000000,-2181.818182,Speed,Off,Off,0.000000,FALSE,0,,,,,0.000000,0.000000
03:01:35.719 PM 04/09/2016,Teleop Enabled,10,FALSE,0,NO ERROR,-0.000000,11.460140,-0.000000,11.087974,FALSE,FALSE,TRUE,FALSE,FALSE,FALSE,Disabled,0.000000,0.833747,38.866253,TRUE,13.206451,-4.943329,0.000000,0.061111,-0.007645,0.000000,0.015000,0.025000,0.036000,3.160000,0.260000,-6.390000,0.666854,Hold,54.644287,50.000000,Hold,-143446.000000,143360.000000,LowGoal,2122.500000,-2181.818182,Speed,2085.000000,-2181.818182,Speed,Off,Off,0.000000,FALSE,0,,,,,0.000000,0.000000
03:01:35.819 PM 04/09/2016,Teleop Enabled,8,FALSE,0,NO ERROR,-0.000000,10.792808,-0.000000,10.388559,FALSE,FALSE,TRUE,FALSE,FALSE,FALSE,Disabled,0.000000,0.833747,38.866253,TRUE,13.206985,-4.942444,0.000000,-0.029099,0.053238,0.000000,-0.035000,0.069000,0.039000,3.170000,0.260000,-6.280000,0.691662,Hold,54.643555,50.000000,Hold,-143446.000000,143360.000000,LowGoal,2137.500000,-2181.818182,Speed,2085.000000,-2181.818182,Speed,Off,Off,0.000000,FALSE,0,,,,,0.000000,0.000000
03:01:35.919 PM 04/09/2016,Teleop Enabled,11,FALSE,0,NO ERROR,-0.000000,10.131893,-0.000000,9.791810,FALSE,FALSE,TRUE,FALSE,FALSE,FALSE,Disabled,0.000000,0.833747,38.866253,TRUE,13.203445,-4.937775,0.000000,-0.168671,0.095078,0.000000,-0.835000,-0.161000,0.374000,3.110000,0.220000,-7.380000,0.669667,Hold,54.621582,50.000000,Hold,-143446.000000,143360.000000,LowGoal,2137.500000,-2181.818182,Speed,2092.500000,-2181.818182,Speed,Off,Off,0.000000,FALSE,0,,,,,0.000000,0.000000
03:01:36.020 PM 04/09/2016,Teleop Enabled,9,FALSE,0,NO ERROR,-0.000000,10.138310,-0.000000,9.875227,FALSE,FALSE,TRUE,FALSE,FALSE,FALSE,Disabled,0.000000,0.833747,38.866253,TRUE,13.188705,-4.933945,0.000000,-0.268005,0.072739,0.000000,0.136000,0.134000,0.346000,3.200000,-0.070000,-7.090000,0.390964,Hold,54.614014,50.000000,Hold,-143446.000000,143360.000000,LowGoal,2122.500000,-2181.818182,Speed,2085.000000,-2181.818182,Speed,Off,Off,0.000000,FALSE,0,,,,,0.000000,0.000000
03:01:36.121 PM 04/09/2016,Teleop Enabled,12,FALSE,0,NO ERROR,-0.000000,10.080560,-0.000000,9.817477,FALSE,FALSE,TRUE,FALSE,FALSE,FALSE,Disabled,0.000000,0.833747,38.866253,TRUE,13.178543,-4.931152,0.000000,-0.161545,0.007721,0.000000,0.136000,0.134000,0.346000,3.130000,-0.120000,-7.370000,0.370412,Hold,54.380859,50.000000,Hold,-143446.000000,143360.000000,LowGoal,2107.500000,-2181.818182,Speed,2085.000000,-2181.818182,Speed,Off,Off,0.000000,FALSE,0,,,,,0.000000,0.000000
03:01:36.222 PM 04/09/2016,Teleop Enabled,10,FALSE,0,NO ERROR,-0.000000,10.074143,-0.000000,9.836727,FALSE,FALSE,TRUE,FALSE,FALSE,FALSE,Disabled,0.000000,0.833747,38.866253,TRUE,13.167679,-4.932449,0.000000,-0.171707,-0.024384,0.000000,-0.075000,-0.054000,0.109000,3.160000,-0.220000,-6.950000,0.247224,Hold,54.403320,50.000000,Hold,-143446.000000,143360.000000,LowGoal,2107.500000,-2181.818182,Speed,2085.000000,-2181.818182,Speed,Off,Off,0.000000,FALSE,0,,,,,0.000000,0.000000
03:01:36.322 PM 04/09/2016,Teleop Enabled,10,FALSE,0,NO ERROR,-0.000000,10.067726,-0.000000,9.836727,FALSE,FALSE,TRUE,FALSE,FALSE,FALSE,Disabled,0.000000,0.833747,38.866253,TRUE,13.158493,-4.935013,0.000000,-0.159622,-0.060013,0.000000,0.158000,-0.024000,-0.156000,3.060000,-0.190000,-7.130000,0.296318,Hold,54.403320,50.000000,Hold,-143446.000000,143360.000000,LowGoal,2115.000000,-2181.818182,Speed,2092.500000,-2181.818182,Speed,Off,Off,0.000000,FALSE,0,,,,,0.000000,0.000000
03:01:36.423 PM 04/09/2016,Teleop Enabled,10,FALSE,0,NO ERROR,-0.000000,10.067726,-0.000000,9.836727,FALSE,FALSE,TRUE,FALSE,FALSE,FALSE,Disabled,0.000000,0.833747,38.866253,TRUE,13.153625,-4.937210,0.000000,-0.096558,-0.048477,0.000000,-0.006000,-0.046000,-0.064000,3.090000,-0.190000,-7.040000,0.306753,Hold,54.401855,50.000000,Hold,-143446.000000,143360.000000,LowGoal,2115.000000,-2181.818182,Speed,2092.500000,-2181.818182,Speed,Off,Off,0.000000,FALSE,0,,,,,0.000000,0.000000
03:01:36.523 PM 04/09/2016,Teleop Enabled,11,FALSE,0,NO ERROR,-0.000000,10.067726,-0.000000,9.836727,FALSE,FALSE,TRUE,FALSE,FALSE,FALSE,Disabled,0.000000,0.833747,38.866253,TRUE,13.148499,-4.940552,0.000000,-0.120224,-0.076660,0.000000,-0.059000,0.047000,0.063000,3.100000,-0.210000,-6.970000,0.307964,Hold,54.401855,50.000000,Hold,-143446.000000,143360.000000,LowGoal,2122.500000,-2181.818182,Speed,2085.000000,-2181.818182,Speed,Off,Off,0.000000,FALSE,0,,,,,0.000000,0.000000
03:01:36.623 PM 04/09/2016,Teleop Enabled,10,FALSE,0,NO ERROR,-0.000000,10.067726,-0.000000,9.836727,FALSE,FALSE,TRUE,FALSE,FALSE,FALSE,Disabled,0.000000,0.833747,38.866253,TRUE,13.144180,-4.943741,0.000000,0.000000,-0.031723,0.000000,-0.009000,0.085000,0.050000,3.040000,-0.210000,-6.970000,0.328365,Hold,54.401855,50.000000,Hold,-143446.000000,143360.000000,LowGoal,2115.000000,-2181.818182,Speed,2092.500000,-2181.818182,Speed,Off,Off,0.000000,FALSE,0,,,,,0.000000,0.000000
03:01:36.724 PM 04/09/2016,Teleop Enabled,11,FALSE,0,NO ERROR,-0.000000,10.067726,-0.000000,9.836727,FALSE,FALSE,TRUE,FALSE,FALSE,FALSE,Disabled,0.000000,0.833747,38.866253,TRUE,13.142212,-4.942688,0.000000,-0.063156,0.044495,0.000000,-0.009000,0.085000,0.050000,3.080000,-0.220000,-6.980000,0.339171,Hold,54.401855,50.000000,Hold,-143446.000000,143360.000000,LowGoal,2122.500000,-2181.818182,Speed,2092.500000,-2181.818182,Speed,Off,Off,0.000000,FALSE,0,,,,,0.000000,0.000000
03:01:36.830 PM 04/09/2016,Teleop Enabled,12,FALSE,0,NO ERROR,-0.000000,10.067726,-0.000000,9.836727,FALSE,FALSE,TRUE,FALSE,FALSE,FALSE,Disabled,0.000000,0.833747,38.866253,TRUE,13.140335,-4.939896,0.000000,0.000000,0.046387,0.000000,-0.018000,0.022000,0.033000,3.080000,-0.220000,-6.980000,0.372151,Hold,54.401855,50.000000,Hold,-143446.000000,143360.000000,LowGoal,2122.500000,-2181.818182,Speed,2092.500000,-2181.818182,Speed,Off,Off,0.000000,FALSE,0,,,,,0.000000,0.000000
03:01:36.935 PM 04/09/2016,Teleop Enabled,10,FALSE,0,NO ERROR,-0.000000,10.067726,-0.000000,9.836727,FALSE,FALSE,TRUE,FALSE,FALSE,FALSE,Disabled,0.000000,0.833747,38.866253,TRUE,13.141647,-4.939453,0.000000,0.058075,-0.020905,0.000000,0.010000,-0.044000,0.100000,3.040000,-0.210000,-7.030000,0.374371,Hold,54.401855,50.000000,Hold,-143446.000000,143360.000000,LowGoal,2122.500000,-2181.818182,Speed,2085.000000,-2181.818182,Speed,Off,Off,0.000000,FALSE,0,,,,,0.000000,0.000000
03:01:37.036 PM 04/09/2016,Teleop Enabled,9,FALSE,0,NO ERROR,-0.000000,10.067726,-0.000000,9.836727,FALSE,FALSE,TRUE,FALSE,FALSE,FALSE,Disabled,0.000000,0.833747,38.866253,TRUE,13.145050,-4.944717,0.000000,0.038681,-0.128464,0.000000,-0.002000,-0.094000,0.021000,3.010000,-0.220000,-7.010000,0.394249,Hold,54.401855,50.000000,Hold,-143446.000000,143360.000000,LowGoal,2130.000000,-2181.818182,Speed,2092.500000,-2181.818182,Speed,Off,Off,0.000000,FALSE,0,,,,,0.000000,0.000000
03:01:37.137 PM 04/09/2016,Teleop Enabled,10,FALSE,0,NO ERROR,-0.000000,10.067726,-0.000000,9.836727,FALSE,FALSE,TRUE,FALSE,FALSE,FALSE,Disabled,0.000000,0.833747,38.866253,TRUE,13.145050,-4.944717,0.000000,0.038681,-0.128464,0.000000,0.124000,-0.004000,-0.025000,3.060000,-0.220000,-7.070000,0.411255,Hold,54.401855,50.000000,Hold,-143446.000000,143360.000000,LowGoal,2145.000000,-2181.818182,Speed,2092.500000,-2181.818182,Speed,Off,Off,0.000000,FALSE,0,,,,,0.000000,0.000000
03:01:37.239 PM 04/09/2016,Teleop Enabled,11,FALSE,0,NO ERROR,-0.000000,10.067726,-0.000000,9.836727,FALSE,FALSE,TRUE,FALSE,FALSE,FALSE,Disabled,0.000000,0.833747,38.866253,TRUE,13.155487,-4.945435,0.000000,0.170563,0.032715,0.000000,0.030000,0.041000,-0.047000,3.020000,-0.220000,-6.970000,0.434165,Hold,54.401855,50.000000,Hold,-143446.000000,143360.000000,LowGoal,2152.500000,-2181.818182,Speed,2092.500000,-2181.818182,Speed,Off,Off,0.000000,FALSE,0,,,,,0.000000,0.000000
03:01:37.339 PM 04/09/2016,Teleop Enabled,10,FALSE,0,NO ERROR,-0.000000,10.067726,-0.000000,9.836727,FALSE,FALSE,TRUE,FALSE,FALSE,FALSE,Disabled,0.000000,0.833747,38.866253,TRUE,13.155487,-4.945435,0.000000,0.170563,0.032715,0.000000,0.021000,-0.038000,-0.089000,3.020000,-0.220000,-7.040000,0.449942,Hold,54.401855,50.000000,Hold,-143446.000000,143360.000000,LowGoal,2137.500000,-2181.818182,Speed,2092.500000,-2181.818182,Speed,Off,Off,0.000000,FALSE,0,,,,,0.000000,0.000000
03:01:37.443 PM 04/09/2016,Teleop Enabled,11,FALSE,0,NO ERROR,-0.000000,10.067726,-0.000000,9.836727,FALSE,FALSE,TRUE,FALSE,FALSE,FALSE,Disabled,0.000000,0.833747,38.866253,TRUE,13.173111,-4.944061,0.000000,0.139847,0.010544,0.000000,-0.088000,0.001000,-0.008000,3.000000,-0.220000,-7.030000,0.457502,Hold,54.401855,50.000000,Hold,-143446.000000,143360.000000,LowGoal,2122.500000,-2181.818182,Speed,2092.500000,-2181.818182,Speed,Off,Off,0.000000,FALSE,0,,,,,0.000000,0.000000
03:01:37.542 PM 04/09/2016,Teleop Enabled,10,FALSE,0,NO ERROR,-0.000000,10.067726,-0.000000,9.836727,FALSE,FALSE,TRUE,FALSE,FALSE,FALSE,Disabled,0.000000,0.833747,38.866253,TRUE,13.180161,-4.942139,0.000000,0.124451,0.057892,0.000000,-0.048000,0.049000,0.061000,3.030000,-0.220000,-7.030000,0.475035,Hold,54.401855,50.000000,Hold,-143446.000000,143360.000000,LowGoal,2115.000000,-2181.818182,Speed,2092.500000,-2181.818182,Speed,Off,Off,0.000000,FALSE,0,,,,,0.000000,0.000000
03:01:37.643 PM 04/09/2016,Teleop Enabled,9,FALSE,0,NO ERROR,-0.000000,10.067726,-0.000000,9.836727,FALSE,FALSE,TRUE,FALSE,FALSE,FALSE,Disabled,0.000000,0.833747,38.866253,TRUE,13.185364,-4.941467,0.000000,0.086029,0.002625,0.000000,-0.048000,0.049000,0.061000,3.030000,-0.220000,-7.030000,0.490819,Hold,54.401855,50.000000,Hold,-143446.000000,143360.000000,LowGoal,2115.000000,-2181.818182,Speed,2092.500000,-2181.818182,Speed,Off,Off,0.000000,FALSE,0,,,,,0.000000,0.000000
03:01:37.743 PM 04/09/2016,Teleop Enabled,12,FALSE,0,NO ERROR,-0.000000,10.067726,-0.000000,9.836727,FALSE,FALSE,TRUE,FALSE,FALSE,FALSE,Disabled,0.000000,0.833747,38.866253,TRUE,13.185944,-4.940887,0.000000,-0.005493,0.028458,0.000000,-0.010000,-0.019000,0.017000,3.070000,-0.220000,-7.040000,0.504672,Hold,54.401855,50.000000,Hold,-143446.000000,143360.000000,LowGoal,2130.000000,-2181.818182,Speed,2092.500000,-2181.818182,Speed,Off,Off,0.000000,FALSE,0,,,,,0.000000,0.000000
03:01:37.843 PM 04/09/2016,Teleop Enabled,8,FALSE,0,NO ERROR,-0.000000,10.067726,-0.000000,9.836727,FALSE,FALSE,TRUE,FALSE,FALSE,FALSE,Disabled,0.000000,0.833747,38.866253,TRUE,13.188034,-4.939987,0.000000,0.068832,0.000397,0.000000,0.058000,0.003000,0.057000,3.080000,-0.220000,-6.990000,0.514067,Hold,54.401855,50.000000,Hold,-143446.000000,143360.000000,LowGoal,2145.000000,-2181.818182,Speed,2092.500000,-2181.818182,Speed,Off,Off,0.000000,FALSE,0,,,,,0.000000,0.000000
03:01:37.944 PM 04/09/2016,Teleop Enabled,10,FALSE,0,NO ERROR,-0.000000,10.067726,-0.000000,9.836727,FALSE,FALSE,TRUE,FALSE,FALSE,FALSE,Disabled,0.000000,0.833747,38.866253,TRUE,13.192001,-4.942642,0.000000,0.104538,-0.088318,0.000000,0.119000,-0.044000,0.010000,3.160000,-0.240000,-6.910000,0.515723,Hold,54.401855,50.000000,Hold,-143446.000000,143360.000000,LowGoal,2137.500000,-2181.818182,Speed,2092.500000,-2181.818182,Speed,Off,Off,0.000000,FALSE,0,,,,,0.000000,0.000000
03:01:38.044 PM 04/09/2016,Teleop Enabled,11,FALSE,0,NO ERROR,-0.000000,10.067726,-0.000000,9.836727,FALSE,FALSE,TRUE,FALSE,FALSE,FALSE,Disabled,0.000000,0.833747,38.866253,TRUE,13.200684,-4.949768,0.000000,0.174698,-0.138687,0.000000,0.119000,-0.044000,0.010000,3.050000,-0.230000,-6.910000,0.536271,Hold,54.401855,50.000000,Hold,-143446.000000,143360.000000,LowGoal,2145.000000,-2181.818182,Speed,2092.500000,-2181.818182,Speed,Off,Off,0.000000,FALSE,0,,,,,0.000000,0.000000
03:01:38.144 PM 04/09/2016,Teleop Enabled,10,FALSE,0,NO ERROR,-0.000000,10.067726,-0.000000,9.836727,FALSE,FALSE,TRUE,FALSE,FALSE,FALSE,Disabled,0.000000,0.833747,38.866253,TRUE,13.210449,-4.955917,0.000000,0.286392,-0.159286,0.000000,0.153000,-0.050000,0.052000,3.070000,-0.240000,-6.790000,0.548517,Hold,54.401855,50.000000,Hold,-143446.000000,143360.000000,LowGoal,2145.000000,-2181.818182,Speed,2100.000000,-2181.818182,Speed,Off,Off,0.000000,FALSE,0,,,,,0.000000,0.000000
03:01:38.244 PM 04/09/2016,Teleop Enabled,9,FALSE,0,NO ERROR,-0.000000,10.067726,-0.000000,9.836727,FALSE,FALSE,TRUE,FALSE,FALSE,FALSE,Disabled,0.000000,0.833747,38.866253,TRUE,13.225357,-4.954727,0.000000,0.000000,0.043259,0.000000,-0.021000,0.018000,-0.101000,3.070000,-0.240000,-6.790000,0.560996,Hold,54.401855,50.000000,Hold,-143446.000000,143360.000000,LowGoal,2145.000000,-2181.818182,Speed,2092.500000,-2181.818182,Speed,Off,Off,0.000000,FALSE,0,,,,,0.000000,0.000000
03:01:38.344 PM 04/09/2016,Teleop Enabled,15,FALSE,0,NO ERROR,-0.000000,10.067726,-0.000000,9.836727,FALSE,FALSE,TRUE,FALSE,FALSE,FALSE,Disabled,0.000000,0.833747,38.866253,TRUE,13.225357,-4.954727,0.000000,0.000000,0.043259,0.000000,-0.004000,-0.013000,-0.181000,2.990000,-0.240000,-6.890000,0.569465,Hold,54.401855,50.000000,Hold,-143446.000000,143360.000000,LowGoal,2152.500000,-2181.818182,Speed,2092.500000,-2181.818182,Speed,Off,Off,0.000000,FALSE,0,,,,,0.000000,0.000000
03:01:38.444 PM 04/09/2016,Teleop Enabled,10,FALSE,0,NO ERROR,-0.000000,10.067726,-0.000000,9.836727,FALSE,FALSE,TRUE,FALSE,FALSE,FALSE,Disabled,0.000000,0.833747,38.866253,TRUE,13.221191,-4.950470,0.000000,-0.098633,0.043381,0.000000,-0.035000,0.061000,-0.039000,3.010000,-0.240000,-6.860000,0.580126,Hold,54.401855,50.000000,Hold,-143446.000000,143360.000000,LowGoal,2145.000000,-2181.818182,Speed,2092.500000,-2181.818182,Speed,Off,Off,0.000000,FALSE,0,,,,,0.000000,0.000000
03:01:38.546 PM 04/09/2016,Teleop Enabled,10,FALSE,0,NO ERROR,-0.000000,10.067726,-0.000000,9.836727,FALSE,FALSE,TRUE,FALSE,FALSE,FALSE,Disabled,0.000000,0.833747,38.866253,TRUE,13.217056,-4.950211,0.000000,-0.093399,-0.010452,0.000000,0.112000,0.005000,0.039000,3.050000,-0.240000,-6.800000,0.588381,Hold,54.401855,50.000000,Hold,-143446.000000,143360.000000,LowGoal,2145.000000,-2181.818182,Speed,2100.000000,-2181.818182,Speed,Off,Off,0.000000,FALSE,0,,,,,0.000000,0.000000
03:01:38.647 PM 04/09/2016,Teleop Enabled,10,FALSE,0,NO ERROR,-0.000000,10.067726,-0.000000,9.836727,FALSE,FALSE,TRUE,FALSE,FALSE,FALSE,Disabled,0.000000,0.833747,38.866253,TRUE,13.213654,-4.950272,0.000000,0.007126,0.012787,0.000000,0.010000,0.026000,0.101000,2.980000,-0.250000,-6.820000,0.601109,Hold,54.401855,50.000000,Hold,-143446.000000,143360.000000,LowGoal,2122.500000,-2181.818182,Speed,2092.500000,-2181.818182,Speed,Off,Off,0.503937,FALSE,0,,,,,0.000000,0.000000
03:01:38.751 PM 04/09/2016,Teleop Enabled,9,FALSE,0,NO ERROR,-0.000000,10.067726,-0.000000,9.836727,FALSE,FALSE,TRUE,FALSE,FALSE,FALSE,Disabled,0.000000,0.833747,38.866253,TRUE,13.211609,-4.948669,0.000000,-0.073303,0.047562,0.000000,-0.107000,-0.003000,0.046000,3.020000,-0.250000,-6.780000,0.611305,Hold,54.401855,50.000000,Hold,-143446.000000,143360.000000,LowGoal,2115.000000,-2181.818182,Speed,2092.500000,-2181.818182,Speed,Off,Off,0.834646,FALSE,0,,,,,0.000000,0.000000
03:01:38.852 PM 04/09/2016,Teleop Enabled,9,FALSE,0,NO ERROR,-0.000000,10.067726,-0.000000,9.836727,FALSE,FALSE,TRUE,FALSE,FALSE,FALSE,Disabled,0.000000,0.833747,38.866253,TRUE,13.210556,-4.946106,0.000000,0.028931,0.037598,0.000000,0.174000,-0.058000,0.032000,3.000000,-0.240000,-6.920000,0.631658,Hold,54.401855,50.000000,Hold,-143446.000000,143360.000000,LowGoal,2115.000000,-2181.818182,Speed,2092.500000,-2181.818182,Speed,Off,Off,1.000000,FALSE,0,,,,,0.000000,0.000000
03:01:38.952 PM 04/09/2016,Teleop Enabled,10,FALSE,0,NO ERROR,-0.000000,10.067726,-0.000000,9.836727,FALSE,FALSE,TRUE,FALSE,FALSE,FALSE,Disabled,0.000000,0.833747,38.866253,TRUE,13.213531,-4.944611,0.000000,0.074310,0.027954,0.000000,0.048000,-0.049000,-0.050000,3.020000,-0.250000,-6.810000,0.645456,Hold,54.402832,50.000000,Hold,-143446.000000,143360.000000,LowGoal,2107.500000,-2181.818182,Speed,2085.000000,-2181.818182,Speed,Off,Off,1.000000,FALSE,0,,,,,0.000000,0.000000
03:01:39.052 PM 04/09/2016,Teleop Enabled,11,FALSE,0,NO ERROR,-0.000000,10.067726,-0.000000,9.836727,FALSE,FALSE,TRUE,FALSE,FALSE,FALSE,Disabled,0.000000,0.833747,38.866253,TRUE,13.218506,-4.943649,0.000000,0.104279,0.034317,0.000000,0.052000,0.018000,0.005000,3.030000,-0.250000,-6.900000,0.649112,Hold,54.402832,50.000000,Hold,-143446.000000,143360.000000,LowGoal,2107.500000,-2181.818182,Speed,2047.500000,-2181.818182,Speed,Off,Off,1.000000,FALSE,0,,,,,0.000000,0.000000
03:01:39.155 PM 04/09/2016,Teleop Enabled,10,FALSE,0,NO ERROR,-0.000000,10.067726,-0.000000,9.836727,FALSE,FALSE,TRUE,FALSE,FALSE,FALSE,Disabled,0.000000,0.833747,38.866253,TRUE,13.218506,-4.943649,0.000000,0.104279,0.034317,0.000000,-0.003000,0.062000,0.000000,3.060000,-0.260000,-6.840000,0.692367,Hold,54.402832,50.000000,Hold,-143446.000000,143360.000000,LowGoal,2062.500000,-2181.818182,Speed,2025.000000,-2181.818182,Speed,Off,Off,1.000000,FALSE,0,,,,,0.000000,0.000000
03:01:39.257 PM 04/09/2016,Teleop Enabled,10,FALSE,0,NO ERROR,-0.000000,10.067726,-0.000000,9.836727,FALSE,FALSE,TRUE,FALSE,FALSE,FALSE,Disabled,0.000000,0.833747,38.866253,TRUE,13.228165,-4.937592,0.000000,0.000000,0.021835,0.000000,0.006000,-0.059000,0.148000,3.070000,-0.250000,-6.900000,0.716847,Hold,54.402832,50.000000,Hold,-143446.000000,143360.000000,LowGoal,2055.000000,-2181.818182,Speed,2017.500000,-2181.818182,Speed,Off,Off,1.000000,FALSE,0,,,,,0.000000,0.000000
03:01:39.358 PM 04/09/2016,Teleop Enabled,11,FALSE,0,NO ERROR,-0.000000,10.067726,-0.000000,9.836727,FALSE,FALSE,TRUE,FALSE,FALSE,FALSE,Disabled,0.000000,0.833747,38.866253,TRUE,13.226349,-4.934952,0.000000,-0.025986,0.122757,0.000000,0.006000,-0.059000,0.148000,3.010000,-0.260000,-6.860000,0.735923,Hold,54.404541,50.000000,Hold,-143446.000000,143360.000000,LowGoal,2070.000000,-2181.818182,Speed,2025.000000,-2181.818182,Speed,Off,Off,0.685039,FALSE,0,,,,,0.000000,0.000000
03:01:39.458 PM 04/09/2016,Teleop Enabled,10,FALSE,0,NO ERROR,-0.000000,10.067726,-0.000000,9.836727,FALSE,FALSE,TRUE,FALSE,FALSE,FALSE,Disabled,0.000000,0.833747,38.866253,TRUE,13.226349,-4.934952,0.000000,-0.025986,0.122757,0.000000,-0.111000,-0.049000,-0.336000,3.230000,-0.280000,-6.750000,0.771935,Hold,54.404053,50.000000,Hold,-143447.000000,143360.000000,LowGoal,2085.000000,-2181.818182,Speed,2032.500000,-2181.818182,Speed,Off,Off,0.000000,FALSE,0,,,,,0.000000,0.000000
03:01:39.560 PM 04/09/2016,Teleop Enabled,11,FALSE,0,NO ERROR,-0.000000,10.067726,-0.000000,9.836727,FALSE,FALSE,TRUE,FALSE,FALSE,FALSE,Disabled,0.000000,0.833747,38.866253,TRUE,13.223495,-4.928497,0.000000,-0.065506,0.118744,0.000000,0.105000,0.004000,0.127000,3.210000,-0.310000,-6.840000,0.818716,Hold,54.442871,50.000000,Hold,-143447.000000,143360.000000,LowGoal,2077.500000,-2181.818182,Speed,2032.500000,-2181.818182,Speed,Off,Off,0.000000,FALSE,0,,,,,0.000000,0.000000
03:01:39.660 PM 04/09/2016,Teleop Enabled,10,FALSE,0,NO ERROR,-0.000000,10.067726,-0.000000,9.836727,FALSE,FALSE,TRUE,FALSE,FALSE,FALSE,Disabled,0.000000,0.833747,38.866253,TRUE,13.222076,-4.914658,0.000000,0.035263,0.183517,0.000000,0.024000,0.066000,0.017000,3.120000,-0.290000,-6.940000,0.810970,Hold,54.306152,50.000000,Hold,-143447.000000,143360.000000,LowGoal,2100.000000,-2181.818182,Speed,2047.500000,-2181.818182,Speed,Off,Off,0.000000,FALSE,0,,,,,0.000000,0.000000
03:01:39.761 PM 04/09/2016,Teleop Enabled,10,FALSE,0,NO ERROR,-0.000000,10.067726,-0.000000,9.830310,FALSE,FALSE,TRUE,FALSE,FALSE,FALSE,Disabled,0.000000,0.833747,38.866253,TRUE,13.222076,-4.914658,0.000000,0.035263,0.183517,0.000000,-0.076000,-0.175000,0.026000,3.050000,-0.300000,-6.640000,0.810970,Hold,54.284180,50.000000,Hold,-143447.000000,143360.000000,LowGoal,2115.000000,-2181.818182,Speed,2077.500000,-2181.818182,Speed,Off,Off,0.000000,FALSE,0,,,,,0.000000,0.000000
03:01:39.861 PM 04/09/2016,Teleop Enabled,13,FALSE,0,NO ERROR,-0.000000,10.067726,-0.000000,9.830310,FALSE,FALSE,TRUE,FALSE,FALSE,FALSE,Disabled,0.000000,0.833747,38.866253,TRUE,13.221939,-4.907013,0.000000,-0.013458,0.166519,0.000000,0.078000,0.052000,0.040000,3.120000,-0.320000,-6.820000,0.839709,Hold,54.270264,50.000000,Hold,-143447.000000,143360.000000,LowGoal,2115.000000,-2181.818182,Speed,2092.500000,-2181.818182,Speed,Off,Off,0.000000,FALSE,0,,,,,0.000000,0.000000
03:01:39.961 PM 04/09/2016,Teleop Enabled,11,FALSE,0,NO ERROR,-0.000000,10.067726,-0.000000,9.830310,FALSE,FALSE,TRUE,FALSE,FALSE,FALSE,Disabled,0.000000,0.833747,38.866253,TRUE,13.224442,-4.897766,0.000000,0.063812,0.121109,0.000000,0.028000,-0.091000,0.080000,3.140000,-0.340000,-6.600000,0.865972,Hold,54.270264,50.000000,Hold,-143447.000000,143360.000000,LowGoal,2137.500000,-2181.818182,Speed,2100.000000,-2181.818182,Speed,Off,Off,0.000000,FALSE,0,,,,,0.000000,0.000000
03:01:40.061 PM 04/09/2016,Teleop Enabled,10,FALSE,0,NO ERROR,-0.000000,10.067726,-0.000000,9.830310,FALSE,FALSE,TRUE,FALSE,FALSE,FALSE,Disabled,0.000000,0.833747,38.866253,TRUE,13.226334,-4.893967,0.000000,0.015656,0.021042,0.000000,0.012000,-0.074000,0.037000,3.110000,-0.340000,-6.640000,0.883068,Hold,54.270264,50.000000,Hold,-143447.000000,143360.000000,LowGoal,2145.000000,-2181.818182,Speed,2092.500000,-2181.818182,Speed,Off,Off,0.000000,FALSE,0,,,,,0.000000,0.000000
03:01:40.161 PM 04/09/2016,Teleop Enabled,10,FALSE,0,NO ERROR,-0.000000,10.061310,-0.000000,9.830310,FALSE,FALSE,TRUE,FALSE,FALSE,FALSE,Disabled,0.000000,0.833747,38.866253,TRUE,13.227203,-4.893799,0.000000,0.040909,0.000000,0.000000,0.040000,-0.058000,-0.059000,3.130000,-0.340000,-6.680000,0.891134,Hold,54.270264,50.000000,Hold,-143447.000000,143360.000000,LowGoal,2130.000000,-2181.818182,Speed,2092.500000,-2181.818182,Speed,Off,Off,0.000000,FALSE,0,,,,,0.000000,0.000000
03:01:40.261 PM 04/09/2016,Teleop Enabled,9,FALSE,0,NO ERROR,-0.000000,10.061310,-0.000000,9.830310,FALSE,FALSE,TRUE,FALSE,FALSE,FALSE,Disabled,0.000000,0.833747,38.866253,TRUE,13.230392,-4.894363,0.000000,0.061951,-0.007050,0.000000,-0.017000,0.044000,-0.048000,3.130000,-0.350000,-6.720000,0.902928,Hold,54.270264,50.000000,Hold,-143447.000000,143360.000000,LowGoal,2122.500000,-2181.818182,Speed,2100.000000,-2181.818182,Speed,Off,Off,0.000000,FALSE,0,,,,,0.000000,0.000000
03:01:40.362 PM 04/09/2016,Teleop Enabled,11,FALSE,0,NO ERROR,-0.000000,10.061310,-0.000000,9.830310,FALSE,FALSE,TRUE,FALSE,FALSE,FALSE,Disabled,0.000000,0.833747,38.866253,TRUE,13.232117,-4.893341,0.000000,0.002106,0.042862,0.000000,-0.018000,0.051000,-0.035000,3.120000,-0.360000,-6.690000,0.927704,Hold,54.270264,50.000000,Hold,-143447.000000,143360.000000,LowGoal,2130.000000,-2181.818182,Speed,2100.000000,-2181.818182,Speed,Off,Off,0.000000,FALSE,0,,,,,0.000000,0.000000
03:01:40.462 PM 04/09/2016,Teleop Enabled,10,FALSE,0,NO ERROR,-0.000000,10.061310,-0.000000,9.830310,FALSE,FALSE,TRUE,FALSE,FALSE,FALSE,Disabled,0.000000,0.833747,38.866253,TRUE,13.230194,-4.890091,0.000000,-0.063004,0.066528,0.000000,0.010000,0.000000,0.043000,3.160000,-0.370000,-6.660000,0.950143,Hold,54.269775,50.000000,Hold,-143447.000000,143360.000000,LowGoal,2145.000000,-2181.818182,Speed,2092.500000,-2181.818182,Speed,Off,Off,0.000000,FALSE,0,,,,,0.000000,0.000000
03:01:40.562 PM 04/09/2016,Teleop Enabled,9,FALSE,0,NO ERROR,-0.000000,10.061310,-0.000000,9.830310,FALSE,FALSE,TRUE,FALSE,FALSE,FALSE,Disabled,0.000000,0.833747,38.866253,TRUE,13.226456,-4.886063,0.000000,-0.049606,0.077682,0.000000,-0.040000,0.003000,0.117000,3.110000,-0.370000,-6.790000,0.954845,Hold,54.269775,50.000000,Hold,-143447.000000,143360.000000,LowGoal,2130.000000,-2181.818182,Speed,2100.000000,-2181.818182,Speed,Off,Off,0.000000,FALSE,0,,,,,0.000000,0.000000
03:01:40.662 PM 04/09/2016,Teleop Enabled,9,FALSE,0,NO ERROR,-0.000000,10.061310,-0.000000,9.830310,FALSE,FALSE,TRUE,FALSE,FALSE,FALSE,Disabled,0.000000,0.833747,38.866253,TRUE,13.223572,-4.885239,0.000000,-0.097000,0.000000,0.000000,0.014000,-0.006000,0.157000,3.150000,-0.380000,-6.760000,0.961386,Hold,54.269775,50.000000,Hold,-143447.000000,143360.000000,LowGoal,2122.500000,-2181.818182,Speed,2100.000000,-2181.818182,Speed,Off,Off,0.000000,FALSE,0,,,,,0.000000,0.000000
03:01:40.762 PM 04/09/2016,Teleop Enabled,9,FALSE,0,NO ERROR,-0.000000,10.061310,-0.000000,9.830310,FALSE,FALSE,TRUE,FALSE,FALSE,FALSE,Disabled,0.000000,0.833747,38.866253,TRUE,13.218521,-4.885025,0.000000,-0.088837,0.000000,0.000000,-0.083000,-0.022000,0.033000,3.150000,-0.390000,-6.770000,0.963445,Hold,54.269775,50.000000,Hold,-143447.000000,143360.000000,LowGoal,2130.000000,-2181.818182,Speed,2092.500000,-2181.818182,Speed,Off,Off,0.000000,FALSE,0,,,,,0.000000,0.000000
03:01:40.862 PM 04/09/2016,Teleop Enabled,10,FALSE,0,NO ERROR,-0.000000,10.061310,-0.000000,9.830310,FALSE,FALSE,TRUE,FALSE,FALSE,FALSE,Disabled,0.000000,0.833747,38.866253,TRUE,13.214188,-4.884995,0.000000,-0.051819,0.000000,0.000000,0.104000,0.005000,0.059000,3.180000,-0.410000,-6.710000,0.973728,Hold,54.269775,50.000000,Hold,-143447.000000,143360.000000,LowGoal,2152.500000,-2181.818182,Speed,2100.000000,-2181.818182,Speed,Off,Off,0.000000,FALSE,0,,,,,0.000000,0.000000
03:01:40.962 PM 04/09/2016,Teleop Enabled,10,FALSE,0,NO ERROR,-0.000000,10.061310,-0.000000,9.830310,FALSE,FALSE,TRUE,FALSE,FALSE,FALSE,Disabled,0.000000,0.833747,38.866253,TRUE,13.212982,-4.886963,0.000000,-0.032227,-0.077103,0.000000,0.005000,-0.093000,0.045000,3.130000,-0.420000,-6.720000,1.002945,Hold,54.269775,50.000000,Hold,-143447.000000,143360.000000,LowGoal,2145.000000,-2181.818182,Speed,2100.000000,-2181.818182,Speed,Off,Off,0.000000,FALSE,0,,,,,0.000000,0.000000
03:01:41.062 PM 04/09/2016,Teleop Enabled,10,FALSE,0,NO ERROR,-0.000000,10.061310,-0.000000,9.830310,FALSE,FALSE,TRUE,FALSE,FALSE,FALSE,Disabled,0.000000,0.833747,38.866253,TRUE,13.211716,-4.891953,0.000000,-0.015915,-0.147034,0.000000,0.134000,-0.012000,0.016000,3.090000,-0.420000,-6.770000,1.008322,Hold,54.269775,50.000000,Hold,-143447.000000,143360.000000,LowGoal,2130.000000,-2181.818182,Speed,2100.000000,-2181.818182,Speed,Off,Off,0.000000,FALSE,0,,,,,0.000000,0.000000
03:01:41.162 PM 04/09/2016,Teleop Enabled,10,FALSE,0,NO ERROR,-0.000000,10.061310,-0.000000,9.830310,FALSE,FALSE,TRUE,FALSE,FALSE,FALSE,Disabled,0.000000,0.833747,38.866253,TRUE,13.213181,-4.892349,0.000000,0.018982,-0.007324,0.000000,0.038000,0.010000,0.029000,3.070000,-0.430000,-6.760000,1.028533,Hold,54.269775,50.000000,Hold,-143447.000000,143360.000000,LowGoal,2130.000000,-2181.818182,Speed,2092.500000,-2181.818182,Speed,Off,Off,0.000000,FALSE,0,,,,,0.000000,0.000000
03:01:41.262 PM 04/09/2016,Teleop Enabled,10,FALSE,0,NO ERROR,-0.000000,10.061310,-0.000000,9.830310,FALSE,FALSE,TRUE,FALSE,FALSE,FALSE,Disabled,0.000000,0.833747,38.866253,TRUE,13.214035,-4.892166,0.000000,-0.011444,-0.004013,0.000000,-0.081000,-0.032000,-0.018000,3.040000,-0.440000,-6.810000,1.047543,Hold,54.269775,50.000000,Hold,-143447.000000,143360.000000,LowGoal,2145.000000,-2181.818182,Speed,2092.500000,-2181.818182,Speed,Off,Off,0.000000,FALSE,0,,,,,0.000000,0.000000
03:01:41.362 PM 04/09/2016,Teleop Enabled,9,FALSE,0,NO ERROR,-0.000000,10.061310,-0.000000,9.830310,FALSE,FALSE,TRUE,FALSE,FALSE,FALSE,Disabled,0.000000,0.833747,38.866253,TRUE,13.211517,-4.892517,0.000000,-0.095993,0.001953,0.000000,-0.096000,0.148000,0.027000,3.000000,-0.450000,-6.760000,1.068797,Hold,54.269775,50.000000,Hold,-143447.000000,143360.000000,LowGoal,2137.500000,-2181.818182,Speed,2100.000000,-2181.818182,Speed,Off,Off,0.000000,FALSE,0,,,,,0.000000,0.000000
03:01:41.462 PM 04/09/2016,Teleop Enabled,10,FALSE,0,NO ERROR,-0.000000,10.061310,-0.000000,9.830310,FALSE,FALSE,TRUE,FALSE,FALSE,FALSE,Disabled,0.000000,0.833747,38.866253,TRUE,13.204788,-4.889191,0.000000,-0.137589,0.096405,0.000000,0.015000,0.063000,0.016000,2.990000,-0.450000,-6.810000,1.081221,Hold,54.269531,50.000000,Hold,-143447.000000,143360.000000,LowGoal,2137.500000,-2181.818182,Speed,2100.000000,-2181.818182,Speed,Off,Off,0.000000,FALSE,0,,,,,0.000000,0.000000
03:01:41.562 PM 04/09/2016,Teleop Enabled,10,FALSE,0,NO ERROR,-0.000000,10.061310,-0.000000,9.830310,FALSE,FALSE,TRUE,FALSE,FALSE,FALSE,Disabled,0.000000,0.833747,38.866253,TRUE,13.203323,-4.883514,0.000000,0.003128,0.112640,0.000000,0.021000,0.052000,0.117000,2.980000,-0.460000,-6.880000,1.095057,Hold,54.269531,50.000000,Hold,-143447.000000,143360.000000,LowGoal,2145.000000,-2181.818182,Speed,2100.000000,-2181.818182,Speed,Off,Off,0.000000,FALSE,0,,,,,0.000000,0.000000
03:01:41.662 PM 04/09/2016,Teleop Enabled,9,FALSE,0,NO ERROR,-0.000000,10.061310,-0.000000,9.830310,FALSE,FALSE,TRUE,FALSE,FALSE,FALSE,Disabled,0.000000,0.833747,38.866253,TRUE,13.204788,-4.877792,0.000000,0.029221,0.000000,0.000000,-0.148000,0.021000,0.135000,3.060000,-0.480000,-6.690000,1.105230,Hold,54.269531,50.000000,Hold,-143447.000000,143360.000000,LowGoal,2137.500000,-2181.818182,Speed,2100.000000,-2181.818182,Speed,Off,Off,0.000000,FALSE,0,,,,,0.000000,0.000000
03:01:41.762 PM 04/09/2016,Teleop Enabled,10,FALSE,0,NO ERROR,-0.000000,10.061310,-0.000000,9.830310,FALSE,FALSE,TRUE,FALSE,FALSE,FALSE,Disabled,0.000000,0.833747,38.866253,TRUE,13.204910,-4.877716,0.000000,0.008133,-0.013153,0.000000,0.059000,-0.038000,0.029000,3.080000,-0.480000,-6.720000,1.122976,Hold,54.269287,50.000000,Hold,-143447.000000,143360.000000,LowGoal,2130.000000,-2181.818182,Speed,2092.500000,-2181.818182,Speed,Off,Off,0.000000,FALSE,0,,,,,0.000000,0.000000
03:01:41.862 PM 04/09/2016,Teleop Enabled,10,FALSE,0,NO ERROR,0.173228,10.061310,0.173228,9.830310,FALSE,FALSE,TRUE,FALSE,FALSE,FALSE,Disabled,0.000000,0.833747,38.866253,TRUE,13.207535,-4.879211,0.000000,0.047501,-0.023605,0.000000,-0.021000,-0.042000,0.032000,3.140000,-0.500000,-6.660000,1.141711,Hold,54.269287,50.000000,Hold,-143447.000000,143360.000000,LowGoal,2122.500000,-2181.818182,Speed,2092.500000,-2181.818182,Speed,Off,Off,0.000000,FALSE,0,,,,,0.000000,0.000000
03:01:41.962 PM 04/09/2016,Teleop Enabled,10,FALSE,0,NO ERROR,0.338583,9.689144,0.338583,9.984310,FALSE,FALSE,TRUE,FALSE,FALSE,FALSE,Disabled,0.000000,0.833747,38.866253,TRUE,13.209610,-4.882111,0.000000,0.056625,-0.080002,0.000000,0.052000,-0.054000,-0.069000,2.990000,-0.640000,-6.730000,1.011220,Hold,54.269287,50.000000,Hold,-143447.000000,143360.000000,LowGoal,2130.000000,-2181.818182,Speed,2100.000000,-2181.818182,Speed,Off,Off,0.000000,FALSE,0,,,,,0.000000,0.000000
03:01:42.062 PM 04/09/2016,Teleop Enabled,10,FALSE,0,NO ERROR,0.582677,9.644227,0.582677,10.048477,FALSE,FALSE,TRUE,FALSE,FALSE,FALSE,Disabled,0.000000,0.833747,38.866253,TRUE,13.213272,-4.887192,0.000000,0.078094,-0.118896,0.000000,0.058000,-0.055000,-0.050000,2.970000,-0.860000,-6.820000,0.976072,Hold,54.265625,50.000000,Hold,-143447.000000,143360.000000,LowGoal,2122.500000,-2181.818182,Speed,2092.500000,-2181.818182,Speed,Off,Off,0.000000,FALSE,0,,,,,0.000000,0.000000
03:01:42.162 PM 04/09/2016,Teleop Enabled,10,FALSE,0,NO ERROR,-0.000000,9.349061,-0.000000,10.452726,FALSE,FALSE,TRUE,FALSE,FALSE,FALSE,Disabled,0.000000,0.833747,38.866253,TRUE,13.216721,-4.892365,0.000000,0.072815,-0.133850,0.000000,-0.015000,0.167000,0.000000,2.890000,-1.930000,-6.930000,0.076941,Hold,54.265869,50.000000,Hold,-143447.000000,143360.000000,LowGoal,2115.000000,-2181.818182,Speed,2070.000000,-2181.818182,Speed,Off,Off,0.000000,FALSE,0,,,,,0.000000,0.000000
03:01:42.262 PM 04/09/2016,Teleop Enabled,10,FALSE,0,NO ERROR,-0.000000,9.278478,-0.000000,10.735058,FALSE,FALSE,TRUE,FALSE,FALSE,FALSE,Disabled,0.000000,0.833747,38.866253,TRUE,13.221603,-4.895706,0.000000,0.133957,0.000854,0.000000,0.198000,-0.054000,0.075000,3.190000,-3.260000,-6.170000,-1.448312,Hold,54.265869,50.000000,Hold,-143447.000000,143360.000000,LowGoal,2085.000000,-2181.818182,Speed,2010.000000,-2181.818182,Speed,Off,Off,0.000000,FALSE,0,,,,,0.000000,0.000000
03:01:42.362 PM 04/09/2016,Teleop Enabled,10,FALSE,0,NO ERROR,-0.000000,9.458145,-0.000000,10.401392,FALSE,FALSE,TRUE,FALSE,FALSE,FALSE,Disabled,0.000000,0.833747,38.866253,TRUE,13.231216,-4.897369,0.000000,0.183426,-0.066772,0.000000,0.099000,0.018000,0.036000,3.240000,-1.970000,-6.540000,-0.486155,Hold,54.262939,50.000000,Hold,-143447.000000,143360.000000,LowGoal,2085.000000,-2181.818182,Speed,2032.500000,-2181.818182,Speed,Off,Off,0.000000,FALSE,0,,,,,0.000000,0.000000
