Time,Robot Mode,Loop Time,Error Status,Error Code,Error Source,Left Motor Output,Left Motor Encoder,Right Motor Output,Right Motor Encoder,Is Level,Is Stalled,Ball Detector Photoeye,Vision Enabled,Vision Teleop Control,Vision Auto Control,Vision Current State,Vision X Output,Vision NavX Error,Vision NavX Target,NavX Connection Status,NavX Displacement X,NavX Displacement Y,NavX Displacement Z,NavX Velocity X,NavX Velocity Y,NavX Velocity Z,NavX Acceleration X,NavX Acceleration Y,NavX Acceleration Z,NavX Pitch,NavX Yaw,NavX Roll,Gyro Angle,Roller Arm State,Roller Arm Actual,Roller Arm Desired,Shooter Arm State,Shooter Arm Actual,Shooter Arm Desired,Shooter State,Actual RPM Left,Desired RPM Left,Control Mode Left,Actual RPM Right,Desired RPM Right,Control Mode Right,Ball Shooter Cylinder,Ball Halo Cylinder,Scaler Motor Output,Scaler Solenoid Fire,Auto To Run,Auto Current File,Auto File Status,Auto Current Command,Auto Trimmed Command,Shooter Amps Left,Shooter Amps Right
01:44:25.735 PM 04/09/2016,Autonomous Enabled,10,TRUE,7,Read from Text File in DoesScriptNumberContainNull.vi->Disabled.vi->Robot Main.vi<APPEND> /home/lvuser/scripts/auto_42.bee,0.000000,0.000000,-0.000000,0.000000,TRUE,FALSE,TRUE,TRUE,FALSE,FALSE,Disabled,0.000000,-0.072500,-7.817500,TRUE,2.946030,-29.932373,0.000000,0.009293,-0.005234,0.000000,-0.037000,0.048000,0.045000,2.580000,-0.420000,-0.110000,-0.094085,ResetBack,0.500488,-0.000049,ResetBack,-7904.000000,-0.250000,LowGoal,7.500000,-2181.818182,Speed,15.000000,-2181.818182,Speed,Off,Off,0.000000,FALSE,43,Read: /home/lvuser/scripts/auto_43.bee,File good!,WAIT 1500,WAIT,0.000000,0.000000
01:44:25.835 PM 04/09/2016,Autonomous Enabled,9,TRUE,7,Read from Text File in DoesScriptNumberContainNull.vi->Disabled.vi->Robot Main.vi<APPEND> /home/lvuser/scripts/auto_42.bee,0.000000,0.006417,-0.000000,0.000000,TRUE,FALSE,TRUE,TRUE,FALSE,FALSE,Disabled,0.000000,-0.072500,-7.817500,TRUE,2.946640,-29.932632,0.000000,0.025986,-0.013885,0.000000,-0.034000,-0.016000,0.048000,2.630000,-0.420000,-0.120000,-0.084177,ResetBack,0.027832,-0.000049,ResetBack,-7904.000000,-0.250000,LowGoal,412.500000,-2181.818182,Speed,412.500000,-2181.818182,Speed,Off,Off,0.000000,FALSE,43,Read: /home/lvuser/scripts/auto_43.bee,File good!,WAIT 1500,WAIT,0.000000,0.000000
01:44:25.937 PM 04/09/2016,Autonomous Enabled,5,TRUE,7,Read from Text File in DoesScriptNumberContainNull.vi->Disabled.vi->Robot Main.vi<APPEND> /home/lvuser/scripts/auto_42.bee,0.000000,0.006417,-0.000000,0.000000,TRUE,FALSE,TRUE,TRUE,FALSE,FALSE,Disabled,0.000000,-0.072500,-7.817500,TRUE,2.948212,-29.933304,0.000000,0.031555,0.000000,0.000000,0.023000,0.012000,0.066000,2.610000,-0.420000,-0.150000,-0.077423,ResetBack,0.027588,-0.000049,ResetBack,-5252.000000,-0.250000,LowGoal,1057.500000,-2181.818182,Speed,990.000000,-2181.818182,Speed,Off,Off,0.000000,FALSE,43,Read: /home/lvuser/scripts/auto_43.bee,File good!,WAIT 1500,WAIT,0.000000,0.000000
01:44:26.037 PM 04/09/2016,Autonomous Enabled,9,TRUE,7,Read from Text File in DoesScriptNumberContainNull.vi->Disabled.vi->Robot Main.vi<APPEND> /home/lvuser/scripts/auto_42.bee,0.000000,0.006417,-0.000000,0.000000,TRUE,FALSE,TRUE,TRUE,FALSE,FALSE,Disabled,0.000000,-0.072500,-7.817500,TRUE,2.950516,-29.933899,0.000000,0.049713,-0.027985,0.000000,-0.091000,-0.009000,-0.009000,2.630000,-0.420000,-0.110000,-0.063267,Reset,0.027344,0.000000,ResetBack,-3816.000000,-0.250000,LowGoal,1597.500000,-2181.818182,Speed,1372.500000,-2181.818182,Speed,Off,Off,0.000000,FALSE,43,Read: /home/lvuser/scripts/auto_43.bee,File good!,WAIT 1500,WAIT,0.000000,0.000000
01:44:26.137 PM 04/09/2016,Autonomous Enabled,10,TRUE,7,Read from Text File in DoesScriptNumberContainNull.vi->Disabled.vi->Robot Main.vi<APPEND> /home/lvuser/scripts/auto_42.bee,0.000000,0.006417,-0.000000,0.000000,TRUE,FALSE,TRUE,TRUE,FALSE,FALSE,Disabled,0.000000,-0.072500,-7.817500,TRUE,2.952133,-29.934372,0.000000,0.034271,-0.013916,0.000000,-0.019000,-0.045000,0.064000,2.620000,-0.420000,-0.140000,-0.068156,Hold,1.057861,0.000000,ResetBack,-2704.000000,-0.250000,LowGoal,1965.000000,-2181.818182,Speed,1785.000000,-2181.818182,Speed,Off,Off,0.000000,FALSE,43,Read: /home/lvuser/scripts/auto_43.bee,File good!,WAIT 1500,WAIT,0.000000,0.000000
01:44:26.238 PM 04/09/2016,Autonomous Enabled,11,TRUE,7,Read from Text File in DoesScriptNumberContainNull.vi->Disabled.vi->Robot Main.vi<APPEND> /home/lvuser/scripts/auto_42.bee,0.000000,0.006417,-0.000000,0.000000,TRUE,FALSE,TRUE,TRUE,FALSE,FALSE,Disabled,0.000000,-0.072500,-7.817500,TRUE,2.954254,-29.937088,0.000000,0.052902,-0.085419,0.000000,0.148000,-0.119000,0.090000,2.660000,-0.420000,-0.260000,-0.065051,Hold,0.925781,0.000000,ResetBack,-1940.000000,-0.250000,LowGoal,2212.500000,-2181.818182,Speed,2100.000000,-2181.818182,Speed,Off,Off,0.000000,FALSE,43,Read: /home/lvuser/scripts/auto_43.bee,File good!,WAIT 1500,WAIT,0.000000,0.000000
01:44:26.339 PM 04/09/2016,Autonomous Enabled,10,TRUE,7,Read from Text File in DoesScriptNumberContainNull.vi->Disabled.vi->Robot Main.vi<APPEND> /home/lvuser/scripts/auto_42.bee,0.000000,0.006417,-0.000000,0.000000,TRUE,FALSE,TRUE,TRUE,FALSE,FALSE,Disabled,0.000000,-0.072500,-7.817500,TRUE,2.961411,-29.944763,0.000000,0.194931,-0.197571,0.000000,0.149000,-0.073000,0.198000,2.650000,-0.420000,-0.120000,-0.063491,Hold,0.925781,0.000000,ResetBack,-1631.000000,-0.250000,LowGoal,2197.500000,-2181.818182,Speed,2152.500000,-2181.818182,Speed,Off,Off,0.000000,FALSE,43,Read: /home/lvuser/scripts/auto_43.bee,File good!,WAIT 1500,WAIT,0.000000,0.000000
01:44:26.440 PM 04/09/2016,Autonomous Enabled,10,TRUE,7,Read from Text File in DoesScriptNumberContainNull.vi->Disabled.vi->Robot Main.vi<APPEND> /home/lvuser/scripts/auto_42.bee,0.000000,0.006417,-0.000000,0.000000,TRUE,FALSE,TRUE,TRUE,FALSE,FALSE,Disabled,0.000000,-0.072500,-7.817500,TRUE,2.977020,-29.948776,0.000000,0.275528,0.025253,0.000000,-0.126000,0.087000,0.054000,2.600000,-0.420000,-0.040000,-0.053329,Hold,0.925781,0.000000,ResetBack,-1609.000000,-0.250000,LowGoal,2130.000000,-2181.818182,Speed,2100.000000,-2181.818182,Speed,Off,Off,0.000000,FALSE,43,Read: /home/lvuser/scripts/auto_43.bee,File good!,WAIT 1500,WAIT,0.000000,0.000000
01:44:26.542 PM 04/09/2016,Autonomous Enabled,10,TRUE,7,Read from Text File in DoesScriptNumberContainNull.vi->Disabled.vi->Robot Main.vi<APPEND> /home/lvuser/scripts/auto_42.bee,0.000000,0.006417,-0.000000,0.000000,TRUE,FALSE,TRUE,TRUE,FALSE,FALSE,Disabled,0.000000,-0.072500,-7.817500,TRUE,2.989151,-29.944290,0.000000,0.246628,0.142731,0.000000,0.041000,0.117000,-0.014000,2.620000,-0.420000,-0.160000,-0.051088,Hold,0.925781,0.000000,ResetBack,-1609.000000,-0.250000,LowGoal,2130.000000,-2181.818182,Speed,2062.500000,-2181.818182,Speed,Off,Off,0.000000,FALSE,43,Read: /home/lvuser/scripts/auto_43.bee,File good!,WAIT 1500,WAIT,0.000000,0.000000
01:44:26.643 PM 04/09/2016,Autonomous Enabled,10,TRUE,7,Read from Text File in DoesScriptNumberContainNull.vi->Disabled.vi->Robot Main.vi<APPEND> /home/lvuser/scripts/auto_42.bee,0.000000,0.006417,-0.000000,0.000000,TRUE,FALSE,TRUE,TRUE,FALSE,FALSE,Disabled,0.000000,-0.072500,-7.817500,TRUE,2.992371,-29.935074,0.000000,0.047852,0.181442,0.000000,0.186000,-0.130000,-0.030000,2.640000,-0.420000,-0.060000,-0.046860,Hold,0.925781,0.000000,ResetBack,-1600.000000,-0.250000,LowGoal,2152.500000,-2181.818182,Speed,2077.500000,-2181.818182,Speed,Off,Off,0.000000,FALSE,43,Read: /home/lvuser/scripts/auto_43.bee,File good!,WAIT 1500,WAIT,0.000000,0.000000
01:44:26.743 PM 04/09/2016,Autonomous Enabled,10,TRUE,7,Read from Text File in DoesScriptNumberContainNull.vi->Disabled.vi->Robot Main.vi<APPEND> /home/lvuser/scripts/auto_42.bee,0.000000,0.006417,-0.000000,0.000000,TRUE,FALSE,TRUE,TRUE,FALSE,FALSE,Disabled,0.000000,-0.072500,-7.817500,TRUE,2.998428,-29.930893,0.000000,0.126328,0.002945,0.000000,-0.055000,-0.165000,-0.068000,2.630000,-0.430000,0.000000,-0.052747,Hold,0.925781,0.000000,ResetBack,-1452.000000,-0.250000,LowGoal,2160.000000,-2181.818182,Speed,2092.500000,-2181.818182,Speed,Off,Off,0.000000,FALSE,43,Read: /home/lvuser/scripts/auto_43.bee,File good!,WAIT 1500,WAIT,0.000000,0.000000
01:44:26.843 PM 04/09/2016,Autonomous Enabled,10,TRUE,7,Read from Text File in DoesScriptNumberContainNull.vi->Disabled.vi->Robot Main.vi<APPEND> /home/lvuser/scripts/auto_42.bee,0.000000,0.006417,-0.000000,0.000000,TRUE,FALSE,TRUE,TRUE,FALSE,FALSE,Disabled,0.000000,-0.072500,-7.817500,TRUE,3.004135,-29.933243,0.000000,0.123138,-0.056763,0.000000,-0.111000,0.080000,-0.103000,2.640000,-0.420000,-0.080000,-0.045390,Hold,0.925781,0.000000,ResetBack,-1201.000000,-0.250000,LowGoal,2152.500000,-2181.818182,Speed,2092.500000,-2181.818182,Speed,Off,Off,0.000000,FALSE,43,Read: /home/lvuser/scripts/auto_43.bee,File good!,WAIT 1500,WAIT,0.000000,0.000000
01:44:26.944 PM 04/09/2016,Autonomous Enabled,5,TRUE,7,Read from Text File in DoesScriptNumberContainNull.vi->Disabled.vi->Robot Main.vi<APPEND> /home/lvuser/scripts/auto_42.bee,0.000000,0.006417,-0.000000,0.000000,TRUE,FALSE,TRUE,TRUE,FALSE,FALSE,Disabled,0.000000,-0.072500,-7.817500,TRUE,3.008621,-29.931183,0.000000,0.062241,0.132339,0.000000,0.018000,0.230000,-0.143000,2.620000,-0.420000,-0.080000,-0.032102,Hold,0.925781,0.000000,Reset,-1190.000000,2.000000,LowGoal,2145.000000,-2181.818182,Speed,2085.000000,-2181.818182,Speed,Off,Off,0.000000,FALSE,43,Read: /home/lvuser/scripts/auto_43.bee,File good!,WAIT 1500,WAIT,0.000000,0.000000
01:44:27.044 PM 04/09/2016,Autonomous Enabled,6,TRUE,7,Read from Text File in DoesScriptNumberContainNull.vi->Disabled.vi->Robot Main.vi<APPEND> /home/lvuser/scripts/auto_42.bee,0.000000,0.006417,-0.000000,0.000000,TRUE,FALSE,TRUE,TRUE,FALSE,FALSE,Disabled,0.000000,-0.072500,-7.817500,TRUE,3.011276,-29.922043,0.000000,0.055786,0.276672,0.000000,-0.096000,0.148000,-0.144000,2.570000,-0.420000,-0.040000,-0.028287,Hold,0.925781,0.000000,Hold,-89.000000,2.000000,LowGoal,2137.500000,-2181.818182,Speed,2092.500000,-2181.818182,Speed,Off,Off,0.000000,FALSE,43,Read: /home/lvuser/scripts/auto_43.bee,File good!,WAIT 1500,WAIT,0.000000,0.000000
01:44:27.145 PM 04/09/2016,Autonomous Enabled,10,TRUE,7,Read from Text File in DoesScriptNumberContainNull.vi->Disabled.vi->Robot Main.vi<APPEND> /home/lvuser/scripts/auto_42.bee,0.000000,0.006417,-0.000000,0.000000,TRUE,FALSE,TRUE,TRUE,FALSE,FALSE,Disabled,0.000000,-0.072500,-7.817500,TRUE,3.011749,-29.905533,0.000000,-0.012634,0.334335,0.000000,0.009000,-0.038000,0.017000,2.620000,-0.410000,-0.190000,-0.029589,Hold,0.925781,0.000000,Hold,-89.000000,2.000000,LowGoal,2137.500000,-2181.818182,Speed,2100.000000,-2181.818182,Speed,Off,Off,0.000000,FALSE,43,Read: /home/lvuser/scripts/auto_43.bee,File good!,WAIT 1500,WAIT,0.000000,0.000000
01:44:27.244 PM 04/09/2016,Autonomous Enabled,10,TRUE,7,Read from Text File in DoesScriptNumberContainNull.vi->Disabled.vi->Robot Main.vi<APPEND> /home/lvuser/scripts/auto_42.bee,0.000000,0.006417,-0.000000,0.000000,TRUE,FALSE,TRUE,TRUE,FALSE,FALSE,Disabled,0.000000,-0.072500,-7.817500,TRUE,3.012131,-29.890976,0.000000,0.003662,0.244141,0.000000,-0.022000,-0.139000,0.058000,2.650000,-0.420000,-0.100000,-0.017622,Hold,0.925781,0.000000,Hold,-89.000000,2.000000,LowGoal,2145.000000,-2181.818182,Speed,2100.000000,-2181.818182,Speed,Off,Off,0.000000,FALSE,43,Read: /home/lvuser/scripts/auto_43.bee,File good!,WAIT 1500,WAIT,0.000000,0.000000
01:44:27.345 PM 04/09/2016,Autonomous Enabled,9,TRUE,7,Read from Text File in DoesScriptNumberContainNull.vi->Disabled.vi->Robot Main.vi<APPEND> /home/lvuser/scripts/auto_42.bee,-0.562500,0.006417,0.562500,0.000000,TRUE,FALSE,TRUE,TRUE,FALSE,FALSE,Disabled,0.000000,-0.072500,-7.817500,TRUE,3.012268,-29.880737,0.000000,0.022903,0.135529,0.000000,-0.007000,-0.031000,0.147000,2.570000,0.000000,-0.080000,-0.001122,Hold,0.925781,0.000000,Hold,-89.000000,2.000000,LowGoal,2152.500000,2400.000000,Speed,2100.000000,2400.000000,Speed,Off,Off,0.000000,FALSE,43,Read: /home/lvuser/scripts/auto_43.bee,File good!,DRIVE_STRAIGHT_NAVX_RAMPARTS 200 5000 10,DRIVE_STRAIGHT_NAVX_RAMPARTS,0.000000,0.000000
01:44:27.445 PM 04/09/2016,Autonomous Enabled,10,FALSE,0,NO ERROR,-0.562500,-0.596749,0.562500,-0.686582,TRUE,FALSE,TRUE,TRUE,FALSE,FALSE,Disabled,0.000000,-0.072500,-7.817500,TRUE,3.012619,-29.871826,0.000000,0.023544,0.225662,0.000000,0.520000,0.146000,0.106000,2.540000,0.000000,-0.130000,-0.019447,Hold,0.925781,0.000000,Hold,-90.000000,2.000000,LowGoal,2092.500000,2400.000000,Speed,2010.000000,2400.000000,Speed,Off,Off,0.000000,FALSE,43,Read: /home/lvuser/scripts/auto_43.bee,File good!,DRIVE_STRAIGHT_NAVX_RAMPARTS 200 5000 10,DRIVE_STRAIGHT_NAVX_RAMPARTS,0.000000,0.000000
01:44:27.545 PM 04/09/2016,Autonomous Enabled,10,FALSE,0,NO ERROR,-0.562500,-2.143162,0.562500,-2.232995,FALSE,FALSE,TRUE,TRUE,FALSE,FALSE,Disabled,0.000000,-0.072500,-7.817500,TRUE,3.028534,-29.857498,0.000000,0.447037,0.307281,0.000000,0.297000,-0.081000,-0.628000,2.260000,-0.200000,3.530000,-0.118903,Hold,0.925781,0.000000,Hold,-95.000000,2.000000,LowGoal,1267.500000,2400.000000,Speed,1140.000000,2400.000000,Speed,Off,Off,0.000000,FALSE,43,Read: /home/lvuser/scripts/auto_43.bee,File good!,DRIVE_STRAIGHT_NAVX_RAMPARTS 200 5000 10,DRIVE_STRAIGHT_NAVX_RAMPARTS,0.000000,0.000000
01:44:27.646 PM 04/09/2016,Autonomous Enabled,11,FALSE,0,NO ERROR,-0.562500,-4.324823,0.562500,-4.356906,TRUE,FALSE,TRUE,TRUE,FALSE,FALSE,Disabled,0.000000,-0.072500,-7.817500,TRUE,3.057480,-29.842407,0.000000,0.635468,0.313110,0.000000,0.182000,0.017000,0.043000,2.590000,-0.280000,2.090000,-0.178748,Hold,0.925781,0.000000,Hold,-95.000000,2.000000,LowGoal,225.000000,2400.000000,Speed,105.000000,2400.000000,Speed,Off,Off,0.000000,FALSE,43,Read: /home/lvuser/scripts/auto_43.bee,File good!,DRIVE_STRAIGHT_NAVX_RAMPARTS 200 5000 10,DRIVE_STRAIGHT_NAVX_RAMPARTS,0.000000,0.000000
01:44:27.747 PM 04/09/2016,Autonomous Enabled,8,FALSE,0,NO ERROR,-0.562500,-7.218733,0.562500,-7.353483,TRUE,FALSE,TRUE,TRUE,FALSE,FALSE,Disabled,0.000000,-0.072500,-7.817500,TRUE,3.078018,-29.826813,0.000000,0.000000,0.305847,0.000000,0.035000,0.061000,0.102000,2.500000,-0.210000,2.950000,-0.105886,Hold,0.925781,0.000000,Hold,-95.000000,2.000000,LowGoal,-570.000000,2400.000000,Speed,-645.000000,2400.000000,Speed,Off,Off,0.000000,FALSE,43,Read: /home/lvuser/scripts/auto_43.bee,File good!,DRIVE_STRAIGHT_NAVX_RAMPARTS 200 5000 10,DRIVE_STRAIGHT_NAVX_RAMPARTS,0.000000,0.000000
01:44:27.847 PM 04/09/2016,Autonomous Enabled,11,FALSE,0,NO ERROR,-0.562500,-10.433476,0.546624,-10.548975,TRUE,FALSE,TRUE,TRUE,FALSE,FALSE,Disabled,0.000000,-0.072500,-7.817500,TRUE,3.077637,-29.808701,0.000000,-0.028397,0.306427,0.000000,-0.025000,0.030000,-0.173000,2.480000,-0.370000,2.920000,-0.237378,Hold,0.925781,0.000000,Hold,-95.000000,2.000000,LowGoal,-1200.000000,2400.000000,Speed,-1215.000000,2400.000000,Speed,Off,Off,0.000000,FALSE,43,Read: /home/lvuser/scripts/auto_43.bee,File good!,DRIVE_STRAIGHT_NAVX_RAMPARTS 200 5000 10,DRIVE_STRAIGHT_NAVX_RAMPARTS,0.000000,0.000000
01:44:27.949 PM 04/09/2016,Autonomous Enabled,11,FALSE,0,NO ERROR,-0.562500,-14.007551,0.542786,-14.052467,TRUE,FALSE,TRUE,TRUE,FALSE,FALSE,Disabled,0.000000,-0.072500,-7.817500,TRUE,3.077377,-29.792603,0.000000,0.017700,0.313904,0.000000,0.056000,-0.019000,-0.071000,2.610000,-0.510000,2.300000,-0.388179,Hold,0.925781,0.000000,Hold,-95.000000,2.000000,LowGoal,-1732.500000,2400.000000,Speed,-1680.000000,2400.000000,Speed,Off,Off,0.000000,FALSE,43,Read: /home/lvuser/scripts/auto_43.bee,File good!,DRIVE_STRAIGHT_NAVX_RAMPARTS 200 5000 10,DRIVE_STRAIGHT_NAVX_RAMPARTS,0.000000,0.000000
01:44:28.051 PM 04/09/2016,Autonomous Enabled,9,FALSE,0,NO ERROR,-0.562500,-17.600876,0.544319,-17.754875,TRUE,FALSE,TRUE,TRUE,FALSE,FALSE,Disabled,0.000000,-0.072500,-7.817500,TRUE,3.077652,-29.777161,0.000000,-0.025513,0.328430,0.000000,-0.207000,0.174000,-0.117000,2.610000,-0.510000,2.300000,-0.366412,Hold,0.925781,0.000000,Hold,-96.000000,2.000000,LowGoal,-2175.000000,2400.000000,Speed,-2070.000000,2400.000000,Speed,Off,Off,0.000000,FALSE,43,Read: /home/lvuser/scripts/auto_43.bee,File good!,DRIVE_STRAIGHT_NAVX_RAMPARTS 200 5000 10,DRIVE_STRAIGHT_NAVX_RAMPARTS,0.000000,0.000000
01:44:28.152 PM 04/09/2016,Autonomous Enabled,9,FALSE,0,NO ERROR,-0.562500,-21.213450,0.547393,-21.470116,TRUE,FALSE,TRUE,TRUE,FALSE,FALSE,Disabled,0.000000,-0.072500,-7.817500,TRUE,3.073654,-29.755936,0.000000,-0.072693,0.479233,0.000000,0.220000,0.010000,0.081000,2.610000,-0.430000,2.400000,-0.305018,Hold,0.925781,0.000000,Hold,-96.000000,2.000000,LowGoal,-2430.000000,2400.000000,Speed,-2310.000000,2400.000000,Speed,Off,Off,0.000000,FALSE,43,Read: /home/lvuser/scripts/auto_43.bee,File good!,DRIVE_STRAIGHT_NAVX_RAMPARTS 200 5000 10,DRIVE_STRAIGHT_NAVX_RAMPARTS,0.000000,0.000000
01:44:28.252 PM 04/09/2016,Autonomous Enabled,11,FALSE,0,NO ERROR,-0.562500,-25.005692,0.551633,-25.435607,TRUE,FALSE,TRUE,TRUE,FALSE,FALSE,Disabled,0.000000,-0.072500,-7.817500,TRUE,3.071442,-29.728821,0.000000,-0.046555,0.593719,0.000000,0.200000,-0.055000,0.031000,2.600000,-0.230000,2.650000,-0.126335,Hold,0.925781,0.000000,Hold,-96.000000,2.000000,LowGoal,-2452.500000,2400.000000,Speed,-2400.000000,2400.000000,Speed,Off,Off,0.000000,FALSE,43,Read: /home/lvuser/scripts/auto_43.bee,File good!,DRIVE_STRAIGHT_NAVX_RAMPARTS 200 5000 10,DRIVE_STRAIGHT_NAVX_RAMPARTS,0.000000,0.000000
01:44:28.353 PM 04/09/2016,Autonomous Enabled,10,FALSE,0,NO ERROR,-0.562500,-28.958349,0.560941,-29.535848,TRUE,FALSE,TRUE,TRUE,FALSE,FALSE,Disabled,0.000000,-0.072500,-7.817500,TRUE,3.069702,-29.694809,0.000000,-0.034470,0.594589,0.000000,-0.093000,0.283000,0.041000,2.630000,-0.010000,2.580000,0.065553,Hold,0.925781,0.000000,Hold,-96.000000,2.000000,LowGoal,-2385.000000,2400.000000,Speed,-2347.500000,2400.000000,Speed,Off,Off,0.000000,FALSE,43,Read: /home/lvuser/scripts/auto_43.bee,File good!,DRIVE_STRAIGHT_NAVX_RAMPARTS 200 5000 10,DRIVE_STRAIGHT_NAVX_RAMPARTS,0.000000,0.000000
01:44:28.453 PM 04/09/2016,Autonomous Enabled,10,FALSE,0,NO ERROR,-0.562500,-33.174089,0.570720,-33.892754,TRUE,FALSE,TRUE,TRUE,FALSE,FALSE,Disabled,0.000000,-0.072500,-7.817500,TRUE,3.066254,-29.665085,0.000000,-0.091873,0.799240,0.000000,0.051000,-0.080000,-0.246000,2.630000,0.130000,2.480000,0.315300,Hold,0.925781,0.000000,Hold,-97.000000,2.000000,LowGoal,-2340.000000,2400.000000,Speed,-2347.500000,2400.000000,Speed,Off,Off,0.000000,FALSE,43,Read: /home/lvuser/scripts/auto_43.bee,File good!,DRIVE_STRAIGHT_NAVX_RAMPARTS 200 5000 10,DRIVE_STRAIGHT_NAVX_RAMPARTS,0.000000,0.000000
01:44:28.553 PM 04/09/2016,Autonomous Enabled,10,FALSE,0,NO ERROR,-0.562500,-37.332079,0.568365,-38.050744,TRUE,FALSE,TRUE,TRUE,FALSE,FALSE,Disabled,0.000000,-0.072500,-7.817500,TRUE,3.062393,-29.629105,0.000000,-0.063141,0.612946,0.000000,-0.002000,-0.239000,0.117000,2.490000,0.130000,2.450000,0.266495,Hold,0.925781,0.000000,Hold,-97.000000,2.000000,LowGoal,-2340.000000,2400.000000,Speed,-2317.500000,2400.000000,Speed,Off,Off,0.000000,FALSE,43,Read: /home/lvuser/scripts/auto_43.bee,File good!,DRIVE_STRAIGHT_NAVX_RAMPARTS 200 5000 10,DRIVE_STRAIGHT_NAVX_RAMPARTS,0.000000,0.000000
01:44:28.654 PM 04/09/2016,Autonomous Enabled,11,FALSE,0,NO ERROR,-0.562500,-41.676153,0.560552,-42.349901,FALSE,FALSE,TRUE,TRUE,FALSE,FALSE,Disabled,0.000000,-0.072500,-7.817500,TRUE,3.055954,-29.597992,0.000000,-0.203140,0.579956,0.000000,-0.228000,0.370000,0.185000,2.440000,-0.070000,4.870000,0.054200,Hold,0.925781,0.000000,Hold,-97.000000,2.000000,LowGoal,-2355.000000,2400.000000,Speed,-2325.000000,2400.000000,Speed,Off,Off,0.000000,FALSE,43,Read: /home/lvuser/scripts/auto_43.bee,File good!,DRIVE_STRAIGHT_NAVX_RAMPARTS 200 5000 10,DRIVE_STRAIGHT_NAVX_RAMPARTS,0.000000,0.000000
01:44:28.754 PM 04/09/2016,Autonomous Enabled,11,FALSE,0,NO ERROR,-0.562500,-45.757143,0.550861,-46.353892,FALSE,FALSE,TRUE,TRUE,FALSE,FALSE,Disabled,0.000000,-0.072500,-7.817500,TRUE,3.039062,-29.564041,0.000000,-0.341827,0.623901,0.000000,-0.018000,-0.423000,0.243000,2.480000,-0.340000,6.240000,-0.218472,Hold,0.925781,0.000000,Hold,-99.000000,2.000000,LowGoal,-2392.500000,2400.000000,Speed,-2340.000000,2400.000000,Speed,Off,Off,0.000000,FALSE,43,Read: /home/lvuser/scripts/auto_43.bee,File good!,DRIVE_STRAIGHT_NAVX_RAMPARTS 200 5000 10,DRIVE_STRAIGHT_NAVX_RAMPARTS,0.000000,0.000000
01:44:28.855 PM 04/09/2016,Autonomous Enabled,11,FALSE,0,NO ERROR,-0.562500,-49.761134,0.543936,-50.332216,FALSE,FALSE,TRUE,TRUE,FALSE,FALSE,Disabled,0.000000,-0.072500,-7.817500,TRUE,3.022705,-29.542145,0.000000,-0.321106,0.415726,0.000000,-0.234000,0.368000,0.166000,2.370000,-0.480000,8.870000,-0.368051,Hold,0.925781,0.000000,Hold,-99.000000,2.000000,LowGoal,-2400.000000,2400.000000,Speed,-2340.000000,2400.000000,Speed,Off,Off,0.000000,FALSE,43,Read: /home/lvuser/scripts/auto_43.bee,File good!,DRIVE_STRAIGHT_NAVX_RAMPARTS 200 5000 10,DRIVE_STRAIGHT_NAVX_RAMPARTS,0.000000,0.000000
01:44:28.956 PM 04/09/2016,Autonomous Enabled,9,FALSE,0,NO ERROR,-0.562500,-53.444292,0.541637,-54.079540,FALSE,FALSE,TRUE,TRUE,FALSE,FALSE,Disabled,0.000000,-0.072500,-7.817500,TRUE,3.002930,-29.513641,0.000000,-0.402939,0.621933,0.000000,0.034000,-0.107000,-0.359000,2.100000,-0.540000,10.470000,-0.451567,Hold,0.925781,0.000000,Hold,-100.000000,2.000000,LowGoal,-2385.000000,2400.000000,Speed,-2332.500000,2400.000000,Speed,Off,Off,0.000000,FALSE,43,Read: /home/lvuser/scripts/auto_43.bee,File good!,DRIVE_STRAIGHT_NAVX_RAMPARTS 200 5000 10,DRIVE_STRAIGHT_NAVX_RAMPARTS,0.000000,0.000000
01:44:29.057 PM 04/09/2016,Autonomous Enabled,10,FALSE,0,NO ERROR,-0.562500,-56.896450,0.533250,-57.441866,FALSE,FALSE,TRUE,TRUE,FALSE,FALSE,Disabled,0.000000,-0.072500,-7.817500,TRUE,2.979095,-29.479965,0.000000,-0.446030,0.539764,0.000000,-0.521000,0.355000,-0.103000,2.100000,-0.540000,10.470000,-0.606131,Hold,0.925781,0.000000,Hold,-100.000000,2.000000,LowGoal,-2377.500000,2400.000000,Speed,-2325.000000,2400.000000,Speed,Off,Off,0.000000,FALSE,43,Read: /home/lvuser/scripts/auto_43.bee,File good!,DRIVE_STRAIGHT_NAVX_RAMPARTS 200 5000 10,DRIVE_STRAIGHT_NAVX_RAMPARTS,0.000000,0.000000
01:44:29.158 PM 04/09/2016,Autonomous Enabled,9,FALSE,0,NO ERROR,-0.562500,-60.534692,0.569934,-61.394523,FALSE,FALSE,TRUE,TRUE,FALSE,FALSE,Disabled,0.000000,-0.072500,-7.817500,TRUE,2.957382,-29.454361,0.000000,-0.501022,0.633987,0.000000,0.090000,-0.125000,-0.581000,2.550000,0.430000,13.870000,0.307327,Hold,0.927734,0.000000,Hold,-102.000000,2.000000,LowGoal,-2377.500000,2400.000000,Speed,-2325.000000,2400.000000,Speed,Off,Off,0.000000,FALSE,43,Read: /home/lvuser/scripts/auto_43.bee,File good!,DRIVE_STRAIGHT_NAVX_RAMPARTS 200 5000 10,DRIVE_STRAIGHT_NAVX_RAMPARTS,0.000000,0.000000
01:44:29.258 PM 04/09/2016,Autonomous Enabled,9,FALSE,0,NO ERROR,-0.562500,-63.717351,0.588136,-64.577182,FALSE,FALSE,TRUE,TRUE,FALSE,FALSE,Disabled,0.000000,-0.072500,-7.817500,TRUE,2.924316,-29.422089,0.000000,-0.690155,0.602798,0.000000,-0.078000,0.235000,-0.307000,2.550000,0.430000,13.870000,0.759473,Hold,0.927734,0.000000,Hold,-103.000000,2.000000,LowGoal,-2377.500000,2400.000000,Speed,-2325.000000,2400.000000,Speed,Off,Off,0.000000,FALSE,43,Read: /home/lvuser/scripts/auto_43.bee,File good!,DRIVE_STRAIGHT_NAVX_RAMPARTS 200 5000 10,DRIVE_STRAIGHT_NAVX_RAMPARTS,0.000000,0.000000
01:44:29.359 PM 04/09/2016,Autonomous Enabled,10,FALSE,0,NO ERROR,-0.562500,-66.720344,0.546239,-68.055008,FALSE,FALSE,TRUE,TRUE,FALSE,FALSE,Disabled,0.000000,-0.072500,-7.817500,TRUE,2.897980,-29.398087,0.000000,-0.638489,0.590851,0.000000,0.657000,0.015000,-0.120000,2.420000,-0.520000,14.600000,-0.337202,Hold,0.927734,0.000000,Hold,-103.000000,2.000000,LowGoal,-2362.500000,2400.000000,Speed,-2325.000000,2400.000000,Speed,Off,Off,0.000000,FALSE,43,Read: /home/lvuser/scripts/auto_43.bee,File good!,DRIVE_STRAIGHT_NAVX_RAMPARTS 200 5000 10,DRIVE_STRAIGHT_NAVX_RAMPARTS,0.000000,0.000000
01:44:29.459 PM 04/09/2016,Autonomous Enabled,9,FALSE,0,NO ERROR,-0.562500,-69.729754,0.555114,-71.173500,FALSE,FALSE,TRUE,TRUE,FALSE,FALSE,Disabled,0.000000,-0.072500,-7.817500,TRUE,2.867706,-29.365189,0.000000,-0.483658,0.376877,0.000000,-0.098000,-0.161000,-0.624000,2.420000,-0.520000,14.600000,0.175419,Hold,0.927979,0.000000,Hold,-103.000000,2.000000,LowGoal,-2370.000000,2400.000000,Speed,-2317.500000,2400.000000,Speed,Off,Off,0.000000,FALSE,43,Read: /home/lvuser/scripts/auto_43.bee,File good!,DRIVE_STRAIGHT_NAVX_RAMPARTS 200 5000 10,DRIVE_STRAIGHT_NAVX_RAMPARTS,0.000000,0.000000
01:44:29.560 PM 04/09/2016,Autonomous Enabled,9,FALSE,0,NO ERROR,-0.562500,-72.655747,0.595737,-74.317660,FALSE,FALSE,TRUE,TRUE,FALSE,FALSE,Disabled,0.000000,-0.072500,-7.817500,TRUE,2.838501,-29.341125,0.000000,-0.590576,0.580170,0.000000,0.113000,-0.120000,-0.761000,1.640000,0.260000,11.880000,0.864588,Hold,0.927979,0.000000,Hold,-104.000000,2.000000,LowGoal,-2362.500000,2400.000000,Speed,-2310.000000,2400.000000,Speed,Off,Off,0.000000,FALSE,43,Read: /home/lvuser/scripts/auto_43.bee,File good!,DRIVE_STRAIGHT_NAVX_RAMPARTS 200 5000 10,DRIVE_STRAIGHT_NAVX_RAMPARTS,0.000000,0.000000
01:44:29.661 PM 04/09/2016,Autonomous Enabled,10,FALSE,0,NO ERROR,-0.562500,-76.396655,0.594534,-77.076820,FALSE,FALSE,TRUE,TRUE,FALSE,FALSE,Disabled,0.000000,-0.072500,-7.817500,TRUE,2.806244,-29.311264,0.000000,-0.735046,0.549606,0.000000,0.199000,-0.911000,-0.406000,0.750000,1.130000,9.220000,-0.300449,Hold,0.929443,0.000000,Hold,-109.000000,2.000000,LowGoal,-2362.500000,2400.000000,Speed,-2317.500000,2400.000000,Speed,Off,Off,0.000000,FALSE,43,Read: /home/lvuser/scripts/auto_43.bee,File good!,DRIVE_STRAIGHT_NAVX_RAMPARTS 200 5000 10,DRIVE_STRAIGHT_NAVX_RAMPARTS,0.000000,0.000000
01:44:29.762 PM 04/09/2016,Autonomous Enabled,10,FALSE,0,NO ERROR,-0.562500,-80.201729,0.456489,-79.989980,FALSE,FALSE,TRUE,TRUE,FALSE,FALSE,Disabled,0.000000,-0.072500,-7.817500,TRUE,2.771942,-29.300415,0.000000,-0.614899,0.192917,0.000000,0.199000,-0.911000,-0.406000,2.100000,-1.580000,8.900000,-2.798359,Hold,0.929688,0.000000,Hold,-110.000000,2.000000,LowGoal,-2370.000000,2400.000000,Speed,-2317.500000,2400.000000,Speed,Off,Off,0.000000,FALSE,43,Read: /home/lvuser/scripts/auto_43.bee,File good!,DRIVE_STRAIGHT_NAVX_RAMPARTS 200 5000 10,DRIVE_STRAIGHT_NAVX_RAMPARTS,0.000000,0.000000
01:44:29.862 PM 04/09/2016,Autonomous Enabled,10,FALSE,0,NO ERROR,-0.562500,-82.980139,0.436340,-83.288139,FALSE,FALSE,TRUE,TRUE,FALSE,FALSE,Disabled,0.000000,-0.072500,-7.817500,TRUE,2.742538,-29.280869,0.000000,-0.696701,0.506729,0.000000,0.160000,0.360000,-0.565000,1.450000,-3.090000,13.470000,-2.528215,Hold,0.929932,0.000000,Hold,-110.000000,2.000000,LowGoal,-2362.500000,2400.000000,Speed,-2317.500000,2400.000000,Speed,Off,Off,0.000000,FALSE,43,Read: /home/lvuser/scripts/auto_43.bee,File good!,DRIVE_STRAIGHT_NAVX_RAMPARTS 200 5000 10,DRIVE_STRAIGHT_NAVX_RAMPARTS,0.000000,0.000000
01:44:29.964 PM 04/09/2016,Autonomous Enabled,11,FALSE,0,NO ERROR,-0.562500,-85.643050,0.720020,-86.085799,FALSE,FALSE,TRUE,TRUE,FALSE,FALSE,Disabled,0.000000,-0.072500,-7.817500,TRUE,2.701111,-29.239380,0.000000,-0.616104,0.696823,0.000000,-1.036000,0.661000,0.315000,1.810000,-2.130000,17.060000,3.796532,Hold,0.995850,0.000000,Hold,-111.000000,2.000000,LowGoal,-2370.000000,2400.000000,Speed,-2325.000000,2400.000000,Speed,Off,Off,0.000000,FALSE,43,Read: /home/lvuser/scripts/auto_43.bee,File good!,DRIVE_STRAIGHT_NAVX_RAMPARTS 200 5000 10,DRIVE_STRAIGHT_NAVX_RAMPARTS,0.000000,0.000000
01:44:30.064 PM 04/09/2016,Autonomous Enabled,9,FALSE,0,NO ERROR,-0.562500,-88.228960,0.906837,-88.729459,FALSE,FALSE,TRUE,TRUE,FALSE,FALSE,Disabled,0.000000,-0.072500,-7.817500,TRUE,2.680923,-29.227295,0.000000,-0.409454,0.080307,0.000000,0.099000,-0.784000,-0.041000,2.630000,6.230000,8.370000,6.940400,Hold,0.929443,0.000000,Hold,-111.000000,2.000000,LowGoal,-2377.500000,2400.000000,Speed,-2310.000000,2400.000000,Speed,Off,Off,0.000000,FALSE,43,Read: /home/lvuser/scripts/auto_43.bee,File good!,DRIVE_STRAIGHT_NAVX_RAMPARTS 200 5000 10,DRIVE_STRAIGHT_NAVX_RAMPARTS,0.000000,0.000000
01:44:30.164 PM 04/09/2016,Autonomous Enabled,9,FALSE,0,NO ERROR,-0.562500,-93.189032,0.874449,-91.084370,TRUE,FALSE,TRUE,TRUE,FALSE,FALSE,Disabled,0.000000,-0.072500,-7.817500,TRUE,2.660110,-29.222000,0.000000,-0.335693,0.141266,0.000000,0.346000,0.047000,0.553000,-1.110000,7.890000,2.220000,5.909809,Hold,0.930420,0.000000,Hold,-111.000000,2.000000,LowGoal,-2347.500000,2400.000000,Speed,-2302.500000,2400.000000,Speed,Off,Off,0.000000,FALSE,43,Read: /home/lvuser/scripts/auto_43.bee,File good!,DRIVE_STRAIGHT_NAVX_RAMPARTS 200 5000 10,DRIVE_STRAIGHT_NAVX_RAMPARTS,0.000000,0.000000
01:44:30.264 PM 04/09/2016,Autonomous Enabled,7,FALSE,0,NO ERROR,-0.562500,-99.156518,0.802099,-94.645612,FALSE,FALSE,TRUE,TRUE,FALSE,FALSE,Disabled,0.000000,-0.072500,-7.817500,TRUE,2.659470,-29.217804,0.000000,0.102173,0.021194,0.000000,1.241000,0.128000,0.148000,-3.540000,6.190000,-10.610000,3.936366,Hold,0.931641,0.000000,Hold,-112.000000,2.000000,LowGoal,-2325.000000,2400.000000,Speed,-2280.000000,2400.000000,Speed,Off,Off,0.000000,FALSE,43,Read: /home/lvuser/scripts/auto_43.bee,File good!,DRIVE_STRAIGHT_NAVX_RAMPARTS 200 5000 10,DRIVE_STRAIGHT_NAVX_RAMPARTS,0.000000,0.000000
01:44:30.365 PM 04/09/2016,Autonomous Enabled,10,FALSE,0,NO ERROR,-0.562500,-104.828838,0.770744,-99.541517,FALSE,FALSE,TRUE,TRUE,FALSE,FALSE,Disabled,0.000000,-0.072500,-7.817500,TRUE,2.664658,-29.214569,0.000000,0.085876,0.179047,0.000000,0.202000,0.713000,1.027000,1.260000,4.970000,-11.110000,2.961777,Hold,0.932373,0.000000,Hold,-113.000000,2.000000,LowGoal,-2355.000000,2400.000000,Speed,-2287.500000,2400.000000,Speed,Off,Off,0.000000,FALSE,43,Read: /home/lvuser/scripts/auto_43.bee,File good!,DRIVE_STRAIGHT_NAVX_RAMPARTS 200 5000 10,DRIVE_STRAIGHT_NAVX_RAMPARTS,0.000000,0.000000
01:44:30.465 PM 04/09/2016,Autonomous Enabled,11,FALSE,0,NO ERROR,-0.562500,-110.674408,0.772114,-104.386089,FALSE,FALSE,TRUE,TRUE,FALSE,FALSE,Disabled,0.000000,-0.072500,-7.817500,TRUE,2.676483,-29.200928,0.000000,0.298386,0.212265,0.000000,0.202000,0.713000,1.027000,1.260000,4.970000,-11.110000,3.155266,Hold,0.974121,0.000000,Hold,-114.000000,2.000000,LowGoal,-2385.000000,2400.000000,Speed,-2332.500000,2400.000000,Speed,Off,Off,0.000000,FALSE,43,Read: /home/lvuser/scripts/auto_43.bee,File good!,DRIVE_STRAIGHT_NAVX_RAMPARTS 200 5000 10,DRIVE_STRAIGHT_NAVX_RAMPARTS,0.000000,0.000000
01:44:30.566 PM 04/09/2016,Autonomous Enabled,10,FALSE,0,NO ERROR,-0.562500,-116.853643,0.796985,-110.558908,FALSE,FALSE,TRUE,TRUE,FALSE,FALSE,Disabled,0.000000,-0.072500,-7.817500,TRUE,2.688873,-29.195099,0.000000,0.160004,-0.022079,0.000000,-0.233000,0.039000,-0.809000,1.760000,5.100000,-10.640000,3.677075,Hold,0.967773,0.000000,Hold,-115.000000,2.000000,LowGoal,-2400.000000,2400.000000,Speed,-2340.000000,2400.000000,Speed,Off,Off,0.000000,FALSE,43,Read: /home/lvuser/scripts/auto_43.bee,File good!,DRIVE_STRAIGHT_NAVX_RAMPARTS 200 5000 10,DRIVE_STRAIGHT_NAVX_RAMPARTS,0.000000,0.000000
01:44:30.667 PM 04/09/2016,Autonomous Enabled,7,FALSE,0,NO ERROR,-0.562500,-122.776213,0.788651,-115.762813,TRUE,FALSE,TRUE,TRUE,FALSE,FALSE,Disabled,0.000000,-0.072500,-7.817500,TRUE,2.691437,-29.180862,0.000000,0.027512,0.341324,0.000000,-0.079000,0.901000,1.038000,1.560000,5.960000,-2.360000,2.397749,Hold,0.949707,0.000000,Hold,-115.000000,2.000000,LowGoal,-2400.000000,2400.000000,Speed,-2340.000000,2400.000000,Speed,Off,Off,0.000000,FALSE,43,Read: /home/lvuser/scripts/auto_43.bee,File good!,DRIVE_STRAIGHT_NAVX_RAMPARTS 200 5000 10,DRIVE_STRAIGHT_NAVX_RAMPARTS,0.000000,0.000000
01:44:30.766 PM 04/09/2016,Autonomous Enabled,11,FALSE,0,NO ERROR,-0.562500,-3.131326,0.562500,-3.086409,TRUE,FALSE,TRUE,TRUE,FALSE,FALSE,Disabled,0.000000,-0.072500,-7.817500,TRUE,2.691437,-29.180862,0.000000,0.027512,0.341324,0.000000,0.071000,-0.064000,-1.047000,2.360000,4.410000,-1.910000,0.809442,Hold,1.230469,0.000000,Hold,-115.000000,2.000000,LowGoal,-2362.500000,2400.000000,Speed,-2332.500000,2400.000000,Speed,Off,Off,0.000000,FALSE,43,Read: /home/lvuser/scripts/auto_43.bee,File good!,DRIVE_STRAIGHT_TARGET 12 0 10000 75,DRIVE_STRAIGHT_TARGET,0.000000,0.000000
01:44:30.866 PM 04/09/2016,Autonomous Enabled,10,FALSE,0,NO ERROR,-0.562500,-7.898898,0.562500,-7.520316,TRUE,FALSE,TRUE,TRUE,FALSE,FALSE,Disabled,0.000000,-0.072500,-7.817500,TRUE,2.684418,-29.150665,0.000000,-0.277924,0.331146,0.000000,-0.882000,-0.232000,-0.532000,2.580000,2.830000,1.930000,-0.034663,Hold,0.973633,0.000000,Hold,-115.000000,2.000000,LowGoal,-2355.000000,2400.000000,Speed,-2332.500000,2400.000000,Speed,Off,Off,0.000000,FALSE,43,Read: /home/lvuser/scripts/auto_43.bee,File good!,DRIVE_STRAIGHT_TARGET 12 0 10000 75,DRIVE_STRAIGHT_TARGET,0.000000,0.000000
01:44:30.967 PM 04/09/2016,Autonomous Enabled,11,FALSE,0,NO ERROR,-0.562500,-12.210888,0.562500,-11.967055,TRUE,FALSE,TRUE,TRUE,FALSE,FALSE,Disabled,0.000000,-0.072500,-7.817500,TRUE,2.684418,-29.150665,0.000000,-0.277924,0.331146,0.000000,0.005000,0.231000,0.290000,2.910000,2.110000,1.360000,0.056561,Hold,0.945068,0.000000,Hold,-116.000000,2.000000,LowGoal,-2377.500000,2400.000000,Speed,-2340.000000,2400.000000,Speed,Off,Off,0.000000,FALSE,43,Read: /home/lvuser/scripts/auto_43.bee,File good!,DRIVE_STRAIGHT_TARGET 12 0 10000 75,DRIVE_STRAIGHT_TARGET,0.000000,0.000000
01:44:31.067 PM 04/09/2016,Autonomous Enabled,10,FALSE,0,NO ERROR,0.250000,-15.990296,0.250000,-14.437466,TRUE,FALSE,TRUE,TRUE,FALSE,FALSE,Disabled,0.000000,-0.072500,-7.817500,TRUE,2.667221,-29.130356,0.000000,-0.262512,0.289413,0.000000,0.167000,-0.137000,-0.333000,2.860000,2.170000,1.000000,-0.328458,Hold,0.945068,0.000000,Hold,-116.000000,2.000000,LowGoal,-2392.500000,2400.000000,Speed,-2340.000000,2400.000000,Speed,Off,Off,0.000000,FALSE,43,Read: /home/lvuser/scripts/auto_43.bee,File good!,SET_HEADING 0,SET_HEADING,0.000000,0.000000
01:44:31.166 PM 04/09/2016,Autonomous Enabled,10,FALSE,0,NO ERROR,0.250000,-18.281041,0.250000,-14.700549,TRUE,FALSE,TRUE,TRUE,FALSE,FALSE,Disabled,0.000000,-0.072500,-7.817500,TRUE,2.654984,-29.122681,0.000000,-0.436234,0.180023,0.000000,-1.774000,0.340000,-0.041000,2.620000,1.830000,-0.890000,-4.735500,Hold,0.945801,0.000000,Hold,-117.000000,2.000000,LowGoal,-2377.500000,2400.000000,Speed,-2340.000000,2400.000000,Speed,Off,Off,0.000000,FALSE,43,Read: /home/lvuser/scripts/auto_43.bee,File good!,SET_HEADING 0,SET_HEADING,0.000000,0.000000
01:44:31.268 PM 04/09/2016,Autonomous Enabled,11,FALSE,0,NO ERROR,-0.250000,-18.281041,-0.250000,-15.104798,FALSE,FALSE,TRUE,TRUE,FALSE,FALSE,Disabled,0.000000,-0.072500,-7.817500,TRUE,2.605392,-29.112137,0.000000,-1.128738,0.163910,0.000000,-0.175000,-0.430000,-0.380000,1.330000,-2.810000,-5.670000,-4.735500,Hold,0.955566,0.000000,Hold,-117.000000,2.000000,LowGoal,-2370.000000,2400.000000,Speed,-2347.500000,2400.000000,Speed,Off,Off,0.000000,FALSE,43,Read: /home/lvuser/scripts/auto_43.bee,File good!,SET_HEADING 0,SET_HEADING,0.000000,0.000000
01:44:31.373 PM 04/09/2016,Autonomous Enabled,11,FALSE,0,NO ERROR,-0.250000,-18.550540,-0.250000,-15.573214,FALSE,FALSE,TRUE,TRUE,FALSE,FALSE,Disabled,0.000000,-0.072500,-7.817500,TRUE,2.546936,-29.110382,0.000000,-1.142960,0.074646,0.000000,-0.026000,1.408000,1.111000,4.480000,-6.960000,-2.700000,-7.118074,Hold,0.955811,0.000000,Hold,-117.000000,2.000000,LowGoal,-2370.000000,2400.000000,Speed,-2347.500000,2400.000000,Speed,Off,Off,0.000000,FALSE,43,Read: /home/lvuser/scripts/auto_43.bee,File good!,SET_HEADING 0,SET_HEADING,0.000000,0.000000
01:44:31.475 PM 04/09/2016,Autonomous Enabled,10,FALSE,0,NO ERROR,-0.250000,-17.748458,-0.250000,-16.266212,FALSE,FALSE,TRUE,TRUE,FALSE,FALSE,Disabled,0.000000,-0.072500,-7.817500,TRUE,2.475235,-29.075424,0.000000,-1.186508,0.657852,0.000000,0.118000,-0.074000,0.194000,3.080000,-4.430000,-2.440000,-4.151260,Hold,0.955811,0.000000,Hold,-117.000000,2.000000,LowGoal,-2385.000000,2400.000000,Speed,-2340.000000,2400.000000,Speed,Off,Off,0.000000,FALSE,43,Read: /home/lvuser/scripts/auto_43.bee,File good!,SET_HEADING 0,SET_HEADING,0.000000,0.000000
01:44:31.575 PM 04/09/2016,Autonomous Enabled,10,FALSE,0,NO ERROR,-0.250000,-17.748458,-0.250000,-16.266212,FALSE,FALSE,TRUE,TRUE,FALSE,FALSE,Disabled,0.000000,-0.072500,-7.817500,TRUE,2.421722,-29.052567,0.000000,-0.986786,0.353485,0.000000,0.094000,0.157000,-0.432000,3.450000,-1.420000,-2.550000,-4.151260,Hold,0.955811,0.000000,Hold,-117.000000,2.000000,LowGoal,-2385.000000,2400.000000,Speed,-2340.000000,2400.000000,Speed,Off,Off,0.000000,FALSE,43,Read: /home/lvuser/scripts/auto_43.bee,File good!,SET_HEADING 0,SET_HEADING,0.000000,0.000000
01:44:31.675 PM 04/09/2016,Autonomous Enabled,9,FALSE,0,NO ERROR,0.250000,-16.946377,0.250000,-17.119627,TRUE,FALSE,TRUE,TRUE,FALSE,FALSE,Disabled,0.000000,-0.072500,-7.817500,TRUE,2.373672,-29.031143,0.000000,-1.000275,0.464340,0.000000,0.149000,-0.032000,0.140000,2.960000,1.850000,-2.140000,-0.383336,Hold,0.955811,0.000000,Hold,-117.000000,2.000000,LowGoal,-2392.500000,2400.000000,Speed,-2340.000000,2400.000000,Speed,Off,Off,0.000000,FALSE,43,Read: /home/lvuser/scripts/auto_43.bee,File good!,SET_HEADING 0,SET_HEADING,0.000000,0.000000
01:44:31.775 PM 04/09/2016,Autonomous Enabled,9,FALSE,0,NO ERROR,0.250000,-16.875794,0.250000,-17.126043,FALSE,FALSE,TRUE,TRUE,FALSE,FALSE,Disabled,0.000000,-0.072500,-7.817500,TRUE,2.326019,-29.009277,0.000000,-0.925995,0.388321,0.000000,-0.443000,-0.169000,0.035000,3.020000,4.570000,-2.440000,2.254700,Hold,0.955811,0.000000,Hold,-117.000000,2.000000,LowGoal,-2392.500000,2400.000000,Speed,-2347.500000,2400.000000,Speed,Off,Off,0.000000,FALSE,43,Read: /home/lvuser/scripts/auto_43.bee,File good!,SET_HEADING 0,SET_HEADING,0.000000,0.000000
01:44:31.875 PM 04/09/2016,Autonomous Enabled,10,FALSE,0,NO ERROR,0.250000,-17.690709,0.250000,-16.195629,TRUE,FALSE,TRUE,TRUE,FALSE,FALSE,Disabled,0.000000,-0.072500,-7.817500,TRUE,2.273315,-28.994904,0.000000,-1.081299,0.274460,0.000000,0.214000,-0.105000,0.082000,2.410000,2.110000,-2.680000,-0.828724,Hold,0.955811,0.000000,Hold,-117.000000,2.000000,LowGoal,-2400.000000,2400.000000,Speed,-2347.500000,2400.000000,Speed,Off,Off,0.000000,FALSE,43,Read: /home/lvuser/scripts/auto_43.bee,File good!,SET_HEADING 0,SET_HEADING,0.000000,0.000000
01:44:31.975 PM 04/09/2016,Autonomous Enabled,10,FALSE,0,NO ERROR,-0.250000,-18.441457,-0.250000,-15.239548,TRUE,FALSE,TRUE,TRUE,FALSE,FALSE,Disabled,0.000000,-0.072500,-7.817500,TRUE,2.211212,-28.980743,0.000000,-1.024811,0.215118,0.000000,-0.145000,0.093000,-0.015000,2.270000,-2.170000,-2.350000,-4.232784,Hold,0.955811,0.000000,Hold,-117.000000,2.000000,LowGoal,-2407.500000,2400.000000,Speed,-2347.500000,2400.000000,Speed,Off,Off,0.000000,FALSE,43,Read: /home/lvuser/scripts/auto_43.bee,File good!,SET_HEADING 0,SET_HEADING,0.000000,0.000000
01:44:32.075 PM 04/09/2016,Autonomous Enabled,11,FALSE,0,NO ERROR,-0.250000,-18.204041,-0.250000,-15.233131,TRUE,FALSE,TRUE,TRUE,FALSE,FALSE,Disabled,0.000000,-0.072500,-7.817500,TRUE,2.169968,-28.969040,0.000000,-1.019135,0.331238,0.000000,0.351000,0.012000,-0.039000,2.790000,-4.710000,-2.030000,-6.673120,Hold,0.955811,0.000000,Hold,-117.000000,2.000000,LowGoal,-2407.500000,2400.000000,Speed,-2347.500000,2400.000000,Speed,Off,Off,0.000000,FALSE,43,Read: /home/lvuser/scripts/auto_43.bee,File good!,SET_HEADING 0,SET_HEADING,0.000000,0.000000
01:44:32.176 PM 04/09/2016,Autonomous Enabled,11,FALSE,0,NO ERROR,-0.250000,-17.305710,-0.250000,-16.041629,TRUE,FALSE,TRUE,TRUE,FALSE,FALSE,Disabled,0.000000,-0.072500,-7.817500,TRUE,2.120377,-28.950165,0.000000,-0.777679,0.276474,0.000000,-0.100000,0.217000,0.106000,2.870000,-1.750000,-1.140000,-3.763673,Hold,0.955811,0.000000,Hold,-117.000000,2.000000,LowGoal,-2400.000000,2400.000000,Speed,-2347.500000,2400.000000,Speed,Off,Off,0.000000,FALSE,43,Read: /home/lvuser/scripts/auto_43.bee,File good!,SET_HEADING 0,SET_HEADING,0.000000,0.000000
01:44:32.276 PM 04/09/2016,Autonomous Enabled,9,FALSE,0,NO ERROR,0.250000,-16.433045,0.250000,-16.818044,FALSE,FALSE,TRUE,TRUE,FALSE,FALSE,Disabled,0.000000,-0.072500,-7.817500,TRUE,2.111862,-28.926285,0.000000,-0.008835,0.573410,0.000000,0.206000,-0.018000,-0.091000,3.210000,2.350000,-1.270000,-0.363128,Hold,0.955811,0.000000,Hold,-117.000000,2.000000,LowGoal,-2400.000000,2400.000000,Speed,-2347.500000,2400.000000,Speed,Off,Off,0.000000,FALSE,43,Read: /home/lvuser/scripts/auto_43.bee,File good!,SET_HEADING 0,SET_HEADING,0.000000,0.000000
01:44:32.376 PM 04/09/2016,Autonomous Enabled,10,FALSE,0,NO ERROR,0.250000,-16.336795,0.250000,-16.850127,TRUE,FALSE,TRUE,TRUE,FALSE,FALSE,Disabled,0.000000,-0.072500,-7.817500,TRUE,2.112656,-28.907684,0.000000,-0.004593,0.215164,0.000000,-0.150000,0.045000,0.113000,2.670000,4.620000,-1.380000,2.397036,Hold,0.955811,0.000000,Hold,-117.000000,2.000000,LowGoal,-2385.000000,2400.000000,Speed,-2347.500000,2400.000000,Speed,Off,Off,0.000000,FALSE,43,Read: /home/lvuser/scripts/auto_43.bee,File good!,SET_HEADING 0,SET_HEADING,0.000000,0.000000
01:44:32.476 PM 04/09/2016,Autonomous Enabled,11,FALSE,0,NO ERROR,0.250000,-17.055460,0.250000,-15.913296,TRUE,FALSE,TRUE,TRUE,FALSE,FALSE,Disabled,0.000000,-0.072500,-7.817500,TRUE,2.105347,-28.893616,0.000000,-0.198013,0.400742,0.000000,0.013000,-0.088000,-0.153000,2.450000,1.780000,-1.760000,-0.418980,Hold,0.955811,0.000000,Hold,-117.000000,2.000000,LowGoal,-2370.000000,2400.000000,Speed,-2355.000000,2400.000000,Speed,Off,Off,0.000000,FALSE,43,Read: /home/lvuser/scripts/auto_43.bee,File good!,SET_HEADING 0,SET_HEADING,0.000000,0.000000
01:44:32.577 PM 04/09/2016,Autonomous Enabled,10,FALSE,0,NO ERROR,-0.250000,-17.748458,-0.250000,-15.040631,TRUE,FALSE,TRUE,TRUE,FALSE,FALSE,Disabled,0.000000,-0.072500,-7.817500,TRUE,2.098877,-28.878632,0.000000,-0.055298,0.155914,0.000000,-0.056000,-0.211000,-0.031000,2.220000,-1.430000,-1.480000,-3.519923,Hold,0.955811,0.000000,Hold,-117.000000,2.000000,LowGoal,-2370.000000,2400.000000,Speed,-2347.500000,2400.000000,Speed,Off,Off,0.000000,FALSE,43,Read: /home/lvuser/scripts/auto_43.bee,File good!,SET_HEADING 0,SET_HEADING,0.000000,0.000000
01:44:32.677 PM 04/09/2016,Autonomous Enabled,11,FALSE,0,NO ERROR,-0.250000,-17.568792,-0.250000,-14.982882,TRUE,FALSE,TRUE,TRUE,FALSE,FALSE,Disabled,0.000000,-0.072500,-7.817500,TRUE,2.095474,-28.870300,0.000000,-0.053345,0.271179,0.000000,0.228000,0.339000,0.106000,2.510000,-3.680000,-1.230000,-5.587416,Hold,0.955811,0.000000,Hold,-117.000000,2.000000,LowGoal,-2385.000000,2400.000000,Speed,-2347.500000,2400.000000,Speed,Off,Off,0.000000,FALSE,43,Read: /home/lvuser/scripts/auto_43.bee,File good!,SET_HEADING 0,SET_HEADING,0.000000,0.000000
01:44:32.778 PM 04/09/2016,Autonomous Enabled,9,FALSE,0,NO ERROR,0.000000,-16.631961,-0.000000,-15.778546,TRUE,FALSE,TRUE,TRUE,FALSE,TRUE,Disabled,0.000000,-0.072500,-7.817500,TRUE,2.096329,-28.855087,0.000000,0.039566,0.356354,0.000000,0.021000,-0.155000,-0.077000,2.840000,-0.680000,-0.600000,-2.534993,Hold,0.955811,45.000000,Hold,-117.000000,2.000000,LowGoal,-2400.000000,2400.000000,Speed,-2347.500000,2400.000000,Speed,Off,Off,0.000000,FALSE,43,Read: /home/lvuser/scripts/auto_43.bee,File good!,SEARCH_FOR_GOAL,SEARCH_FOR_GOAL,0.000000,0.000000
01:44:32.878 PM 04/09/2016,Autonomous Enabled,11,FALSE,0,NO ERROR,0.000000,-15.958213,-0.000000,-16.362462,FALSE,FALSE,TRUE,TRUE,FALSE,TRUE,Disabled,0.000000,-0.072500,-7.817500,TRUE,2.098679,-28.835602,0.000000,0.029129,0.344604,0.000000,-0.137000,-0.283000,-0.182000,3.070000,2.820000,-0.710000,0.820692,Hold,3.718506,45.000000,Hold,-117.000000,77824.000000,LowGoal,-2400.000000,-3272.727273,Speed,-2347.500000,-3272.727273,Speed,Off,Off,0.000000,FALSE,43,Read: /home/lvuser/scripts/auto_43.bee,File good!,SEARCH_FOR_GOAL,SEARCH_FOR_GOAL,0.000000,0.000000
01:44:32.979 PM 04/09/2016,Autonomous Enabled,10,FALSE,0,NO ERROR,0.000000,-15.958213,-0.000000,-16.253379,TRUE,FALSE,TRUE,TRUE,FALSE,TRUE,Disabled,0.000000,-0.072500,-7.817500,TRUE,2.096802,-28.825333,0.000000,-0.049973,0.159378,0.000000,0.043000,0.254000,0.146000,2.540000,2.680000,-0.720000,0.780349,Hold,7.044678,45.000000,Hold,-1549.000000,77824.000000,LowGoal,-2272.500000,-3272.727273,Speed,-2265.000000,-3272.727273,Speed,Off,Off,0.000000,FALSE,43,Read: /home/lvuser/scripts/auto_43.bee,File good!,SEARCH_FOR_GOAL,SEARCH_FOR_GOAL,0.000000,0.000000
01:44:33.079 PM 04/09/2016,Autonomous Enabled,10,FALSE,0,NO ERROR,0.000000,-15.977463,-0.000000,-16.144296,TRUE,FALSE,TRUE,TRUE,FALSE,TRUE,Disabled,0.000000,-0.072500,-7.817500,TRUE,2.095383,-28.818573,0.000000,-0.017441,-0.005798,0.000000,0.142000,-0.100000,0.188000,2.550000,2.460000,-0.850000,0.398521,Hold,11.123535,45.000000,Hold,-11960.000000,77824.000000,LowGoal,-1342.500000,-3272.727273,Speed,-1372.500000,-3272.727273,Speed,Off,Off,0.000000,FALSE,43,Read: /home/lvuser/scripts/auto_43.bee,File good!,SEARCH_FOR_GOAL,SEARCH_FOR_GOAL,0.000000,0.000000
01:44:33.179 PM 04/09/2016,Autonomous Enabled,9,FALSE,0,NO ERROR,0.000000,-15.977463,-0.000000,-16.144296,TRUE,FALSE,TRUE,TRUE,FALSE,TRUE,Disabled,0.000000,-0.072500,-7.817500,TRUE,2.094986,-28.820251,0.000000,-0.002136,-0.032074,0.000000,0.043000,0.026000,0.055000,2.580000,2.490000,-0.720000,0.429838,Hold,15.644531,45.000000,Hold,-22061.000000,77824.000000,LowGoal,-495.000000,-3272.727273,Speed,-315.000000,-3272.727273,Speed,Off,Off,0.000000,FALSE,43,Read: /home/lvuser/scripts/auto_43.bee,File good!,SEARCH_FOR_GOAL,SEARCH_FOR_GOAL,0.000000,0.000000
01:44:33.280 PM 04/09/2016,Autonomous Enabled,12,FALSE,0,NO ERROR,0.000000,-15.977463,-0.000000,-16.144296,TRUE,FALSE,TRUE,TRUE,FALSE,TRUE,Disabled,0.000000,-0.072500,-7.817500,TRUE,2.095444,-28.821533,0.000000,0.006653,-0.028976,0.000000,0.042000,0.025000,0.043000,2.510000,2.460000,-0.630000,0.417675,Hold,20.911377,45.000000,Hold,-30809.000000,77824.000000,LowGoal,375.000000,-3272.727273,Speed,495.000000,-3272.727273,Speed,Off,Off,0.000000,FALSE,43,Read: /home/lvuser/scripts/auto_43.bee,File good!,SEARCH_FOR_GOAL,SEARCH_FOR_GOAL,0.000000,0.000000
01:44:33.381 PM 04/09/2016,Autonomous Enabled,9,FALSE,0,NO ERROR,0.000000,-15.977463,-0.000000,-16.144296,TRUE,FALSE,TRUE,TRUE,FALSE,TRUE,Disabled,0.000000,-0.072500,-7.817500,TRUE,2.096024,-28.822159,0.000000,-0.000275,-0.008102,0.000000,-0.114000,-0.039000,-0.101000,2.580000,2.480000,-0.690000,0.427407,Hold,25.965576,45.000000,Hold,-42159.000000,77824.000000,LowGoal,1057.500000,-3272.727273,Speed,1095.000000,-3272.727273,Speed,Off,Off,0.000000,FALSE,43,Read: /home/lvuser/scripts/auto_43.bee,File good!,SEARCH_FOR_GOAL,SEARCH_FOR_GOAL,0.000000,0.000000
01:44:33.483 PM 04/09/2016,Autonomous Enabled,9,FALSE,0,NO ERROR,0.000000,-15.977463,-0.000000,-16.144296,TRUE,FALSE,TRUE,TRUE,FALSE,TRUE,Disabled,0.000000,-0.072500,-7.817500,TRUE,2.095703,-28.823700,0.000000,0.002045,-0.032928,0.000000,0.037000,0.033000,0.058000,2.560000,2.490000,-0.600000,0.445181,Hold,32.922363,45.000000,Hold,-42159.000000,77824.000000,LowGoal,1605.000000,-3272.727273,Speed,1567.500000,-3272.727273,Speed,Off,Off,0.000000,FALSE,43,Read: /home/lvuser/scripts/auto_43.bee,File good!,SEARCH_FOR_GOAL,SEARCH_FOR_GOAL,0.000000,0.000000
01:44:33.583 PM 04/09/2016,Autonomous Enabled,9,FALSE,0,NO ERROR,0.000000,-15.977463,-0.000000,-16.144296,TRUE,FALSE,TRUE,TRUE,FALSE,TRUE,Disabled,0.000000,-0.072500,-7.817500,TRUE,2.096176,-28.824615,0.000000,0.023712,-0.033585,0.000000,-0.062000,-0.167000,0.033000,2.600000,2.480000,-0.600000,0.444441,Hold,41.294678,45.000000,Hold,-54461.000000,77824.000000,LowGoal,2077.500000,-3272.727273,Speed,1965.000000,-3272.727273,Speed,Off,Off,0.000000,FALSE,43,Read: /home/lvuser/scripts/auto_43.bee,File good!,SEARCH_FOR_GOAL,SEARCH_FOR_GOAL,0.000000,0.000000
01:44:33.683 PM 04/09/2016,Autonomous Enabled,10,FALSE,0,NO ERROR,0.000000,-15.983879,-0.000000,-16.144296,TRUE,FALSE,TRUE,TRUE,FALSE,TRUE,Disabled,0.000000,-0.072500,-7.817500,TRUE,2.098907,-28.831131,0.000000,0.090897,-0.209518,0.000000,0.001000,-0.192000,-0.185000,2.630000,2.480000,-0.870000,0.451846,Hold,47.508545,45.000000,Hold,-67738.000000,77824.000000,LowGoal,2467.500000,-3272.727273,Speed,2310.000000,-3272.727273,Speed,Off,Off,0.000000,FALSE,43,Read: /home/lvuser/scripts/auto_43.bee,File good!,SEARCH_FOR_GOAL,SEARCH_FOR_GOAL,0.000000,0.000000
01:44:33.785 PM 04/09/2016,Autonomous Enabled,11,FALSE,0,NO ERROR,0.000000,-15.977463,-0.000000,-16.150712,TRUE,FALSE,TRUE,TRUE,FALSE,TRUE,Disabled,0.000000,-0.072500,-7.817500,TRUE,2.099197,-28.843262,0.000000,-0.052094,-0.228638,0.000000,0.069000,-0.001000,0.109000,2.570000,2.660000,-1.040000,0.621182,Hold,49.377197,45.000000,Hold,-78369.000000,77824.000000,LowGoal,2797.500000,-3272.727273,Speed,2550.000000,-3272.727273,Speed,Off,Off,0.000000,FALSE,43,Read: /home/lvuser/scripts/auto_43.bee,File good!,SEARCH_FOR_GOAL,SEARCH_FOR_GOAL,0.000000,0.000000
01:44:33.885 PM 04/09/2016,Autonomous Enabled,11,FALSE,0,NO ERROR,0.000000,-15.983879,-0.000000,-16.150712,TRUE,FALSE,TRUE,TRUE,FALSE,TRUE,Disabled,0.000000,-0.072500,-7.817500,TRUE,2.097855,-28.859299,0.000000,-0.022141,-0.284683,0.000000,-0.169000,-0.176000,0.002000,2.640000,2.630000,-0.890000,0.627950,Hold,49.283691,45.000000,Hold,-77958.000000,77824.000000,LowGoal,3075.000000,-3272.727273,Speed,2805.000000,-3272.727273,Speed,Off,Off,0.000000,FALSE,43,Read: /home/lvuser/scripts/auto_43.bee,File good!,SEARCH_FOR_GOAL,SEARCH_FOR_GOAL,0.000000,0.000000
01:44:33.985 PM 04/09/2016,Autonomous Enabled,10,FALSE,0,NO ERROR,0.000000,-15.983879,-0.000000,-16.131462,TRUE,FALSE,TRUE,TRUE,FALSE,TRUE,Enable,-0.300000,-0.072500,-7.817500,TRUE,2.097168,-28.878906,0.000000,0.029800,-0.334717,0.000000,0.020000,0.221000,0.140000,2.490000,2.590000,-0.530000,0.559071,Hold,49.181396,45.000000,Hold,-77938.000000,77824.000000,LowGoal,3270.000000,-3272.727273,Speed,3030.000000,-3272.727273,Speed,Off,Off,0.000000,FALSE,43,Read: /home/lvuser/scripts/auto_43.bee,File good!,SEARCH_FOR_GOAL,SEARCH_FOR_GOAL,0.000000,0.000000
01:44:34.085 PM 04/09/2016,Autonomous Enabled,10,FALSE,0,NO ERROR,0.289463,-15.983879,0.289463,-16.105796,TRUE,FALSE,TRUE,TRUE,FALSE,TRUE,PID,-0.300000,11.061383,-8.471383,TRUE,2.098999,-28.891678,0.000000,0.052460,-0.317719,0.000000,0.000000,0.146000,0.011000,2.550000,2.590000,-0.480000,0.573723,Hold,49.178467,45.000000,Hold,-77938.000000,77824.000000,LowGoal,3307.500000,-3272.727273,Speed,3210.000000,-3272.727273,Speed,Off,Off,0.000000,FALSE,43,Read: /home/lvuser/scripts/auto_43.bee,File good!,SEARCH_FOR_GOAL,SEARCH_FOR_GOAL,0.000000,0.000000
01:44:34.186 PM 04/09/2016,Autonomous Enabled,13,FALSE,0,NO ERROR,0.280653,-16.792377,0.280653,-15.290881,TRUE,FALSE,TRUE,TRUE,FALSE,TRUE,PID,-0.300000,11.061383,-8.471383,TRUE,2.099747,-28.909332,0.000000,-0.055374,-0.407425,0.000000,0.082000,-0.055000,0.090000,2.080000,1.310000,-0.940000,-0.947395,Hold,49.178467,45.000000,Hold,-77938.000000,77824.000000,LowGoal,3285.000000,-3272.727273,Speed,3240.000000,-3272.727273,Speed,Off,Off,0.000000,FALSE,43,Read: /home/lvuser/scripts/auto_43.bee,File good!,SEARCH_FOR_GOAL,SEARCH_FOR_GOAL,0.000000,0.000000
01:44:34.287 PM 04/09/2016,Autonomous Enabled,11,FALSE,0,NO ERROR,0.228859,-17.369876,0.228859,-14.437466,TRUE,FALSE,TRUE,TRUE,FALSE,TRUE,PID,-0.300000,11.061383,-8.471383,TRUE,2.097137,-28.929230,0.000000,-0.031296,-0.411240,0.000000,0.066000,0.081000,0.058000,2.100000,-1.620000,-0.970000,-3.782858,Hold,49.143555,45.000000,Hold,-77938.000000,77824.000000,LowGoal,3255.000000,-3272.727273,Speed,3210.000000,-3272.727273,Speed,Off,Off,0.000000,FALSE,43,Read: /home/lvuser/scripts/auto_43.bee,File good!,SEARCH_FOR_GOAL,SEARCH_FOR_GOAL,0.000000,0.000000
01:44:34.388 PM 04/09/2016,Autonomous Enabled,10,FALSE,0,NO ERROR,0.206927,-17.748458,0.206927,-13.731635,TRUE,FALSE,TRUE,TRUE,FALSE,TRUE,PID,-0.300000,11.061383,-8.471383,TRUE,2.095963,-28.951477,0.000000,-0.015274,-0.434998,0.000000,-0.025000,-0.006000,0.149000,2.430000,-4.430000,-0.800000,-6.059312,Hold,49.105469,45.000000,Hold,-77938.000000,77824.000000,LowGoal,3255.000000,-3272.727273,Speed,3187.500000,-3272.727273,Speed,Off,Off,0.000000,FALSE,43,Read: /home/lvuser/scripts/auto_43.bee,File good!,SEARCH_FOR_GOAL,SEARCH_FOR_GOAL,0.000000,0.000000
01:44:34.490 PM 04/09/2016,Autonomous Enabled,9,FALSE,0,NO ERROR,0.191312,-17.870375,0.191312,-13.231136,TRUE,FALSE,TRUE,TRUE,FALSE,TRUE,PID,-0.300000,11.061383,-8.471383,TRUE,2.096619,-28.972763,0.000000,0.033051,-0.347916,0.000000,0.143000,0.123000,0.061000,2.470000,-5.680000,-0.690000,-7.324893,Hold,49.105225,45.000000,Hold,-77938.000000,77824.000000,LowGoal,3255.000000,-3272.727273,Speed,3195.000000,-3272.727273,Speed,Off,Off,0.000000,FALSE,43,Read: /home/lvuser/scripts/auto_43.bee,File good!,SEARCH_FOR_GOAL,SEARCH_FOR_GOAL,0.000000,0.000000
01:44:34.592 PM 04/09/2016,Autonomous Enabled,10,FALSE,0,NO ERROR,0.182237,-17.883208,0.182237,-12.878220,TRUE,FALSE,TRUE,TRUE,FALSE,TRUE,PID,-0.300000,11.061383,-8.471383,TRUE,2.098801,-28.991180,0.000000,0.000000,-0.363571,0.000000,-0.014000,-0.162000,-0.029000,2.500000,-6.450000,-0.580000,-8.094284,Hold,49.105225,45.000000,Hold,-77938.000000,77824.000000,LowGoal,3255.000000,-3272.727273,Speed,3210.000000,-3272.727273,Speed,Off,Off,0.000000,FALSE,43,Read: /home/lvuser/scripts/auto_43.bee,File good!,SEARCH_FOR_GOAL,SEARCH_FOR_GOAL,0.000000,0.000000
01:44:34.695 PM 04/09/2016,Autonomous Enabled,13,FALSE,0,NO ERROR,0.176520,-17.883208,0.176520,-12.640804,TRUE,FALSE,TRUE,TRUE,FALSE,TRUE,PID,-0.300000,11.061383,-8.471383,TRUE,2.098953,-29.007797,0.000000,0.008820,-0.321594,0.000000,0.026000,-0.156000,-0.071000,2.510000,-6.860000,-0.520000,-8.598006,Hold,49.104980,45.000000,Hold,-77938.000000,77824.000000,LowGoal,3255.000000,-3272.727273,Speed,3210.000000,-3272.727273,Speed,Off,Off,0.000000,FALSE,43,Read: /home/lvuser/scripts/auto_43.bee,File good!,SEARCH_FOR_GOAL,SEARCH_FOR_GOAL,0.000000,0.000000
01:44:34.795 PM 04/09/2016,Autonomous Enabled,10,FALSE,0,NO ERROR,0.172239,-17.902458,0.172239,-12.499637,TRUE,FALSE,TRUE,TRUE,FALSE,TRUE,PID,-0.300000,11.061383,-8.471383,TRUE,2.099564,-29.023315,0.000000,0.021698,-0.310501,0.000000,-0.061000,0.111000,0.001000,2.540000,-7.210000,-0.410000,-8.900624,Hold,49.104980,45.000000,Hold,-77938.000000,77824.000000,LowGoal,3247.500000,-3272.727273,Speed,3210.000000,-3272.727273,Speed,Off,Off,0.000000,FALSE,43,Read: /home/lvuser/scripts/auto_43.bee,File good!,SEARCH_FOR_GOAL,SEARCH_FOR_GOAL,0.000000,0.000000
01:44:34.896 PM 04/09/2016,Autonomous Enabled,10,FALSE,0,NO ERROR,0.170171,-17.921708,0.170171,-12.409804,TRUE,FALSE,TRUE,TRUE,FALSE,TRUE,PID,-0.300000,11.061383,-8.471383,TRUE,2.101593,-29.039703,0.000000,0.053574,-0.328110,0.000000,-0.035000,-0.078000,-0.088000,2.510000,-7.470000,-0.340000,-9.135465,Hold,49.104980,45.000000,Hold,-77938.000000,77824.000000,LowGoal,3217.500000,-3272.727273,Speed,3202.500000,-3272.727273,Speed,Off,Off,0.000000,FALSE,43,Read: /home/lvuser/scripts/auto_43.bee,File good!,SEARCH_FOR_GOAL,SEARCH_FOR_GOAL,0.000000,0.000000
01:44:34.998 PM 04/09/2016,Autonomous Enabled,12,FALSE,0,NO ERROR,0.168319,-17.928125,0.168319,-12.345638,TRUE,FALSE,TRUE,TRUE,FALSE,TRUE,PID,-0.040625,11.061383,-8.471383,TRUE,2.104050,-29.060776,0.000000,0.003693,-0.384201,0.000000,-0.035000,-0.078000,-0.088000,2.510000,-7.470000,-0.340000,-9.269057,Hold,49.104736,45.000000,Hold,-77938.000000,77824.000000,LowGoal,3202.500000,-3272.727273,Speed,3202.500000,-3272.727273,Speed,Off,Off,0.000000,FALSE,43,Read: /home/lvuser/scripts/auto_43.bee,File good!,SEARCH_FOR_GOAL,SEARCH_FOR_GOAL,0.000000,0.000000
01:44:35.097 PM 04/09/2016,Autonomous Enabled,11,FALSE,0,NO ERROR,0.000000,-17.908875,-0.000000,-12.307138,TRUE,FALSE,TRUE,TRUE,FALSE,TRUE,Suspended,-0.040625,0.315892,-8.045892,TRUE,2.104752,-29.076248,0.000000,0.030884,-0.391113,0.000000,-0.034000,0.131000,0.063000,2.490000,-7.770000,-0.280000,-9.395041,Hold,49.104736,45.000000,Hold,-77938.000000,77824.000000,LowGoal,3217.500000,-3272.727273,Speed,3202.500000,-3272.727273,Speed,Off,Off,0.000000,FALSE,43,Read: /home/lvuser/scripts/auto_43.bee,File good!,SEARCH_FOR_GOAL,SEARCH_FOR_GOAL,0.000000,0.000000
01:44:35.198 PM 04/09/2016,Autonomous Enabled,10,FALSE,0,NO ERROR,0.000000,-17.786958,-0.000000,-12.403388,TRUE,FALSE,TRUE,TRUE,FALSE,TRUE,Suspended,-0.040625,0.315892,-8.045892,TRUE,2.107025,-29.094315,0.000000,0.059723,-0.322083,0.000000,0.041000,-0.138000,-0.018000,2.560000,-7.440000,-0.200000,-9.106929,Hold,49.104736,45.000000,Hold,-77938.000000,77824.000000,Shoot,3217.500000,-3272.727273,Speed,3202.500000,-3272.727273,Speed,Off,Off,0.000000,FALSE,43,Read: /home/lvuser/scripts/auto_43.bee,File good!,SEARCH_FOR_GOAL,SEARCH_FOR_GOAL,0.000000,0.000000
01:44:35.298 PM 04/09/2016,Autonomous Enabled,11,FALSE,0,NO ERROR,0.000000,-17.786958,-0.000000,-12.409804,TRUE,FALSE,TRUE,TRUE,FALSE,FALSE,Suspended,-0.040625,0.315892,-8.045892,TRUE,2.110336,-29.111984,0.000000,0.043106,-0.277664,0.000000,0.037000,-0.004000,-0.016000,2.480000,-7.420000,-0.180000,-9.075850,Hold,49.104736,45.000000,Hold,-77938.000000,77824.000000,Shoot,3225.000000,-3272.727273,Speed,3217.500000,-3272.727273,Speed,Off,On,0.000000,FALSE,43,Read: /home/lvuser/scripts/auto_43.bee,File good!,WAIT 500,WAIT,0.000000,0.000000
01:44:35.398 PM 04/09/2016,Autonomous Enabled,10,FALSE,0,NO ERROR,0.000000,-17.786958,-0.000000,-12.409804,TRUE,FALSE,TRUE,TRUE,FALSE,FALSE,Disabled,-0.040625,0.315892,-8.045892,TRUE,2.113419,-29.122498,0.000000,0.091599,-0.252441,0.000000,-0.018000,0.134000,0.066000,2.480000,-7.420000,-0.180000,-9.069585,Hold,49.102051,45.000000,Hold,-77938.000000,77824.000000,Shoot,3232.500000,-3272.727273,Speed,3217.500000,-3272.727273,Speed,Off,On,0.000000,FALSE,43,Read: /home/lvuser/scripts/auto_43.bee,File good!,WAIT 500,WAIT,0.000000,0.000000
01:44:35.499 PM 04/09/2016,Autonomous Enabled,10,FALSE,0,NO ERROR,0.000000,-17.786958,-0.000000,-12.409804,TRUE,FALSE,TRUE,TRUE,FALSE,FALSE,Disabled,-0.040625,0.315892,-8.045892,TRUE,2.117218,-29.137131,0.000000,0.041595,-0.233566,0.000000,-0.018000,0.134000,0.066000,2.520000,-7.410000,-0.220000,-9.073010,Hold,49.101807,45.000000,Hold,-77938.000000,77824.000000,Shoot,3232.500000,-3272.727273,Speed,3217.500000,-3272.727273,Speed,On,On,0.000000,FALSE,43,Read: /home/lvuser/scripts/auto_43.bee,File good!,WAIT 500,WAIT,0.000000,0.000000
01:44:35.600 PM 04/09/2016,Autonomous Enabled,10,FALSE,0,NO ERROR,0.000000,-17.774125,-0.000000,-12.409804,TRUE,FALSE,FALSE,TRUE,FALSE,FALSE,Disabled,-0.040625,0.315892,-8.045892,TRUE,2.119751,-29.150269,0.000000,0.074539,-0.282715,0.000000,-0.028000,0.183000,0.119000,2.430000,-7.410000,-0.210000,-9.054744,Hold,49.101562,45.000000,Hold,-77938.000000,77824.000000,Shoot,3225.000000,-3272.727273,Speed,3210.000000,-3272.727273,Speed,On,On,0.000000,FALSE,43,Read: /home/lvuser/scripts/auto_43.bee,File good!,WAIT 500,WAIT,0.000000,0.000000
01:44:35.701 PM 04/09/2016,Autonomous Enabled,10,FALSE,0,NO ERROR,0.000000,-17.774125,-0.000000,-12.416221,TRUE,FALSE,FALSE,TRUE,FALSE,FALSE,Disabled,-0.040625,0.315892,-8.045892,TRUE,2.122055,-29.160980,0.000000,0.037460,-0.192078,0.000000,0.075000,-0.153000,-0.054000,2.410000,-7.390000,-0.340000,-9.014535,Hold,49.090820,45.000000,Hold,-77938.000000,77824.000000,Shoot,2467.500000,-3272.727273,Speed,2362.500000,-3272.727273,Speed,On,On,0.000000,FALSE,43,Read: /home/lvuser/scripts/auto_43.bee,File good!,WAIT 500,WAIT,0.000000,0.000000
01:44:35.802 PM 04/09/2016,Autonomous Enabled,10,FALSE,0,NO ERROR,0.000000,-17.774125,-0.000000,-12.416221,TRUE,FALSE,FALSE,TRUE,FALSE,FALSE,Disabled,-0.040625,0.315892,-8.045892,TRUE,2.124466,-29.170944,0.000000,0.059433,-0.196716,0.000000,0.114000,0.093000,-0.041000,2.450000,-7.380000,-0.250000,-9.017117,Hold,49.090820,45.000000,Hold,-77938.000000,77824.000000,Shoot,2520.000000,-3272.727273,Speed,2460.000000,-3272.727273,Speed,On,On,0.000000,FALSE,43,Read: /home/lvuser/scripts/auto_43.bee,File good!,WAIT 500,WAIT,0.000000,0.000000
