Time,Robot Mode,Loop Time,Error Status,Error Code,Error Source,Left Motor Output,Left Motor Encoder,Right Motor Output,Right Motor Encoder,Is Level,Is Stalled,Ball Detector Photoeye,Vision Enabled,Vision Teleop Control,Vision Auto Control,Vision Current State,Vision X Output,Vision NavX Error,Vision NavX Target,NavX Connection Status,NavX Displacement X,NavX Displacement Y,NavX Displacement Z,NavX Velocity X,NavX Velocity Y,NavX Velocity Z,NavX Acceleration X,NavX Acceleration Y,NavX Acceleration Z,NavX Pitch,NavX Yaw,NavX Roll,Gyro Angle,Roller Arm State,Roller Arm Actual,Roller Arm Desired,Shooter Arm State,Shooter Arm Actual,Shooter Arm Desired,Shooter State,Actual RPM Left,Desired RPM Left,Control Mode Left,Actual RPM Right,Desired RPM Right,Control Mode Right,Ball Shooter Cylinder,Ball Halo Cylinder,Scaler Motor Output,Scaler Solenoid Fire,Auto To Run,Auto Current File,Auto File Status,Auto Current Command,Auto Trimmed Command,Shooter Amps Left,Shooter Amps Right
03:21:53.720 PM 04/09/2016,Teleop Enabled,10,FALSE,0,NO ERROR,-0.000000,-6.423068,-0.000000,-6.525735,FALSE,FALSE,TRUE,FALSE,FALSE,FALSE,Disabled,0.000000,0.833747,38.866253,TRUE,13.381348,-5.558807,0.000000,0.000000,0.000000,0.000000,0.000000,0.000000,0.020000,3.260000,0.000000,-6.410000,-0.222420,ResetBack,1.031006,-0.000049,ResetBack,-22741.000000,-0.250000,LowGoal,0.000000,-2181.818182,Speed,0.000000,-2181.818182,Speed,Off,Off,0.000000,FALSE,0,,,,,0.000000,0.000000
03:21:53.820 PM 04/09/2016,Teleop Enabled,9,FALSE,0,NO ERROR,-0.000000,-6.525735,-0.000000,-6.814484,FALSE,FALSE,TRUE,FALSE,FALSE,FALSE,Disabled,0.000000,0.833747,38.866253,TRUE,13.381500,-5.558960,0.000000,0.015518,-0.016830,0.000000,0.183000,-0.211000,-0.059000,3.270000,0.010000,-6.180000,-0.203338,ResetBack,-0.029541,-0.000049,ResetBack,-22741.000000,-0.250000,LowGoal,45.000000,-2181.818182,Speed,45.000000,-2181.818182,Speed,Off,Off,0.000000,FALSE,0,,,,,0.000000,0.000000
03:21:53.920 PM 04/09/2016,Teleop Enabled,10,FALSE,0,NO ERROR,-0.000000,-6.833734,-0.000000,-6.968484,FALSE,FALSE,TRUE,FALSE,FALSE,FALSE,Disabled,0.000000,0.833747,38.866253,TRUE,13.383148,-5.561264,0.000000,0.033234,-0.041672,0.000000,0.074000,-0.034000,0.016000,3.250000,-0.020000,-6.030000,-0.227281,ResetBack,-0.050049,-0.000049,ResetBack,-21189.000000,-0.250000,LowGoal,540.000000,-2181.818182,Speed,472.500000,-2181.818182,Speed,Off,Off,0.000000,FALSE,0,,,,,0.000000,0.000000
03:21:54.020 PM 04/09/2016,Teleop Enabled,10,FALSE,0,NO ERROR,-0.000000,-7.513899,-0.000000,-7.347066,FALSE,FALSE,TRUE,FALSE,FALSE,FALSE,Disabled,0.000000,0.833747,38.866253,TRUE,13.387558,-5.564529,0.000000,0.099411,0.000000,0.000000,0.035000,-0.008000,0.017000,3.280000,-0.160000,-5.880000,-0.359396,Reset,-0.050049,0.000000,ResetBack,-19128.000000,-0.250000,LowGoal,1095.000000,-2181.818182,Speed,945.000000,-2181.818182,Speed,Off,Off,0.000000,FALSE,0,,,,,0.000000,0.000000
03:21:54.120 PM 04/09/2016,Teleop Enabled,9,FALSE,0,NO ERROR,-0.000000,-7.873232,-0.000000,-7.956648,FALSE,FALSE,TRUE,FALSE,FALSE,FALSE,Disabled,0.000000,0.833747,38.866253,TRUE,13.392227,-5.563736,0.000000,0.117661,0.030930,0.000000,-0.033000,-0.062000,0.039000,3.260000,-0.120000,-5.890000,-0.342621,Hold,0.872803,0.000000,ResetBack,-16731.000000,-0.250000,LowGoal,1560.000000,-2181.818182,Speed,1335.000000,-2181.818182,Speed,Off,Off,0.000000,FALSE,0,,,,,0.000000,0.000000
03:21:54.221 PM 04/09/2016,Teleop Enabled,9,FALSE,0,NO ERROR,-0.000000,-8.495647,-0.000000,-8.591897,FALSE,FALSE,TRUE,FALSE,FALSE,FALSE,Disabled,0.000000,0.833747,38.866253,TRUE,13.394363,-5.563202,0.000000,-0.003448,-0.010010,0.000000,-0.018000,-0.068000,0.102000,3.180000,-0.060000,-5.910000,-0.273064,Hold,1.009277,0.000000,ResetBack,-14072.000000,-0.250000,LowGoal,1942.500000,-2181.818182,Speed,1657.500000,-2181.818182,Speed,Off,Off,0.000000,FALSE,0,,,,,0.000000,0.000000
03:21:54.322 PM 04/09/2016,Teleop Enabled,9,FALSE,0,NO ERROR,-0.000000,-9.175812,-0.000000,-9.259228,FALSE,FALSE,TRUE,FALSE,FALSE,FALSE,Disabled,0.000000,0.833747,38.866253,TRUE,13.396149,-5.565567,0.000000,0.081879,-0.033279,0.000000,0.056000,0.118000,0.056000,3.310000,-0.130000,-5.850000,-0.348848,Hold,0.987305,0.000000,ResetBack,-10602.000000,-0.250000,LowGoal,2145.000000,-2181.818182,Speed,1897.500000,-2181.818182,Speed,Off,Off,0.000000,FALSE,0,,,,,0.000000,0.000000
03:21:54.422 PM 04/09/2016,Teleop Enabled,10,FALSE,0,NO ERROR,-0.000000,-9.811060,-0.000000,-9.920143,FALSE,FALSE,TRUE,FALSE,FALSE,FALSE,Disabled,0.000000,0.833747,38.866253,TRUE,13.398804,-5.562439,0.000000,0.031601,0.129364,0.000000,-0.029000,0.199000,-0.145000,3.270000,-0.120000,-5.800000,-0.355392,Hold,0.987061,0.000000,ResetBack,-6867.000000,-0.250000,LowGoal,2145.000000,-2181.818182,Speed,2100.000000,-2181.818182,Speed,Off,Off,0.000000,FALSE,0,,,,,0.000000,0.000000
03:21:54.523 PM 04/09/2016,Teleop Enabled,9,FALSE,0,NO ERROR,-0.000000,-10.234559,-0.000000,-10.394976,FALSE,FALSE,TRUE,FALSE,FALSE,FALSE,Disabled,0.000000,0.833747,38.866253,TRUE,13.398529,-5.551987,0.000000,-0.056763,0.249039,0.000000,-0.263000,0.072000,-0.101000,3.250000,-0.080000,-5.330000,-0.328196,Hold,0.967529,0.000000,ResetBack,-6867.000000,-0.250000,LowGoal,2122.500000,-2181.818182,Speed,2092.500000,-2181.818182,Speed,Off,Off,0.000000,FALSE,0,,,,,0.000000,0.000000
03:21:54.624 PM 04/09/2016,Teleop Enabled,9,FALSE,0,NO ERROR,-0.000000,-10.394976,-0.000000,-10.561809,FALSE,FALSE,TRUE,FALSE,FALSE,FALSE,Disabled,0.000000,0.833747,38.866253,TRUE,13.387756,-5.536514,0.000000,-0.209122,0.223846,0.000000,0.006000,-0.067000,-0.091000,3.310000,-0.050000,-5.570000,-0.312471,Hold,0.951660,0.000000,ResetBack,-3265.000000,-0.250000,LowGoal,2115.000000,-2181.818182,Speed,2055.000000,-2181.818182,Speed,Off,Off,0.000000,FALSE,0,,,,,0.000000,0.000000
03:21:54.725 PM 04/09/2016,Teleop Enabled,8,FALSE,0,NO ERROR,-0.000000,-10.433476,-0.000000,-10.600309,FALSE,FALSE,TRUE,FALSE,FALSE,FALSE,Disabled,0.000000,0.833747,38.866253,TRUE,13.387573,-5.528061,0.000000,-0.007965,0.216965,0.000000,0.006000,-0.067000,-0.091000,3.310000,-0.050000,-5.570000,-0.302301,Hold,0.951660,0.000000,ResetBack,-1118.000000,-0.250000,LowGoal,2092.500000,-2181.818182,Speed,2040.000000,-2181.818182,Speed,Off,Off,0.000000,FALSE,0,,,,,0.000000,0.000000
03:21:54.826 PM 04/09/2016,Teleop Enabled,10,FALSE,0,NO ERROR,-0.000000,-10.433476,-0.000000,-10.600309,FALSE,FALSE,TRUE,FALSE,FALSE,FALSE,Disabled,0.000000,0.833747,38.866253,TRUE,13.386200,-5.512604,0.000000,0.013092,0.292526,0.000000,-0.128000,0.039000,0.039000,3.290000,-0.050000,-5.430000,-0.304835,Hold,0.951660,0.000000,ResetBack,-399.000000,-0.250000,LowGoal,2100.000000,-2181.818182,Speed,2047.500000,-2181.818182,Speed,Off,Off,0.000000,FALSE,0,,,,,0.000000,0.000000
03:21:54.926 PM 04/09/2016,Teleop Enabled,10,FALSE,0,NO ERROR,-0.000000,-10.433476,-0.000000,-10.600309,FALSE,FALSE,TRUE,FALSE,FALSE,FALSE,Disabled,0.000000,0.833747,38.866253,TRUE,13.385071,-5.500671,0.000000,-0.049408,0.285568,0.000000,0.048000,-0.161000,0.078000,3.290000,-0.050000,-5.430000,-0.294194,Hold,0.951660,0.000000,Reset,-108.000000,2.000000,LowGoal,2115.000000,-2181.818182,Speed,2055.000000,-2181.818182,Speed,Off,Off,0.000000,FALSE,0,,,,,0.000000,0.000000
03:21:55.028 PM 04/09/2016,Teleop Enabled,11,FALSE,0,NO ERROR,-0.000000,-10.433476,-0.000000,-10.600309,FALSE,FALSE,TRUE,FALSE,FALSE,FALSE,Disabled,0.000000,0.833747,38.866253,TRUE,13.384369,-5.490936,0.000000,0.014282,0.139069,0.000000,0.229000,-0.146000,0.031000,3.320000,-0.050000,-5.400000,-0.291375,Hold,0.951660,0.000000,Hold,-26.000000,2.000000,LowGoal,2122.500000,-2181.818182,Speed,2055.000000,-2181.818182,Speed,Off,Off,0.000000,FALSE,0,,,,,0.000000,0.000000
03:21:55.128 PM 04/09/2016,Teleop Enabled,10,FALSE,0,NO ERROR,0.354331,-10.433476,-0.354331,-10.600309,FALSE,FALSE,TRUE,FALSE,FALSE,FALSE,Disabled,0.000000,0.833747,38.866253,TRUE,13.387970,-5.486755,0.000000,0.041779,0.084137,0.000000,-0.084000,0.211000,-0.055000,3.250000,-0.050000,-5.370000,-0.288042,Hold,0.951660,0.000000,Hold,-26.000000,2.000000,LowGoal,2122.500000,-2181.818182,Speed,2062.500000,-2181.818182,Speed,Off,Off,0.000000,FALSE,0,,,,,0.000000,0.000000
03:21:55.228 PM 04/09/2016,Teleop Enabled,9,FALSE,0,NO ERROR,0.291339,-10.176810,-0.291339,-10.343642,FALSE,FALSE,TRUE,FALSE,FALSE,FALSE,Disabled,0.000000,0.833747,38.866253,TRUE,13.386749,-5.477188,0.000000,-0.088104,0.260742,0.000000,-0.274000,0.200000,0.011000,3.260000,0.000000,-5.980000,-0.250783,Hold,0.951660,0.000000,Hold,-31.000000,2.000000,LowGoal,2122.500000,-2181.818182,Speed,2062.500000,-2181.818182,Speed,Off,Off,0.000000,FALSE,0,,,,,0.000000,0.000000
03:21:55.329 PM 04/09/2016,Teleop Enabled,9,FALSE,0,NO ERROR,0.291339,-9.329812,-0.291339,-9.438895,FALSE,FALSE,TRUE,FALSE,FALSE,FALSE,Disabled,0.000000,0.833747,38.866253,TRUE,13.374237,-5.458023,0.000000,-0.273087,0.323471,0.000000,-0.210000,0.023000,0.107000,3.270000,0.000000,-7.310000,-0.268712,Hold,0.951660,0.000000,Hold,-38.000000,2.000000,LowGoal,2092.500000,-2181.818182,Speed,2032.500000,-2181.818182,Speed,Off,Off,0.000000,FALSE,0,,,,,0.000000,0.000000
03:21:55.431 PM 04/09/2016,Teleop Enabled,10,FALSE,0,NO ERROR,0.409449,-8.174814,-0.409449,-8.322397,FALSE,FALSE,TRUE,FALSE,FALSE,FALSE,Disabled,0.000000,0.833747,38.866253,TRUE,13.359970,-5.441345,0.000000,-0.279068,0.331223,0.000000,-0.055000,-0.069000,-0.117000,3.280000,0.070000,-7.550000,-0.201641,Hold,0.951904,0.000000,Hold,-43.000000,2.000000,LowGoal,2077.500000,-2181.818182,Speed,2017.500000,-2181.818182,Speed,Off,Off,0.000000,FALSE,0,,,,,0.000000,0.000000
03:21:55.531 PM 04/09/2016,Teleop Enabled,11,FALSE,0,NO ERROR,0.409449,-6.679734,-0.409449,-6.840151,FALSE,FALSE,TRUE,FALSE,FALSE,FALSE,Disabled,0.000000,0.833747,38.866253,TRUE,13.343002,-5.423630,0.000000,-0.378174,0.378006,0.000000,0.010000,-0.030000,-0.128000,3.200000,0.150000,-8.100000,-0.158533,Hold,0.954346,0.000000,Hold,-44.000000,2.000000,LowGoal,2070.000000,-2181.818182,Speed,2017.500000,-2181.818182,Speed,Off,Off,0.000000,FALSE,0,,,,,0.000000,0.000000
03:21:55.631 PM 04/09/2016,Teleop Enabled,10,FALSE,0,NO ERROR,0.346457,-4.735489,-0.346457,-4.934405,FALSE,FALSE,TRUE,FALSE,FALSE,FALSE,Disabled,0.000000,0.833747,38.866253,TRUE,13.324036,-5.406738,0.000000,-0.406784,0.306610,0.000000,-0.160000,-0.035000,0.031000,3.220000,0.190000,-8.240000,-0.122803,Hold,0.956299,0.000000,Hold,-46.000000,2.000000,LowGoal,2062.500000,-2181.818182,Speed,2002.500000,-2181.818182,Speed,Off,Off,0.000000,FALSE,0,,,,,0.000000,0.000000
03:21:55.733 PM 04/09/2016,Teleop Enabled,9,FALSE,0,NO ERROR,0.338583,-2.585911,-0.338583,-2.816910,FALSE,FALSE,TRUE,FALSE,FALSE,FALSE,Disabled,0.000000,0.833747,38.866253,TRUE,13.298691,-5.389679,0.000000,-0.405991,0.293243,0.000000,-0.169000,0.122000,0.098000,3.080000,0.260000,-8.100000,-0.061395,Hold,0.956543,0.000000,Hold,-49.000000,2.000000,LowGoal,2055.000000,-2181.818182,Speed,2010.000000,-2181.818182,Speed,Off,Off,0.000000,FALSE,0,,,,,0.000000,0.000000
03:21:55.834 PM 04/09/2016,Teleop Enabled,10,FALSE,0,NO ERROR,0.338583,-0.436332,-0.338583,-0.692998,FALSE,FALSE,TRUE,FALSE,FALSE,FALSE,Disabled,0.000000,0.833747,38.866253,TRUE,13.275314,-5.375763,0.000000,-0.501038,0.210297,0.000000,-0.099000,-0.156000,0.074000,3.060000,0.360000,-8.140000,0.073426,Hold,0.956543,0.000000,Hold,-49.000000,2.000000,LowGoal,2070.000000,-2181.818182,Speed,2025.000000,-2181.818182,Speed,Off,Off,0.000000,FALSE,0,,,,,0.000000,0.000000
03:21:55.934 PM 04/09/2016,Teleop Enabled,9,FALSE,0,NO ERROR,0.338583,1.777413,-0.338583,1.462997,FALSE,FALSE,TRUE,FALSE,FALSE,FALSE,Disabled,0.000000,0.833747,38.866253,TRUE,13.250671,-5.369385,0.000000,-0.448044,0.084396,0.000000,0.070000,-0.098000,-0.076000,3.060000,0.470000,-8.120000,0.184170,Hold,0.956543,0.000000,Hold,-51.000000,2.000000,LowGoal,2085.000000,-2181.818182,Speed,2032.500000,-2181.818182,Speed,Off,Off,0.000000,FALSE,0,,,,,0.000000,0.000000
03:21:56.035 PM 04/09/2016,Teleop Enabled,11,FALSE,0,NO ERROR,0.354331,4.029657,-0.354331,3.721658,FALSE,FALSE,TRUE,FALSE,FALSE,FALSE,Disabled,0.000000,0.833747,38.866253,TRUE,13.230209,-5.366058,0.000000,-0.407364,0.083801,0.000000,-0.008000,0.061000,-0.135000,2.980000,0.580000,-8.210000,0.288528,Hold,0.956543,0.000000,Hold,-52.000000,2.000000,LowGoal,2085.000000,-2181.818182,Speed,2032.500000,-2181.818182,Speed,Off,Off,0.000000,FALSE,0,,,,,0.000000,0.000000
03:21:56.136 PM 04/09/2016,Teleop Enabled,11,FALSE,0,NO ERROR,0.362205,6.108652,-0.362205,5.909736,FALSE,FALSE,TRUE,FALSE,FALSE,FALSE,Disabled,0.000000,0.833747,38.866253,TRUE,13.210251,-5.360550,0.000000,-0.354095,0.124634,0.000000,1.387000,-0.080000,-0.152000,2.950000,0.470000,-8.080000,0.166833,Hold,0.956543,0.000000,Hold,-52.000000,2.000000,LowGoal,2092.500000,-2181.818182,Speed,2032.500000,-2181.818182,Speed,Off,Off,0.000000,FALSE,0,,,,,0.000000,0.000000
03:21:56.237 PM 04/09/2016,Teleop Enabled,11,FALSE,0,NO ERROR,0.370079,5.864820,-0.370079,5.428487,FALSE,FALSE,TRUE,FALSE,FALSE,FALSE,Disabled,0.000000,0.833747,38.866253,TRUE,13.219452,-5.357758,0.000000,0.296616,0.024506,0.000000,1.387000,-0.080000,-0.152000,2.950000,0.470000,-8.080000,-0.027868,Hold,1.062988,50.000000,Hold,-53.000000,143360.000000,LowGoal,2070.000000,-2181.818182,Speed,2017.500000,-2181.818182,Speed,Off,Off,0.000000,FALSE,0,,,,,0.000000,0.000000
03:21:56.339 PM 04/09/2016,Teleop Enabled,10,FALSE,0,NO ERROR,0.385827,5.903320,-0.385827,5.518320,FALSE,FALSE,TRUE,FALSE,FALSE,FALSE,Disabled,0.000000,0.833747,38.866253,TRUE,13.224503,-5.352203,0.000000,0.018967,0.135300,0.000000,0.030000,-0.108000,-0.121000,3.440000,0.340000,-5.890000,0.127943,Hold,3.548584,50.000000,Hold,-5746.000000,143360.000000,LowGoal,2062.500000,-2181.818182,Speed,1995.000000,-2181.818182,Speed,Off,Off,0.000000,FALSE,0,,,,,0.000000,0.000000
03:21:56.439 PM 04/09/2016,Teleop Enabled,11,FALSE,0,NO ERROR,0.393701,6.057319,-0.393701,5.717237,FALSE,FALSE,TRUE,FALSE,FALSE,FALSE,Disabled,0.000000,0.833747,38.866253,TRUE,13.226959,-5.345703,0.000000,0.101318,0.152267,0.000000,0.030000,-0.108000,-0.121000,3.160000,0.140000,-6.610000,-0.074170,Hold,6.272461,50.000000,Hold,-5746.000000,143360.000000,LowGoal,2062.500000,-2181.818182,Speed,1987.500000,-2181.818182,Speed,Off,Off,0.000000,FALSE,0,,,,,0.000000,0.000000
03:21:56.540 PM 04/09/2016,Teleop Enabled,10,FALSE,0,NO ERROR,0.385827,6.057319,-0.385827,5.697987,FALSE,FALSE,TRUE,FALSE,FALSE,FALSE,Disabled,0.000000,0.833747,38.866253,TRUE,13.230499,-5.335434,0.000000,0.052002,0.226761,0.000000,0.072000,-0.159000,-0.017000,3.160000,0.190000,-6.340000,-0.050554,Hold,10.027832,50.000000,Hold,-16534.000000,143360.000000,LowGoal,2055.000000,-2181.818182,Speed,1987.500000,-2181.818182,Speed,Off,Off,0.000000,FALSE,0,,,,,0.000000,0.000000
03:21:56.640 PM 04/09/2016,Teleop Enabled,10,FALSE,0,NO ERROR,0.385827,6.057319,-0.385827,5.697987,FALSE,FALSE,TRUE,FALSE,FALSE,FALSE,Disabled,0.000000,0.833747,38.866253,TRUE,13.233917,-5.328140,0.000000,0.074966,0.104462,0.000000,0.041000,0.089000,0.136000,3.190000,0.170000,-6.590000,-0.044189,Hold,10.027832,50.000000,Hold,-25934.000000,143360.000000,LowGoal,2040.000000,-2181.818182,Speed,1980.000000,-2181.818182,Speed,Off,Off,0.000000,FALSE,0,,,,,0.000000,0.000000
03:21:56.741 PM 04/09/2016,Teleop Enabled,10,FALSE,0,NO ERROR,0.385827,6.057319,-0.385827,5.697987,FALSE,FALSE,TRUE,FALSE,FALSE,FALSE,Disabled,0.000000,0.833747,38.866253,TRUE,13.240860,-5.320557,0.000000,0.115341,0.142517,0.000000,0.041000,0.089000,0.136000,3.180000,0.170000,-6.610000,-0.046340,Hold,19.226074,50.000000,Hold,-36011.000000,143360.000000,LowGoal,2040.000000,-2181.818182,Speed,1972.500000,-2181.818182,Speed,Off,Off,0.000000,FALSE,0,,,,,0.000000,0.000000
03:21:56.842 PM 04/09/2016,Teleop Enabled,10,FALSE,0,NO ERROR,0.377953,6.057319,-0.377953,5.697987,FALSE,FALSE,TRUE,FALSE,FALSE,FALSE,Disabled,0.000000,0.833747,38.866253,TRUE,13.245987,-5.313553,0.000000,0.105103,0.139847,0.000000,-0.028000,-0.009000,-0.042000,3.170000,0.170000,-6.740000,-0.046788,Hold,25.085693,50.000000,Hold,-46934.000000,143360.000000,LowGoal,2047.500000,-2181.818182,Speed,1972.500000,-2181.818182,Speed,Off,Off,0.000000,FALSE,0,,,,,0.000000,0.000000
03:21:56.942 PM 04/09/2016,Teleop Enabled,11,FALSE,0,NO ERROR,0.377953,6.057319,-0.377953,5.697987,FALSE,FALSE,TRUE,FALSE,FALSE,FALSE,Disabled,0.000000,0.833747,38.866253,TRUE,13.250885,-5.305954,0.000000,0.112808,0.148636,0.000000,-0.070000,-0.066000,0.076000,3.120000,0.160000,-6.760000,-0.060042,Hold,25.085693,50.000000,Hold,-46934.000000,143360.000000,LowGoal,2055.000000,-2181.818182,Speed,1980.000000,-2181.818182,Speed,Off,Off,0.000000,FALSE,0,,,,,0.000000,0.000000
03:21:57.042 PM 04/09/2016,Teleop Enabled,11,FALSE,0,NO ERROR,0.377953,6.057319,-0.377953,5.697987,FALSE,FALSE,TRUE,FALSE,FALSE,FALSE,Disabled,0.000000,0.833747,38.866253,TRUE,13.257065,-5.301025,0.000000,0.137604,0.058197,0.000000,0.022000,0.012000,0.054000,3.140000,0.180000,-6.820000,-0.067047,Hold,31.773682,50.000000,Hold,-60262.000000,143360.000000,LowGoal,2055.000000,-2181.818182,Speed,1987.500000,-2181.818182,Speed,Off,Off,0.000000,FALSE,0,,,,,0.000000,0.000000
03:21:57.142 PM 04/09/2016,Teleop Enabled,11,FALSE,0,NO ERROR,0.377953,6.057319,-0.377953,5.697987,FALSE,FALSE,TRUE,FALSE,FALSE,FALSE,Disabled,0.000000,0.833747,38.866253,TRUE,13.263123,-5.297302,0.000000,0.098816,0.120804,0.000000,0.017000,0.140000,-0.034000,3.110000,0.180000,-6.910000,-0.057222,Hold,40.716309,50.000000,Hold,-72585.000000,143360.000000,LowGoal,2055.000000,-2181.818182,Speed,1987.500000,-2181.818182,Speed,Off,Off,0.000000,FALSE,0,,,,,0.000000,0.000000
03:21:57.242 PM 04/09/2016,Teleop Enabled,10,FALSE,0,NO ERROR,0.377953,6.057319,-0.377953,5.697987,FALSE,FALSE,TRUE,FALSE,FALSE,FALSE,Disabled,0.000000,0.833747,38.866253,TRUE,13.262711,-5.287155,0.000000,0.003220,0.227295,0.000000,0.091000,0.086000,0.037000,3.110000,0.180000,-6.910000,-0.068782,Hold,49.085693,50.000000,Hold,-87223.000000,143360.000000,LowGoal,1890.000000,-2181.818182,Speed,1987.500000,-2181.818182,Speed,Off,Off,0.000000,FALSE,0,,,,,0.000000,0.000000
03:21:57.343 PM 04/09/2016,Teleop Enabled,10,FALSE,0,NO ERROR,0.377953,6.063736,-0.377953,5.697987,FALSE,FALSE,TRUE,FALSE,FALSE,FALSE,Disabled,0.000000,0.833747,38.866253,TRUE,13.264023,-5.276642,0.000000,0.027252,0.209015,0.000000,0.091000,0.086000,0.037000,3.160000,0.170000,-7.000000,-0.083296,Hold,54.368896,50.000000,Hold,-87223.000000,143360.000000,LowGoal,1890.000000,-2181.818182,Speed,1987.500000,-2181.818182,Speed,Off,Off,0.000000,FALSE,0,,,,,0.000000,0.000000
03:21:57.443 PM 04/09/2016,Teleop Enabled,11,FALSE,0,NO ERROR,0.377953,6.063736,-0.377953,5.697987,FALSE,FALSE,TRUE,FALSE,FALSE,FALSE,Disabled,0.000000,0.833747,38.866253,TRUE,13.265366,-5.263702,0.000000,0.003036,0.228241,0.000000,0.054000,0.082000,0.190000,3.120000,0.160000,-7.020000,-0.085028,Hold,55.419434,50.000000,Hold,-101557.000000,143360.000000,LowGoal,1845.000000,-2181.818182,Speed,1980.000000,-2181.818182,Speed,Off,Off,0.000000,FALSE,0,,,,,0.000000,0.000000
03:21:57.544 PM 04/09/2016,Teleop Enabled,10,FALSE,0,NO ERROR,0.377953,6.063736,-0.377953,5.697987,FALSE,FALSE,TRUE,FALSE,FALSE,FALSE,Disabled,0.000000,0.833747,38.866253,TRUE,13.265137,-5.250580,0.000000,-0.003891,0.300125,0.000000,-0.054000,0.037000,-0.085000,3.140000,0.170000,-7.050000,-0.086312,Hold,55.415283,50.000000,Hold,-116885.000000,143360.000000,LowGoal,2017.500000,-2181.818182,Speed,1972.500000,-2181.818182,Speed,Off,Off,0.000000,FALSE,0,,,,,0.000000,0.000000
03:21:57.645 PM 04/09/2016,Teleop Enabled,10,FALSE,0,NO ERROR,0.377953,6.063736,-0.377953,5.697987,FALSE,FALSE,TRUE,FALSE,FALSE,FALSE,Disabled,0.000000,0.833747,38.866253,TRUE,13.264465,-5.237198,0.000000,-0.050598,0.368118,0.000000,0.060000,0.082000,0.151000,3.200000,0.170000,-7.110000,-0.084955,Hold,55.412598,50.000000,Hold,-132162.000000,143360.000000,LowGoal,2077.500000,-2181.818182,Speed,1980.000000,-2181.818182,Speed,Off,Off,0.000000,FALSE,0,,,,,0.000000,0.000000
03:21:57.746 PM 04/09/2016,Teleop Enabled,9,FALSE,0,NO ERROR,0.377953,6.063736,-0.377953,5.697987,FALSE,FALSE,TRUE,FALSE,FALSE,FALSE,Disabled,0.000000,0.833747,38.866253,TRUE,13.262024,-5.216034,0.000000,-0.043488,0.440765,0.000000,0.060000,0.082000,0.151000,3.200000,0.170000,-7.110000,-0.072084,Hold,55.389648,50.000000,Hold,-144318.000000,143360.000000,LowGoal,2055.000000,-2181.818182,Speed,1987.500000,-2181.818182,Speed,Off,Off,0.000000,FALSE,0,,,,,0.000000,0.000000
03:21:57.846 PM 04/09/2016,Teleop Enabled,11,FALSE,0,NO ERROR,0.338583,6.063736,-0.338583,5.697987,FALSE,FALSE,TRUE,FALSE,FALSE,FALSE,Disabled,0.000000,0.833747,38.866253,TRUE,13.258057,-5.188919,0.000000,-0.084595,0.445145,0.000000,0.012000,0.001000,0.041000,3.150000,0.150000,-7.050000,-0.088959,Hold,55.369385,50.000000,Hold,-143427.000000,143360.000000,LowGoal,2032.500000,-2181.818182,Speed,1987.500000,-2181.818182,Speed,Off,Off,0.000000,FALSE,0,,,,,0.000000,0.000000
03:21:57.946 PM 04/09/2016,Teleop Enabled,10,FALSE,0,NO ERROR,-0.000000,5.839153,-0.000000,5.479821,FALSE,FALSE,TRUE,FALSE,FALSE,FALSE,Disabled,0.000000,0.833747,38.866253,TRUE,13.253632,-5.166473,0.000000,-0.057404,0.453934,0.000000,-0.061000,0.033000,0.041000,3.120000,0.140000,-7.040000,-0.109955,Hold,55.334961,50.000000,Hold,-143427.000000,143360.000000,LowGoal,2032.500000,-2181.818182,Speed,1995.000000,-2181.818182,Speed,Off,Off,0.000000,FALSE,0,,,,,0.000000,0.000000
03:21:58.048 PM 04/09/2016,Teleop Enabled,9,FALSE,0,NO ERROR,-0.000000,5.383571,-0.000000,4.934405,FALSE,FALSE,TRUE,FALSE,FALSE,FALSE,Disabled,0.000000,0.833747,38.866253,TRUE,13.254410,-5.142456,0.000000,0.019424,0.484253,0.000000,-0.032000,-0.026000,0.002000,3.100000,0.110000,-6.430000,-0.029183,Hold,55.256348,50.000000,Hold,-143427.000000,143360.000000,LowGoal,2025.000000,-2181.818182,Speed,2002.500000,-2181.818182,Speed,Off,Off,0.000000,FALSE,0,,,,,0.000000,0.000000
03:21:58.148 PM 04/09/2016,Teleop Enabled,10,FALSE,0,NO ERROR,-0.000000,4.883072,-0.000000,4.427490,FALSE,FALSE,TRUE,FALSE,FALSE,FALSE,Disabled,0.000000,0.833747,38.866253,TRUE,13.253098,-5.117874,0.000000,-0.052002,0.478897,0.000000,-0.032000,-0.026000,0.002000,3.170000,0.200000,-6.140000,-0.005814,Hold,54.980469,50.000000,Hold,-143427.000000,143360.000000,LowGoal,2070.000000,-2181.818182,Speed,2055.000000,-2181.818182,Speed,Off,Off,0.000000,FALSE,0,,,,,0.000000,0.000000
03:21:58.248 PM 04/09/2016,Teleop Enabled,9,FALSE,0,NO ERROR,-0.000000,4.376156,-0.000000,3.907741,FALSE,FALSE,TRUE,FALSE,FALSE,FALSE,Disabled,0.000000,0.833747,38.866253,TRUE,13.249023,-5.092163,0.000000,0.000000,0.530563,0.000000,-0.098000,0.078000,0.019000,3.190000,0.210000,-6.220000,-0.003570,Hold,54.979736,50.000000,Hold,-143427.000000,143360.000000,LowGoal,2107.500000,-2181.818182,Speed,2085.000000,-2181.818182,Speed,Off,Off,0.000000,FALSE,0,,,,,0.000000,0.000000
03:21:58.348 PM 04/09/2016,Teleop Enabled,9,FALSE,0,NO ERROR,-0.000000,3.849991,-0.000000,3.362325,FALSE,FALSE,TRUE,FALSE,FALSE,FALSE,Disabled,0.000000,0.833747,38.866253,TRUE,13.249023,-5.092163,0.000000,0.000000,0.530563,0.000000,0.104000,-0.011000,0.050000,3.190000,0.210000,-6.200000,0.040288,Hold,54.910645,50.000000,Hold,-143427.000000,143360.000000,LowGoal,2107.500000,-2181.818182,Speed,2085.000000,-2181.818182,Speed,Off,Off,0.000000,FALSE,0,,,,,0.000000,0.000000
03:21:58.449 PM 04/09/2016,Teleop Enabled,10,FALSE,0,NO ERROR,-0.000000,3.285326,-0.000000,2.797660,FALSE,FALSE,TRUE,FALSE,FALSE,FALSE,Disabled,0.000000,0.833747,38.866253,TRUE,13.249451,-5.064941,0.000000,-0.002777,0.552048,0.000000,0.112000,-0.186000,0.054000,3.260000,0.270000,-6.240000,0.046327,Hold,54.902100,50.000000,Hold,-143427.000000,143360.000000,LowGoal,2107.500000,-2181.818182,Speed,2077.500000,-2181.818182,Speed,Off,Off,0.000000,FALSE,0,,,,,0.000000,0.000000
03:21:58.549 PM 04/09/2016,Teleop Enabled,10,FALSE,0,NO ERROR,-0.000000,2.694994,-0.000000,2.181662,FALSE,FALSE,TRUE,FALSE,FALSE,FALSE,Disabled,0.000000,0.833747,38.866253,TRUE,13.250427,-5.040146,0.000000,0.028778,0.484467,0.000000,-0.006000,-0.012000,0.065000,3.250000,0.270000,-6.220000,0.095875,Hold,54.901123,50.000000,Hold,-143427.000000,143360.000000,LowGoal,2107.500000,-2181.818182,Speed,2077.500000,-2181.818182,Speed,Off,Off,0.000000,FALSE,0,,,,,0.000000,0.000000
03:21:58.650 PM 04/09/2016,Teleop Enabled,11,FALSE,0,NO ERROR,-0.000000,2.123912,-0.000000,1.572080,FALSE,FALSE,TRUE,FALSE,FALSE,FALSE,Disabled,0.000000,0.833747,38.866253,TRUE,13.253082,-5.011871,0.000000,0.070190,0.462112,0.000000,0.015000,0.088000,-0.081000,3.250000,0.320000,-6.170000,0.132848,Hold,54.899170,50.000000,Hold,-143427.000000,143360.000000,LowGoal,2100.000000,-2181.818182,Speed,2077.500000,-2181.818182,Speed,Off,Off,0.000000,FALSE,0,,,,,0.000000,0.000000
03:21:58.752 PM 04/09/2016,Teleop Enabled,9,FALSE,0,NO ERROR,-0.000000,1.520746,-0.000000,0.975331,FALSE,FALSE,TRUE,FALSE,FALSE,FALSE,Disabled,0.000000,0.833747,38.866253,TRUE,13.255035,-4.992065,0.000000,-0.004120,0.000000,0.000000,0.032000,0.006000,-0.084000,3.180000,0.370000,-6.270000,0.151356,Hold,54.879639,50.000000,Hold,-143427.000000,143360.000000,LowGoal,2115.000000,-2181.818182,Speed,2085.000000,-2181.818182,Speed,Off,Off,0.000000,FALSE,0,,,,,0.000000,0.000000
03:21:58.852 PM 04/09/2016,Teleop Enabled,9,FALSE,0,NO ERROR,-0.000000,0.917581,-0.000000,0.359332,FALSE,FALSE,TRUE,FALSE,FALSE,FALSE,Disabled,0.000000,0.833747,38.866253,TRUE,13.254486,-4.991730,0.000000,-0.031281,0.025497,0.000000,0.025000,-0.057000,-0.065000,3.230000,0.380000,-6.220000,0.177306,Hold,54.879395,50.000000,Hold,-143427.000000,143360.000000,LowGoal,2130.000000,-2181.818182,Speed,2085.000000,-2181.818182,Speed,Off,Off,0.000000,FALSE,0,,,,,0.000000,0.000000
03:21:58.954 PM 04/09/2016,Teleop Enabled,11,FALSE,0,NO ERROR,-0.000000,0.840581,-0.000000,0.417082,FALSE,FALSE,TRUE,FALSE,FALSE,FALSE,Disabled,0.000000,0.833747,38.866253,TRUE,13.252487,-4.990967,0.000000,-0.050262,0.008759,0.000000,-0.693000,-0.124000,0.165000,3.160000,0.410000,-6.260000,-0.143204,Hold,54.879150,50.000000,Hold,-143427.000000,143360.000000,LowGoal,2130.000000,-2181.818182,Speed,2077.500000,-2181.818182,Speed,Off,Off,0.000000,FALSE,0,,,,,0.000000,0.000000
03:21:59.056 PM 04/09/2016,Teleop Enabled,9,FALSE,0,NO ERROR,-0.000000,0.840581,-0.000000,0.417082,FALSE,FALSE,TRUE,FALSE,FALSE,FALSE,Disabled,0.000000,0.833747,38.866253,TRUE,13.240982,-4.991562,0.000000,-0.284607,-0.005264,0.000000,0.161000,0.036000,-0.199000,3.190000,0.120000,-7.090000,-0.143204,Hold,54.859375,50.000000,Hold,-143427.000000,143360.000000,LowGoal,2122.500000,-2181.818182,Speed,2085.000000,-2181.818182,Speed,Off,Off,0.000000,FALSE,0,,,,,0.000000,0.000000
03:21:59.159 PM 04/09/2016,Teleop Enabled,10,FALSE,0,NO ERROR,-0.000000,0.808498,-0.000000,0.378582,FALSE,FALSE,TRUE,FALSE,FALSE,FALSE,Disabled,0.000000,0.833747,38.866253,TRUE,13.228470,-4.991699,0.000000,-0.199646,-0.051346,0.000000,-0.162000,-0.093000,-0.030000,2.980000,0.120000,-6.830000,-0.128611,Hold,54.851318,50.000000,Hold,-143427.000000,143360.000000,LowGoal,2107.500000,-2181.818182,Speed,2077.500000,-2181.818182,Speed,Off,Off,0.000000,FALSE,0,,,,,0.000000,0.000000
03:21:59.259 PM 04/09/2016,Teleop Enabled,11,FALSE,0,NO ERROR,-0.000000,0.808498,-0.000000,0.378582,FALSE,FALSE,TRUE,FALSE,FALSE,FALSE,Disabled,0.000000,0.833747,38.866253,TRUE,13.217377,-4.995941,0.000000,-0.184128,-0.077652,0.000000,-0.063000,-0.042000,0.085000,3.130000,0.000000,-6.800000,-0.277422,Hold,54.846436,50.000000,Hold,-143427.000000,143360.000000,LowGoal,2100.000000,-2181.818182,Speed,2077.500000,-2181.818182,Speed,Off,Off,0.000000,FALSE,0,,,,,0.000000,0.000000
03:21:59.360 PM 04/09/2016,Teleop Enabled,11,FALSE,0,NO ERROR,-0.000000,0.802081,-0.000000,0.378582,FALSE,FALSE,TRUE,FALSE,FALSE,FALSE,Disabled,0.000000,0.833747,38.866253,TRUE,13.209900,-5.000305,0.000000,-0.181534,-0.134430,0.000000,0.127000,0.027000,0.035000,3.000000,0.030000,-6.760000,-0.236690,Hold,54.810303,50.000000,Hold,-143427.000000,143360.000000,LowGoal,2115.000000,-2181.818182,Speed,2085.000000,-2181.818182,Speed,Off,Off,0.000000,FALSE,0,,,,,0.000000,0.000000
03:21:59.461 PM 04/09/2016,Teleop Enabled,11,FALSE,0,NO ERROR,-0.000000,0.802081,-0.000000,0.378582,FALSE,FALSE,TRUE,FALSE,FALSE,FALSE,Disabled,0.000000,0.833747,38.866253,TRUE,13.201141,-5.007385,0.000000,-0.148880,-0.101700,0.000000,-0.059000,-0.066000,0.039000,3.060000,0.020000,-6.790000,-0.257906,Hold,54.800293,50.000000,Hold,-143427.000000,143360.000000,LowGoal,2107.500000,-2181.818182,Speed,2077.500000,-2181.818182,Speed,Off,Off,0.000000,FALSE,0,,,,,0.000000,0.000000
03:21:59.561 PM 04/09/2016,Teleop Enabled,10,FALSE,0,NO ERROR,-0.000000,0.802081,-0.000000,0.378582,FALSE,FALSE,TRUE,FALSE,FALSE,FALSE,Disabled,0.000000,0.833747,38.866253,TRUE,13.192596,-5.012558,0.000000,-0.178345,0.000000,0.000000,0.007000,0.014000,0.030000,2.970000,0.010000,-6.700000,-0.256622,Hold,54.797607,50.000000,Hold,-143427.000000,143360.000000,LowGoal,2107.500000,-2181.818182,Speed,2077.500000,-2181.818182,Speed,Off,Off,0.000000,FALSE,0,,,,,0.000000,0.000000
03:21:59.661 PM 04/09/2016,Teleop Enabled,11,FALSE,0,NO ERROR,-0.000000,0.802081,-0.000000,0.378582,FALSE,FALSE,TRUE,FALSE,FALSE,FALSE,Disabled,0.000000,0.833747,38.866253,TRUE,13.187180,-5.009293,0.000000,0.007034,0.099152,0.000000,0.000000,-0.031000,0.033000,2.970000,0.020000,-6.720000,-0.260836,Hold,54.794678,50.000000,Hold,-143427.000000,143360.000000,LowGoal,2122.500000,-2181.818182,Speed,2085.000000,-2181.818182,Speed,Off,Off,0.000000,FALSE,0,,,,,0.000000,0.000000
03:21:59.761 PM 04/09/2016,Teleop Enabled,12,FALSE,0,NO ERROR,-0.000000,0.802081,-0.000000,0.378582,FALSE,FALSE,TRUE,FALSE,FALSE,FALSE,Disabled,0.000000,0.833747,38.866253,TRUE,13.186295,-5.005127,0.000000,-0.042664,0.073074,0.000000,0.027000,-0.067000,0.063000,2.930000,0.000000,-6.680000,-0.255025,Hold,54.791504,50.000000,Hold,-143427.000000,143360.000000,LowGoal,2130.000000,-2181.818182,Speed,2085.000000,-2181.818182,Speed,Off,Off,0.000000,FALSE,0,,,,,0.000000,0.000000
03:21:59.861 PM 04/09/2016,Teleop Enabled,11,FALSE,0,NO ERROR,-0.000000,0.802081,-0.000000,0.378582,FALSE,FALSE,TRUE,FALSE,FALSE,FALSE,Disabled,0.000000,0.833747,38.866253,TRUE,13.184616,-5.002075,0.000000,-0.031494,0.049210,0.000000,0.160000,-0.026000,0.163000,3.000000,0.000000,-6.660000,-0.253255,Hold,54.789795,50.000000,Hold,-143427.000000,143360.000000,LowGoal,2115.000000,-2181.818182,Speed,2085.000000,-2181.818182,Speed,Off,Off,0.000000,FALSE,0,,,,,0.000000,0.000000
03:21:59.963 PM 04/09/2016,Teleop Enabled,11,FALSE,0,NO ERROR,-0.000000,0.802081,-0.000000,0.378582,FALSE,FALSE,TRUE,FALSE,FALSE,FALSE,Disabled,0.000000,0.833747,38.866253,TRUE,13.185440,-5.000793,0.000000,0.028656,-0.012482,0.000000,-0.017000,-0.041000,0.093000,2.940000,0.000000,-6.680000,-0.263135,Hold,54.788574,50.000000,Hold,-143427.000000,143360.000000,LowGoal,2130.000000,-2181.818182,Speed,2077.500000,-2181.818182,Speed,Off,Off,0.000000,FALSE,0,,,,,0.000000,0.000000
03:22:00.063 PM 04/09/2016,Teleop Enabled,11,FALSE,0,NO ERROR,-0.000000,0.802081,-0.000000,0.378582,FALSE,FALSE,TRUE,FALSE,FALSE,FALSE,Disabled,0.000000,0.833747,38.866253,TRUE,13.185532,-5.002472,0.000000,-0.014709,-0.025604,0.000000,0.030000,0.068000,0.061000,2.960000,0.000000,-6.700000,-0.272241,Hold,54.787598,50.000000,Hold,-143427.000000,143360.000000,LowGoal,2130.000000,-2181.818182,Speed,2085.000000,-2181.818182,Speed,Off,Off,0.000000,FALSE,0,,,,,0.000000,0.000000
03:22:00.163 PM 04/09/2016,Teleop Enabled,12,FALSE,0,NO ERROR,-0.000000,0.802081,-0.000000,0.378582,FALSE,FALSE,TRUE,FALSE,FALSE,FALSE,Disabled,0.000000,0.833747,38.866253,TRUE,13.185852,-5.002335,0.000000,0.017578,0.009979,0.000000,0.021000,-0.041000,0.001000,2.950000,0.000000,-6.700000,-0.285901,Hold,54.786621,50.000000,Hold,-143427.000000,143360.000000,LowGoal,2115.000000,-2181.818182,Speed,2085.000000,-2181.818182,Speed,Off,Off,0.000000,FALSE,0,,,,,0.000000,0.000000
03:22:00.263 PM 04/09/2016,Teleop Enabled,10,FALSE,0,NO ERROR,-0.000000,0.802081,-0.000000,0.378582,FALSE,FALSE,TRUE,FALSE,FALSE,FALSE,Disabled,0.000000,0.833747,38.866253,TRUE,13.186356,-5.002380,0.000000,-0.007446,-0.000229,0.000000,-0.007000,0.016000,0.009000,2.950000,0.000000,-6.670000,-0.288397,Hold,54.786377,50.000000,Hold,-143427.000000,143360.000000,LowGoal,2107.500000,-2181.818182,Speed,2077.500000,-2181.818182,Speed,Off,Off,0.000000,FALSE,0,,,,,0.000000,0.000000
03:22:00.364 PM 04/09/2016,Teleop Enabled,10,FALSE,0,NO ERROR,-0.000000,0.802081,-0.000000,0.378582,FALSE,FALSE,TRUE,FALSE,FALSE,FALSE,Disabled,0.000000,0.833747,38.866253,TRUE,13.185013,-5.002274,0.000000,-0.037628,0.014328,0.000000,0.050000,0.073000,0.057000,3.000000,-0.010000,-6.670000,-0.279260,Hold,54.785889,50.000000,Hold,-143427.000000,143360.000000,LowGoal,2115.000000,-2181.818182,Speed,2085.000000,-2181.818182,Speed,Off,Off,0.000000,FALSE,0,,,,,0.000000,0.000000
03:22:00.464 PM 04/09/2016,Teleop Enabled,10,FALSE,0,NO ERROR,-0.000000,0.802081,-0.000000,0.378582,FALSE,FALSE,TRUE,FALSE,FALSE,FALSE,Disabled,0.000000,0.833747,38.866253,TRUE,13.183716,-5.000031,0.000000,-0.037750,0.047043,0.000000,-0.115000,0.024000,0.011000,2.940000,-0.010000,-6.660000,-0.274134,Hold,54.785400,50.000000,Hold,-143427.000000,143360.000000,LowGoal,2115.000000,-2181.818182,Speed,2085.000000,-2181.818182,Speed,Off,Off,0.000000,FALSE,0,,,,,0.000000,0.000000
03:22:00.564 PM 04/09/2016,Teleop Enabled,11,FALSE,0,NO ERROR,-0.000000,0.802081,-0.000000,0.378582,FALSE,FALSE,TRUE,FALSE,FALSE,FALSE,Disabled,0.000000,0.833747,38.866253,TRUE,13.181564,-4.997086,0.000000,-0.012711,0.063187,0.000000,0.034000,-0.077000,0.079000,3.030000,-0.010000,-6.670000,-0.281777,Hold,54.784668,50.000000,Hold,-143427.000000,143360.000000,LowGoal,2115.000000,-2181.818182,Speed,2085.000000,-2181.818182,Speed,Off,Off,0.000000,FALSE,0,,,,,0.000000,0.000000
03:22:00.664 PM 04/09/2016,Teleop Enabled,10,FALSE,0,NO ERROR,-0.000000,0.802081,-0.000000,0.378582,FALSE,FALSE,TRUE,FALSE,FALSE,FALSE,Disabled,0.000000,0.833747,38.866253,TRUE,13.181259,-4.997223,0.000000,-0.000565,-0.028946,0.000000,0.155000,0.027000,0.025000,2.970000,-0.020000,-6.670000,-0.285856,Hold,54.784424,50.000000,Hold,-143427.000000,143360.000000,LowGoal,2115.000000,-2181.818182,Speed,2085.000000,-2181.818182,Speed,Off,Off,0.000000,FALSE,0,,,,,0.000000,0.000000
03:22:00.766 PM 04/09/2016,Teleop Enabled,10,FALSE,0,NO ERROR,-0.000000,0.802081,-0.000000,0.378582,FALSE,FALSE,TRUE,FALSE,FALSE,FALSE,Disabled,0.000000,0.833747,38.866253,TRUE,13.183365,-4.997894,0.000000,0.078201,-0.022797,0.000000,0.044000,-0.001000,-0.010000,3.040000,-0.020000,-6.580000,-0.299626,Hold,54.784180,50.000000,Hold,-143427.000000,143360.000000,LowGoal,2122.500000,-2181.818182,Speed,2085.000000,-2181.818182,Speed,Off,Off,0.000000,FALSE,0,,,,,0.000000,0.000000
03:22:00.867 PM 04/09/2016,Teleop Enabled,10,FALSE,0,NO ERROR,-0.000000,0.802081,-0.000000,0.378582,FALSE,FALSE,TRUE,FALSE,FALSE,FALSE,Disabled,0.000000,0.833747,38.866253,TRUE,13.185043,-4.998657,0.000000,-0.005844,0.005646,0.000000,-0.116000,-0.019000,-0.070000,3.050000,-0.030000,-6.660000,-0.306147,Hold,54.783936,50.000000,Hold,-143427.000000,143360.000000,LowGoal,2122.500000,-2181.818182,Speed,2085.000000,-2181.818182,Speed,Off,Off,0.000000,FALSE,0,,,,,0.000000,0.000000
03:22:00.967 PM 04/09/2016,Teleop Enabled,9,FALSE,0,NO ERROR,-0.000000,0.802081,-0.000000,0.378582,FALSE,FALSE,TRUE,FALSE,FALSE,FALSE,Disabled,0.000000,0.833747,38.866253,TRUE,13.182953,-4.997742,0.000000,-0.072906,0.050949,0.000000,-0.041000,0.118000,-0.059000,3.050000,-0.030000,-6.640000,-0.313648,Hold,54.783936,50.000000,Hold,-143427.000000,143360.000000,LowGoal,2130.000000,-2181.818182,Speed,2085.000000,-2181.818182,Speed,Off,Off,0.000000,FALSE,0,,,,,0.000000,0.000000
03:22:01.068 PM 04/09/2016,Teleop Enabled,9,FALSE,0,NO ERROR,-0.000000,0.802081,-0.000000,0.378582,FALSE,FALSE,TRUE,FALSE,FALSE,FALSE,Disabled,0.000000,0.833747,38.866253,TRUE,13.179077,-4.993500,0.000000,-0.087341,0.082932,0.000000,-0.006000,-0.082000,-0.077000,3.070000,-0.030000,-6.720000,-0.322199,Hold,54.783936,50.000000,Hold,-143427.000000,143360.000000,LowGoal,2130.000000,-2181.818182,Speed,2085.000000,-2181.818182,Speed,Off,Off,0.000000,FALSE,0,,,,,0.000000,0.000000
03:22:01.171 PM 04/09/2016,Teleop Enabled,8,FALSE,0,NO ERROR,-0.000000,0.802081,-0.000000,0.378582,FALSE,FALSE,TRUE,FALSE,FALSE,FALSE,Disabled,0.000000,0.833747,38.866253,TRUE,13.175583,-4.988312,0.000000,-0.064804,0.128021,0.000000,-0.011000,-0.028000,0.012000,3.090000,-0.030000,-6.660000,-0.322299,Hold,54.783447,50.000000,Hold,-143427.000000,143360.000000,LowGoal,2122.500000,-2181.818182,Speed,2085.000000,-2181.818182,Speed,Off,Off,0.000000,FALSE,0,,,,,0.000000,0.000000
03:22:01.273 PM 04/09/2016,Teleop Enabled,16,FALSE,0,NO ERROR,-0.000000,0.802081,-0.000000,0.378582,FALSE,FALSE,TRUE,FALSE,FALSE,FALSE,Disabled,0.000000,0.833747,38.866253,TRUE,13.170456,-4.981705,0.000000,-0.085480,0.108078,0.000000,0.017000,-0.001000,0.046000,3.140000,-0.030000,-6.690000,-0.328241,Hold,54.783203,50.000000,Hold,-143427.000000,143360.000000,LowGoal,2130.000000,-2181.818182,Speed,2085.000000,-2181.818182,Speed,Off,Off,0.000000,FALSE,0,,,,,0.000000,0.000000
03:22:01.373 PM 04/09/2016,Teleop Enabled,10,FALSE,0,NO ERROR,-0.000000,0.802081,-0.000000,0.378582,FALSE,FALSE,TRUE,FALSE,FALSE,FALSE,Disabled,0.000000,0.833747,38.866253,TRUE,13.168350,-4.977310,0.000000,-0.024704,0.069672,0.000000,0.007000,-0.008000,0.013000,3.170000,-0.040000,-6.610000,-0.331766,Hold,54.782471,50.000000,Hold,-143427.000000,143360.000000,LowGoal,2130.000000,-2181.818182,Speed,2085.000000,-2181.818182,Speed,Off,Off,0.000000,FALSE,0,,,,,0.000000,0.000000
03:22:01.473 PM 04/09/2016,Teleop Enabled,10,FALSE,0,NO ERROR,-0.000000,0.802081,-0.000000,0.378582,FALSE,FALSE,TRUE,FALSE,FALSE,FALSE,Disabled,0.000000,0.833747,38.866253,TRUE,13.167099,-4.973465,0.000000,-0.024139,0.089493,0.000000,-0.064000,0.009000,-0.026000,3.200000,-0.040000,-6.570000,-0.345771,Hold,54.781494,50.000000,Hold,-143427.000000,143360.000000,LowGoal,2115.000000,-2181.818182,Speed,2092.500000,-2181.818182,Speed,Off,Off,0.000000,FALSE,0,,,,,0.000000,0.000000
03:22:01.574 PM 04/09/2016,Teleop Enabled,11,FALSE,0,NO ERROR,-0.000000,0.802081,-0.000000,0.378582,FALSE,FALSE,TRUE,FALSE,FALSE,FALSE,Disabled,0.000000,0.833747,38.866253,TRUE,13.165329,-4.972717,0.000000,-0.013687,-0.003769,0.000000,0.154000,0.003000,-0.046000,3.170000,-0.050000,-6.620000,-0.357035,Hold,54.781494,50.000000,Hold,-143427.000000,143360.000000,LowGoal,2100.000000,-2181.818182,Speed,2085.000000,-2181.818182,Speed,Off,Off,0.000000,FALSE,0,,,,,0.000000,0.000000
03:22:01.675 PM 04/09/2016,Teleop Enabled,11,FALSE,0,NO ERROR,-0.000000,0.802081,-0.000000,0.378582,FALSE,FALSE,TRUE,FALSE,FALSE,FALSE,Disabled,0.000000,0.833747,38.866253,TRUE,13.164841,-4.973587,0.000000,-0.042923,-0.016678,0.000000,-0.072000,0.069000,0.021000,3.170000,-0.050000,-6.620000,-0.357737,Hold,54.780029,50.000000,Hold,-143427.000000,143360.000000,LowGoal,2107.500000,-2181.818182,Speed,2085.000000,-2181.818182,Speed,Off,Off,0.551181,FALSE,0,,,,,0.000000,0.000000
03:22:01.777 PM 04/09/2016,Teleop Enabled,9,FALSE,0,NO ERROR,-0.000000,0.802081,-0.000000,0.378582,FALSE,FALSE,TRUE,FALSE,FALSE,FALSE,Disabled,0.000000,0.833747,38.866253,TRUE,13.164047,-4.973785,0.000000,0.031754,0.003113,0.000000,0.024000,0.119000,0.019000,3.160000,-0.060000,-6.670000,-0.370884,Hold,54.778809,50.000000,Hold,-143427.000000,143360.000000,LowGoal,2107.500000,-2181.818182,Speed,2077.500000,-2181.818182,Speed,Off,Off,0.771654,FALSE,0,,,,,0.000000,0.000000
03:22:01.879 PM 04/09/2016,Teleop Enabled,12,FALSE,0,NO ERROR,-0.000000,0.802081,-0.000000,0.378582,FALSE,FALSE,TRUE,FALSE,FALSE,FALSE,Disabled,0.000000,0.833747,38.866253,TRUE,13.165253,-4.970612,0.000000,-0.005707,0.064667,0.000000,0.012000,-0.069000,0.023000,3.170000,-0.050000,-6.690000,-0.406139,Hold,54.777588,50.000000,Hold,-143427.000000,143360.000000,LowGoal,2100.000000,-2181.818182,Speed,2077.500000,-2181.818182,Speed,Off,Off,0.897638,FALSE,0,,,,,0.000000,0.000000
03:22:01.978 PM 04/09/2016,Teleop Enabled,10,FALSE,0,NO ERROR,-0.000000,0.802081,-0.000000,0.378582,FALSE,FALSE,TRUE,FALSE,FALSE,FALSE,Disabled,0.000000,0.833747,38.866253,TRUE,13.165344,-4.969421,0.000000,0.014618,-0.008377,0.000000,0.009000,-0.080000,0.153000,3.220000,-0.060000,-6.690000,-0.411041,Hold,54.777588,50.000000,Hold,-143427.000000,143360.000000,LowGoal,2092.500000,-2181.818182,Speed,2047.500000,-2181.818182,Speed,Off,Off,1.000000,FALSE,0,,,,,0.000000,0.000000
03:22:02.079 PM 04/09/2016,Teleop Enabled,9,FALSE,0,NO ERROR,-0.000000,0.802081,-0.000000,0.378582,FALSE,FALSE,TRUE,FALSE,FALSE,FALSE,Disabled,0.000000,0.833747,38.866253,TRUE,13.165863,-4.970123,0.000000,0.019028,-0.015320,0.000000,0.054000,-0.073000,0.007000,3.270000,-0.060000,-6.700000,-0.428953,Hold,54.777344,50.000000,Hold,-143427.000000,143360.000000,LowGoal,2062.500000,-2181.818182,Speed,2032.500000,-2181.818182,Speed,Off,Off,1.000000,FALSE,0,,,,,0.000000,0.000000
03:22:02.178 PM 04/09/2016,Teleop Enabled,10,FALSE,0,NO ERROR,-0.000000,0.802081,-0.000000,0.378582,FALSE,FALSE,TRUE,FALSE,FALSE,FALSE,Disabled,0.000000,0.833747,38.866253,TRUE,13.165527,-4.970917,0.000000,-0.024643,-0.000229,0.000000,-0.036000,0.068000,-0.020000,3.240000,-0.060000,-6.690000,-0.440988,Hold,54.777344,50.000000,Hold,-143427.000000,143360.000000,LowGoal,2062.500000,-2181.818182,Speed,2032.500000,-2181.818182,Speed,Off,Off,1.000000,FALSE,0,,,,,0.000000,0.000000
03:22:02.280 PM 04/09/2016,Teleop Enabled,9,FALSE,0,NO ERROR,-0.000000,0.802081,-0.000000,0.378582,FALSE,FALSE,TRUE,FALSE,FALSE,FALSE,Disabled,0.000000,0.833747,38.866253,TRUE,13.164932,-4.970947,0.000000,0.011047,-0.017288,0.000000,0.142000,-0.037000,0.041000,3.210000,-0.060000,-6.700000,-0.457557,Hold,54.777344,50.000000,Hold,-143427.000000,143360.000000,LowGoal,2047.500000,-2181.818182,Speed,2010.000000,-2181.818182,Speed,Off,Off,1.000000,FALSE,0,,,,,0.000000,0.000000
03:22:02.381 PM 04/09/2016,Teleop Enabled,11,FALSE,0,NO ERROR,-0.000000,0.802081,-0.000000,0.378582,FALSE,FALSE,TRUE,FALSE,FALSE,FALSE,Disabled,0.000000,0.833747,38.866253,TRUE,13.166626,-4.972900,0.000000,0.044769,-0.041916,0.000000,0.012000,0.054000,-0.148000,3.180000,-0.060000,-6.710000,-0.471558,Hold,54.777344,50.000000,Hold,-143427.000000,143360.000000,LowGoal,2047.500000,-2181.818182,Speed,2002.500000,-2181.818182,Speed,Off,Off,1.000000,FALSE,0,,,,,0.000000,0.000000
03:22:02.481 PM 04/09/2016,Teleop Enabled,10,FALSE,0,NO ERROR,-0.000000,0.802081,-0.000000,0.378582,FALSE,FALSE,TRUE,FALSE,FALSE,FALSE,Disabled,0.000000,0.833747,38.866253,TRUE,13.168793,-4.973877,0.000000,0.000000,-0.014923,0.000000,0.012000,0.054000,-0.148000,3.180000,-0.060000,-6.710000,-0.480939,Hold,54.777344,50.000000,Hold,-143427.000000,143360.000000,LowGoal,2055.000000,-2181.818182,Speed,2002.500000,-2181.818182,Speed,Off,Off,1.000000,FALSE,0,,,,,0.000000,0.000000
03:22:02.581 PM 04/09/2016,Teleop Enabled,10,FALSE,0,NO ERROR,-0.000000,0.802081,-0.000000,0.378582,FALSE,FALSE,TRUE,FALSE,FALSE,FALSE,Disabled,0.000000,0.833747,38.866253,TRUE,13.168839,-4.974884,0.000000,-0.000412,-0.017746,0.000000,-0.035000,-0.011000,0.044000,3.190000,-0.070000,-6.630000,-0.513988,Hold,54.777344,50.000000,Hold,-143427.000000,143360.000000,LowGoal,2047.500000,-2181.818182,Speed,2002.500000,-2181.818182,Speed,Off,Off,1.000000,FALSE,0,,,,,0.000000,0.000000
03:22:02.682 PM 04/09/2016,Teleop Enabled,10,FALSE,0,NO ERROR,-0.000000,0.802081,-0.000000,0.378582,FALSE,FALSE,TRUE,FALSE,FALSE,FALSE,Disabled,0.000000,0.833747,38.866253,TRUE,13.169357,-4.975449,0.000000,0.011932,0.000000,0.000000,0.071000,-0.008000,0.128000,3.210000,-0.080000,-6.660000,-0.516088,Hold,54.777344,50.000000,Hold,-143427.000000,143360.000000,LowGoal,2047.500000,-2181.818182,Speed,2010.000000,-2181.818182,Speed,Off,Off,1.000000,FALSE,0,,,,,0.000000,0.000000
03:22:02.783 PM 04/09/2016,Teleop Enabled,9,FALSE,0,NO ERROR,-0.000000,0.802081,-0.000000,0.378582,FALSE,FALSE,TRUE,FALSE,FALSE,FALSE,Disabled,0.000000,0.833747,38.866253,TRUE,13.170990,-4.974701,0.000000,0.013229,0.009552,0.000000,0.073000,0.067000,0.052000,3.210000,-0.080000,-6.660000,-0.523197,Hold,54.777344,50.000000,Hold,-143427.000000,143360.000000,LowGoal,2025.000000,-2181.818182,Speed,2010.000000,-2181.818182,Speed,Off,Off,1.000000,FALSE,0,,,,,0.000000,0.000000
03:22:02.884 PM 04/09/2016,Teleop Enabled,10,FALSE,0,NO ERROR,-0.000000,0.802081,-0.000000,0.378582,FALSE,FALSE,TRUE,FALSE,FALSE,FALSE,Disabled,0.000000,0.833747,38.866253,TRUE,13.172409,-4.973770,0.000000,0.030334,0.028137,0.000000,0.078000,-0.007000,-0.057000,3.190000,-0.070000,-6.690000,-0.519888,Hold,54.777344,50.000000,Hold,-143427.000000,143360.000000,LowGoal,2025.000000,-2181.818182,Speed,2010.000000,-2181.818182,Speed,Off,Off,1.000000,FALSE,0,,,,,0.000000,0.000000
03:22:02.984 PM 04/09/2016,Teleop Enabled,10,FALSE,0,NO ERROR,-0.000000,0.802081,-0.000000,0.378582,FALSE,FALSE,TRUE,FALSE,FALSE,FALSE,Disabled,0.000000,0.833747,38.866253,TRUE,13.174393,-4.972977,0.000000,0.049042,0.025726,0.000000,0.089000,0.062000,-0.032000,3.260000,-0.080000,-6.670000,-0.520405,Hold,54.777344,50.000000,Hold,-143427.000000,143360.000000,LowGoal,2032.500000,-2181.818182,Speed,2002.500000,-2181.818182,Speed,Off,Off,1.000000,FALSE,0,,,,,0.000000,0.000000
03:22:03.085 PM 04/09/2016,Teleop Enabled,10,FALSE,0,NO ERROR,-0.000000,0.802081,-0.000000,0.378582,FALSE,FALSE,TRUE,FALSE,FALSE,FALSE,Disabled,0.000000,0.833747,38.866253,TRUE,13.176514,-4.971313,0.000000,0.040604,0.041718,0.000000,0.059000,0.020000,0.054000,3.230000,-0.080000,-6.680000,-0.521816,Hold,54.777344,50.000000,Hold,-143427.000000,143360.000000,LowGoal,2040.000000,-2181.818182,Speed,2010.000000,-2181.818182,Speed,Off,Off,1.000000,FALSE,0,,,,,0.000000,0.000000
03:22:03.186 PM 04/09/2016,Teleop Enabled,11,FALSE,0,NO ERROR,-0.000000,0.802081,-0.000000,0.378582,FALSE,FALSE,TRUE,FALSE,FALSE,FALSE,Disabled,0.000000,0.833747,38.866253,TRUE,13.176819,-4.967697,0.000000,-0.028000,0.069565,0.000000,0.059000,0.020000,0.054000,3.230000,-0.080000,-6.680000,-0.542354,Hold,54.777344,50.000000,Hold,-143427.000000,143360.000000,LowGoal,2047.500000,-2181.818182,Speed,2010.000000,-2181.818182,Speed,Off,Off,0.000000,FALSE,0,,,,,0.000000,0.000000
03:22:03.286 PM 04/09/2016,Teleop Enabled,9,FALSE,0,NO ERROR,-0.000000,0.802081,-0.000000,0.378582,FALSE,FALSE,TRUE,FALSE,FALSE,FALSE,Disabled,0.000000,0.833747,38.866253,TRUE,13.175751,-4.965668,0.000000,-0.017029,0.023712,0.000000,-0.010000,-0.107000,0.081000,3.140000,-0.090000,-6.670000,-0.551357,Hold,54.777344,50.000000,Hold,-143427.000000,143360.000000,LowGoal,2055.000000,-2181.818182,Speed,2010.000000,-2181.818182,Speed,Off,Off,0.000000,FALSE,0,,,,,0.000000,0.000000
03:22:03.386 PM 04/09/2016,Teleop Enabled,10,FALSE,0,NO ERROR,-0.000000,0.802081,-0.000000,0.378582,FALSE,FALSE,TRUE,FALSE,FALSE,FALSE,Disabled,0.000000,0.833747,38.866253,TRUE,13.175827,-4.962936,0.000000,0.018509,0.074112,0.000000,0.106000,0.023000,-0.025000,3.120000,-0.090000,-6.700000,-0.549931,Hold,54.777344,50.000000,Hold,-143427.000000,143360.000000,LowGoal,2062.500000,-2181.818182,Speed,2025.000000,-2181.818182,Speed,Off,Off,0.000000,FALSE,0,,,,,0.000000,0.000000
03:22:03.486 PM 04/09/2016,Teleop Enabled,12,FALSE,0,NO ERROR,-0.000000,0.802081,-0.000000,0.378582,FALSE,FALSE,TRUE,FALSE,FALSE,FALSE,Disabled,0.000000,0.833747,38.866253,TRUE,13.174652,-4.958038,0.000000,-0.052246,0.119568,0.000000,-0.138000,0.030000,-0.083000,3.110000,-0.080000,-6.690000,-0.567306,Hold,54.776367,50.000000,Hold,-143427.000000,143360.000000,LowGoal,2092.500000,-2181.818182,Speed,2070.000000,-2181.818182,Speed,Off,Off,0.000000,FALSE,0,,,,,0.000000,0.000000
03:22:03.585 PM 04/09/2016,Teleop Enabled,11,FALSE,0,NO ERROR,-0.000000,0.802081,-0.000000,0.378582,FALSE,FALSE,TRUE,FALSE,FALSE,FALSE,Disabled,0.000000,0.833747,38.866253,TRUE,13.174652,-4.958038,0.000000,-0.052246,0.119568,0.000000,-0.068000,-0.038000,0.018000,3.080000,-0.090000,-6.700000,-0.589631,Hold,54.771729,50.000000,Hold,-143427.000000,143360.000000,LowGoal,2107.500000,-2181.818182,Speed,2085.000000,-2181.818182,Speed,Off,Off,0.000000,FALSE,0,,,,,0.000000,0.000000
03:22:03.686 PM 04/09/2016,Teleop Enabled,10,FALSE,0,NO ERROR,-0.000000,0.802081,-0.000000,0.378582,FALSE,FALSE,TRUE,FALSE,FALSE,FALSE,Disabled,0.000000,0.833747,38.866253,TRUE,13.171127,-4.950912,0.000000,-0.051498,0.142899,0.000000,-0.003000,-0.110000,0.039000,3.190000,-0.090000,-6.620000,-0.615894,Hold,54.769775,50.000000,Hold,-143427.000000,143360.000000,LowGoal,2115.000000,-2181.818182,Speed,2085.000000,-2181.818182,Speed,Off,Off,0.000000,FALSE,0,,,,,0.000000,0.000000
03:22:03.787 PM 04/09/2016,Teleop Enabled,10,FALSE,0,NO ERROR,-0.000000,0.802081,-0.000000,0.378582,FALSE,FALSE,TRUE,FALSE,FALSE,FALSE,Disabled,0.000000,0.833747,38.866253,TRUE,13.168015,-4.944946,0.000000,-0.073349,0.104767,0.000000,-0.003000,-0.093000,0.116000,3.100000,-0.100000,-6.680000,-0.614445,Hold,54.769043,50.000000,Hold,-143427.000000,143360.000000,LowGoal,2115.000000,-2181.818182,Speed,2085.000000,-2181.818182,Speed,Off,Off,0.000000,FALSE,0,,,,,0.000000,0.000000
03:22:03.888 PM 04/09/2016,Teleop Enabled,9,FALSE,0,NO ERROR,-0.000000,0.802081,-0.000000,0.378582,FALSE,FALSE,TRUE,FALSE,FALSE,FALSE,Disabled,0.000000,0.833747,38.866253,TRUE,13.167679,-4.941589,0.000000,0.022385,0.045212,0.000000,0.016000,-0.087000,0.067000,3.180000,-0.100000,-6.670000,-0.623743,Hold,54.768311,50.000000,Hold,-143427.000000,143360.000000,LowGoal,2122.500000,-2181.818182,Speed,2077.500000,-2181.818182,Speed,Off,Off,0.000000,FALSE,0,,,,,0.000000,0.000000
03:22:03.989 PM 04/09/2016,Teleop Enabled,9,FALSE,0,NO ERROR,-0.000000,0.802081,-0.000000,0.378582,FALSE,FALSE,TRUE,FALSE,FALSE,FALSE,Disabled,0.000000,0.833747,38.866253,TRUE,13.169586,-4.940628,0.000000,0.017838,0.009338,0.000000,0.022000,-0.003000,0.060000,3.140000,-0.100000,-6.680000,-0.629183,Hold,54.768066,50.000000,Hold,-143427.000000,143360.000000,LowGoal,2130.000000,-2181.818182,Speed,2085.000000,-2181.818182,Speed,Off,Off,0.000000,FALSE,0,,,,,0.000000,0.000000
03:22:04.091 PM 04/09/2016,Teleop Enabled,9,FALSE,0,NO ERROR,-0.000000,0.802081,-0.000000,0.378582,FALSE,FALSE,TRUE,FALSE,FALSE,FALSE,Disabled,0.000000,0.833747,38.866253,TRUE,13.170883,-4.940536,0.000000,0.044952,0.000000,0.000000,-0.047000,0.006000,-0.014000,3.170000,-0.110000,-6.620000,-0.634942,Hold,54.767822,50.000000,Hold,-143427.000000,143360.000000,LowGoal,2130.000000,-2181.818182,Speed,2085.000000,-2181.818182,Speed,Off,Off,0.000000,FALSE,0,,,,,0.000000,0.000000
03:22:04.192 PM 04/09/2016,Teleop Enabled,10,FALSE,0,NO ERROR,-0.000000,0.802081,-0.000000,0.378582,FALSE,FALSE,TRUE,FALSE,FALSE,FALSE,Disabled,0.000000,0.833747,38.866253,TRUE,13.174911,-4.940292,0.000000,0.113327,0.020111,0.000000,0.003000,-0.044000,-0.058000,3.110000,-0.100000,-6.620000,-0.634942,Hold,54.767578,50.000000,Hold,-143427.000000,143360.000000,LowGoal,2122.500000,-2181.818182,Speed,2085.000000,-2181.818182,Speed,Off,Off,0.000000,FALSE,0,,,,,0.000000,0.000000
03:22:04.294 PM 04/09/2016,Teleop Enabled,9,FALSE,0,NO ERROR,-0.000000,0.802081,-0.000000,0.378582,FALSE,FALSE,TRUE,FALSE,FALSE,FALSE,Disabled,0.000000,0.833747,38.866253,TRUE,13.176025,-4.939819,0.000000,-0.009399,0.009369,0.000000,-0.130000,-0.020000,-0.030000,3.110000,-0.110000,-6.570000,-0.626862,Hold,54.767334,50.000000,Hold,-143427.000000,143360.000000,LowGoal,2115.000000,-2181.818182,Speed,2077.500000,-2181.818182,Speed,Off,Off,0.000000,FALSE,0,,,,,0.000000,0.000000
03:22:04.394 PM 04/09/2016,Teleop Enabled,10,FALSE,0,NO ERROR,-0.000000,0.802081,-0.000000,0.378582,FALSE,FALSE,TRUE,FALSE,FALSE,FALSE,Disabled,0.000000,0.833747,38.866253,TRUE,13.172928,-4.937943,0.000000,-0.052277,0.077606,0.000000,-0.079000,0.119000,0.035000,3.060000,-0.110000,-6.620000,-0.613942,Hold,54.767334,50.000000,Hold,-143427.000000,143360.000000,LowGoal,2115.000000,-2181.818182,Speed,2085.000000,-2181.818182,Speed,Off,Off,0.000000,FALSE,0,,,,,0.000000,0.000000
03:22:04.494 PM 04/09/2016,Teleop Enabled,10,FALSE,0,NO ERROR,-0.000000,0.802081,-0.000000,0.378582,FALSE,FALSE,TRUE,FALSE,FALSE,FALSE,Disabled,0.000000,0.833747,38.866253,TRUE,13.170471,-4.932587,0.000000,-0.056137,0.164444,0.000000,0.016000,-0.054000,-0.006000,3.090000,-0.120000,-6.570000,-0.612483,Hold,54.767090,50.000000,Hold,-143427.000000,143360.000000,LowGoal,2115.000000,-2181.818182,Speed,2085.000000,-2181.818182,Speed,Off,Off,0.000000,FALSE,0,,,,,0.000000,0.000000
03:22:04.594 PM 04/09/2016,Teleop Enabled,10,FALSE,0,NO ERROR,-0.000000,0.802081,-0.000000,0.378582,FALSE,FALSE,TRUE,FALSE,FALSE,FALSE,Disabled,0.000000,0.833747,38.866253,TRUE,13.166946,-4.925507,0.000000,-0.047684,0.000000,0.000000,0.074000,-0.005000,0.109000,3.100000,-0.120000,-6.660000,-0.624356,Hold,54.766846,50.000000,Hold,-143427.000000,143360.000000,LowGoal,2122.500000,-2181.818182,Speed,2085.000000,-2181.818182,Speed,Off,Off,0.000000,FALSE,0,,,,,0.000000,0.000000
03:22:04.695 PM 04/09/2016,Teleop Enabled,10,FALSE,0,NO ERROR,-0.000000,0.802081,-0.000000,0.378582,FALSE,FALSE,TRUE,FALSE,FALSE,FALSE,Disabled,0.000000,0.833747,38.866253,TRUE,13.166275,-4.925903,0.000000,-0.008347,-0.024094,0.000000,0.012000,-0.005000,0.072000,3.140000,-0.120000,-6.660000,-0.636378,Hold,54.766357,50.000000,Hold,-143427.000000,143360.000000,LowGoal,2115.000000,-2181.818182,Speed,2085.000000,-2181.818182,Speed,Off,Off,0.000000,FALSE,0,,,,,0.000000,0.000000
03:22:04.795 PM 04/09/2016,Teleop Enabled,10,FALSE,0,NO ERROR,-0.000000,0.802081,-0.000000,0.378582,FALSE,FALSE,TRUE,FALSE,FALSE,FALSE,Disabled,0.000000,0.833747,38.866253,TRUE,13.165955,-4.928436,0.000000,-0.007202,-0.037735,0.000000,0.014000,0.024000,-0.093000,3.100000,-0.120000,-6.640000,-0.639018,Hold,54.766357,50.000000,Hold,-143427.000000,143360.000000,LowGoal,2115.000000,-2181.818182,Speed,2085.000000,-2181.818182,Speed,Off,Off,0.000000,FALSE,0,,,,,0.000000,0.000000
03:22:04.895 PM 04/09/2016,Teleop Enabled,11,FALSE,0,NO ERROR,-0.000000,0.802081,-0.000000,0.378582,FALSE,FALSE,TRUE,FALSE,FALSE,FALSE,Disabled,0.000000,0.833747,38.866253,TRUE,13.166748,-4.929047,0.000000,0.029709,0.013611,0.000000,0.063000,0.022000,-0.159000,3.100000,-0.120000,-6.650000,-0.648337,Hold,54.766357,50.000000,Hold,-143427.000000,143360.000000,LowGoal,2115.000000,-2181.818182,Speed,2085.000000,-2181.818182,Speed,Off,Off,0.000000,FALSE,0,,,,,0.000000,0.000000
03:22:04.996 PM 04/09/2016,Teleop Enabled,11,FALSE,0,NO ERROR,-0.000000,0.802081,-0.000000,0.378582,FALSE,FALSE,TRUE,FALSE,FALSE,FALSE,Disabled,0.000000,0.833747,38.866253,TRUE,13.168411,-4.928116,0.000000,0.021423,0.016922,0.000000,-0.158000,-0.038000,0.060000,3.100000,-0.120000,-6.670000,-0.667175,Hold,54.766113,50.000000,Hold,-143427.000000,143360.000000,LowGoal,2107.500000,-2181.818182,Speed,2077.500000,-2181.818182,Speed,Off,Off,0.000000,FALSE,0,,,,,0.000000,0.000000
03:22:05.096 PM 04/09/2016,Teleop Enabled,10,FALSE,0,NO ERROR,-0.000000,0.802081,-0.000000,0.378582,FALSE,FALSE,TRUE,FALSE,FALSE,FALSE,Disabled,0.000000,0.833747,38.866253,TRUE,13.169571,-4.926895,0.000000,0.047638,0.055206,0.000000,0.000000,0.109000,0.053000,3.160000,-0.130000,-6.610000,-0.667512,Hold,54.766113,50.000000,Hold,-143427.000000,143360.000000,LowGoal,2100.000000,-2181.818182,Speed,2077.500000,-2181.818182,Speed,Off,Off,0.000000,FALSE,0,,,,,0.000000,0.000000
03:22:05.196 PM 04/09/2016,Teleop Enabled,8,FALSE,0,NO ERROR,-0.000000,0.802081,-0.000000,0.378582,FALSE,FALSE,TRUE,FALSE,FALSE,FALSE,Disabled,0.000000,0.833747,38.866253,TRUE,13.171555,-4.923523,0.000000,0.035629,0.051285,0.000000,0.035000,-0.027000,0.119000,3.160000,-0.130000,-6.700000,-0.669915,Hold,54.765869,50.000000,Hold,-143427.000000,143360.000000,LowGoal,2107.500000,-2181.818182,Speed,2085.000000,-2181.818182,Speed,Off,Off,0.519685,FALSE,0,,,,,0.000000,0.000000
03:22:05.296 PM 04/09/2016,Teleop Enabled,10,FALSE,0,NO ERROR,-0.000000,0.802081,-0.000000,0.378582,FALSE,FALSE,TRUE,FALSE,FALSE,FALSE,Disabled,0.000000,0.833747,38.866253,TRUE,13.176025,-4.922974,0.000000,0.087372,-0.007492,0.000000,-0.098000,0.013000,0.010000,3.120000,-0.140000,-6.620000,-0.677378,Hold,54.765869,50.000000,Hold,-143427.000000,143360.000000,LowGoal,2115.000000,-2181.818182,Speed,2085.000000,-2181.818182,Speed,Off,Off,0.559055,FALSE,0,,,,,0.000000,0.000000
03:22:05.396 PM 04/09/2016,Teleop Enabled,9,FALSE,0,NO ERROR,-0.000000,0.802081,-0.000000,0.378582,FALSE,FALSE,TRUE,FALSE,FALSE,FALSE,Disabled,0.000000,0.833747,38.866253,TRUE,13.179474,-4.923050,0.000000,0.056168,-0.006683,0.000000,0.027000,-0.027000,-0.010000,3.110000,-0.140000,-6.680000,-0.679854,Hold,54.765625,50.000000,Hold,-143427.000000,143360.000000,LowGoal,2107.500000,-2181.818182,Speed,2085.000000,-2181.818182,Speed,Off,Off,0.527559,FALSE,0,,,,,0.000000,0.000000
03:22:05.497 PM 04/09/2016,Teleop Enabled,9,FALSE,0,NO ERROR,-0.000000,0.802081,-0.000000,0.378582,FALSE,FALSE,TRUE,FALSE,FALSE,FALSE,Disabled,0.000000,0.833747,38.866253,TRUE,13.182968,-4.923111,0.000000,0.060715,0.017014,0.000000,-0.094000,-0.041000,0.008000,3.110000,-0.140000,-6.630000,-0.695631,Hold,54.765869,50.000000,Hold,-143427.000000,143360.000000,LowGoal,2085.000000,-2181.818182,Speed,2055.000000,-2181.818182,Speed,Off,Off,0.000000,FALSE,0,,,,,0.000000,0.000000
03:22:05.597 PM 04/09/2016,Teleop Enabled,10,FALSE,0,NO ERROR,-0.000000,0.802081,-0.000000,0.378582,FALSE,FALSE,TRUE,FALSE,FALSE,FALSE,Disabled,0.000000,0.833747,38.866253,TRUE,13.184921,-4.922150,0.000000,0.034561,0.030426,0.000000,-0.118000,0.010000,0.092000,3.070000,-0.140000,-6.610000,-0.718534,Hold,54.765869,50.000000,Hold,-143427.000000,143360.000000,LowGoal,2077.500000,-2181.818182,Speed,2032.500000,-2181.818182,Speed,Off,Off,0.000000,FALSE,0,,,,,0.000000,0.000000
03:22:05.698 PM 04/09/2016,Teleop Enabled,10,FALSE,0,NO ERROR,-0.000000,0.802081,-0.000000,0.378582,FALSE,FALSE,TRUE,FALSE,FALSE,FALSE,Disabled,0.000000,0.833747,38.866253,TRUE,13.185120,-4.922256,0.000000,-0.009232,-0.026291,0.000000,-0.137000,-0.030000,0.141000,3.080000,-0.140000,-6.610000,-0.725881,Hold,54.765625,50.000000,Hold,-143427.000000,143360.000000,LowGoal,2092.500000,-2181.818182,Speed,2032.500000,-2181.818182,Speed,Off,Off,0.000000,FALSE,0,,,,,0.000000,0.000000
03:22:05.799 PM 04/09/2016,Teleop Enabled,10,FALSE,0,NO ERROR,-0.000000,0.802081,-0.000000,0.378582,FALSE,FALSE,TRUE,FALSE,FALSE,FALSE,Disabled,0.000000,0.833747,38.866253,TRUE,13.185455,-4.925873,0.000000,0.037567,-0.107697,0.000000,-0.072000,-0.120000,-0.075000,3.120000,-0.150000,-6.560000,-0.730604,Hold,54.765381,50.000000,Hold,-143427.000000,143360.000000,LowGoal,2122.500000,-2181.818182,Speed,2062.500000,-2181.818182,Speed,Off,Off,0.000000,FALSE,0,,,,,0.000000,0.000000
03:22:05.899 PM 04/09/2016,Teleop Enabled,10,FALSE,0,NO ERROR,-0.000000,0.802081,-0.000000,0.378582,FALSE,FALSE,TRUE,FALSE,FALSE,FALSE,Disabled,0.000000,0.833747,38.866253,TRUE,13.187225,-4.933563,0.000000,0.046844,-0.167145,0.000000,0.025000,-0.008000,-0.010000,3.100000,-0.150000,-6.620000,-0.735131,Hold,54.765137,50.000000,Hold,-143427.000000,143360.000000,LowGoal,2137.500000,-2181.818182,Speed,2092.500000,-2181.818182,Speed,Off,Off,0.000000,FALSE,0,,,,,0.000000,0.000000
03:22:05.999 PM 04/09/2016,Teleop Enabled,11,FALSE,0,NO ERROR,-0.000000,0.802081,-0.000000,0.378582,FALSE,FALSE,TRUE,FALSE,FALSE,FALSE,Disabled,0.000000,0.833747,38.866253,TRUE,13.190018,-4.941422,0.000000,0.066803,-0.147125,0.000000,0.045000,0.060000,-0.050000,3.140000,-0.160000,-6.630000,-0.738728,Hold,54.764893,50.000000,Hold,-143427.000000,143360.000000,LowGoal,2137.500000,-2181.818182,Speed,2092.500000,-2181.818182,Speed,Off,Off,0.559055,FALSE,0,,,,,0.000000,0.000000
03:22:06.100 PM 04/09/2016,Teleop Enabled,10,FALSE,0,NO ERROR,-0.000000,0.802081,-0.000000,0.378582,FALSE,FALSE,TRUE,FALSE,FALSE,FALSE,Disabled,0.000000,0.833747,38.866253,TRUE,13.195541,-4.947464,0.000000,0.126770,-0.076233,0.000000,0.093000,0.020000,-0.106000,3.110000,-0.150000,-6.670000,-0.746188,Hold,54.764404,50.000000,Hold,-143427.000000,143360.000000,LowGoal,2137.500000,-2181.818182,Speed,2085.000000,-2181.818182,Speed,Off,Off,0.566929,FALSE,0,,,,,0.000000,0.000000
