Time,Robot Mode,Loop Time,Error Status,Error Code,Error Source,Left Motor Output,Left Motor Encoder,Right Motor Output,Right Motor Encoder,Is Level,Is Stalled,Ball Detector Photoeye,Vision Enabled,Vision Teleop Control,Vision Auto Control,Vision Current State,Vision X Output,Vision NavX Error,Vision NavX Target,NavX Connection Status,NavX Displacement X,NavX Displacement Y,NavX Displacement Z,NavX Velocity X,NavX Velocity Y,NavX Velocity Z,NavX Acceleration X,NavX Acceleration Y,NavX Acceleration Z,NavX Pitch,NavX Yaw,NavX Roll,Gyro Angle,Roller Arm State,Roller Arm Actual,Roller Arm Desired,Shooter Arm State,Shooter Arm Actual,Shooter Arm Desired,Shooter State,Actual RPM Left,Desired RPM Left,Control Mode Left,Actual RPM Right,Desired RPM Right,Control Mode Right,Ball Shooter Cylinder,Ball Halo Cylinder,Scaler Motor Output,Scaler Solenoid Fire,Auto To Run,Auto Current File,Auto File Status,Auto Current Command,Auto Trimmed Command,Shooter Amps Left,Shooter Amps Right
04:16:19.526 PM 04/09/2016,Autonomous Enabled,10,TRUE,7,Read from Text File in DoesScriptNumberContainNull.vi->Disabled.vi->Robot Main.vi<APPEND> /home/lvuser/scripts/auto_42.bee,0.000000,0.000000,-0.000000,0.000000,TRUE,FALSE,TRUE,TRUE,FALSE,FALSE,Disabled,0.000000,0.963210,-24.733210,TRUE,7.385056,-1.854309,0.000000,0.000000,0.000000,0.000000,0.000000,0.000000,0.021000,2.520000,-0.120000,-0.080000,0.362756,ResetBack,0.876465,-0.000049,ResetBack,-8230.000000,-0.250000,LowGoal,0.000000,-2181.818182,Speed,0.000000,-2181.818182,Speed,Off,Off,0.000000,FALSE,43,Read: /home/lvuser/scripts/auto_43.bee,File good!,SET_HEADING_HIGHPOWER 179 75,SET_HEADING_HIGHPOWER,0.000000,0.000000
04:16:19.627 PM 04/09/2016,Autonomous Enabled,9,TRUE,7,Read from Text File in DoesScriptNumberContainNull.vi->Disabled.vi->Robot Main.vi<APPEND> /home/lvuser/scripts/auto_42.bee,0.000000,0.006417,-0.000000,-0.019250,TRUE,FALSE,TRUE,TRUE,FALSE,FALSE,Disabled,0.000000,0.963210,-24.733210,TRUE,7.385223,-1.854660,0.000000,0.002487,-0.016418,0.000000,-0.027000,-0.115000,0.060000,2.500000,-0.100000,-0.100000,0.358208,ResetBack,0.621338,-0.000049,ResetBack,-8230.000000,-0.250000,LowGoal,52.500000,-2181.818182,Speed,37.500000,-2181.818182,Speed,Off,Off,0.000000,FALSE,43,Read: /home/lvuser/scripts/auto_43.bee,File good!,WAIT 1500,WAIT,0.000000,0.000000
04:16:19.729 PM 04/09/2016,Autonomous Enabled,9,TRUE,7,Read from Text File in DoesScriptNumberContainNull.vi->Disabled.vi->Robot Main.vi<APPEND> /home/lvuser/scripts/auto_42.bee,0.000000,0.006417,-0.000000,-0.012833,TRUE,FALSE,TRUE,TRUE,FALSE,FALSE,Disabled,0.000000,0.963210,-24.733210,TRUE,7.385178,-1.856888,0.000000,-0.012863,-0.044113,0.000000,-0.020000,0.004000,0.004000,2.470000,-0.110000,-0.050000,0.349089,ResetBack,-0.602295,-0.000049,ResetBack,-6468.000000,-0.250000,LowGoal,472.500000,-2181.818182,Speed,547.500000,-2181.818182,Speed,Off,Off,0.000000,FALSE,43,Read: /home/lvuser/scripts/auto_43.bee,File good!,WAIT 1500,WAIT,0.000000,0.000000
04:16:19.829 PM 04/09/2016,Autonomous Enabled,10,TRUE,7,Read from Text File in DoesScriptNumberContainNull.vi->Disabled.vi->Robot Main.vi<APPEND> /home/lvuser/scripts/auto_42.bee,0.000000,0.006417,-0.000000,-0.012833,TRUE,FALSE,TRUE,TRUE,FALSE,FALSE,Disabled,0.000000,0.963210,-24.733210,TRUE,7.382950,-1.858627,0.000000,-0.053085,-0.011749,0.000000,-0.165000,0.063000,0.064000,2.480000,-0.120000,-0.070000,0.364670,ResetBack,-0.602783,-0.000049,ResetBack,-3130.000000,-0.250000,LowGoal,1147.500000,-2181.818182,Speed,1177.500000,-2181.818182,Speed,Off,Off,0.000000,FALSE,43,Read: /home/lvuser/scripts/auto_43.bee,File good!,WAIT 1500,WAIT,0.000000,0.000000
04:16:19.929 PM 04/09/2016,Autonomous Enabled,9,TRUE,7,Read from Text File in DoesScriptNumberContainNull.vi->Disabled.vi->Robot Main.vi<APPEND> /home/lvuser/scripts/auto_42.bee,0.000000,0.006417,-0.000000,-0.012833,TRUE,FALSE,TRUE,TRUE,FALSE,FALSE,Disabled,0.000000,0.963210,-24.733210,TRUE,7.378128,-1.859283,0.000000,-0.098526,-0.037033,0.000000,-0.078000,-0.012000,0.188000,2.480000,-0.120000,-0.120000,0.358105,Reset,-0.605957,0.000000,ResetBack,-1649.000000,-0.250000,LowGoal,1710.000000,-2181.818182,Speed,1702.500000,-2181.818182,Speed,Off,Off,0.000000,FALSE,43,Read: /home/lvuser/scripts/auto_43.bee,File good!,WAIT 1500,WAIT,0.000000,0.000000
04:16:20.029 PM 04/09/2016,Autonomous Enabled,9,TRUE,7,Read from Text File in DoesScriptNumberContainNull.vi->Disabled.vi->Robot Main.vi<APPEND> /home/lvuser/scripts/auto_42.bee,0.000000,0.006417,-0.000000,-0.012833,TRUE,FALSE,TRUE,TRUE,FALSE,FALSE,Disabled,0.000000,0.963210,-24.733210,TRUE,7.370499,-1.861603,0.000000,-0.167175,-0.049103,0.000000,0.093000,0.045000,0.026000,2.460000,-0.120000,-0.180000,0.360205,Hold,0.917969,0.000000,ResetBack,-431.000000,-0.250000,LowGoal,2145.000000,-2181.818182,Speed,2115.000000,-2181.818182,Speed,Off,Off,0.000000,FALSE,43,Read: /home/lvuser/scripts/auto_43.bee,File good!,WAIT 1500,WAIT,0.000000,0.000000
04:16:20.131 PM 04/09/2016,Autonomous Enabled,10,TRUE,7,Read from Text File in DoesScriptNumberContainNull.vi->Disabled.vi->Robot Main.vi<APPEND> /home/lvuser/scripts/auto_42.bee,0.000000,0.006417,-0.000000,-0.012833,TRUE,FALSE,TRUE,TRUE,FALSE,FALSE,Disabled,0.000000,0.963210,-24.733210,TRUE,7.362869,-1.861603,0.000000,-0.168610,0.059845,0.000000,-0.070000,0.178000,0.047000,2.460000,-0.120000,-0.110000,0.377800,Hold,0.923828,0.000000,ResetBack,234.000000,-0.250000,LowGoal,2272.500000,-2181.818182,Speed,2242.500000,-2181.818182,Speed,Off,Off,0.000000,FALSE,43,Read: /home/lvuser/scripts/auto_43.bee,File good!,WAIT 1500,WAIT,0.000000,0.000000
04:16:20.232 PM 04/09/2016,Autonomous Enabled,11,TRUE,7,Read from Text File in DoesScriptNumberContainNull.vi->Disabled.vi->Robot Main.vi<APPEND> /home/lvuser/scripts/auto_42.bee,0.000000,0.006417,-0.000000,-0.012833,TRUE,FALSE,TRUE,TRUE,FALSE,FALSE,Disabled,0.000000,0.963210,-24.733210,TRUE,7.357224,-1.853653,0.000000,-0.006638,0.217804,0.000000,-0.152000,0.195000,-0.107000,2.440000,-0.110000,-0.090000,0.392689,Hold,0.923828,0.000000,ResetBack,370.000000,-0.250000,LowGoal,2205.000000,-2181.818182,Speed,2167.500000,-2181.818182,Speed,Off,Off,0.000000,FALSE,43,Read: /home/lvuser/scripts/auto_43.bee,File good!,WAIT 1500,WAIT,0.000000,0.000000
04:16:20.333 PM 04/09/2016,Autonomous Enabled,11,TRUE,7,Read from Text File in DoesScriptNumberContainNull.vi->Disabled.vi->Robot Main.vi<APPEND> /home/lvuser/scripts/auto_42.bee,0.000000,0.006417,-0.000000,-0.012833,TRUE,FALSE,TRUE,TRUE,FALSE,FALSE,Disabled,0.000000,0.963210,-24.733210,TRUE,7.351654,-1.836090,0.000000,-0.194092,0.454773,0.000000,-0.075000,0.196000,-0.125000,2.410000,-0.120000,-0.110000,0.386565,Hold,0.923828,0.000000,ResetBack,370.000000,-0.250000,LowGoal,2160.000000,-2181.818182,Speed,2115.000000,-2181.818182,Speed,Off,Off,0.000000,FALSE,43,Read: /home/lvuser/scripts/auto_43.bee,File good!,WAIT 1500,WAIT,0.000000,0.000000
04:16:20.433 PM 04/09/2016,Autonomous Enabled,11,TRUE,7,Read from Text File in DoesScriptNumberContainNull.vi->Disabled.vi->Robot Main.vi<APPEND> /home/lvuser/scripts/auto_42.bee,0.000000,0.006417,-0.000000,-0.012833,TRUE,FALSE,TRUE,TRUE,FALSE,FALSE,Disabled,0.000000,0.963210,-24.733210,TRUE,7.344788,-1.807205,0.000000,0.000000,0.652267,0.000000,-0.038000,0.151000,0.041000,2.400000,-0.120000,-0.070000,0.406466,Hold,0.923828,0.000000,ResetBack,384.000000,-0.250000,LowGoal,2160.000000,-2181.818182,Speed,2122.500000,-2181.818182,Speed,Off,Off,0.000000,FALSE,43,Read: /home/lvuser/scripts/auto_43.bee,File good!,WAIT 1500,WAIT,0.000000,0.000000
04:16:20.534 PM 04/09/2016,Autonomous Enabled,10,TRUE,7,Read from Text File in DoesScriptNumberContainNull.vi->Disabled.vi->Robot Main.vi<APPEND> /home/lvuser/scripts/auto_42.bee,0.000000,0.006417,-0.000000,-0.012833,TRUE,FALSE,TRUE,TRUE,FALSE,FALSE,Disabled,0.000000,0.963210,-24.733210,TRUE,7.343475,-1.754868,0.000000,-0.052887,0.794067,0.000000,-0.038000,0.151000,0.041000,2.320000,-0.130000,-0.090000,0.400111,Hold,0.923828,0.000000,ResetBack,387.000000,-0.250000,LowGoal,2167.500000,-2181.818182,Speed,2145.000000,-2181.818182,Speed,Off,Off,0.000000,FALSE,43,Read: /home/lvuser/scripts/auto_43.bee,File good!,WAIT 1500,WAIT,0.000000,0.000000
04:16:20.636 PM 04/09/2016,Autonomous Enabled,10,TRUE,7,Read from Text File in DoesScriptNumberContainNull.vi->Disabled.vi->Robot Main.vi<APPEND> /home/lvuser/scripts/auto_42.bee,0.000000,0.006417,-0.000000,-0.012833,TRUE,FALSE,TRUE,TRUE,FALSE,FALSE,Disabled,0.000000,0.963210,-24.733210,TRUE,7.340012,-1.723480,0.000000,-0.101395,0.774857,0.000000,-0.048000,-0.028000,0.348000,2.330000,-0.130000,-0.120000,0.390648,Hold,0.923828,0.000000,ResetBack,391.000000,-0.250000,LowGoal,2160.000000,-2181.818182,Speed,2145.000000,-2181.818182,Speed,Off,Off,0.000000,FALSE,43,Read: /home/lvuser/scripts/auto_43.bee,File good!,WAIT 1500,WAIT,0.000000,0.000000
04:16:20.736 PM 04/09/2016,Autonomous Enabled,10,TRUE,7,Read from Text File in DoesScriptNumberContainNull.vi->Disabled.vi->Robot Main.vi<APPEND> /home/lvuser/scripts/auto_42.bee,0.000000,0.006417,-0.000000,-0.012833,TRUE,FALSE,TRUE,TRUE,FALSE,FALSE,Disabled,0.000000,0.963210,-24.733210,TRUE,7.335220,-1.687042,0.000000,-0.085922,0.668442,0.000000,0.081000,-0.353000,0.222000,2.450000,-0.130000,-0.100000,0.401144,Hold,0.923828,0.000000,ResetBack,401.000000,-0.250000,LowGoal,2145.000000,-2181.818182,Speed,2137.500000,-2181.818182,Speed,Off,Off,0.000000,FALSE,43,Read: /home/lvuser/scripts/auto_43.bee,File good!,WAIT 1500,WAIT,0.000000,0.000000
04:16:20.836 PM 04/09/2016,Autonomous Enabled,11,TRUE,7,Read from Text File in DoesScriptNumberContainNull.vi->Disabled.vi->Robot Main.vi<APPEND> /home/lvuser/scripts/auto_42.bee,0.000000,0.006417,-0.000000,-0.012833,TRUE,FALSE,TRUE,TRUE,FALSE,FALSE,Disabled,0.000000,0.963210,-24.733210,TRUE,7.332870,-1.664185,0.000000,-0.032715,0.308380,0.000000,0.067000,-0.368000,0.186000,2.430000,-0.130000,-0.130000,0.401244,Hold,0.923828,0.000000,Reset,408.000000,2.000000,LowGoal,2137.500000,-2181.818182,Speed,2137.500000,-2181.818182,Speed,Off,Off,0.000000,FALSE,43,Read: /home/lvuser/scripts/auto_43.bee,File good!,WAIT 1500,WAIT,0.000000,0.000000
04:16:20.938 PM 04/09/2016,Autonomous Enabled,10,TRUE,7,Read from Text File in DoesScriptNumberContainNull.vi->Disabled.vi->Robot Main.vi<APPEND> /home/lvuser/scripts/auto_42.bee,0.000000,0.006417,-0.000000,-0.012833,TRUE,FALSE,TRUE,TRUE,FALSE,FALSE,Disabled,0.000000,0.963210,-24.733210,TRUE,7.334930,-1.659775,0.000000,0.099930,-0.077606,0.000000,0.135000,-0.259000,-0.011000,2.390000,-0.120000,-0.190000,0.405826,Hold,0.923828,0.000000,Hold,-89.000000,2.000000,LowGoal,2152.500000,-2181.818182,Speed,2145.000000,-2181.818182,Speed,Off,Off,0.000000,FALSE,43,Read: /home/lvuser/scripts/auto_43.bee,File good!,WAIT 1500,WAIT,0.000000,0.000000
04:16:21.039 PM 04/09/2016,Autonomous Enabled,10,TRUE,7,Read from Text File in DoesScriptNumberContainNull.vi->Disabled.vi->Robot Main.vi<APPEND> /home/lvuser/scripts/auto_42.bee,0.000000,0.006417,-0.000000,-0.012833,TRUE,FALSE,TRUE,TRUE,FALSE,FALSE,Disabled,0.000000,0.963210,-24.733210,TRUE,7.341827,-1.667572,0.000000,0.215729,-0.258179,0.000000,0.129000,-0.121000,-0.167000,2.410000,-0.120000,-0.180000,0.406976,Hold,0.923828,0.000000,Hold,-90.000000,2.000000,LowGoal,2175.000000,-2181.818182,Speed,2145.000000,-2181.818182,Speed,Off,Off,0.000000,FALSE,43,Read: /home/lvuser/scripts/auto_43.bee,File good!,WAIT 1500,WAIT,0.000000,0.000000
04:16:21.139 PM 04/09/2016,Autonomous Enabled,9,TRUE,7,Read from Text File in DoesScriptNumberContainNull.vi->Disabled.vi->Robot Main.vi<APPEND> /home/lvuser/scripts/auto_42.bee,0.000000,0.006417,-0.000000,-0.012833,TRUE,FALSE,TRUE,TRUE,FALSE,FALSE,Disabled,0.000000,0.963210,-24.733210,TRUE,7.359711,-1.686584,0.000000,0.343979,-0.312210,0.000000,0.053000,0.102000,-0.057000,2.360000,-0.120000,-0.210000,-0.000017,Hold,0.923828,0.000000,Hold,-90.000000,2.000000,LowGoal,2182.500000,-2181.818182,Speed,2145.000000,-2181.818182,Speed,Off,Off,0.000000,FALSE,43,Read: /home/lvuser/scripts/auto_43.bee,File good!,NAVX_ZERO_YAW,NAVX_ZERO_YAW,0.000000,0.000000
04:16:21.240 PM 04/09/2016,Autonomous Enabled,8,TRUE,7,Read from Text File in DoesScriptNumberContainNull.vi->Disabled.vi->Robot Main.vi<APPEND> /home/lvuser/scripts/auto_42.bee,-0.562500,-0.551832,0.562500,-0.526165,TRUE,FALSE,TRUE,TRUE,FALSE,FALSE,Disabled,0.000000,0.963210,-24.733210,TRUE,7.381195,-1.699799,0.000000,0.533234,-0.242554,0.000000,0.467000,0.082000,-0.530000,2.360000,-0.120000,-0.210000,-0.093565,Hold,0.923828,0.000000,Hold,-91.000000,2.000000,LowGoal,2160.000000,2400.000000,Speed,2145.000000,2400.000000,Speed,Off,Off,0.000000,FALSE,43,Read: /home/lvuser/scripts/auto_43.bee,File good!,DRIVE_STRAIGHT_NAVX_RAMPARTS 200 5000 10,DRIVE_STRAIGHT_NAVX_RAMPARTS,0.000000,0.000000
04:16:21.342 PM 04/09/2016,Autonomous Enabled,9,TRUE,7,Read from Text File in DoesScriptNumberContainNull.vi->Disabled.vi->Robot Main.vi<APPEND> /home/lvuser/scripts/auto_42.bee,-0.562500,-2.431911,0.562500,-2.265078,TRUE,FALSE,TRUE,TRUE,FALSE,FALSE,Disabled,0.000000,0.963210,-24.733210,TRUE,7.421997,-1.705032,0.000000,0.909775,-0.061142,0.000000,0.170000,0.149000,-0.056000,1.950000,-0.720000,1.740000,-0.892827,Hold,0.923828,0.000000,Hold,-94.000000,2.000000,LowGoal,2040.000000,2400.000000,Speed,2017.500000,2400.000000,Speed,Off,Off,0.000000,FALSE,43,Read: /home/lvuser/scripts/auto_43.bee,File good!,DRIVE_STRAIGHT_NAVX_RAMPARTS 200 5000 10,DRIVE_STRAIGHT_NAVX_RAMPARTS,0.000000,0.000000
04:16:21.442 PM 04/09/2016,Autonomous Enabled,5,TRUE,7,Read from Text File in DoesScriptNumberContainNull.vi->Disabled.vi->Robot Main.vi<APPEND> /home/lvuser/scripts/auto_42.bee,-0.562500,-4.895905,0.562500,-4.433906,FALSE,FALSE,TRUE,TRUE,FALSE,FALSE,Disabled,0.000000,0.963210,-24.733210,TRUE,7.469498,-1.705734,0.000000,0.971481,0.036331,0.000000,0.170000,0.149000,-0.056000,1.890000,-1.140000,4.050000,-1.350891,Hold,0.923828,0.000000,Hold,-96.000000,2.000000,LowGoal,1110.000000,2400.000000,Speed,1312.500000,2400.000000,Speed,Off,Off,0.000000,FALSE,43,Read: /home/lvuser/scripts/auto_43.bee,File good!,DRIVE_STRAIGHT_NAVX_RAMPARTS 200 5000 10,DRIVE_STRAIGHT_NAVX_RAMPARTS,0.000000,0.000000
04:16:21.543 PM 04/09/2016,Autonomous Enabled,9,TRUE,7,Read from Text File in DoesScriptNumberContainNull.vi->Disabled.vi->Robot Main.vi<APPEND> /home/lvuser/scripts/auto_42.bee,-0.562500,-8.245397,0.562500,-7.661482,TRUE,FALSE,TRUE,TRUE,FALSE,FALSE,Disabled,0.000000,0.963210,-24.733210,TRUE,7.520096,-1.702438,0.000000,1.018738,0.086960,0.000000,0.028000,0.053000,0.045000,2.250000,-1.810000,2.960000,-1.616460,Hold,0.923828,0.000000,Hold,-96.000000,2.000000,LowGoal,60.000000,2400.000000,Speed,217.500000,2400.000000,Speed,Off,Off,0.000000,FALSE,43,Read: /home/lvuser/scripts/auto_43.bee,File good!,DRIVE_STRAIGHT_NAVX_RAMPARTS 200 5000 10,DRIVE_STRAIGHT_NAVX_RAMPARTS,0.000000,0.000000
04:16:21.644 PM 04/09/2016,Autonomous Enabled,11,TRUE,7,Read from Text File in DoesScriptNumberContainNull.vi->Disabled.vi->Robot Main.vi<APPEND> /home/lvuser/scripts/auto_42.bee,-0.562500,-11.626973,0.562500,-10.991724,TRUE,FALSE,TRUE,TRUE,FALSE,FALSE,Disabled,0.000000,0.963210,-24.733210,TRUE,7.580032,-1.695847,0.000000,1.000000,0.109344,0.000000,0.028000,0.053000,0.045000,2.250000,-1.810000,2.960000,-1.917081,Hold,0.923828,0.000000,Hold,-96.000000,2.000000,LowGoal,-742.500000,2400.000000,Speed,-615.000000,2400.000000,Speed,Off,Off,0.000000,FALSE,43,Read: /home/lvuser/scripts/auto_43.bee,File good!,DRIVE_STRAIGHT_NAVX_RAMPARTS 200 5000 10,DRIVE_STRAIGHT_NAVX_RAMPARTS,0.000000,0.000000
04:16:21.744 PM 04/09/2016,Autonomous Enabled,10,FALSE,0,NO ERROR,-0.562500,-15.207464,0.473151,-14.475966,FALSE,FALSE,TRUE,TRUE,FALSE,FALSE,Disabled,0.000000,0.963210,-24.733210,TRUE,7.629166,-1.689484,0.000000,0.960999,0.142242,0.000000,0.076000,0.026000,-0.148000,2.240000,-2.280000,3.180000,-2.190396,Hold,0.923828,0.000000,Hold,-96.000000,2.000000,LowGoal,-1387.500000,2400.000000,Speed,-1252.500000,2400.000000,Speed,Off,Off,0.000000,FALSE,43,Read: /home/lvuser/scripts/auto_43.bee,File good!,DRIVE_STRAIGHT_NAVX_RAMPARTS 200 5000 10,DRIVE_STRAIGHT_NAVX_RAMPARTS,0.000000,0.000000
04:16:21.844 PM 04/09/2016,Autonomous Enabled,10,FALSE,0,NO ERROR,-0.562500,-18.762289,0.474583,-18.255374,FALSE,FALSE,TRUE,TRUE,FALSE,FALSE,Disabled,0.000000,0.963210,-24.733210,TRUE,7.665268,-1.683258,0.000000,0.836060,0.156021,0.000000,-0.120000,0.025000,0.069000,2.320000,-2.340000,3.020000,-2.115686,Hold,0.923828,0.000000,Hold,-96.000000,2.000000,LowGoal,-1822.500000,2400.000000,Speed,-1785.000000,2400.000000,Speed,Off,Off,0.000000,FALSE,43,Read: /home/lvuser/scripts/auto_43.bee,File good!,DRIVE_STRAIGHT_NAVX_RAMPARTS 200 5000 10,DRIVE_STRAIGHT_NAVX_RAMPARTS,0.000000,0.000000
04:16:21.944 PM 04/09/2016,Autonomous Enabled,10,FALSE,0,NO ERROR,-0.562500,-22.188781,0.482858,-21.752449,FALSE,FALSE,TRUE,TRUE,FALSE,FALSE,Disabled,0.000000,0.963210,-24.733210,TRUE,7.665268,-1.683258,0.000000,0.836060,0.156021,0.000000,-0.204000,0.335000,0.350000,2.160000,-2.220000,5.620000,-1.986745,Hold,0.923828,0.000000,Hold,-96.000000,2.000000,LowGoal,-2287.500000,2400.000000,Speed,-2220.000000,2400.000000,Speed,Off,Off,0.000000,FALSE,43,Read: /home/lvuser/scripts/auto_43.bee,File good!,DRIVE_STRAIGHT_NAVX_RAMPARTS 200 5000 10,DRIVE_STRAIGHT_NAVX_RAMPARTS,0.000000,0.000000
04:16:22.045 PM 04/09/2016,Autonomous Enabled,9,FALSE,0,NO ERROR,-0.562500,-25.737190,0.478172,-25.326524,FALSE,FALSE,TRUE,TRUE,FALSE,FALSE,Disabled,0.000000,0.963210,-24.733210,TRUE,7.714035,-1.669708,0.000000,0.857834,0.203812,0.000000,-0.054000,-0.004000,-0.251000,2.030000,-2.140000,5.800000,-2.123604,Hold,0.923828,0.000000,Hold,-97.000000,2.000000,LowGoal,-2505.000000,2400.000000,Speed,-2430.000000,2400.000000,Speed,Off,Off,0.000000,FALSE,43,Read: /home/lvuser/scripts/auto_43.bee,File good!,DRIVE_STRAIGHT_NAVX_RAMPARTS 200 5000 10,DRIVE_STRAIGHT_NAVX_RAMPARTS,0.000000,0.000000
04:16:22.146 PM 04/09/2016,Autonomous Enabled,10,FALSE,0,NO ERROR,-0.562500,-29.349765,0.476376,-29.009682,FALSE,FALSE,TRUE,TRUE,FALSE,FALSE,Disabled,0.000000,0.963210,-24.733210,TRUE,7.755402,-1.658783,0.000000,0.809799,0.234543,0.000000,0.082000,-0.044000,0.185000,2.070000,-2.260000,6.740000,-2.235556,Hold,0.923828,0.000000,Hold,-97.000000,2.000000,LowGoal,-2467.500000,2400.000000,Speed,-2415.000000,2400.000000,Speed,Off,Off,0.000000,FALSE,43,Read: /home/lvuser/scripts/auto_43.bee,File good!,DRIVE_STRAIGHT_NAVX_RAMPARTS 200 5000 10,DRIVE_STRAIGHT_NAVX_RAMPARTS,0.000000,0.000000
04:16:22.246 PM 04/09/2016,Autonomous Enabled,9,FALSE,0,NO ERROR,-0.562500,-32.994423,0.472794,-32.769840,FALSE,FALSE,TRUE,TRUE,FALSE,FALSE,Disabled,0.000000,0.963210,-24.733210,TRUE,7.794571,-1.648300,0.000000,0.749496,0.212021,0.000000,-0.069000,-0.040000,-0.270000,2.090000,-2.460000,8.110000,-2.195071,Hold,0.923828,0.000000,Hold,-97.000000,2.000000,LowGoal,-2407.500000,2400.000000,Speed,-2370.000000,2400.000000,Speed,Off,Off,0.000000,FALSE,43,Read: /home/lvuser/scripts/auto_43.bee,File good!,DRIVE_STRAIGHT_NAVX_RAMPARTS 200 5000 10,DRIVE_STRAIGHT_NAVX_RAMPARTS,0.000000,0.000000
04:16:22.346 PM 04/09/2016,Autonomous Enabled,9,FALSE,0,NO ERROR,-0.562500,-36.812331,0.479612,-36.780247,FALSE,FALSE,TRUE,TRUE,FALSE,FALSE,Disabled,0.000000,0.963210,-24.733210,TRUE,7.831573,-1.638458,0.000000,0.704773,0.172363,0.000000,0.084000,0.020000,0.046000,2.240000,-2.310000,9.130000,-1.932249,Hold,0.923828,0.000000,Hold,-97.000000,2.000000,LowGoal,-2407.500000,2400.000000,Speed,-2355.000000,2400.000000,Speed,Off,Off,0.000000,FALSE,43,Read: /home/lvuser/scripts/auto_43.bee,File good!,DRIVE_STRAIGHT_NAVX_RAMPARTS 200 5000 10,DRIVE_STRAIGHT_NAVX_RAMPARTS,0.000000,0.000000
04:16:22.446 PM 04/09/2016,Autonomous Enabled,12,FALSE,0,NO ERROR,-0.562500,-39.982157,0.498154,-40.161823,FALSE,FALSE,TRUE,TRUE,FALSE,FALSE,Disabled,0.000000,0.963210,-24.733210,TRUE,7.870804,-1.621506,0.000000,0.603210,0.326660,0.000000,-0.106000,-0.005000,0.348000,2.190000,-1.850000,10.990000,-1.509548,Hold,0.923828,0.000000,Hold,-97.000000,2.000000,LowGoal,-2415.000000,2400.000000,Speed,-2370.000000,2400.000000,Speed,Off,Off,0.000000,FALSE,43,Read: /home/lvuser/scripts/auto_43.bee,File good!,DRIVE_STRAIGHT_NAVX_RAMPARTS 200 5000 10,DRIVE_STRAIGHT_NAVX_RAMPARTS,0.000000,0.000000
04:16:22.547 PM 04/09/2016,Autonomous Enabled,11,FALSE,0,NO ERROR,-0.562500,-39.982157,0.499990,-40.161823,FALSE,FALSE,TRUE,TRUE,FALSE,FALSE,Disabled,0.000000,0.963210,-24.733210,TRUE,7.901154,-1.610794,0.000000,0.675934,0.107758,0.000000,0.205000,0.041000,-0.464000,1.830000,-1.600000,8.680000,-1.509548,Hold,0.923828,0.000000,Hold,-98.000000,2.000000,LowGoal,-2415.000000,2400.000000,Speed,-2370.000000,2400.000000,Speed,Off,Off,0.000000,FALSE,43,Read: /home/lvuser/scripts/auto_43.bee,File good!,DRIVE_STRAIGHT_NAVX_RAMPARTS 200 5000 10,DRIVE_STRAIGHT_NAVX_RAMPARTS,0.000000,0.000000
04:16:22.649 PM 04/09/2016,Autonomous Enabled,8,FALSE,0,NO ERROR,-0.562500,-43.479232,0.504043,-43.703814,FALSE,FALSE,TRUE,TRUE,FALSE,FALSE,Disabled,0.000000,0.963210,-24.733210,TRUE,7.928009,-1.600647,0.000000,0.642471,0.355179,0.000000,0.158000,-0.118000,-0.200000,2.420000,-1.600000,7.970000,-1.500349,Hold,0.923828,0.000000,Hold,-98.000000,2.000000,LowGoal,-2407.500000,2400.000000,Speed,-2370.000000,2400.000000,Speed,Off,Off,0.000000,FALSE,43,Read: /home/lvuser/scripts/auto_43.bee,File good!,DRIVE_STRAIGHT_NAVX_RAMPARTS 200 5000 10,DRIVE_STRAIGHT_NAVX_RAMPARTS,0.000000,0.000000
04:16:22.751 PM 04/09/2016,Autonomous Enabled,10,FALSE,0,NO ERROR,-0.562500,-50.762131,0.505891,-51.127880,FALSE,FALSE,TRUE,TRUE,FALSE,FALSE,Disabled,0.000000,0.963210,-24.733210,TRUE,7.971283,-1.587112,0.000000,0.729675,0.117691,0.000000,-0.040000,0.185000,0.197000,2.120000,-1.500000,9.460000,-1.425749,Hold,0.923828,0.000000,Hold,-98.000000,2.000000,LowGoal,-2407.500000,2400.000000,Speed,-2370.000000,2400.000000,Speed,Off,Off,0.000000,FALSE,43,Read: /home/lvuser/scripts/auto_43.bee,File good!,DRIVE_STRAIGHT_NAVX_RAMPARTS 200 5000 10,DRIVE_STRAIGHT_NAVX_RAMPARTS,0.000000,0.000000
04:16:22.852 PM 04/09/2016,Autonomous Enabled,10,FALSE,0,NO ERROR,-0.562500,-50.762131,0.509225,-51.127880,FALSE,FALSE,TRUE,TRUE,FALSE,FALSE,Disabled,0.000000,0.963210,-24.733210,TRUE,8.005081,-1.574905,0.000000,0.669281,0.309052,0.000000,0.139000,0.030000,-0.329000,2.290000,-1.460000,8.800000,-1.361535,Hold,0.923828,0.000000,Hold,-99.000000,2.000000,LowGoal,-2407.500000,2400.000000,Speed,-2370.000000,2400.000000,Speed,Off,Off,0.000000,FALSE,43,Read: /home/lvuser/scripts/auto_43.bee,File good!,DRIVE_STRAIGHT_NAVX_RAMPARTS 200 5000 10,DRIVE_STRAIGHT_NAVX_RAMPARTS,0.000000,0.000000
04:16:22.952 PM 04/09/2016,Autonomous Enabled,11,FALSE,0,NO ERROR,-0.562500,-54.560789,0.512198,-55.042038,FALSE,FALSE,TRUE,TRUE,FALSE,FALSE,Disabled,0.000000,0.963210,-24.733210,TRUE,8.033051,-1.565048,0.000000,0.701248,0.193604,0.000000,0.001000,-0.129000,0.371000,2.120000,-1.290000,9.670000,-1.228091,Hold,0.923828,0.000000,Hold,-99.000000,2.000000,LowGoal,-2407.500000,2400.000000,Speed,-2370.000000,2400.000000,Speed,Off,Off,0.000000,FALSE,43,Read: /home/lvuser/scripts/auto_43.bee,File good!,DRIVE_STRAIGHT_NAVX_RAMPARTS 200 5000 10,DRIVE_STRAIGHT_NAVX_RAMPARTS,0.000000,0.000000
04:16:23.052 PM 04/09/2016,Autonomous Enabled,11,FALSE,0,NO ERROR,-0.562500,-58.154114,0.511082,-58.686696,FALSE,FALSE,TRUE,TRUE,FALSE,FALSE,Disabled,0.000000,0.963210,-24.733210,TRUE,8.071915,-1.553543,0.000000,0.627136,0.246704,0.000000,0.132000,0.126000,-0.251000,2.200000,-1.380000,8.870000,-1.265715,Hold,0.923828,0.000000,Hold,-99.000000,2.000000,LowGoal,-2407.500000,2400.000000,Speed,-2370.000000,2400.000000,Speed,Off,Off,0.000000,FALSE,43,Read: /home/lvuser/scripts/auto_43.bee,File good!,DRIVE_STRAIGHT_NAVX_RAMPARTS 200 5000 10,DRIVE_STRAIGHT_NAVX_RAMPARTS,0.000000,0.000000
04:16:23.152 PM 04/09/2016,Autonomous Enabled,11,FALSE,0,NO ERROR,-0.562500,-61.875772,0.514060,-62.453271,FALSE,FALSE,TRUE,TRUE,FALSE,FALSE,Disabled,0.000000,0.963210,-24.733210,TRUE,8.097672,-1.544281,0.000000,0.639130,0.195404,0.000000,-0.112000,-0.130000,0.300000,2.260000,-1.270000,8.930000,-1.199429,Hold,0.923828,0.000000,Hold,-99.000000,2.000000,LowGoal,-2407.500000,2400.000000,Speed,-2370.000000,2400.000000,Speed,Off,Off,0.000000,FALSE,43,Read: /home/lvuser/scripts/auto_43.bee,File good!,DRIVE_STRAIGHT_NAVX_RAMPARTS 200 5000 10,DRIVE_STRAIGHT_NAVX_RAMPARTS,0.000000,0.000000
04:16:23.253 PM 04/09/2016,Autonomous Enabled,11,FALSE,0,NO ERROR,-0.562500,-65.725763,0.517047,-66.405928,FALSE,FALSE,TRUE,TRUE,FALSE,FALSE,Disabled,0.000000,0.963210,-24.733210,TRUE,8.133575,-1.535324,0.000000,0.572296,0.142899,0.000000,-0.078000,0.046000,0.090000,2.390000,-1.290000,8.880000,-1.228153,Hold,0.923828,0.000000,Hold,-99.000000,2.000000,LowGoal,-2407.500000,2400.000000,Speed,-2370.000000,2400.000000,Speed,Off,Off,0.000000,FALSE,43,Read: /home/lvuser/scripts/auto_43.bee,File good!,DRIVE_STRAIGHT_NAVX_RAMPARTS 200 5000 10,DRIVE_STRAIGHT_NAVX_RAMPARTS,0.000000,0.000000
04:16:23.353 PM 04/09/2016,Autonomous Enabled,10,FALSE,0,NO ERROR,-0.562500,-69.197172,0.543936,-69.999253,FALSE,FALSE,TRUE,TRUE,FALSE,FALSE,Disabled,0.000000,0.963210,-24.733210,TRUE,8.160400,-1.526810,0.000000,0.521240,0.189728,0.000000,0.069000,0.067000,-0.162000,2.430000,-0.730000,3.580000,-0.838679,Hold,0.923828,0.000000,Hold,-99.000000,2.000000,LowGoal,-2407.500000,2400.000000,Speed,-2370.000000,2400.000000,Speed,Off,Off,0.000000,FALSE,43,Read: /home/lvuser/scripts/auto_43.bee,File good!,DRIVE_STRAIGHT_NAVX_RAMPARTS 200 5000 10,DRIVE_STRAIGHT_NAVX_RAMPARTS,0.000000,0.000000
04:16:23.453 PM 04/09/2016,Autonomous Enabled,10,FALSE,0,NO ERROR,-0.562500,-72.694247,0.553179,-73.650328,FALSE,FALSE,TRUE,TRUE,FALSE,FALSE,Disabled,0.000000,0.963210,-24.733210,TRUE,8.199158,-1.515549,0.000000,0.837936,0.191376,0.000000,0.078000,-0.096000,-0.391000,2.700000,-0.230000,-4.850000,-0.223677,Hold,0.923828,0.000000,Hold,-99.000000,2.000000,LowGoal,-2400.000000,2400.000000,Speed,-2362.500000,2400.000000,Speed,Off,Off,0.000000,FALSE,43,Read: /home/lvuser/scripts/auto_43.bee,File good!,DRIVE_STRAIGHT_NAVX_RAMPARTS 200 5000 10,DRIVE_STRAIGHT_NAVX_RAMPARTS,0.000000,0.000000
04:16:23.553 PM 04/09/2016,Autonomous Enabled,10,FALSE,0,NO ERROR,-0.562500,-77.519569,0.547393,-78.623233,TRUE,FALSE,TRUE,TRUE,FALSE,FALSE,Disabled,0.000000,0.963210,-24.733210,TRUE,8.233505,-1.507492,0.000000,0.783783,0.235382,0.000000,-0.336000,0.229000,-0.920000,2.450000,-0.310000,-1.000000,-0.178259,Hold,0.924072,0.000000,Hold,-101.000000,2.000000,LowGoal,-2407.500000,2400.000000,Speed,-2377.500000,2400.000000,Speed,Off,Off,0.000000,FALSE,43,Read: /home/lvuser/scripts/auto_43.bee,File good!,DRIVE_STRAIGHT_NAVX_RAMPARTS 200 5000 10,DRIVE_STRAIGHT_NAVX_RAMPARTS,0.000000,0.000000
04:16:23.653 PM 04/09/2016,Autonomous Enabled,8,FALSE,0,NO ERROR,-0.562500,-82.325641,0.545855,-83.384388,FALSE,FALSE,TRUE,TRUE,FALSE,FALSE,Disabled,0.000000,0.963210,-24.733210,TRUE,8.263824,-1.496750,0.000000,0.615814,0.179947,0.000000,0.109000,-0.413000,0.531000,2.700000,-0.500000,-5.040000,-0.462793,Hold,0.924561,0.000000,Hold,-102.000000,2.000000,LowGoal,-2415.000000,2400.000000,Speed,-2377.500000,2400.000000,Speed,Off,Off,0.000000,FALSE,43,Read: /home/lvuser/scripts/auto_43.bee,File good!,DRIVE_STRAIGHT_NAVX_RAMPARTS 200 5000 10,DRIVE_STRAIGHT_NAVX_RAMPARTS,0.000000,0.000000
04:16:23.754 PM 04/09/2016,Autonomous Enabled,10,FALSE,0,NO ERROR,-0.562500,-87.208713,0.546239,-88.273877,FALSE,FALSE,TRUE,TRUE,FALSE,FALSE,Disabled,0.000000,0.963210,-24.733210,TRUE,8.308975,-1.480331,0.000000,0.600189,0.410126,0.000000,0.166000,-0.043000,-0.543000,2.970000,-0.350000,-7.410000,-0.256323,Hold,0.925537,0.000000,Hold,-103.000000,2.000000,LowGoal,-2400.000000,2400.000000,Speed,-2385.000000,2400.000000,Speed,Off,Off,0.000000,FALSE,43,Read: /home/lvuser/scripts/auto_43.bee,File good!,DRIVE_STRAIGHT_NAVX_RAMPARTS 200 5000 10,DRIVE_STRAIGHT_NAVX_RAMPARTS,0.000000,0.000000
04:16:23.854 PM 04/09/2016,Autonomous Enabled,9,FALSE,0,NO ERROR,-0.562500,-92.136701,0.536673,-93.079949,FALSE,FALSE,TRUE,TRUE,FALSE,FALSE,Disabled,0.000000,0.963210,-24.733210,TRUE,8.334610,-1.467514,0.000000,0.696320,0.267090,0.000000,0.412000,-0.203000,0.174000,2.840000,-0.650000,-8.350000,-0.518618,Hold,0.925537,0.000000,Hold,-103.000000,2.000000,LowGoal,-2400.000000,2400.000000,Speed,-2377.500000,2400.000000,Speed,Off,Off,0.000000,FALSE,43,Read: /home/lvuser/scripts/auto_43.bee,File good!,DRIVE_STRAIGHT_NAVX_RAMPARTS 200 5000 10,DRIVE_STRAIGHT_NAVX_RAMPARTS,0.000000,0.000000
04:16:23.954 PM 04/09/2016,Autonomous Enabled,9,FALSE,0,NO ERROR,-0.562500,-97.558772,0.537436,-98.579019,FALSE,FALSE,TRUE,TRUE,FALSE,FALSE,Disabled,0.000000,0.963210,-24.733210,TRUE,8.367813,-1.449722,0.000000,0.432709,0.527588,0.000000,0.446000,0.044000,0.289000,2.260000,-0.640000,-7.910000,-0.527724,Hold,0.925781,0.000000,Hold,-103.000000,2.000000,LowGoal,-2392.500000,2400.000000,Speed,-2385.000000,2400.000000,Speed,Off,Off,0.000000,FALSE,43,Read: /home/lvuser/scripts/auto_43.bee,File good!,DRIVE_STRAIGHT_NAVX_RAMPARTS 200 5000 10,DRIVE_STRAIGHT_NAVX_RAMPARTS,0.000000,0.000000
04:16:24.055 PM 04/09/2016,Autonomous Enabled,11,FALSE,0,NO ERROR,-0.562500,-102.698510,0.561720,-103.455675,FALSE,FALSE,TRUE,TRUE,FALSE,FALSE,Disabled,0.000000,0.963210,-24.733210,TRUE,8.394241,-1.425659,0.000000,0.655548,0.418518,0.000000,0.167000,-0.422000,-1.356000,2.650000,-0.090000,-4.950000,-0.273126,Hold,0.927979,0.000000,Hold,-103.000000,2.000000,LowGoal,-2392.500000,2400.000000,Speed,-2385.000000,2400.000000,Speed,Off,Off,0.000000,FALSE,43,Read: /home/lvuser/scripts/auto_43.bee,File good!,DRIVE_STRAIGHT_NAVX_RAMPARTS 200 5000 10,DRIVE_STRAIGHT_NAVX_RAMPARTS,0.000000,0.000000
04:16:24.156 PM 04/09/2016,Autonomous Enabled,11,FALSE,0,NO ERROR,-0.562500,-107.607248,0.560552,-108.665996,TRUE,FALSE,TRUE,TRUE,FALSE,FALSE,Disabled,0.000000,0.963210,-24.733210,TRUE,8.431915,-1.397781,0.000000,0.579971,0.593399,0.000000,0.220000,-0.090000,-0.227000,2.560000,-0.050000,-1.670000,-0.092953,Hold,0.931885,0.000000,Hold,-105.000000,2.000000,LowGoal,-2400.000000,2400.000000,Speed,-2377.500000,2400.000000,Speed,Off,Off,0.000000,FALSE,43,Read: /home/lvuser/scripts/auto_43.bee,File good!,DRIVE_STRAIGHT_NAVX_RAMPARTS 200 5000 10,DRIVE_STRAIGHT_NAVX_RAMPARTS,0.000000,0.000000
04:16:24.257 PM 04/09/2016,Autonomous Enabled,10,FALSE,0,NO ERROR,-0.562500,-112.612237,0.560941,-113.626068,FALSE,FALSE,TRUE,TRUE,FALSE,FALSE,Disabled,0.000000,0.963210,-24.733210,TRUE,8.457886,-1.373520,0.000000,0.681610,0.586884,0.000000,-0.498000,-0.501000,0.964000,3.230000,-0.040000,1.640000,-0.017629,Hold,1.019775,0.000000,Hold,-105.000000,2.000000,LowGoal,-2400.000000,2400.000000,Speed,-2377.500000,2400.000000,Speed,Off,Off,0.000000,FALSE,43,Read: /home/lvuser/scripts/auto_43.bee,File good!,DRIVE_STRAIGHT_NAVX_RAMPARTS 200 5000 10,DRIVE_STRAIGHT_NAVX_RAMPARTS,0.000000,0.000000
04:16:24.357 PM 04/09/2016,Autonomous Enabled,9,FALSE,0,NO ERROR,-0.562500,-117.283559,0.535912,-118.188307,TRUE,FALSE,TRUE,TRUE,FALSE,FALSE,Disabled,0.000000,0.963210,-24.733210,TRUE,8.487595,-1.340744,0.000000,0.402740,0.632721,0.000000,0.194000,0.249000,0.094000,2.510000,-0.500000,1.050000,-0.389016,Hold,0.925293,0.000000,Hold,-105.000000,2.000000,LowGoal,-2392.500000,2400.000000,Speed,-2385.000000,2400.000000,Speed,Off,Off,0.000000,FALSE,43,Read: /home/lvuser/scripts/auto_43.bee,File good!,DRIVE_STRAIGHT_NAVX_RAMPARTS 200 5000 10,DRIVE_STRAIGHT_NAVX_RAMPARTS,0.000000,0.000000
04:16:24.457 PM 04/09/2016,Autonomous Enabled,10,FALSE,0,NO ERROR,-0.562500,-121.839382,0.529460,-122.596547,TRUE,FALSE,TRUE,TRUE,FALSE,FALSE,Disabled,0.000000,0.963210,-24.733210,TRUE,8.509949,-1.306427,0.000000,0.483215,0.595459,0.000000,0.122000,-0.342000,-0.218000,2.780000,-0.860000,-0.090000,-0.883061,Hold,0.925781,0.000000,Hold,-105.000000,2.000000,LowGoal,-2400.000000,2400.000000,Speed,-2377.500000,2400.000000,Speed,Off,Off,0.000000,FALSE,43,Read: /home/lvuser/scripts/auto_43.bee,File good!,DRIVE_STRAIGHT_NAVX_RAMPARTS 200 5000 10,DRIVE_STRAIGHT_NAVX_RAMPARTS,0.000000,0.000000
04:16:24.557 PM 04/09/2016,Autonomous Enabled,10,FALSE,0,NO ERROR,-0.562500,-126.427288,0.531354,-127.222952,TRUE,FALSE,TRUE,TRUE,FALSE,FALSE,Disabled,0.000000,0.963210,-24.733210,TRUE,8.534149,-1.277298,0.000000,0.436264,0.668381,0.000000,-0.034000,0.302000,0.394000,2.820000,-0.810000,0.520000,-0.866031,Hold,0.925781,0.000000,Hold,-105.000000,2.000000,LowGoal,-2392.500000,2400.000000,Speed,-2377.500000,2400.000000,Speed,Off,Off,0.000000,FALSE,43,Read: /home/lvuser/scripts/auto_43.bee,File good!,DRIVE_STRAIGHT_NAVX_RAMPARTS 200 5000 10,DRIVE_STRAIGHT_NAVX_RAMPARTS,0.000000,0.000000
04:16:24.657 PM 04/09/2016,Autonomous Enabled,10,FALSE,0,NO ERROR,-0.562500,-130.752111,0.532491,-131.637609,TRUE,FALSE,TRUE,TRUE,FALSE,FALSE,Disabled,0.000000,0.963210,-24.733210,TRUE,8.556549,-1.244049,0.000000,0.499008,0.580978,0.000000,0.090000,-0.147000,0.024000,2.640000,-0.760000,0.140000,-0.827439,Hold,0.925781,0.000000,Hold,-105.000000,2.000000,LowGoal,-2392.500000,2400.000000,Speed,-2385.000000,2400.000000,Speed,Off,Off,0.000000,FALSE,43,Read: /home/lvuser/scripts/auto_43.bee,File good!,DRIVE_STRAIGHT_NAVX_RAMPARTS 200 5000 10,DRIVE_STRAIGHT_NAVX_RAMPARTS,0.000000,0.000000
04:16:24.759 PM 04/09/2016,Autonomous Enabled,10,FALSE,0,NO ERROR,-0.562500,-135.250184,0.536293,-136.238348,TRUE,FALSE,TRUE,TRUE,FALSE,FALSE,Disabled,0.000000,0.963210,-24.733210,TRUE,8.581604,-1.214798,0.000000,0.441406,0.674133,0.000000,0.090000,0.295000,-0.112000,2.630000,-0.690000,0.670000,-0.728803,Hold,0.925781,0.000000,Hold,-105.000000,2.000000,LowGoal,-2392.500000,2400.000000,Speed,-2385.000000,2400.000000,Speed,Off,Off,0.000000,FALSE,43,Read: /home/lvuser/scripts/auto_43.bee,File good!,DRIVE_STRAIGHT_NAVX_RAMPARTS 200 5000 10,DRIVE_STRAIGHT_NAVX_RAMPARTS,0.000000,0.000000
04:16:24.859 PM 04/09/2016,Autonomous Enabled,10,FALSE,0,NO ERROR,-0.562500,-139.703340,0.535531,-140.755671,TRUE,FALSE,TRUE,TRUE,FALSE,FALSE,Disabled,0.000000,0.963210,-24.733210,TRUE,8.603882,-1.178787,0.000000,0.463715,0.638702,0.000000,-0.173000,-0.244000,0.311000,2.620000,-0.670000,0.690000,-0.679554,Hold,0.925781,0.000000,Hold,-105.000000,2.000000,LowGoal,-2400.000000,2400.000000,Speed,-2385.000000,2400.000000,Speed,Off,Off,0.000000,FALSE,43,Read: /home/lvuser/scripts/auto_43.bee,File good!,DRIVE_STRAIGHT_NAVX_RAMPARTS 200 5000 10,DRIVE_STRAIGHT_NAVX_RAMPARTS,0.000000,0.000000
04:16:24.961 PM 04/09/2016,Autonomous Enabled,10,FALSE,0,NO ERROR,-0.562500,-144.169330,0.531354,-145.183160,TRUE,FALSE,TRUE,TRUE,FALSE,FALSE,Disabled,0.000000,0.963210,-24.733210,TRUE,8.629517,-1.142853,0.000000,0.420746,0.686493,0.000000,0.153000,0.183000,-0.100000,2.590000,-0.830000,0.100000,-0.833357,Hold,0.925781,0.000000,Hold,-105.000000,2.000000,LowGoal,-2422.500000,2400.000000,Speed,-2377.500000,2400.000000,Speed,Off,Off,0.000000,FALSE,43,Read: /home/lvuser/scripts/auto_43.bee,File good!,DRIVE_STRAIGHT_NAVX_RAMPARTS 200 5000 10,DRIVE_STRAIGHT_NAVX_RAMPARTS,0.000000,0.000000
04:16:25.061 PM 04/09/2016,Autonomous Enabled,10,FALSE,0,NO ERROR,-0.562500,-148.609652,0.531354,-149.668400,TRUE,FALSE,TRUE,TRUE,FALSE,FALSE,Disabled,0.000000,0.963210,-24.733210,TRUE,8.647125,-1.116089,0.000000,0.450546,0.622345,0.000000,-0.022000,-0.058000,0.137000,2.500000,-0.810000,0.390000,-0.843971,Hold,0.925781,0.000000,Hold,-105.000000,2.000000,LowGoal,-2422.500000,2400.000000,Speed,-2385.000000,2400.000000,Speed,Off,Off,0.000000,FALSE,43,Read: /home/lvuser/scripts/auto_43.bee,File good!,DRIVE_STRAIGHT_NAVX_RAMPARTS 200 5000 10,DRIVE_STRAIGHT_NAVX_RAMPARTS,0.000000,0.000000
04:16:25.163 PM 04/09/2016,Autonomous Enabled,10,FALSE,0,NO ERROR,-0.562500,-153.280975,0.529460,-154.339722,TRUE,FALSE,TRUE,TRUE,FALSE,FALSE,Disabled,0.000000,0.963210,-24.733210,TRUE,8.668655,-1.085831,0.000000,0.420898,0.621277,0.000000,-0.047000,-0.089000,-0.113000,2.510000,-0.870000,0.160000,-0.890628,Hold,0.925781,0.000000,Hold,-105.000000,2.000000,LowGoal,-2415.000000,2400.000000,Speed,-2392.500000,2400.000000,Speed,Off,Off,0.000000,FALSE,43,Read: /home/lvuser/scripts/auto_43.bee,File good!,DRIVE_STRAIGHT_NAVX_RAMPARTS 200 5000 10,DRIVE_STRAIGHT_NAVX_RAMPARTS,0.000000,0.000000
04:16:25.264 PM 04/09/2016,Autonomous Enabled,11,FALSE,0,NO ERROR,-0.562500,-157.759798,0.527192,-158.831379,TRUE,FALSE,TRUE,TRUE,FALSE,FALSE,Disabled,0.000000,0.963210,-24.733210,TRUE,8.693985,-1.048477,0.000000,0.421280,0.653412,0.000000,-0.134000,-0.049000,-0.019000,2.540000,-0.890000,0.490000,-0.925583,Hold,0.925781,0.000000,Hold,-105.000000,2.000000,LowGoal,-2415.000000,2400.000000,Speed,-2385.000000,2400.000000,Speed,Off,Off,0.000000,FALSE,43,Read: /home/lvuser/scripts/auto_43.bee,File good!,DRIVE_STRAIGHT_NAVX_RAMPARTS 200 5000 10,DRIVE_STRAIGHT_NAVX_RAMPARTS,0.000000,0.000000
04:16:25.366 PM 04/09/2016,Autonomous Enabled,10,FALSE,0,NO ERROR,-0.562500,-162.193704,0.523800,-163.329451,TRUE,FALSE,TRUE,TRUE,FALSE,FALSE,Disabled,0.000000,0.963210,-24.733210,TRUE,8.715210,-1.017548,0.000000,0.432877,0.578720,0.000000,0.052000,0.058000,0.157000,2.540000,-1.010000,0.330000,-1.040916,Hold,0.925781,0.000000,Hold,-105.000000,2.000000,LowGoal,-2415.000000,2400.000000,Speed,-2385.000000,2400.000000,Speed,Off,Off,0.000000,FALSE,43,Read: /home/lvuser/scripts/auto_43.bee,File good!,DRIVE_STRAIGHT_NAVX_RAMPARTS 200 5000 10,DRIVE_STRAIGHT_NAVX_RAMPARTS,0.000000,0.000000
04:16:25.466 PM 04/09/2016,Autonomous Enabled,9,FALSE,0,NO ERROR,-0.562500,-166.608360,0.521920,-167.808274,TRUE,FALSE,TRUE,TRUE,FALSE,FALSE,Disabled,0.000000,0.963210,-24.733210,TRUE,8.738892,-0.978012,0.000000,0.356766,0.710205,0.000000,0.166000,-0.161000,-0.018000,2.570000,-1.070000,0.360000,-1.102865,Hold,0.925781,0.000000,Hold,-105.000000,2.000000,LowGoal,-2415.000000,2400.000000,Speed,-2392.500000,2400.000000,Speed,Off,Off,0.000000,FALSE,43,Read: /home/lvuser/scripts/auto_43.bee,File good!,DRIVE_STRAIGHT_NAVX_RAMPARTS 200 5000 10,DRIVE_STRAIGHT_NAVX_RAMPARTS,0.000000,0.000000
04:16:25.567 PM 04/09/2016,Autonomous Enabled,10,FALSE,0,NO ERROR,-0.562500,-170.920350,0.523800,-172.229347,TRUE,FALSE,TRUE,TRUE,FALSE,FALSE,Disabled,0.000000,0.963210,-24.733210,TRUE,8.754257,-0.953384,0.000000,0.385559,0.554214,0.000000,-0.088000,0.156000,0.127000,2.560000,-0.970000,0.650000,-1.029566,Hold,0.925781,0.000000,Hold,-105.000000,2.000000,LowGoal,-2415.000000,2400.000000,Speed,-2385.000000,2400.000000,Speed,Off,Off,0.000000,FALSE,43,Read: /home/lvuser/scripts/auto_43.bee,File good!,DRIVE_STRAIGHT_NAVX_RAMPARTS 200 5000 10,DRIVE_STRAIGHT_NAVX_RAMPARTS,0.000000,0.000000
04:16:25.668 PM 04/09/2016,Autonomous Enabled,9,FALSE,0,NO ERROR,-0.562500,-175.264423,0.529838,-176.682504,TRUE,FALSE,TRUE,TRUE,FALSE,FALSE,Disabled,0.000000,0.963210,-24.733210,TRUE,8.770599,-0.919922,0.000000,0.293686,0.742447,0.000000,0.207000,-0.112000,-0.233000,2.560000,-0.790000,0.310000,-0.897065,Hold,0.925781,0.000000,Hold,-105.000000,2.000000,LowGoal,-2422.500000,2400.000000,Speed,-2385.000000,2400.000000,Speed,Off,Off,0.000000,FALSE,43,Read: /home/lvuser/scripts/auto_43.bee,File good!,DRIVE_STRAIGHT_NAVX_RAMPARTS 200 5000 10,DRIVE_STRAIGHT_NAVX_RAMPARTS,0.000000,0.000000
04:16:25.769 PM 04/09/2016,Autonomous Enabled,11,FALSE,0,NO ERROR,-0.562500,-179.627747,0.535151,-181.103577,TRUE,FALSE,TRUE,TRUE,FALSE,FALSE,Disabled,0.000000,0.963210,-24.733210,TRUE,8.790054,-0.888260,0.000000,0.438461,0.544220,0.000000,-0.188000,0.253000,0.280000,2.420000,-0.710000,0.000000,-0.789909,Hold,0.925781,0.000000,Hold,-105.000000,2.000000,LowGoal,-2407.500000,2400.000000,Speed,-2392.500000,2400.000000,Speed,Off,Off,0.000000,FALSE,43,Read: /home/lvuser/scripts/auto_43.bee,File good!,DRIVE_STRAIGHT_NAVX_RAMPARTS 200 5000 10,DRIVE_STRAIGHT_NAVX_RAMPARTS,0.000000,0.000000
04:16:25.869 PM 04/09/2016,Autonomous Enabled,10,FALSE,0,NO ERROR,-0.562500,-184.343986,0.535912,-185.691482,TRUE,FALSE,TRUE,TRUE,FALSE,FALSE,Disabled,0.000000,0.963210,-24.733210,TRUE,8.811768,-0.846970,0.000000,0.341217,0.766144,0.000000,0.044000,-0.113000,-0.289000,2.480000,-0.700000,0.340000,-0.739038,Hold,0.925781,0.000000,Hold,-106.000000,2.000000,LowGoal,-2400.000000,2400.000000,Speed,-2385.000000,2400.000000,Speed,Off,Off,0.000000,FALSE,43,Read: /home/lvuser/scripts/auto_43.bee,File good!,DRIVE_STRAIGHT_NAVX_RAMPARTS 200 5000 10,DRIVE_STRAIGHT_NAVX_RAMPARTS,0.000000,0.000000
04:16:25.970 PM 04/09/2016,Autonomous Enabled,11,FALSE,0,NO ERROR,-0.562500,-188.578976,0.530975,-190.080472,TRUE,FALSE,TRUE,TRUE,FALSE,FALSE,Disabled,0.000000,0.963210,-24.733210,TRUE,8.830780,-0.815384,0.000000,0.377747,0.598343,0.000000,-0.094000,0.376000,0.204000,2.480000,-0.700000,0.340000,-0.858884,Hold,0.925781,0.000000,Hold,-106.000000,2.000000,LowGoal,-2407.500000,2400.000000,Speed,-2385.000000,2400.000000,Speed,Off,Off,0.000000,FALSE,43,Read: /home/lvuser/scripts/auto_43.bee,File good!,DRIVE_STRAIGHT_NAVX_RAMPARTS 200 5000 10,DRIVE_STRAIGHT_NAVX_RAMPARTS,0.000000,0.000000
04:16:26.072 PM 04/09/2016,Autonomous Enabled,10,FALSE,0,NO ERROR,-0.562500,-193.012882,0.532112,-194.610628,TRUE,FALSE,TRUE,TRUE,FALSE,FALSE,Disabled,0.000000,0.963210,-24.733210,TRUE,8.847443,-0.776871,0.000000,0.332947,0.816895,0.000000,0.002000,-0.358000,-0.003000,2.350000,-0.830000,0.070000,-0.847038,Hold,0.925781,0.000000,Hold,-106.000000,2.000000,LowGoal,-2415.000000,2400.000000,Speed,-2392.500000,2400.000000,Speed,Off,Off,0.000000,FALSE,43,Read: /home/lvuser/scripts/auto_43.bee,File good!,DRIVE_STRAIGHT_NAVX_RAMPARTS 200 5000 10,DRIVE_STRAIGHT_NAVX_RAMPARTS,0.000000,0.000000
04:16:26.172 PM 04/09/2016,Autonomous Enabled,10,FALSE,0,NO ERROR,-0.562500,-197.575121,0.530217,-199.179284,TRUE,FALSE,TRUE,TRUE,FALSE,FALSE,Disabled,0.000000,0.963210,-24.733210,TRUE,8.849365,-0.744965,0.000000,0.056335,0.565186,0.000000,0.002000,-0.358000,-0.003000,2.440000,-0.770000,0.440000,-0.880527,Hold,0.925781,0.000000,Hold,-106.000000,2.000000,LowGoal,-2407.500000,2400.000000,Speed,-2385.000000,2400.000000,Speed,Off,Off,0.000000,FALSE,43,Read: /home/lvuser/scripts/auto_43.bee,File good!,DRIVE_STRAIGHT_NAVX_RAMPARTS 200 5000 10,DRIVE_STRAIGHT_NAVX_RAMPARTS,0.000000,0.000000
04:16:26.272 PM 04/09/2016,Autonomous Enabled,9,FALSE,0,NO ERROR,-0.562500,-197.575121,0.530217,-199.179284,TRUE,FALSE,TRUE,TRUE,FALSE,FALSE,Disabled,0.000000,0.963210,-24.733210,TRUE,8.849365,-0.744965,0.000000,0.056335,0.565186,0.000000,0.002000,-0.358000,-0.003000,2.440000,-0.770000,0.440000,-0.880527,Hold,0.925781,0.000000,Hold,-106.000000,2.000000,LowGoal,-2407.500000,2400.000000,Speed,-2377.500000,2400.000000,Speed,Off,Off,0.000000,FALSE,43,Read: /home/lvuser/scripts/auto_43.bee,File good!,DRIVE_STRAIGHT_NAVX_RAMPARTS 200 5000 10,DRIVE_STRAIGHT_NAVX_RAMPARTS,0.000000,0.000000
04:16:26.373 PM 04/09/2016,Autonomous Disabled,9,FALSE,0,NO ERROR,-0.562500,-200.937447,0.530217,-202.682776,FALSE,FALSE,TRUE,TRUE,FALSE,FALSE,Disabled,0.000000,0.963210,-24.733210,TRUE,8.833099,-0.695236,0.000000,-0.540268,0.647461,0.000000,-0.187000,-0.209000,-0.476000,2.670000,-0.390000,-5.090000,-0.581975,Hold,0.926025,0.000000,Hold,-335.000000,2.000000,LowGoal,-2347.500000,2400.000000,Speed,-2302.500000,2400.000000,Speed,Off,Off,0.000000,FALSE,43,Read: /home/lvuser/scripts/auto_43.bee,File good!,DRIVE_STRAIGHT_NAVX_RAMPARTS 200 5000 10,DRIVE_STRAIGHT_NAVX_RAMPARTS,0.000000,0.000000
04:16:26.475 PM 04/09/2016,Autonomous Disabled,10,FALSE,0,NO ERROR,-0.562500,-201.880695,0.530217,-203.805690,FALSE,FALSE,TRUE,TRUE,FALSE,FALSE,Disabled,0.000000,0.963210,-24.733210,TRUE,8.777176,-0.661713,0.000000,-0.820068,0.254669,0.000000,-0.104000,0.085000,0.794000,2.350000,0.080000,-3.000000,-0.213576,Hold,0.926025,0.000000,Hold,-363.000000,2.000000,LowGoal,-2235.000000,-2181.818182,Speed,-2160.000000,-2181.818182,Speed,Off,Off,0.000000,FALSE,43,Read: /home/lvuser/scripts/auto_43.bee,File good!,DRIVE_STRAIGHT_NAVX_RAMPARTS 200 5000 10,DRIVE_STRAIGHT_NAVX_RAMPARTS,0.000000,0.000000
04:16:26.575 PM 04/09/2016,Autonomous Disabled,9,FALSE,0,NO ERROR,-0.562500,-202.207944,0.530217,-204.209939,TRUE,FALSE,TRUE,TRUE,FALSE,FALSE,Disabled,0.000000,0.963210,-24.733210,TRUE,8.760162,-0.656769,0.000000,-0.853424,0.254761,0.000000,0.046000,0.028000,-0.220000,2.280000,0.160000,-2.880000,-0.055515,Hold,0.926025,0.000000,Hold,-365.000000,2.000000,LowGoal,-2115.000000,-2181.818182,Speed,-2002.500000,-2181.818182,Speed,Off,Off,0.000000,FALSE,43,Read: /home/lvuser/scripts/auto_43.bee,File good!,DRIVE_STRAIGHT_NAVX_RAMPARTS 200 5000 10,DRIVE_STRAIGHT_NAVX_RAMPARTS,0.000000,0.000000
04:16:26.675 PM 04/09/2016,Autonomous Disabled,9,FALSE,0,NO ERROR,-0.562500,-202.092444,0.530217,-204.062356,FALSE,FALSE,TRUE,TRUE,FALSE,FALSE,Disabled,0.000000,0.963210,-24.733210,TRUE,8.718140,-0.642563,0.000000,-0.835449,0.321915,0.000000,0.272000,-0.027000,0.270000,2.340000,0.290000,-3.880000,0.092391,Hold,0.926025,0.000000,Hold,-365.000000,2.000000,LowGoal,-1972.500000,-2181.818182,Speed,-1860.000000,-2181.818182,Speed,Off,Off,0.000000,FALSE,43,Read: /home/lvuser/scripts/auto_43.bee,File good!,DRIVE_STRAIGHT_NAVX_RAMPARTS 200 5000 10,DRIVE_STRAIGHT_NAVX_RAMPARTS,0.000000,0.000000
04:16:26.775 PM 04/09/2016,Autonomous Disabled,11,FALSE,0,NO ERROR,-0.562500,-202.092444,0.530217,-204.075189,TRUE,FALSE,TRUE,TRUE,FALSE,FALSE,Disabled,0.000000,0.963210,-24.733210,TRUE,8.673691,-0.622757,0.000000,-0.723785,0.330643,0.000000,-0.074000,-0.049000,0.195000,2.290000,0.150000,-2.720000,-0.013075,Hold,0.926025,0.000000,Hold,-368.000000,2.000000,LowGoal,-1882.500000,-2181.818182,Speed,-1717.500000,-2181.818182,Speed,Off,Off,0.000000,FALSE,43,Read: /home/lvuser/scripts/auto_43.bee,File good!,DRIVE_STRAIGHT_NAVX_RAMPARTS 200 5000 10,DRIVE_STRAIGHT_NAVX_RAMPARTS,0.000000,0.000000
04:16:26.876 PM 04/09/2016,Autonomous Disabled,9,FALSE,0,NO ERROR,-0.562500,-202.092444,0.530217,-204.055939,TRUE,FALSE,TRUE,TRUE,FALSE,FALSE,Disabled,0.000000,0.963210,-24.733210,TRUE,8.638626,-0.607040,0.000000,-0.653717,0.302933,0.000000,0.146000,-0.028000,-0.047000,2.240000,0.150000,-2.800000,-0.048922,Hold,0.926025,0.000000,Hold,-372.000000,2.000000,LowGoal,-1792.500000,-2181.818182,Speed,-1575.000000,-2181.818182,Speed,Off,Off,0.000000,FALSE,43,Read: /home/lvuser/scripts/auto_43.bee,File good!,DRIVE_STRAIGHT_NAVX_RAMPARTS 200 5000 10,DRIVE_STRAIGHT_NAVX_RAMPARTS,0.000000,0.000000
04:16:26.975 PM 04/09/2016,Autonomous Disabled,10,FALSE,0,NO ERROR,-0.562500,-202.092444,0.530217,-204.081606,TRUE,FALSE,TRUE,TRUE,FALSE,FALSE,Disabled,0.000000,0.963210,-24.733210,TRUE,8.605820,-0.590805,0.000000,-0.663818,0.332901,0.000000,0.061000,-0.063000,0.023000,2.280000,0.150000,-2.500000,0.036057,Hold,0.926025,0.000000,Hold,-374.000000,2.000000,LowGoal,-1687.500000,-2181.818182,Speed,-1447.500000,-2181.818182,Speed,Off,Off,0.000000,FALSE,43,Read: /home/lvuser/scripts/auto_43.bee,File good!,DRIVE_STRAIGHT_NAVX_RAMPARTS 200 5000 10,DRIVE_STRAIGHT_NAVX_RAMPARTS,0.000000,0.000000
04:16:27.077 PM 04/09/2016,Autonomous Disabled,10,FALSE,0,NO ERROR,-0.562500,-202.092444,0.530217,-204.081606,TRUE,FALSE,TRUE,TRUE,FALSE,FALSE,Disabled,0.000000,0.963210,-24.733210,TRUE,8.573837,-0.584442,0.000000,-0.648468,0.003235,0.000000,-0.084000,0.090000,0.108000,2.240000,0.070000,-2.360000,-0.066132,Hold,0.926025,0.000000,Hold,-377.000000,2.000000,LowGoal,-1590.000000,-2181.818182,Speed,-1320.000000,-2181.818182,Speed,Off,Off,0.000000,FALSE,43,Read: /home/lvuser/scripts/auto_43.bee,File good!,DRIVE_STRAIGHT_NAVX_RAMPARTS 200 5000 10,DRIVE_STRAIGHT_NAVX_RAMPARTS,0.000000,0.000000
04:16:27.177 PM 04/09/2016,Autonomous Disabled,9,FALSE,0,NO ERROR,-0.562500,-202.092444,0.530217,-204.081606,TRUE,FALSE,TRUE,TRUE,FALSE,FALSE,Disabled,0.000000,0.963210,-24.733210,TRUE,8.540665,-0.583206,0.000000,-0.657059,0.025253,0.000000,0.008000,-0.028000,0.029000,2.260000,0.120000,-2.250000,-0.004895,Hold,0.926025,0.000000,Hold,-379.000000,2.000000,LowGoal,-1500.000000,-2181.818182,Speed,-1192.500000,-2181.818182,Speed,Off,Off,0.000000,FALSE,43,Read: /home/lvuser/scripts/auto_43.bee,File good!,DRIVE_STRAIGHT_NAVX_RAMPARTS 200 5000 10,DRIVE_STRAIGHT_NAVX_RAMPARTS,0.000000,0.000000
04:16:27.278 PM 04/09/2016,Autonomous Disabled,10,FALSE,0,NO ERROR,-0.562500,-202.092444,0.530217,-204.075189,TRUE,FALSE,TRUE,TRUE,FALSE,FALSE,Disabled,0.000000,0.963210,-24.733210,TRUE,8.541199,-0.582382,0.000000,0.028580,0.007492,0.000000,0.108000,-0.082000,0.048000,2.280000,0.100000,-2.120000,-0.005226,Hold,0.926025,0.000000,Hold,-380.000000,2.000000,LowGoal,-1402.500000,-2181.818182,Speed,-1072.500000,-2181.818182,Speed,Off,Off,0.000000,FALSE,43,Read: /home/lvuser/scripts/auto_43.bee,File good!,DRIVE_STRAIGHT_NAVX_RAMPARTS 200 5000 10,DRIVE_STRAIGHT_NAVX_RAMPARTS,0.000000,0.000000
04:16:27.378 PM 04/09/2016,Autonomous Disabled,10,FALSE,0,NO ERROR,-0.562500,-202.092444,0.530217,-204.075189,TRUE,FALSE,TRUE,TRUE,FALSE,FALSE,Disabled,0.000000,0.963210,-24.733210,TRUE,8.543671,-0.582901,0.000000,0.056229,-0.003067,0.000000,-0.033000,-0.045000,0.002000,2.290000,0.080000,-1.950000,0.010517,Hold,0.926025,0.000000,Hold,-380.000000,2.000000,LowGoal,-1320.000000,-2181.818182,Speed,-975.000000,-2181.818182,Speed,Off,Off,0.000000,FALSE,43,Read: /home/lvuser/scripts/auto_43.bee,File good!,DRIVE_STRAIGHT_NAVX_RAMPARTS 200 5000 10,DRIVE_STRAIGHT_NAVX_RAMPARTS,0.000000,0.000000
04:16:27.479 PM 04/09/2016,Autonomous Disabled,9,FALSE,0,NO ERROR,-0.562500,-202.092444,0.530217,-204.075189,TRUE,FALSE,TRUE,TRUE,FALSE,FALSE,Disabled,0.000000,0.963210,-24.733210,TRUE,8.545868,-0.583115,0.000000,0.051285,0.000305,0.000000,0.139000,0.006000,-0.018000,2.280000,0.080000,-1.880000,0.017695,Hold,0.926025,0.000000,Hold,-381.000000,2.000000,LowGoal,-1237.500000,-2181.818182,Speed,-862.500000,-2181.818182,Speed,Off,Off,0.000000,FALSE,43,Read: /home/lvuser/scripts/auto_43.bee,File good!,DRIVE_STRAIGHT_NAVX_RAMPARTS 200 5000 10,DRIVE_STRAIGHT_NAVX_RAMPARTS,0.000000,0.000000
04:16:27.580 PM 04/09/2016,Autonomous Disabled,11,FALSE,0,NO ERROR,-0.562500,-202.092444,0.530217,-204.075189,TRUE,FALSE,TRUE,TRUE,FALSE,FALSE,Disabled,0.000000,0.963210,-24.733210,TRUE,8.550415,-0.583176,0.000000,0.127304,0.000000,0.000000,-0.070000,0.058000,0.006000,2.280000,0.070000,-1.690000,0.033575,Hold,0.926025,0.000000,Hold,-382.000000,2.000000,LowGoal,-1147.500000,-2181.818182,Speed,-757.500000,-2181.818182,Speed,Off,Off,0.000000,FALSE,43,Read: /home/lvuser/scripts/auto_43.bee,File good!,DRIVE_STRAIGHT_NAVX_RAMPARTS 200 5000 10,DRIVE_STRAIGHT_NAVX_RAMPARTS,0.000000,0.000000
04:16:27.681 PM 04/09/2016,Autonomous Disabled,10,FALSE,0,NO ERROR,-0.562500,-202.092444,0.530217,-204.075189,TRUE,FALSE,TRUE,TRUE,FALSE,FALSE,Disabled,0.000000,0.963210,-24.733210,TRUE,8.554718,-0.582031,0.000000,0.024200,0.037384,0.000000,-0.044000,0.032000,0.061000,2.290000,0.060000,-1.530000,0.050217,Hold,0.926025,0.000000,Hold,-383.000000,2.000000,LowGoal,-1065.000000,-2181.818182,Speed,-660.000000,-2181.818182,Speed,Off,Off,0.000000,FALSE,43,Read: /home/lvuser/scripts/auto_43.bee,File good!,DRIVE_STRAIGHT_NAVX_RAMPARTS 200 5000 10,DRIVE_STRAIGHT_NAVX_RAMPARTS,0.000000,0.000000
04:16:27.782 PM 04/09/2016,Autonomous Disabled,11,FALSE,0,NO ERROR,-0.562500,-202.092444,0.530217,-204.075189,TRUE,FALSE,TRUE,TRUE,FALSE,FALSE,Disabled,0.000000,0.963210,-24.733210,TRUE,8.556320,-0.579788,0.000000,0.062454,0.041458,0.000000,0.001000,0.037000,0.048000,2.280000,0.050000,-1.430000,0.044182,Hold,0.926025,0.000000,Hold,-384.000000,2.000000,LowGoal,-997.500000,-2181.818182,Speed,-555.000000,-2181.818182,Speed,Off,Off,0.000000,FALSE,43,Read: /home/lvuser/scripts/auto_43.bee,File good!,DRIVE_STRAIGHT_NAVX_RAMPARTS 200 5000 10,DRIVE_STRAIGHT_NAVX_RAMPARTS,0.000000,0.000000
04:16:27.882 PM 04/09/2016,Autonomous Disabled,9,FALSE,0,NO ERROR,-0.562500,-202.092444,0.530217,-204.075189,TRUE,FALSE,TRUE,TRUE,FALSE,FALSE,Disabled,0.000000,0.963210,-24.733210,TRUE,8.559952,-0.578445,0.000000,0.062546,-0.001862,0.000000,-0.025000,-0.002000,0.026000,2.280000,0.050000,-1.290000,0.059043,Hold,0.926025,0.000000,Hold,-384.000000,2.000000,LowGoal,-922.500000,-2181.818182,Speed,-480.000000,-2181.818182,Speed,Off,Off,0.000000,FALSE,43,Read: /home/lvuser/scripts/auto_43.bee,File good!,DRIVE_STRAIGHT_NAVX_RAMPARTS 200 5000 10,DRIVE_STRAIGHT_NAVX_RAMPARTS,0.000000,0.000000
04:16:27.982 PM 04/09/2016,Autonomous Disabled,9,FALSE,0,NO ERROR,-0.562500,-202.092444,0.530217,-204.075189,TRUE,FALSE,TRUE,TRUE,FALSE,FALSE,Disabled,0.000000,0.963210,-24.733210,TRUE,8.564209,-0.578506,0.000000,0.094238,0.002914,0.000000,0.039000,-0.006000,0.031000,2.260000,0.040000,-1.170000,0.065977,Hold,0.926025,0.000000,Hold,-384.000000,2.000000,LowGoal,-847.500000,-2181.818182,Speed,-390.000000,-2181.818182,Speed,Off,Off,0.000000,FALSE,43,Read: /home/lvuser/scripts/auto_43.bee,File good!,DRIVE_STRAIGHT_NAVX_RAMPARTS 200 5000 10,DRIVE_STRAIGHT_NAVX_RAMPARTS,0.000000,0.000000
04:16:28.082 PM 04/09/2016,Autonomous Disabled,10,FALSE,0,NO ERROR,-0.562500,-202.092444,0.530217,-204.075189,TRUE,FALSE,TRUE,TRUE,FALSE,FALSE,Disabled,0.000000,0.963210,-24.733210,TRUE,8.567459,-0.578674,0.000000,0.020126,-0.009140,0.000000,0.010000,0.000000,0.000000,2.270000,0.040000,-1.110000,0.069309,Hold,0.926025,0.000000,Hold,-384.000000,2.000000,LowGoal,-772.500000,-2181.818182,Speed,-315.000000,-2181.818182,Speed,Off,Off,0.000000,FALSE,43,Read: /home/lvuser/scripts/auto_43.bee,File good!,DRIVE_STRAIGHT_NAVX_RAMPARTS 200 5000 10,DRIVE_STRAIGHT_NAVX_RAMPARTS,0.000000,0.000000
04:16:28.182 PM 04/09/2016,Autonomous Disabled,9,FALSE,0,NO ERROR,-0.562500,-202.092444,0.530217,-204.075189,TRUE,FALSE,TRUE,TRUE,FALSE,FALSE,Disabled,0.000000,0.963210,-24.733210,TRUE,8.567963,-0.578934,0.000000,0.017975,-0.002426,0.000000,0.057000,0.028000,0.009000,2.260000,0.030000,-0.960000,0.075320,Hold,0.926025,0.000000,Hold,-384.000000,2.000000,LowGoal,-705.000000,-2181.818182,Speed,-232.500000,-2181.818182,Speed,Off,Off,0.000000,FALSE,43,Read: /home/lvuser/scripts/auto_43.bee,File good!,DRIVE_STRAIGHT_NAVX_RAMPARTS 200 5000 10,DRIVE_STRAIGHT_NAVX_RAMPARTS,0.000000,0.000000
04:16:28.283 PM 04/09/2016,Autonomous Disabled,10,FALSE,0,NO ERROR,-0.562500,-202.092444,0.530217,-204.075189,TRUE,FALSE,TRUE,TRUE,FALSE,FALSE,Disabled,0.000000,0.963210,-24.733210,TRUE,8.569855,-0.578537,0.000000,0.052109,0.013580,0.000000,-0.001000,0.019000,0.001000,2.250000,0.030000,-0.860000,0.088364,Hold,0.926025,0.000000,Hold,-384.000000,2.000000,LowGoal,-637.500000,-2181.818182,Speed,-157.500000,-2181.818182,Speed,Off,Off,0.000000,FALSE,43,Read: /home/lvuser/scripts/auto_43.bee,File good!,DRIVE_STRAIGHT_NAVX_RAMPARTS 200 5000 10,DRIVE_STRAIGHT_NAVX_RAMPARTS,0.000000,0.000000
04:16:28.383 PM 04/09/2016,Autonomous Disabled,13,FALSE,0,NO ERROR,-0.562500,-202.092444,0.530217,-204.075189,TRUE,FALSE,TRUE,TRUE,FALSE,FALSE,Disabled,0.000000,0.963210,-24.733210,TRUE,8.571884,-0.576614,0.000000,0.004044,0.033875,0.000000,0.046000,-0.032000,0.009000,2.260000,0.020000,-0.760000,0.083121,Hold,0.926270,0.000000,Hold,-384.000000,2.000000,LowGoal,-585.000000,-2181.818182,Speed,-82.500000,-2181.818182,Speed,Off,Off,0.000000,FALSE,43,Read: /home/lvuser/scripts/auto_43.bee,File good!,DRIVE_STRAIGHT_NAVX_RAMPARTS 200 5000 10,DRIVE_STRAIGHT_NAVX_RAMPARTS,0.000000,0.000000
04:16:28.483 PM 04/09/2016,Autonomous Disabled,10,FALSE,0,NO ERROR,-0.562500,-202.092444,0.530217,-204.075189,TRUE,FALSE,TRUE,TRUE,FALSE,FALSE,Disabled,0.000000,0.963210,-24.733210,TRUE,8.573257,-0.576401,0.000000,0.043839,-0.014786,0.000000,0.035000,-0.058000,0.044000,2.260000,0.020000,-0.660000,0.090887,Hold,0.926270,0.000000,Hold,-384.000000,2.000000,LowGoal,-502.500000,-2181.818182,Speed,-22.500000,-2181.818182,Speed,Off,Off,0.000000,FALSE,43,Read: /home/lvuser/scripts/auto_43.bee,File good!,DRIVE_STRAIGHT_NAVX_RAMPARTS 200 5000 10,DRIVE_STRAIGHT_NAVX_RAMPARTS,0.000000,0.000000
04:16:28.584 PM 04/09/2016,Autonomous Disabled,11,FALSE,0,NO ERROR,-0.562500,-202.092444,0.530217,-204.075189,TRUE,FALSE,TRUE,TRUE,FALSE,FALSE,Disabled,0.000000,0.963210,-24.733210,TRUE,8.575684,-0.577209,0.000000,0.057327,-0.017075,0.000000,0.013000,0.039000,0.048000,2.230000,0.020000,-0.590000,0.091011,Hold,0.926270,0.000000,Hold,-384.000000,2.000000,LowGoal,-457.500000,-2181.818182,Speed,0.000000,-2181.818182,Speed,Off,Off,0.000000,FALSE,43,Read: /home/lvuser/scripts/auto_43.bee,File good!,DRIVE_STRAIGHT_NAVX_RAMPARTS 200 5000 10,DRIVE_STRAIGHT_NAVX_RAMPARTS,0.000000,0.000000
04:16:28.684 PM 04/09/2016,Autonomous Disabled,9,FALSE,0,NO ERROR,-0.562500,-202.092444,0.530217,-204.075189,TRUE,FALSE,TRUE,TRUE,FALSE,FALSE,Disabled,0.000000,0.963210,-24.733210,TRUE,8.579330,-0.578003,0.000000,0.088562,-0.034607,0.000000,0.033000,-0.048000,0.003000,2.240000,0.010000,-0.530000,0.093018,Hold,0.926270,0.000000,Hold,-384.000000,2.000000,LowGoal,-397.500000,-2181.818182,Speed,0.000000,-2181.818182,Speed,Off,Off,0.000000,FALSE,43,Read: /home/lvuser/scripts/auto_43.bee,File good!,DRIVE_STRAIGHT_NAVX_RAMPARTS 200 5000 10,DRIVE_STRAIGHT_NAVX_RAMPARTS,0.000000,0.000000
04:16:28.785 PM 04/09/2016,Autonomous Disabled,10,FALSE,0,NO ERROR,-0.562500,-202.092444,0.530217,-204.075189,TRUE,FALSE,TRUE,TRUE,FALSE,FALSE,Disabled,0.000000,0.963210,-24.733210,TRUE,8.584351,-0.579193,0.000000,0.107010,-0.015167,0.000000,0.012000,-0.044000,0.042000,2.240000,0.010000,-0.470000,0.093328,Hold,0.926270,0.000000,Hold,-384.000000,2.000000,LowGoal,-330.000000,-2181.818182,Speed,0.000000,-2181.818182,Speed,Off,Off,0.000000,FALSE,43,Read: /home/lvuser/scripts/auto_43.bee,File good!,DRIVE_STRAIGHT_NAVX_RAMPARTS 200 5000 10,DRIVE_STRAIGHT_NAVX_RAMPARTS,0.000000,0.000000
04:16:28.885 PM 04/09/2016,Autonomous Disabled,10,FALSE,0,NO ERROR,-0.562500,-202.092444,0.530217,-204.075189,TRUE,FALSE,TRUE,TRUE,FALSE,FALSE,Disabled,0.000000,0.963210,-24.733210,TRUE,8.591599,-0.581543,0.000000,0.130478,-0.050156,0.000000,0.029000,-0.023000,0.042000,2.240000,0.010000,-0.430000,0.091651,Hold,0.926270,0.000000,Hold,-384.000000,2.000000,LowGoal,-277.500000,-2181.818182,Speed,0.000000,-2181.818182,Speed,Off,Off,0.000000,FALSE,43,Read: /home/lvuser/scripts/auto_43.bee,File good!,DRIVE_STRAIGHT_NAVX_RAMPARTS 200 5000 10,DRIVE_STRAIGHT_NAVX_RAMPARTS,0.000000,0.000000
04:16:28.986 PM 04/09/2016,Autonomous Disabled,11,FALSE,0,NO ERROR,-0.562500,-202.092444,0.530217,-204.075189,TRUE,FALSE,TRUE,TRUE,FALSE,FALSE,Disabled,0.000000,0.963210,-24.733210,TRUE,8.595718,-0.582672,0.000000,0.000000,0.000000,0.000000,0.008000,-0.001000,0.028000,2.230000,0.000000,-0.370000,0.100357,Hold,0.926270,0.000000,Hold,-384.000000,2.000000,LowGoal,-217.500000,-2181.818182,Speed,0.000000,-2181.818182,Speed,Off,Off,0.000000,FALSE,43,Read: /home/lvuser/scripts/auto_43.bee,File good!,DRIVE_STRAIGHT_NAVX_RAMPARTS 200 5000 10,DRIVE_STRAIGHT_NAVX_RAMPARTS,0.000000,0.000000
04:16:29.086 PM 04/09/2016,Autonomous Disabled,10,FALSE,0,NO ERROR,-0.562500,-202.092444,0.530217,-204.075189,TRUE,FALSE,TRUE,TRUE,FALSE,FALSE,Disabled,0.000000,0.963210,-24.733210,TRUE,8.595749,-0.582672,0.000000,0.003616,0.000000,0.000000,0.013000,0.000000,0.014000,2.230000,0.000000,-0.320000,0.096154,Hold,0.926270,0.000000,Hold,-384.000000,2.000000,LowGoal,-180.000000,-2181.818182,Speed,0.000000,-2181.818182,Speed,Off,Off,0.000000,FALSE,43,Read: /home/lvuser/scripts/auto_43.bee,File good!,DRIVE_STRAIGHT_NAVX_RAMPARTS 200 5000 10,DRIVE_STRAIGHT_NAVX_RAMPARTS,0.000000,0.000000
04:16:29.187 PM 04/09/2016,Autonomous Disabled,10,FALSE,0,NO ERROR,-0.562500,-202.092444,0.530217,-204.075189,TRUE,FALSE,TRUE,TRUE,FALSE,FALSE,Disabled,0.000000,0.963210,-24.733210,TRUE,8.595917,-0.582825,0.000000,0.000000,-0.007568,0.000000,0.011000,0.003000,0.012000,2.230000,0.000000,-0.270000,0.090643,Hold,0.926270,0.000000,Hold,-384.000000,2.000000,LowGoal,-112.500000,-2181.818182,Speed,0.000000,-2181.818182,Speed,Off,Off,0.000000,FALSE,43,Read: /home/lvuser/scripts/auto_43.bee,File good!,DRIVE_STRAIGHT_NAVX_RAMPARTS 200 5000 10,DRIVE_STRAIGHT_NAVX_RAMPARTS,0.000000,0.000000
