Time,Robot Mode,Loop Time,Error Status,Error Code,Error Source,Left Motor Output,Left Motor Encoder,Right Motor Output,Right Motor Encoder,Is Level,Is Stalled,Ball Detector Photoeye,Vision Enabled,Vision Teleop Control,Vision Auto Control,Vision Current State,Vision X Output,Vision NavX Error,Vision NavX Target,NavX Connection Status,NavX Displacement X,NavX Displacement Y,NavX Displacement Z,NavX Velocity X,NavX Velocity Y,NavX Velocity Z,NavX Acceleration X,NavX Acceleration Y,NavX Acceleration Z,NavX Pitch,NavX Yaw,NavX Roll,Gyro Angle,Roller Arm State,Roller Arm Actual,Roller Arm Desired,Shooter Arm State,Shooter Arm Actual,Shooter Arm Desired,Shooter State,Actual RPM Left,Desired RPM Left,Control Mode Left,Actual RPM Right,Desired RPM Right,Control Mode Right,Ball Shooter Cylinder,Ball Halo Cylinder,Scaler Motor Output,Scaler Solenoid Fire,Auto To Run,Auto Current File,Auto File Status,Auto Current Command,Auto Trimmed Command,Shooter Amps Left,Shooter Amps Right
02:39:54.738 PM 04/09/2016,Autonomous Enabled,10,TRUE,7,Read from Text File in DoesScriptNumberContainNull.vi->Disabled.vi->Robot Main.vi<APPEND> /home/lvuser/scripts/auto_42.bee,0.000000,0.000000,-0.000000,0.000000,TRUE,FALSE,TRUE,TRUE,FALSE,FALSE,Disabled,0.000000,0.000000,0.000000,TRUE,0.000000,0.000000,0.000000,0.000000,0.000000,0.000000,0.001000,0.000000,0.020000,2.530000,-0.200000,-0.230000,1.691460,ResetBack,0.000000,-0.000049,ResetBack,0.000000,-0.250000,LowGoal,0.000000,0.000000,Speed,0.000000,0.000000,Speed,Off,Off,0.000000,FALSE,43,Read: /home/lvuser/scripts/auto_43.bee,File good!,WAIT 1500,WAIT,0.000000,0.000000
02:39:54.840 PM 04/09/2016,Autonomous Enabled,9,TRUE,7,Read from Text File in DoesScriptNumberContainNull.vi->Disabled.vi->Robot Main.vi<APPEND> /home/lvuser/scripts/auto_42.bee,0.000000,0.000000,-0.000000,0.000000,TRUE,FALSE,TRUE,TRUE,FALSE,FALSE,Disabled,0.000000,0.000000,0.000000,TRUE,0.000000,0.000000,0.000000,0.000000,0.000000,0.000000,0.022000,0.010000,0.056000,2.540000,-0.190000,-0.240000,1.687907,ResetBack,-0.954834,-0.000049,ResetBack,134.000000,-0.250000,LowGoal,0.000000,-2181.818182,Speed,0.000000,-2181.818182,Speed,Off,Off,0.000000,FALSE,43,Read: /home/lvuser/scripts/auto_43.bee,File good!,WAIT 1500,WAIT,0.000000,0.000000
02:39:54.940 PM 04/09/2016,Autonomous Enabled,10,TRUE,7,Read from Text File in DoesScriptNumberContainNull.vi->Disabled.vi->Robot Main.vi<APPEND> /home/lvuser/scripts/auto_42.bee,0.000000,0.000000,-0.000000,0.000000,TRUE,FALSE,TRUE,TRUE,FALSE,FALSE,Disabled,0.000000,0.000000,0.000000,TRUE,-0.000183,-0.001419,0.000000,-0.010132,-0.056610,0.000000,-0.034000,-0.035000,0.059000,2.500000,-0.200000,-0.230000,1.697033,ResetBack,-1.246826,-0.000049,ResetBack,4956.000000,-0.250000,LowGoal,22.500000,-2181.818182,Speed,30.000000,-2181.818182,Speed,Off,Off,0.000000,FALSE,43,Read: /home/lvuser/scripts/auto_43.bee,File good!,WAIT 1500,WAIT,0.000000,0.000000
02:39:55.040 PM 04/09/2016,Autonomous Enabled,10,TRUE,7,Read from Text File in DoesScriptNumberContainNull.vi->Disabled.vi->Robot Main.vi<APPEND> /home/lvuser/scripts/auto_42.bee,0.000000,0.000000,-0.000000,0.000000,TRUE,FALSE,TRUE,TRUE,FALSE,FALSE,Disabled,0.000000,0.000000,0.000000,TRUE,0.000259,-0.006058,0.000000,0.032898,-0.112198,0.000000,0.039000,-0.016000,0.053000,2.500000,-0.200000,-0.230000,1.700366,ResetBack,-1.246826,-0.000049,ResetBack,5951.000000,-0.250000,LowGoal,540.000000,-2181.818182,Speed,495.000000,-2181.818182,Speed,Off,Off,0.000000,FALSE,43,Read: /home/lvuser/scripts/auto_43.bee,File good!,WAIT 1500,WAIT,0.000000,0.000000
02:39:55.140 PM 04/09/2016,Autonomous Enabled,10,TRUE,7,Read from Text File in DoesScriptNumberContainNull.vi->Disabled.vi->Robot Main.vi<APPEND> /home/lvuser/scripts/auto_42.bee,0.000000,0.000000,-0.000000,0.000000,TRUE,FALSE,TRUE,TRUE,FALSE,FALSE,Disabled,0.000000,0.000000,0.000000,TRUE,0.001678,-0.011536,0.000000,0.018982,-0.099869,0.000000,-0.051000,-0.028000,0.034000,2.530000,-0.200000,-0.290000,1.691886,Reset,-1.246826,0.000000,ResetBack,6527.000000,-0.250000,LowGoal,1185.000000,-2181.818182,Speed,1080.000000,-2181.818182,Speed,Off,Off,0.000000,FALSE,43,Read: /home/lvuser/scripts/auto_43.bee,File good!,WAIT 1500,WAIT,0.000000,0.000000
02:39:55.241 PM 04/09/2016,Autonomous Enabled,9,TRUE,7,Read from Text File in DoesScriptNumberContainNull.vi->Disabled.vi->Robot Main.vi<APPEND> /home/lvuser/scripts/auto_42.bee,0.000000,0.000000,-0.000000,0.000000,TRUE,FALSE,TRUE,TRUE,FALSE,FALSE,Disabled,0.000000,0.000000,0.000000,TRUE,0.001602,-0.013916,0.000000,-0.010254,-0.020584,0.000000,-0.051000,-0.028000,0.034000,2.530000,-0.200000,-0.290000,1.707392,Hold,1.174561,0.000000,ResetBack,6527.000000,-0.250000,LowGoal,1717.500000,-2181.818182,Speed,1567.500000,-2181.818182,Speed,Off,Off,0.000000,FALSE,43,Read: /home/lvuser/scripts/auto_43.bee,File good!,WAIT 1500,WAIT,0.000000,0.000000
02:39:55.342 PM 04/09/2016,Autonomous Enabled,10,TRUE,7,Read from Text File in DoesScriptNumberContainNull.vi->Disabled.vi->Robot Main.vi<APPEND> /home/lvuser/scripts/auto_42.bee,0.000000,0.000000,-0.000000,0.000000,TRUE,FALSE,TRUE,TRUE,FALSE,FALSE,Disabled,0.000000,0.000000,0.000000,TRUE,0.001755,-0.014938,0.000000,-0.016922,-0.004318,0.000000,-0.066000,-0.010000,0.071000,2.520000,-0.200000,-0.270000,1.697467,Hold,0.938721,0.000000,ResetBack,7290.000000,-0.250000,LowGoal,2137.500000,-2181.818182,Speed,1950.000000,-2181.818182,Speed,Off,Off,0.000000,FALSE,43,Read: /home/lvuser/scripts/auto_43.bee,File good!,WAIT 1500,WAIT,0.000000,0.000000
02:39:55.443 PM 04/09/2016,Autonomous Enabled,9,TRUE,7,Read from Text File in DoesScriptNumberContainNull.vi->Disabled.vi->Robot Main.vi<APPEND> /home/lvuser/scripts/auto_42.bee,0.000000,0.000000,-0.000000,0.000000,TRUE,FALSE,TRUE,TRUE,FALSE,FALSE,Disabled,0.000000,0.000000,0.000000,TRUE,-0.002640,-0.015656,0.000000,-0.153641,-0.023941,0.000000,-0.119000,0.011000,0.091000,2.530000,-0.210000,-0.180000,1.699460,Hold,0.938232,0.000000,ResetBack,8150.000000,-0.250000,LowGoal,2242.500000,-2181.818182,Speed,2167.500000,-2181.818182,Speed,Off,Off,0.000000,FALSE,43,Read: /home/lvuser/scripts/auto_43.bee,File good!,WAIT 1500,WAIT,0.000000,0.000000
02:39:55.545 PM 04/09/2016,Autonomous Enabled,10,TRUE,7,Read from Text File in DoesScriptNumberContainNull.vi->Disabled.vi->Robot Main.vi<APPEND> /home/lvuser/scripts/auto_42.bee,0.000000,0.000000,-0.000000,0.000000,TRUE,FALSE,TRUE,TRUE,FALSE,FALSE,Disabled,0.000000,0.000000,0.000000,TRUE,-0.013611,-0.018570,0.000000,-0.241241,-0.110992,0.000000,0.023000,-0.212000,0.157000,2.580000,-0.200000,-0.220000,1.698799,Hold,0.938232,0.000000,ResetBack,8363.000000,-0.250000,LowGoal,2182.500000,-2181.818182,Speed,2137.500000,-2181.818182,Speed,Off,Off,0.000000,FALSE,43,Read: /home/lvuser/scripts/auto_43.bee,File good!,WAIT 1500,WAIT,0.000000,0.000000
02:39:55.645 PM 04/09/2016,Autonomous Enabled,10,TRUE,7,Read from Text File in DoesScriptNumberContainNull.vi->Disabled.vi->Robot Main.vi<APPEND> /home/lvuser/scripts/auto_42.bee,0.000000,0.000000,-0.000000,0.000000,TRUE,FALSE,TRUE,TRUE,FALSE,FALSE,Disabled,0.000000,0.000000,0.000000,TRUE,-0.025192,-0.030807,0.000000,-0.227905,-0.331207,0.000000,0.130000,-0.155000,0.192000,2.560000,-0.200000,-0.250000,1.706590,Hold,0.937988,0.000000,ResetBack,8375.000000,-0.250000,LowGoal,2137.500000,-2181.818182,Speed,2077.500000,-2181.818182,Speed,Off,Off,0.000000,FALSE,43,Read: /home/lvuser/scripts/auto_43.bee,File good!,WAIT 1500,WAIT,0.000000,0.000000
02:39:55.745 PM 04/09/2016,Autonomous Enabled,9,TRUE,7,Read from Text File in DoesScriptNumberContainNull.vi->Disabled.vi->Robot Main.vi<APPEND> /home/lvuser/scripts/auto_42.bee,0.000000,0.000000,-0.000000,0.000000,TRUE,FALSE,TRUE,TRUE,FALSE,FALSE,Disabled,0.000000,0.000000,0.000000,TRUE,-0.034225,-0.050827,0.000000,-0.184082,-0.428101,0.000000,-0.105000,0.068000,0.139000,2.550000,-0.210000,-0.210000,1.703364,Hold,0.937988,0.000000,ResetBack,8382.000000,-0.250000,LowGoal,2122.500000,-2181.818182,Speed,2077.500000,-2181.818182,Speed,Off,Off,0.000000,FALSE,43,Read: /home/lvuser/scripts/auto_43.bee,File good!,WAIT 1500,WAIT,0.000000,0.000000
02:39:55.848 PM 04/09/2016,Autonomous Enabled,11,TRUE,7,Read from Text File in DoesScriptNumberContainNull.vi->Disabled.vi->Robot Main.vi<APPEND> /home/lvuser/scripts/auto_42.bee,0.000000,0.000000,-0.000000,0.000000,TRUE,FALSE,TRUE,TRUE,FALSE,FALSE,Disabled,0.000000,0.000000,0.000000,TRUE,-0.046188,-0.069931,0.000000,-0.259033,-0.335480,0.000000,0.092000,0.081000,0.030000,2.540000,-0.210000,-0.190000,1.709141,Hold,0.937988,0.000000,ResetBack,8581.000000,-0.250000,LowGoal,2130.000000,-2181.818182,Speed,2100.000000,-2181.818182,Speed,Off,Off,0.000000,FALSE,43,Read: /home/lvuser/scripts/auto_43.bee,File good!,WAIT 1500,WAIT,0.000000,0.000000
02:39:55.947 PM 04/09/2016,Autonomous Enabled,11,TRUE,7,Read from Text File in DoesScriptNumberContainNull.vi->Disabled.vi->Robot Main.vi<APPEND> /home/lvuser/scripts/auto_42.bee,0.000000,0.000000,-0.000000,0.000000,TRUE,FALSE,TRUE,TRUE,FALSE,FALSE,Disabled,0.000000,0.000000,0.000000,TRUE,-0.057846,-0.084259,0.000000,-0.235214,-0.256088,0.000000,-0.058000,0.042000,0.033000,2.540000,-0.210000,-0.190000,1.704331,Hold,0.937988,0.000000,ResetBack,8581.000000,-0.250000,LowGoal,2137.500000,-2181.818182,Speed,2100.000000,-2181.818182,Speed,Off,Off,0.000000,FALSE,43,Read: /home/lvuser/scripts/auto_43.bee,File good!,WAIT 1500,WAIT,0.000000,0.000000
02:39:56.049 PM 04/09/2016,Autonomous Enabled,9,TRUE,7,Read from Text File in DoesScriptNumberContainNull.vi->Disabled.vi->Robot Main.vi<APPEND> /home/lvuser/scripts/auto_42.bee,0.000000,0.000000,-0.000000,0.000000,TRUE,FALSE,TRUE,TRUE,FALSE,FALSE,Disabled,0.000000,0.000000,0.000000,TRUE,-0.057846,-0.084259,0.000000,-0.235214,-0.256088,0.000000,-0.058000,0.042000,0.033000,2.560000,-0.210000,-0.160000,1.715988,Hold,0.937988,0.000000,Reset,8684.000000,2.000000,LowGoal,2137.500000,-2181.818182,Speed,2100.000000,-2181.818182,Speed,Off,Off,0.000000,FALSE,43,Read: /home/lvuser/scripts/auto_43.bee,File good!,WAIT 1500,WAIT,0.000000,0.000000
02:39:56.149 PM 04/09/2016,Autonomous Enabled,8,TRUE,7,Read from Text File in DoesScriptNumberContainNull.vi->Disabled.vi->Robot Main.vi<APPEND> /home/lvuser/scripts/auto_42.bee,0.000000,0.000000,-0.000000,0.000000,TRUE,FALSE,TRUE,TRUE,FALSE,FALSE,Disabled,0.000000,0.000000,0.000000,TRUE,-0.079697,-0.125107,0.000000,-0.202896,-0.542297,0.000000,0.025000,-0.248000,0.045000,2.600000,-0.210000,-0.150000,1.722036,Hold,0.937988,0.000000,Hold,-102.000000,2.000000,LowGoal,2137.500000,-2181.818182,Speed,2100.000000,-2181.818182,Speed,Off,Off,0.000000,FALSE,43,Read: /home/lvuser/scripts/auto_43.bee,File good!,WAIT 1500,WAIT,0.000000,0.000000
02:39:56.249 PM 04/09/2016,Autonomous Enabled,11,TRUE,7,Read from Text File in DoesScriptNumberContainNull.vi->Disabled.vi->Robot Main.vi<APPEND> /home/lvuser/scripts/auto_42.bee,0.000000,0.000000,-0.000000,0.000000,TRUE,FALSE,TRUE,TRUE,FALSE,FALSE,Disabled,0.000000,0.000000,0.000000,TRUE,-0.079697,-0.125107,0.000000,-0.202896,-0.542297,0.000000,0.042000,-0.091000,-0.027000,2.610000,-0.200000,-0.260000,1.713292,Hold,0.937988,0.000000,Hold,-112.000000,2.000000,LowGoal,2137.500000,-2181.818182,Speed,2100.000000,-2181.818182,Speed,Off,Off,0.000000,FALSE,43,Read: /home/lvuser/scripts/auto_43.bee,File good!,WAIT 1500,WAIT,0.000000,0.000000
02:39:56.350 PM 04/09/2016,Autonomous Enabled,10,TRUE,7,Read from Text File in DoesScriptNumberContainNull.vi->Disabled.vi->Robot Main.vi<APPEND> /home/lvuser/scripts/auto_42.bee,0.000000,0.000000,-0.000000,0.000000,TRUE,FALSE,TRUE,TRUE,FALSE,FALSE,Disabled,0.000000,0.000000,0.000000,TRUE,-0.100784,-0.176208,0.000000,-0.262512,-0.355896,0.000000,-0.116000,0.187000,-0.036000,2.560000,-0.210000,-0.180000,-0.004482,Hold,0.937988,0.000000,Hold,-112.000000,2.000000,LowGoal,2130.000000,-2181.818182,Speed,2107.500000,-2181.818182,Speed,Off,Off,0.000000,FALSE,43,Read: /home/lvuser/scripts/auto_43.bee,File good!,DRIVE_STRAIGHT_NAVX_RAMPARTS 200 5000 10,DRIVE_STRAIGHT_NAVX_RAMPARTS,0.000000,0.000000
02:39:56.451 PM 04/09/2016,Autonomous Enabled,8,TRUE,7,Read from Text File in DoesScriptNumberContainNull.vi->Disabled.vi->Robot Main.vi<APPEND> /home/lvuser/scripts/auto_42.bee,-0.562500,-0.006417,0.562500,-0.032083,TRUE,FALSE,TRUE,TRUE,FALSE,FALSE,Disabled,0.000000,0.000000,0.000000,TRUE,-0.100784,-0.176208,0.000000,-0.262512,-0.355896,0.000000,0.032000,0.200000,-0.171000,2.540000,0.000000,-0.230000,-0.000279,Hold,0.937988,0.000000,Hold,-112.000000,2.000000,LowGoal,2137.500000,2400.000000,Speed,2107.500000,2400.000000,Speed,Off,Off,0.000000,FALSE,43,Read: /home/lvuser/scripts/auto_43.bee,File good!,DRIVE_STRAIGHT_NAVX_RAMPARTS 200 5000 10,DRIVE_STRAIGHT_NAVX_RAMPARTS,0.000000,0.000000
02:39:56.551 PM 04/09/2016,Autonomous Enabled,10,TRUE,7,Read from Text File in DoesScriptNumberContainNull.vi->Disabled.vi->Robot Main.vi<APPEND> /home/lvuser/scripts/auto_42.bee,-0.562500,-1.847996,0.562500,-0.988164,TRUE,FALSE,TRUE,TRUE,FALSE,FALSE,Disabled,0.000000,0.000000,0.000000,TRUE,-0.121643,-0.194962,0.000000,0.058578,-0.080307,0.000000,-0.170000,0.099000,-0.047000,2.550000,0.000000,-0.200000,-1.063692,Hold,0.937988,0.000000,Hold,-115.000000,2.000000,LowGoal,2085.000000,2400.000000,Speed,1972.500000,2400.000000,Speed,Off,Off,0.000000,FALSE,43,Read: /home/lvuser/scripts/auto_43.bee,File good!,DRIVE_STRAIGHT_NAVX_RAMPARTS 200 5000 10,DRIVE_STRAIGHT_NAVX_RAMPARTS,0.000000,0.000000
02:39:56.653 PM 04/09/2016,Autonomous Enabled,9,TRUE,7,Read from Text File in DoesScriptNumberContainNull.vi->Disabled.vi->Robot Main.vi<APPEND> /home/lvuser/scripts/auto_42.bee,-0.562500,-3.849991,0.562500,-3.009410,FALSE,FALSE,TRUE,TRUE,FALSE,FALSE,Disabled,0.000000,0.000000,0.000000,TRUE,-0.121643,-0.194962,0.000000,0.058578,-0.080307,0.000000,-0.029000,-0.229000,0.610000,2.820000,-1.110000,3.370000,-1.144472,Hold,0.937988,0.000000,Hold,-115.000000,2.000000,LowGoal,1290.000000,2400.000000,Speed,1012.500000,2400.000000,Speed,Off,Off,0.000000,FALSE,43,Read: /home/lvuser/scripts/auto_43.bee,File good!,DRIVE_STRAIGHT_NAVX_RAMPARTS 200 5000 10,DRIVE_STRAIGHT_NAVX_RAMPARTS,0.000000,0.000000
02:39:56.754 PM 04/09/2016,Autonomous Enabled,10,TRUE,7,Read from Text File in DoesScriptNumberContainNull.vi->Disabled.vi->Robot Main.vi<APPEND> /home/lvuser/scripts/auto_42.bee,-0.562500,-6.480818,0.562500,-5.704403,TRUE,FALSE,TRUE,TRUE,FALSE,FALSE,Disabled,0.000000,0.000000,0.000000,TRUE,-0.114517,-0.203812,0.000000,0.167465,-0.179581,0.000000,0.137000,0.017000,0.215000,2.480000,-1.280000,2.640000,-1.068777,Hold,0.937988,0.000000,Hold,-115.000000,2.000000,LowGoal,217.500000,2400.000000,Speed,172.500000,2400.000000,Speed,Off,Off,0.000000,FALSE,43,Read: /home/lvuser/scripts/auto_43.bee,File good!,DRIVE_STRAIGHT_NAVX_RAMPARTS 200 5000 10,DRIVE_STRAIGHT_NAVX_RAMPARTS,0.000000,0.000000
02:39:56.854 PM 04/09/2016,Autonomous Enabled,9,TRUE,7,Read from Text File in DoesScriptNumberContainNull.vi->Disabled.vi->Robot Main.vi<APPEND> /home/lvuser/scripts/auto_42.bee,-0.562500,-9.657061,0.562500,-8.919146,TRUE,FALSE,TRUE,TRUE,FALSE,FALSE,Disabled,0.000000,0.000000,0.000000,TRUE,-0.102249,-0.212341,0.000000,0.287552,-0.169434,0.000000,0.045000,-0.109000,-0.161000,2.610000,-1.190000,2.410000,-1.058311,Hold,0.937988,0.000000,Hold,-115.000000,2.000000,LowGoal,-607.500000,2400.000000,Speed,-622.500000,2400.000000,Speed,Off,Off,0.000000,FALSE,43,Read: /home/lvuser/scripts/auto_43.bee,File good!,DRIVE_STRAIGHT_NAVX_RAMPARTS 200 5000 10,DRIVE_STRAIGHT_NAVX_RAMPARTS,0.000000,0.000000
02:39:56.955 PM 04/09/2016,Autonomous Enabled,10,TRUE,7,Read from Text File in DoesScriptNumberContainNull.vi->Disabled.vi->Robot Main.vi<APPEND> /home/lvuser/scripts/auto_42.bee,-0.562500,-12.891053,0.515553,-12.153138,TRUE,FALSE,TRUE,TRUE,FALSE,FALSE,Disabled,0.000000,0.000000,0.000000,TRUE,-0.088394,-0.222977,0.000000,0.246094,-0.226410,0.000000,-0.065000,-0.011000,-0.116000,2.550000,-1.210000,2.800000,-1.058311,Hold,0.937988,0.000000,Hold,-115.000000,2.000000,LowGoal,-1252.500000,2400.000000,Speed,-1207.500000,2400.000000,Speed,Off,Off,0.000000,FALSE,43,Read: /home/lvuser/scripts/auto_43.bee,File good!,DRIVE_STRAIGHT_NAVX_RAMPARTS 200 5000 10,DRIVE_STRAIGHT_NAVX_RAMPARTS,0.000000,0.000000
02:39:57.056 PM 04/09/2016,Autonomous Enabled,10,TRUE,7,Read from Text File in DoesScriptNumberContainNull.vi->Disabled.vi->Robot Main.vi<APPEND> /home/lvuser/scripts/auto_42.bee,-0.562500,-12.891053,0.522671,-12.153138,TRUE,FALSE,TRUE,TRUE,FALSE,FALSE,Disabled,0.000000,0.000000,0.000000,TRUE,-0.078156,-0.233597,0.000000,0.188873,-0.191208,0.000000,-0.024000,0.065000,0.111000,2.660000,-1.140000,1.980000,-1.097133,Hold,0.937988,0.000000,Hold,-115.000000,2.000000,LowGoal,-1695.000000,2400.000000,Speed,-1672.500000,2400.000000,Speed,Off,Off,0.000000,FALSE,43,Read: /home/lvuser/scripts/auto_43.bee,File good!,DRIVE_STRAIGHT_NAVX_RAMPARTS 200 5000 10,DRIVE_STRAIGHT_NAVX_RAMPARTS,0.000000,0.000000
02:39:57.158 PM 04/09/2016,Autonomous Enabled,10,FALSE,0,NO ERROR,-0.562500,-16.362462,0.530596,-15.842713,TRUE,FALSE,TRUE,TRUE,FALSE,FALSE,Disabled,0.000000,0.000000,0.000000,TRUE,-0.077927,-0.245575,0.000000,-0.077438,-0.220154,0.000000,-0.166000,-0.166000,0.020000,2.650000,-0.890000,2.350000,-0.891870,Hold,0.937988,0.000000,Hold,-115.000000,2.000000,LowGoal,-2152.500000,2400.000000,Speed,-2070.000000,2400.000000,Speed,Off,Off,0.000000,FALSE,43,Read: /home/lvuser/scripts/auto_43.bee,File good!,DRIVE_STRAIGHT_NAVX_RAMPARTS 200 5000 10,DRIVE_STRAIGHT_NAVX_RAMPARTS,0.000000,0.000000
02:39:57.259 PM 04/09/2016,Autonomous Enabled,10,FALSE,0,NO ERROR,-0.562500,-19.917287,0.536673,-19.506621,TRUE,FALSE,TRUE,TRUE,FALSE,FALSE,Disabled,0.000000,0.000000,0.000000,TRUE,-0.085175,-0.263260,0.000000,-0.176071,-0.434570,0.000000,-0.019000,-0.037000,0.094000,2.640000,-0.740000,2.400000,-0.706737,Hold,0.937988,0.000000,Hold,-115.000000,2.000000,LowGoal,-2452.500000,2400.000000,Speed,-2310.000000,2400.000000,Speed,Off,Off,0.000000,FALSE,43,Read: /home/lvuser/scripts/auto_43.bee,File good!,DRIVE_STRAIGHT_NAVX_RAMPARTS 200 5000 10,DRIVE_STRAIGHT_NAVX_RAMPARTS,0.000000,0.000000
02:39:57.360 PM 04/09/2016,Autonomous Enabled,10,FALSE,0,NO ERROR,-0.562500,-23.619695,0.542020,-23.382279,TRUE,FALSE,TRUE,TRUE,FALSE,FALSE,Disabled,0.000000,0.000000,0.000000,TRUE,-0.095261,-0.280426,0.000000,-0.197021,-0.319580,0.000000,0.142000,-0.210000,0.152000,2.750000,-0.580000,2.190000,-0.548658,Hold,0.937988,0.000000,Hold,-116.000000,2.000000,LowGoal,-2437.500000,2400.000000,Speed,-2400.000000,2400.000000,Speed,Off,Off,0.000000,FALSE,43,Read: /home/lvuser/scripts/auto_43.bee,File good!,DRIVE_STRAIGHT_NAVX_RAMPARTS 200 5000 10,DRIVE_STRAIGHT_NAVX_RAMPARTS,0.000000,0.000000
02:39:57.460 PM 04/09/2016,Autonomous Enabled,10,FALSE,0,NO ERROR,-0.562500,-27.655769,0.545471,-27.533852,TRUE,FALSE,TRUE,TRUE,FALSE,FALSE,Disabled,0.000000,0.000000,0.000000,TRUE,-0.103561,-0.296127,0.000000,-0.237091,-0.412918,0.000000,0.082000,0.029000,-0.128000,2.650000,-0.490000,2.230000,-0.401877,Hold,0.937988,0.000000,Hold,-116.000000,2.000000,LowGoal,-2370.000000,2400.000000,Speed,-2340.000000,2400.000000,Speed,Off,Off,0.000000,FALSE,43,Read: /home/lvuser/scripts/auto_43.bee,File good!,DRIVE_STRAIGHT_NAVX_RAMPARTS 200 5000 10,DRIVE_STRAIGHT_NAVX_RAMPARTS,0.000000,0.000000
02:39:57.561 PM 04/09/2016,Autonomous Enabled,10,FALSE,0,NO ERROR,-0.562500,-31.711093,0.550861,-31.698259,TRUE,FALSE,TRUE,TRUE,FALSE,FALSE,Disabled,0.000000,0.000000,0.000000,TRUE,-0.117554,-0.319412,0.000000,-0.254257,-0.363800,0.000000,0.021000,0.045000,0.102000,2.660000,-0.340000,2.460000,-0.295657,Hold,0.937988,0.000000,Hold,-116.000000,2.000000,LowGoal,-2362.500000,2400.000000,Speed,-2310.000000,2400.000000,Speed,Off,Off,0.000000,FALSE,43,Read: /home/lvuser/scripts/auto_43.bee,File good!,DRIVE_STRAIGHT_NAVX_RAMPARTS 200 5000 10,DRIVE_STRAIGHT_NAVX_RAMPARTS,0.000000,0.000000
02:39:57.661 PM 04/09/2016,Autonomous Enabled,10,FALSE,0,NO ERROR,-0.562500,-35.792083,0.554340,-35.901166,TRUE,FALSE,TRUE,TRUE,FALSE,FALSE,Disabled,0.000000,0.000000,0.000000,TRUE,-0.131516,-0.335098,0.000000,-0.316223,-0.240982,0.000000,0.017000,0.139000,-0.025000,2.640000,-0.220000,2.530000,-0.147758,Hold,0.937988,0.000000,Hold,-116.000000,2.000000,LowGoal,-2392.500000,2400.000000,Speed,-2325.000000,2400.000000,Speed,Off,Off,0.000000,FALSE,43,Read: /home/lvuser/scripts/auto_43.bee,File good!,DRIVE_STRAIGHT_NAVX_RAMPARTS 200 5000 10,DRIVE_STRAIGHT_NAVX_RAMPARTS,0.000000,0.000000
02:39:57.761 PM 04/09/2016,Autonomous Enabled,10,FALSE,0,NO ERROR,-0.562500,-40.039906,0.543169,-40.161823,FALSE,FALSE,TRUE,TRUE,FALSE,FALSE,Disabled,0.000000,0.000000,0.000000,TRUE,-0.145676,-0.348221,0.000000,-0.274078,-0.350983,0.000000,-0.136000,-0.278000,-0.260000,2.690000,-0.290000,3.980000,-0.231643,Hold,0.937988,0.000000,Hold,-116.000000,2.000000,LowGoal,-2400.000000,2400.000000,Speed,-2332.500000,2400.000000,Speed,Off,Off,0.000000,FALSE,43,Read: /home/lvuser/scripts/auto_43.bee,File good!,DRIVE_STRAIGHT_NAVX_RAMPARTS 200 5000 10,DRIVE_STRAIGHT_NAVX_RAMPARTS,0.000000,0.000000
02:39:57.862 PM 04/09/2016,Autonomous Enabled,11,FALSE,0,NO ERROR,-0.562500,-44.165813,0.537054,-44.165813,FALSE,FALSE,TRUE,TRUE,FALSE,FALSE,Disabled,0.000000,0.000000,0.000000,TRUE,-0.162857,-0.368820,0.000000,-0.414185,-0.355881,0.000000,-0.015000,0.398000,0.053000,2.430000,-0.580000,6.400000,-0.546678,Hold,0.937988,0.000000,Hold,-116.000000,2.000000,LowGoal,-2392.500000,2400.000000,Speed,-2332.500000,2400.000000,Speed,Off,Off,0.000000,FALSE,43,Read: /home/lvuser/scripts/auto_43.bee,File good!,DRIVE_STRAIGHT_NAVX_RAMPARTS 200 5000 10,DRIVE_STRAIGHT_NAVX_RAMPARTS,0.000000,0.000000
02:39:57.962 PM 04/09/2016,Autonomous Enabled,12,FALSE,0,NO ERROR,-0.562500,-48.137721,0.526815,-48.105638,FALSE,FALSE,TRUE,TRUE,FALSE,FALSE,Disabled,0.000000,0.000000,0.000000,TRUE,-0.184692,-0.377563,0.000000,-0.429672,-0.099472,0.000000,-0.008000,-0.146000,0.331000,2.360000,-0.790000,8.710000,-0.781956,Hold,0.937988,0.000000,Hold,-116.000000,2.000000,LowGoal,-2392.500000,2400.000000,Speed,-2325.000000,2400.000000,Speed,Off,Off,0.000000,FALSE,43,Read: /home/lvuser/scripts/auto_43.bee,File good!,DRIVE_STRAIGHT_NAVX_RAMPARTS 200 5000 10,DRIVE_STRAIGHT_NAVX_RAMPARTS,0.000000,0.000000
02:39:58.062 PM 04/09/2016,Autonomous Enabled,8,FALSE,0,NO ERROR,-0.562500,-51.865795,0.520043,-51.846545,FALSE,FALSE,TRUE,TRUE,FALSE,FALSE,Disabled,0.000000,0.000000,0.000000,TRUE,-0.207123,-0.387665,0.000000,-0.484528,-0.285843,0.000000,-0.116000,-0.014000,-0.180000,2.180000,-1.060000,10.520000,-0.984675,Hold,0.937988,0.000000,Hold,-116.000000,2.000000,LowGoal,-2385.000000,2400.000000,Speed,-2325.000000,2400.000000,Speed,Off,Off,0.000000,FALSE,43,Read: /home/lvuser/scripts/auto_43.bee,File good!,DRIVE_STRAIGHT_NAVX_RAMPARTS 200 5000 10,DRIVE_STRAIGHT_NAVX_RAMPARTS,0.000000,0.000000
02:39:58.163 PM 04/09/2016,Autonomous Enabled,10,FALSE,0,NO ERROR,-0.562500,-55.285871,0.550861,-55.343621,FALSE,FALSE,TRUE,TRUE,FALSE,FALSE,Disabled,0.000000,0.000000,0.000000,TRUE,-0.234772,-0.400055,0.000000,-0.601990,-0.187561,0.000000,-0.296000,0.164000,0.233000,2.510000,-0.930000,8.990000,-1.056717,Hold,0.937988,0.000000,Hold,-116.000000,2.000000,LowGoal,-2385.000000,2400.000000,Speed,-2325.000000,2400.000000,Speed,Off,Off,0.000000,FALSE,43,Read: /home/lvuser/scripts/auto_43.bee,File good!,DRIVE_STRAIGHT_NAVX_RAMPARTS 200 5000 10,DRIVE_STRAIGHT_NAVX_RAMPARTS,0.000000,0.000000
02:39:58.265 PM 04/09/2016,Autonomous Enabled,11,FALSE,0,NO ERROR,-0.562500,-58.699529,0.600160,-59.289861,FALSE,FALSE,TRUE,TRUE,FALSE,FALSE,Disabled,0.000000,0.000000,0.000000,TRUE,-0.277924,-0.406296,0.000000,-0.708817,-0.088837,0.000000,0.097000,0.055000,-0.830000,2.430000,1.070000,17.630000,0.396586,Hold,0.958008,0.000000,Hold,-116.000000,2.000000,LowGoal,-2370.000000,2400.000000,Speed,-2325.000000,2400.000000,Speed,Off,Off,0.000000,FALSE,43,Read: /home/lvuser/scripts/auto_43.bee,File good!,DRIVE_STRAIGHT_NAVX_RAMPARTS 200 5000 10,DRIVE_STRAIGHT_NAVX_RAMPARTS,0.000000,0.000000
02:39:58.366 PM 04/09/2016,Autonomous Enabled,11,FALSE,0,NO ERROR,-0.562500,-61.895022,0.545471,-62.318521,FALSE,FALSE,TRUE,TRUE,FALSE,FALSE,Disabled,0.000000,0.000000,0.000000,TRUE,-0.325943,-0.422623,0.000000,-1.009552,-0.426849,0.000000,0.366000,0.129000,-0.561000,2.100000,0.420000,18.320000,0.378031,Hold,0.947021,0.000000,Hold,-116.000000,2.000000,LowGoal,-2362.500000,2400.000000,Speed,-2317.500000,2400.000000,Speed,Off,Off,0.000000,FALSE,43,Read: /home/lvuser/scripts/auto_43.bee,File good!,DRIVE_STRAIGHT_NAVX_RAMPARTS 200 5000 10,DRIVE_STRAIGHT_NAVX_RAMPARTS,0.000000,0.000000
02:39:58.468 PM 04/09/2016,Autonomous Enabled,11,FALSE,0,NO ERROR,-0.562500,-64.872348,0.516673,-65.270181,FALSE,FALSE,TRUE,TRUE,FALSE,FALSE,Disabled,0.000000,0.000000,0.000000,TRUE,-0.365738,-0.442413,0.000000,-0.625748,-0.350708,0.000000,0.166000,0.462000,0.428000,1.860000,-1.180000,14.690000,-1.036630,Hold,0.947021,0.000000,Hold,-116.000000,2.000000,LowGoal,-2355.000000,2400.000000,Speed,-2302.500000,2400.000000,Speed,Off,Off,0.000000,FALSE,43,Read: /home/lvuser/scripts/auto_43.bee,File good!,DRIVE_STRAIGHT_NAVX_RAMPARTS 200 5000 10,DRIVE_STRAIGHT_NAVX_RAMPARTS,0.000000,0.000000
02:39:58.568 PM 04/09/2016,Autonomous Enabled,9,FALSE,0,NO ERROR,-0.562500,-67.945924,0.588136,-68.606840,FALSE,FALSE,TRUE,TRUE,FALSE,FALSE,Disabled,0.000000,0.000000,0.000000,TRUE,-0.395676,-0.451447,0.000000,-0.563736,-0.152771,0.000000,-0.230000,0.294000,-0.100000,2.350000,-0.750000,11.120000,-0.995182,Hold,0.947021,0.000000,Hold,-117.000000,2.000000,LowGoal,-2355.000000,2400.000000,Speed,-2310.000000,2400.000000,Speed,Off,Off,0.000000,FALSE,43,Read: /home/lvuser/scripts/auto_43.bee,File good!,DRIVE_STRAIGHT_NAVX_RAMPARTS 200 5000 10,DRIVE_STRAIGHT_NAVX_RAMPARTS,0.000000,0.000000
02:39:58.668 PM 04/09/2016,Autonomous Enabled,10,FALSE,0,NO ERROR,-0.562500,-70.499752,0.700736,-72.084665,FALSE,FALSE,TRUE,TRUE,FALSE,FALSE,Disabled,0.000000,0.000000,0.000000,TRUE,-0.435242,-0.454102,0.000000,-0.952026,-0.044846,0.000000,0.593000,-0.345000,-0.464000,2.790000,2.780000,8.050000,2.101551,Hold,0.947021,0.000000,Hold,-117.000000,2.000000,LowGoal,-2370.000000,2400.000000,Speed,-2325.000000,2400.000000,Speed,Off,Off,0.000000,FALSE,43,Read: /home/lvuser/scripts/auto_43.bee,File good!,DRIVE_STRAIGHT_NAVX_RAMPARTS 200 5000 10,DRIVE_STRAIGHT_NAVX_RAMPARTS,0.000000,0.000000
02:39:58.767 PM 04/09/2016,Autonomous Enabled,10,FALSE,0,NO ERROR,-0.562500,-74.112327,0.833606,-75.799906,FALSE,FALSE,TRUE,TRUE,FALSE,FALSE,Disabled,0.000000,0.000000,0.000000,TRUE,-0.473541,-0.465927,0.000000,-0.725937,-0.301346,0.000000,-0.251000,0.230000,-0.710000,0.120000,5.760000,12.550000,4.610560,Hold,0.947266,0.000000,Hold,-117.000000,2.000000,LowGoal,-2370.000000,2400.000000,Speed,-2317.500000,2400.000000,Speed,Off,Off,0.000000,FALSE,43,Read: /home/lvuser/scripts/auto_43.bee,File good!,DRIVE_STRAIGHT_NAVX_RAMPARTS 200 5000 10,DRIVE_STRAIGHT_NAVX_RAMPARTS,0.000000,0.000000
02:39:58.868 PM 04/09/2016,Autonomous Enabled,11,FALSE,0,NO ERROR,-0.562500,-78.770816,0.774400,-78.796482,FALSE,FALSE,TRUE,TRUE,FALSE,FALSE,Disabled,0.000000,0.000000,0.000000,TRUE,-0.512604,-0.476196,0.000000,-0.829926,-0.328049,0.000000,0.114000,-0.819000,0.567000,1.190000,5.780000,17.020000,5.817331,Hold,0.947266,0.000000,Hold,-117.000000,2.000000,LowGoal,-2370.000000,2400.000000,Speed,-2302.500000,2400.000000,Speed,Off,Off,0.000000,FALSE,43,Read: /home/lvuser/scripts/auto_43.bee,File good!,DRIVE_STRAIGHT_NAVX_RAMPARTS 200 5000 10,DRIVE_STRAIGHT_NAVX_RAMPARTS,0.000000,0.000000
02:39:58.969 PM 04/09/2016,Autonomous Enabled,9,FALSE,0,NO ERROR,-0.562500,-83.249639,0.697693,-82.011225,FALSE,FALSE,TRUE,TRUE,FALSE,FALSE,Disabled,0.000000,0.000000,0.000000,TRUE,-0.547913,-0.502930,0.000000,-0.587723,-0.516098,0.000000,-0.274000,0.049000,0.192000,1.310000,3.280000,20.130000,3.672356,Hold,0.947266,0.000000,Hold,-117.000000,2.000000,LowGoal,-2355.000000,2400.000000,Speed,-2295.000000,2400.000000,Speed,Off,Off,0.000000,FALSE,43,Read: /home/lvuser/scripts/auto_43.bee,File good!,DRIVE_STRAIGHT_NAVX_RAMPARTS 200 5000 10,DRIVE_STRAIGHT_NAVX_RAMPARTS,0.000000,0.000000
02:39:59.070 PM 04/09/2016,Autonomous Enabled,10,FALSE,0,NO ERROR,-0.562500,-86.855797,0.566407,-84.789635,FALSE,FALSE,TRUE,TRUE,FALSE,FALSE,Disabled,0.000000,0.000000,0.000000,TRUE,-0.616013,-0.535187,0.000000,-1.464142,-0.511261,0.000000,0.161000,0.969000,-0.367000,2.160000,0.100000,5.760000,0.779554,Hold,0.947266,0.000000,Hold,-117.000000,2.000000,LowGoal,-2362.500000,2400.000000,Speed,-2302.500000,2400.000000,Speed,Off,Off,0.000000,FALSE,43,Read: /home/lvuser/scripts/auto_43.bee,File good!,DRIVE_STRAIGHT_NAVX_RAMPARTS 200 5000 10,DRIVE_STRAIGHT_NAVX_RAMPARTS,0.000000,0.000000
02:39:59.171 PM 04/09/2016,Autonomous Enabled,11,FALSE,0,NO ERROR,-0.562500,-90.449122,0.681714,-87.754128,FALSE,FALSE,TRUE,TRUE,FALSE,FALSE,Disabled,0.000000,0.000000,0.000000,TRUE,-0.667480,-0.545624,0.000000,-0.647812,-0.000702,0.000000,0.728000,-1.047000,-1.083000,3.510000,2.530000,-8.720000,1.607100,Hold,0.979248,0.000000,Hold,-117.000000,2.000000,LowGoal,-2362.500000,2400.000000,Speed,-2317.500000,2400.000000,Speed,Off,Off,0.000000,FALSE,43,Read: /home/lvuser/scripts/auto_43.bee,File good!,DRIVE_STRAIGHT_NAVX_RAMPARTS 200 5000 10,DRIVE_STRAIGHT_NAVX_RAMPARTS,0.000000,0.000000
02:39:59.275 PM 04/09/2016,Autonomous Enabled,11,FALSE,0,NO ERROR,-0.562500,-93.862781,0.724439,-91.430870,FALSE,FALSE,TRUE,TRUE,FALSE,FALSE,Disabled,0.000000,0.000000,0.000000,TRUE,-0.683960,-0.560577,0.000000,-0.225861,-0.313904,0.000000,-0.090000,0.019000,-1.013000,-0.850000,3.890000,-12.210000,3.671912,Hold,0.993896,0.000000,Hold,-117.000000,2.000000,LowGoal,-2362.500000,2400.000000,Speed,-2317.500000,2400.000000,Speed,Off,Off,0.000000,FALSE,43,Read: /home/lvuser/scripts/auto_43.bee,File good!,DRIVE_STRAIGHT_NAVX_RAMPARTS 200 5000 10,DRIVE_STRAIGHT_NAVX_RAMPARTS,0.000000,0.000000
02:39:59.381 PM 04/09/2016,Autonomous Enabled,11,FALSE,0,NO ERROR,-0.562500,-99.419601,0.761186,-95.928942,FALSE,FALSE,TRUE,TRUE,FALSE,FALSE,Disabled,0.000000,0.000000,0.000000,TRUE,-0.692245,-0.571243,0.000000,-0.041214,-0.149002,0.000000,0.045000,-0.238000,0.053000,0.840000,4.730000,-9.730000,5.218009,Hold,0.981201,0.000000,Hold,-118.000000,2.000000,LowGoal,-2385.000000,2400.000000,Speed,-2332.500000,2400.000000,Speed,Off,Off,0.000000,FALSE,43,Read: /home/lvuser/scripts/auto_43.bee,File good!,DRIVE_STRAIGHT_NAVX_RAMPARTS 200 5000 10,DRIVE_STRAIGHT_NAVX_RAMPARTS,0.000000,0.000000
02:39:59.481 PM 04/09/2016,Autonomous Enabled,10,FALSE,0,NO ERROR,-0.562500,-105.149671,0.781279,-101.152097,FALSE,FALSE,TRUE,TRUE,FALSE,FALSE,Disabled,0.000000,0.000000,0.000000,TRUE,-0.702286,-0.581558,0.000000,-0.271545,0.101791,0.000000,0.434000,1.699000,1.029000,1.070000,4.880000,-9.280000,4.923065,Hold,0.960205,0.000000,Hold,-118.000000,2.000000,LowGoal,-2377.500000,2400.000000,Speed,-2347.500000,2400.000000,Speed,Off,Off,0.000000,FALSE,43,Read: /home/lvuser/scripts/auto_43.bee,File good!,DRIVE_STRAIGHT_NAVX_RAMPARTS 200 5000 10,DRIVE_STRAIGHT_NAVX_RAMPARTS,0.000000,0.000000
02:39:59.581 PM 04/09/2016,Autonomous Enabled,11,FALSE,0,NO ERROR,-0.562500,-111.110740,0.831708,-106.105752,FALSE,FALSE,TRUE,TRUE,FALSE,FALSE,Disabled,0.000000,0.000000,0.000000,TRUE,-0.717606,-0.567474,0.000000,-0.306625,0.214615,0.000000,-0.067000,-1.075000,-1.146000,3.030000,5.870000,-10.330000,5.679026,Hold,1.028320,0.000000,Hold,-118.000000,2.000000,LowGoal,-2362.500000,2400.000000,Speed,-2347.500000,2400.000000,Speed,Off,Off,0.000000,FALSE,43,Read: /home/lvuser/scripts/auto_43.bee,File good!,DRIVE_STRAIGHT_NAVX_RAMPARTS 200 5000 10,DRIVE_STRAIGHT_NAVX_RAMPARTS,0.000000,0.000000
02:39:59.682 PM 04/09/2016,Autonomous Enabled,9,FALSE,0,NO ERROR,-0.562500,-117.155226,0.822250,-111.906405,TRUE,FALSE,TRUE,TRUE,FALSE,FALSE,Disabled,0.000000,0.000000,0.000000,TRUE,-0.734421,-0.572464,0.000000,-0.427811,-0.037018,0.000000,0.041000,0.873000,1.039000,2.200000,6.420000,-2.420000,6.282304,Hold,1.067139,0.000000,Hold,-118.000000,2.000000,LowGoal,-2362.500000,2400.000000,Speed,-2347.500000,2400.000000,Speed,Off,Off,0.000000,FALSE,43,Read: /home/lvuser/scripts/auto_43.bee,File good!,DRIVE_STRAIGHT_NAVX_RAMPARTS 200 5000 10,DRIVE_STRAIGHT_NAVX_RAMPARTS,0.000000,0.000000
02:39:59.783 PM 04/09/2016,Autonomous Enabled,13,FALSE,0,NO ERROR,-0.562500,-123.328045,0.562500,-116.783060,TRUE,FALSE,TRUE,TRUE,FALSE,FALSE,Disabled,0.000000,0.000000,0.000000,TRUE,-0.758301,-0.561462,0.000000,-0.522339,0.244858,0.000000,0.441000,-0.421000,-0.717000,2.600000,4.130000,-1.480000,4.189755,Hold,0.974365,0.000000,Hold,-118.000000,2.000000,LowGoal,-2377.500000,2400.000000,Speed,-2347.500000,2400.000000,Speed,Off,Off,0.000000,FALSE,43,Read: /home/lvuser/scripts/auto_43.bee,File good!,DRIVE_STRAIGHT_TARGET 12 0 10000 75,DRIVE_STRAIGHT_TARGET,0.000000,0.000000
02:39:59.882 PM 04/09/2016,Autonomous Enabled,9,FALSE,0,NO ERROR,-0.562500,-4.446740,0.562500,-4.286323,FALSE,FALSE,TRUE,TRUE,FALSE,FALSE,Disabled,0.000000,0.000000,0.000000,TRUE,-0.804138,-0.547134,0.000000,-1.101517,0.317276,0.000000,0.234000,-0.027000,-0.644000,3.100000,2.610000,0.630000,2.244748,Hold,0.945557,0.000000,Hold,-118.000000,2.000000,LowGoal,-2392.500000,2400.000000,Speed,-2340.000000,2400.000000,Speed,Off,Off,0.000000,FALSE,43,Read: /home/lvuser/scripts/auto_43.bee,File good!,DRIVE_STRAIGHT_TARGET 12 0 10000 75,DRIVE_STRAIGHT_TARGET,0.000000,0.000000
02:39:59.982 PM 04/09/2016,Autonomous Enabled,9,FALSE,0,NO ERROR,-0.562500,-8.854979,0.562500,-8.360897,FALSE,FALSE,TRUE,TRUE,FALSE,FALSE,Disabled,0.000000,0.000000,0.000000,TRUE,-0.856186,-0.530350,0.000000,-1.011215,0.379852,0.000000,0.223000,-0.221000,-0.336000,3.150000,1.800000,1.770000,1.715781,Hold,0.942871,0.000000,Hold,-119.000000,2.000000,LowGoal,-2400.000000,2400.000000,Speed,-2355.000000,2400.000000,Speed,Off,Off,0.000000,FALSE,43,Read: /home/lvuser/scripts/auto_43.bee,File good!,DRIVE_STRAIGHT_TARGET 12 0 10000 75,DRIVE_STRAIGHT_TARGET,0.000000,0.000000
02:40:00.083 PM 04/09/2016,Autonomous Enabled,10,FALSE,0,NO ERROR,0.250000,-13.057886,0.250000,-12.480387,FALSE,FALSE,TRUE,TRUE,FALSE,FALSE,Disabled,0.000000,0.000000,0.000000,TRUE,-0.904434,-0.516357,0.000000,-0.955750,0.248856,0.000000,-0.094000,-0.003000,0.121000,3.030000,1.620000,1.380000,1.503610,Hold,0.942871,0.000000,Hold,-119.000000,2.000000,LowGoal,-2407.500000,2400.000000,Speed,-2355.000000,2400.000000,Speed,Off,Off,0.000000,FALSE,43,Read: /home/lvuser/scripts/auto_43.bee,File good!,SET_HEADING 0,SET_HEADING,0.000000,0.000000
02:40:00.184 PM 04/09/2016,Autonomous Enabled,9,FALSE,0,NO ERROR,-0.250000,-16.529295,-0.250000,-14.007551,FALSE,FALSE,TRUE,TRUE,FALSE,FALSE,Disabled,0.000000,0.000000,0.000000,TRUE,-0.963135,-0.507614,0.000000,-1.498795,0.092209,0.000000,-0.767000,-0.215000,0.178000,2.030000,-0.890000,-3.780000,0.323711,Hold,0.942871,0.000000,Hold,-119.000000,2.000000,LowGoal,-2400.000000,2400.000000,Speed,-2355.000000,2400.000000,Speed,Off,Off,0.000000,FALSE,43,Read: /home/lvuser/scripts/auto_43.bee,File good!,SET_HEADING 0,SET_HEADING,0.000000,0.000000
02:40:00.285 PM 04/09/2016,Autonomous Enabled,10,FALSE,0,NO ERROR,0.000000,-18.319540,-0.000000,-14.456716,FALSE,FALSE,TRUE,TRUE,FALSE,TRUE,Disabled,0.000000,0.000000,0.000000,TRUE,-1.050812,-0.502213,0.000000,-1.824631,0.180862,0.000000,-0.090000,0.811000,0.287000,2.560000,-4.670000,-4.050000,-4.667348,Hold,0.942871,45.000000,Hold,-119.000000,77824.000000,LowGoal,-2400.000000,-3272.727273,Speed,-2355.000000,-3272.727273,Speed,Off,Off,0.000000,FALSE,43,Read: /home/lvuser/scripts/auto_43.bee,File good!,SEARCH_FOR_GOAL,SEARCH_FOR_GOAL,0.000000,0.000000
02:40:00.387 PM 04/09/2016,Autonomous Enabled,11,FALSE,0,NO ERROR,0.000000,-18.890622,-0.000000,-14.610716,FALSE,FALSE,TRUE,TRUE,FALSE,TRUE,Disabled,0.000000,0.000000,0.000000,TRUE,-1.169052,-0.473618,0.000000,-2.088409,0.555862,0.000000,-0.102000,-0.051000,-0.069000,3.300000,-5.720000,-2.340000,-5.430243,Hold,2.967529,45.000000,Hold,-1203.000000,77824.000000,LowGoal,-2280.000000,-3272.727273,Speed,-2235.000000,-3272.727273,Speed,Off,Off,0.000000,FALSE,43,Read: /home/lvuser/scripts/auto_43.bee,File good!,SEARCH_FOR_GOAL,SEARCH_FOR_GOAL,0.000000,0.000000
02:40:00.488 PM 04/09/2016,Autonomous Enabled,11,FALSE,0,NO ERROR,0.000000,-18.890622,-0.000000,-14.341216,FALSE,FALSE,TRUE,TRUE,FALSE,TRUE,Disabled,0.000000,0.000000,0.000000,TRUE,-1.270279,-0.451080,0.000000,-1.937485,0.415192,0.000000,0.148000,0.066000,0.328000,3.030000,-6.610000,-2.520000,-6.693779,Hold,5.845947,45.000000,Hold,-12048.000000,77824.000000,LowGoal,-1350.000000,-3272.727273,Speed,-1290.000000,-3272.727273,Speed,Off,Off,0.000000,FALSE,43,Read: /home/lvuser/scripts/auto_43.bee,File good!,SEARCH_FOR_GOAL,SEARCH_FOR_GOAL,0.000000,0.000000
02:40:00.589 PM 04/09/2016,Autonomous Enabled,11,FALSE,0,NO ERROR,0.000000,-18.794373,-0.000000,-14.334800,FALSE,FALSE,TRUE,TRUE,FALSE,TRUE,Disabled,0.000000,0.000000,0.000000,TRUE,-1.365540,-0.427765,0.000000,-1.896576,0.500000,0.000000,0.031000,-0.066000,0.223000,3.320000,-6.220000,-2.050000,-6.447791,Hold,8.601318,45.000000,Hold,-22622.000000,77824.000000,LowGoal,-495.000000,-3272.727273,Speed,-232.500000,-3272.727273,Speed,Off,Off,0.000000,FALSE,43,Read: /home/lvuser/scripts/auto_43.bee,File good!,SEARCH_FOR_GOAL,SEARCH_FOR_GOAL,0.000000,0.000000
02:40:00.689 PM 04/09/2016,Autonomous Enabled,9,FALSE,0,NO ERROR,0.000000,-18.743040,-0.000000,-14.283467,FALSE,FALSE,TRUE,TRUE,FALSE,TRUE,Disabled,0.000000,0.000000,0.000000,TRUE,-1.458923,-0.413300,0.000000,-1.832764,-0.004944,0.000000,-0.021000,0.055000,0.076000,3.100000,-6.130000,-1.950000,-6.265976,Hold,12.935303,45.000000,Hold,-31980.000000,77824.000000,LowGoal,382.500000,-3272.727273,Speed,570.000000,-3272.727273,Speed,Off,Off,0.000000,FALSE,43,Read: /home/lvuser/scripts/auto_43.bee,File good!,SEARCH_FOR_GOAL,SEARCH_FOR_GOAL,0.000000,0.000000
02:40:00.789 PM 04/09/2016,Autonomous Enabled,10,FALSE,0,NO ERROR,0.000000,-18.749456,-0.000000,-14.283467,FALSE,FALSE,TRUE,TRUE,FALSE,TRUE,Disabled,0.000000,0.000000,0.000000,TRUE,-1.549240,-0.412430,0.000000,-1.788788,0.030121,0.000000,0.014000,0.004000,0.021000,3.180000,-6.160000,-1.830000,-6.300115,Hold,17.974365,45.000000,Hold,-44015.000000,77824.000000,LowGoal,1065.000000,-3272.727273,Speed,1200.000000,-3272.727273,Speed,Off,Off,0.000000,FALSE,43,Read: /home/lvuser/scripts/auto_43.bee,File good!,SEARCH_FOR_GOAL,SEARCH_FOR_GOAL,0.000000,0.000000
02:40:00.890 PM 04/09/2016,Autonomous Enabled,11,FALSE,0,NO ERROR,0.000000,-18.749456,-0.000000,-14.283467,FALSE,FALSE,TRUE,TRUE,FALSE,TRUE,Disabled,0.000000,0.000000,0.000000,TRUE,-1.638016,-0.411530,0.000000,-1.757156,0.033646,0.000000,0.053000,0.009000,0.059000,3.130000,-6.170000,-1.620000,-6.321008,Hold,24.078857,45.000000,Hold,-44015.000000,77824.000000,LowGoal,1635.000000,-3272.727273,Speed,1605.000000,-3272.727273,Speed,Off,Off,0.000000,FALSE,43,Read: /home/lvuser/scripts/auto_43.bee,File good!,SEARCH_FOR_GOAL,SEARCH_FOR_GOAL,0.000000,0.000000
02:40:00.990 PM 04/09/2016,Autonomous Enabled,9,FALSE,0,NO ERROR,0.000000,-18.749456,-0.000000,-14.283467,FALSE,FALSE,TRUE,TRUE,FALSE,TRUE,Disabled,0.000000,0.000000,0.000000,TRUE,-1.724152,-0.410904,0.000000,-1.719391,-0.005447,0.000000,-0.011000,0.457000,0.175000,3.040000,-6.170000,-1.430000,-6.305376,Hold,31.258545,45.000000,Hold,-57333.000000,77824.000000,LowGoal,2107.500000,-3272.727273,Speed,2032.500000,-3272.727273,Speed,Off,Off,0.000000,FALSE,43,Read: /home/lvuser/scripts/auto_43.bee,File good!,SEARCH_FOR_GOAL,SEARCH_FOR_GOAL,0.000000,0.000000
02:40:01.091 PM 04/09/2016,Autonomous Enabled,13,FALSE,0,NO ERROR,0.000000,-18.800789,-0.000000,-14.411800,FALSE,FALSE,TRUE,TRUE,FALSE,TRUE,Disabled,0.000000,0.000000,0.000000,TRUE,-1.808655,-0.405762,0.000000,-1.626389,0.068390,0.000000,0.076000,0.325000,0.321000,3.100000,-6.130000,-1.660000,-6.264988,Hold,39.550293,45.000000,Hold,-71426.000000,77824.000000,LowGoal,2505.000000,-3272.727273,Speed,2392.500000,-3272.727273,Speed,Off,Off,0.000000,FALSE,43,Read: /home/lvuser/scripts/auto_43.bee,File good!,SEARCH_FOR_GOAL,SEARCH_FOR_GOAL,0.000000,0.000000
02:40:01.191 PM 04/09/2016,Autonomous Enabled,9,FALSE,0,NO ERROR,0.000000,-18.909872,-0.000000,-14.495216,FALSE,FALSE,TRUE,TRUE,FALSE,TRUE,Disabled,0.000000,0.000000,0.000000,TRUE,-1.904694,-0.400742,0.000000,-1.631012,0.051620,0.000000,-0.238000,0.105000,-0.041000,3.060000,-5.870000,-1.560000,-6.011746,Hold,48.019531,45.000000,Hold,-77852.000000,77824.000000,LowGoal,2820.000000,-3272.727273,Speed,2700.000000,-3272.727273,Speed,Off,Off,0.000000,FALSE,43,Read: /home/lvuser/scripts/auto_43.bee,File good!,SEARCH_FOR_GOAL,SEARCH_FOR_GOAL,0.000000,0.000000
02:40:01.291 PM 04/09/2016,Autonomous Enabled,9,FALSE,0,NO ERROR,0.000000,-18.897039,-0.000000,-14.373300,FALSE,FALSE,TRUE,TRUE,FALSE,TRUE,Disabled,0.000000,0.000000,0.000000,TRUE,-1.988129,-0.399185,0.000000,-1.656204,0.012741,0.000000,-0.238000,0.105000,-0.041000,3.060000,-5.870000,-1.560000,-6.087593,Hold,49.868652,45.000000,Hold,-77915.000000,77824.000000,LowGoal,3097.500000,-3272.727273,Speed,2962.500000,-3272.727273,Speed,Off,Off,0.000000,FALSE,43,Read: /home/lvuser/scripts/auto_43.bee,File good!,SEARCH_FOR_GOAL,SEARCH_FOR_GOAL,0.000000,0.000000
02:40:01.391 PM 04/09/2016,Autonomous Enabled,11,FALSE,0,NO ERROR,0.000000,-18.871373,-0.000000,-14.334800,TRUE,FALSE,TRUE,TRUE,FALSE,TRUE,Disabled,0.000000,0.000000,0.000000,TRUE,-2.068512,-0.397629,0.000000,-1.575058,0.041656,0.000000,0.163000,0.286000,0.069000,2.910000,-6.000000,-1.570000,-6.192725,Hold,49.525391,45.000000,Hold,-77913.000000,77824.000000,LowGoal,3262.500000,-3272.727273,Speed,3187.500000,-3272.727273,Speed,Off,Off,0.000000,FALSE,43,Read: /home/lvuser/scripts/auto_43.bee,File good!,SEARCH_FOR_GOAL,SEARCH_FOR_GOAL,0.000000,0.000000
02:40:01.491 PM 04/09/2016,Autonomous Enabled,9,FALSE,0,NO ERROR,0.000000,-18.864956,-0.000000,-14.341216,TRUE,FALSE,TRUE,TRUE,FALSE,TRUE,Disabled,0.000000,0.000000,0.000000,TRUE,-2.147705,-0.396088,0.000000,-1.609100,0.022675,0.000000,-0.082000,-0.226000,0.003000,2.950000,-6.070000,-1.300000,-6.129254,Hold,49.421387,45.000000,Hold,-77913.000000,77824.000000,LowGoal,3315.000000,-3272.727273,Speed,3277.500000,-3272.727273,Speed,Off,Off,0.000000,FALSE,43,Read: /home/lvuser/scripts/auto_43.bee,File good!,SEARCH_FOR_GOAL,SEARCH_FOR_GOAL,0.000000,0.000000
02:40:01.591 PM 04/09/2016,Autonomous Enabled,9,FALSE,0,NO ERROR,0.000000,-18.852123,-0.000000,-14.328383,TRUE,FALSE,TRUE,TRUE,FALSE,TRUE,Disabled,-0.012500,0.000000,0.000000,TRUE,-2.228683,-0.394226,0.000000,-1.630264,0.047470,0.000000,0.037000,0.140000,-0.075000,2.910000,-6.010000,-1.210000,-6.178249,Hold,49.401855,45.000000,Hold,-77913.000000,77824.000000,LowGoal,3292.500000,-3272.727273,Speed,3270.000000,-3272.727273,Speed,Off,Off,0.000000,FALSE,43,Read: /home/lvuser/scripts/auto_43.bee,File good!,SEARCH_FOR_GOAL,SEARCH_FOR_GOAL,0.000000,0.000000
02:40:01.692 PM 04/09/2016,Autonomous Enabled,11,FALSE,0,NO ERROR,0.000000,-18.852123,-0.000000,-14.360466,TRUE,FALSE,TRUE,TRUE,FALSE,TRUE,Suspended,-0.012500,-0.849282,-5.180718,TRUE,-2.312027,-0.392563,0.000000,-1.705582,0.017654,0.000000,0.037000,0.140000,-0.075000,2.920000,-6.030000,-1.050000,-6.100395,Hold,49.401367,45.000000,Hold,-77913.000000,77824.000000,LowGoal,3270.000000,-3272.727273,Speed,3232.500000,-3272.727273,Speed,Off,Off,0.000000,FALSE,43,Read: /home/lvuser/scripts/auto_43.bee,File good!,SEARCH_FOR_GOAL,SEARCH_FOR_GOAL,0.000000,0.000000
02:40:01.792 PM 04/09/2016,Autonomous Enabled,9,FALSE,0,NO ERROR,0.000000,-18.852123,-0.000000,-14.341216,TRUE,FALSE,TRUE,TRUE,FALSE,TRUE,Suspended,-0.012500,-0.849282,-5.180718,TRUE,-2.398743,-0.391556,0.000000,-1.752060,0.025925,0.000000,-0.112000,0.129000,0.000000,2.890000,-5.980000,-1.030000,-6.139165,Hold,49.400879,45.000000,Hold,-77913.000000,77824.000000,LowGoal,3270.000000,-3272.727273,Speed,3232.500000,-3272.727273,Speed,Off,Off,0.000000,FALSE,43,Read: /home/lvuser/scripts/auto_43.bee,File good!,SEARCH_FOR_GOAL,SEARCH_FOR_GOAL,0.000000,0.000000
02:40:01.894 PM 04/09/2016,Autonomous Enabled,10,FALSE,0,NO ERROR,0.000000,-18.852123,-0.000000,-14.341216,TRUE,FALSE,TRUE,TRUE,FALSE,FALSE,Suspended,-0.012500,-0.849282,-5.180718,TRUE,-2.398743,-0.391556,0.000000,-1.752060,0.025925,0.000000,-0.030000,-0.136000,-0.087000,2.870000,-5.990000,-0.870000,-6.114944,Hold,49.400879,45.000000,Hold,-77913.000000,77824.000000,Shoot,3270.000000,-3272.727273,Speed,3240.000000,-3272.727273,Speed,Off,On,0.000000,FALSE,43,Read: /home/lvuser/scripts/auto_43.bee,File good!,WAIT 500,WAIT,0.000000,0.000000
02:40:01.994 PM 04/09/2016,Autonomous Enabled,11,FALSE,0,NO ERROR,0.000000,-18.852123,-0.000000,-14.341216,TRUE,FALSE,TRUE,TRUE,FALSE,FALSE,Disabled,-0.012500,-0.849282,-5.180718,TRUE,-2.580795,-0.391327,0.000000,-1.869537,-0.007324,0.000000,-0.012000,-0.039000,-0.027000,2.870000,-5.990000,-0.870000,-6.121667,Hold,49.400635,45.000000,Hold,-77913.000000,77824.000000,Shoot,3270.000000,-3272.727273,Speed,3240.000000,-3272.727273,Speed,Off,On,0.000000,FALSE,43,Read: /home/lvuser/scripts/auto_43.bee,File good!,WAIT 500,WAIT,0.000000,0.000000
02:40:02.094 PM 04/09/2016,Autonomous Enabled,11,FALSE,0,NO ERROR,0.000000,-18.852123,-0.000000,-14.341216,TRUE,FALSE,TRUE,TRUE,FALSE,FALSE,Disabled,-0.012500,-0.849282,-5.180718,TRUE,-2.580795,-0.391327,0.000000,-1.869537,-0.007324,0.000000,0.100000,-0.024000,0.043000,2.800000,-6.000000,-0.790000,-6.121667,Hold,49.400635,45.000000,Hold,-77913.000000,77824.000000,Shoot,3270.000000,-3272.727273,Speed,3240.000000,-3272.727273,Speed,On,On,0.000000,FALSE,43,Read: /home/lvuser/scripts/auto_43.bee,File good!,WAIT 500,WAIT,0.000000,0.000000
02:40:02.195 PM 04/09/2016,Autonomous Enabled,9,FALSE,0,NO ERROR,0.000000,-18.852123,-0.000000,-14.328383,TRUE,FALSE,FALSE,TRUE,FALSE,FALSE,Disabled,-0.012500,-0.849282,-5.180718,TRUE,-2.637024,-0.391815,0.000000,-0.035599,-0.023880,0.000000,-0.028000,-0.064000,0.051000,2.770000,-5.970000,-0.880000,-6.127275,Hold,49.400146,45.000000,Hold,-77913.000000,77824.000000,Shoot,3172.500000,-3272.727273,Speed,3232.500000,-3272.727273,Speed,On,On,0.000000,FALSE,43,Read: /home/lvuser/scripts/auto_43.bee,File good!,WAIT 500,WAIT,0.000000,0.000000
02:40:02.295 PM 04/09/2016,Autonomous Enabled,9,FALSE,0,NO ERROR,0.000000,-18.826456,-0.000000,-14.328383,TRUE,FALSE,FALSE,TRUE,FALSE,FALSE,Disabled,-0.012500,-0.849282,-5.180718,TRUE,-2.640808,-0.393417,0.000000,-0.078934,-0.050369,0.000000,-0.050000,-0.041000,0.087000,2.790000,-6.000000,-0.700000,-6.162954,Hold,49.391602,45.000000,Hold,-77913.000000,77824.000000,Shoot,2392.500000,-3272.727273,Speed,2220.000000,-3272.727273,Speed,On,On,0.000000,FALSE,43,Read: /home/lvuser/scripts/auto_43.bee,File good!,WAIT 500,WAIT,0.000000,0.000000
02:40:02.396 PM 04/09/2016,Autonomous Enabled,9,FALSE,0,NO ERROR,0.000000,-18.826456,-0.000000,-14.328383,TRUE,FALSE,FALSE,TRUE,FALSE,FALSE,Disabled,-0.012500,-0.849282,-5.180718,TRUE,-2.644501,-0.399261,0.000000,-0.082169,-0.143234,0.000000,-0.151000,0.340000,0.079000,2.800000,-5.970000,-0.550000,-6.144026,Hold,49.391357,45.000000,Hold,-77913.000000,77824.000000,Shoot,2580.000000,-3272.727273,Speed,2490.000000,-3272.727273,Speed,On,On,0.000000,FALSE,43,Read: /home/lvuser/scripts/auto_43.bee,File good!,WAIT 500,WAIT,0.000000,0.000000
02:40:02.497 PM 04/09/2016,Autonomous Enabled,10,FALSE,0,NO ERROR,0.000000,-18.826456,-0.000000,-14.341216,TRUE,FALSE,FALSE,TRUE,FALSE,FALSE,Disabled,-0.012500,-0.849282,-5.180718,TRUE,-2.650894,-0.401611,0.000000,-0.123184,-0.080231,0.000000,0.192000,0.030000,0.161000,2.770000,-5.960000,-0.550000,-6.137902,Hold,49.391357,0.000000,Hold,-77913.000000,77824.000000,Shoot,2835.000000,-3272.727273,Speed,2797.500000,-3272.727273,Speed,On,On,0.000000,FALSE,43,Read: /home/lvuser/scripts/auto_43.bee,File good!,WAIT 250,WAIT,0.000000,0.000000
02:40:02.598 PM 04/09/2016,Autonomous Enabled,6,FALSE,0,NO ERROR,0.000000,-18.826456,-0.000000,-14.341216,TRUE,FALSE,FALSE,TRUE,FALSE,FALSE,Disabled,0.000000,-0.849282,-5.180718,TRUE,-2.655594,-0.406601,0.000000,-0.077301,-0.127151,0.000000,0.074000,-0.092000,0.053000,2.770000,-5.960000,-0.410000,-6.138064,Hold,44.296631,0.000000,Hold,-77913.000000,77824.000000,Shoot,3105.000000,-3272.727273,Speed,3052.500000,-3272.727273,Speed,On,On,0.000000,FALSE,43,Read: /home/lvuser/scripts/auto_43.bee,File good!,WAIT 250,WAIT,0.000000,0.000000
02:40:02.698 PM 04/09/2016,Autonomous Enabled,10,FALSE,0,NO ERROR,0.000000,-18.820039,-0.000000,-14.354050,TRUE,FALSE,FALSE,TRUE,FALSE,FALSE,Disabled,0.000000,-0.849282,-5.180718,TRUE,-2.658661,-0.413361,0.000000,-0.065262,-0.130905,0.000000,-0.001000,-0.182000,-0.226000,2.730000,-5.990000,-0.580000,-6.163177,Hold,30.933350,0.000000,Hold,-77913.000000,77824.000000,Shoot,3255.000000,-3272.727273,Speed,3217.500000,-3272.727273,Speed,On,On,0.000000,FALSE,43,Read: /home/lvuser/scripts/auto_43.bee,File good!,WAIT 250,WAIT,0.000000,0.000000
02:40:02.799 PM 04/09/2016,Autonomous Enabled,9,FALSE,0,NO ERROR,0.562500,-18.935539,0.562500,-14.501633,TRUE,FALSE,FALSE,TRUE,FALSE,FALSE,Disabled,0.000000,-0.849282,-5.180718,TRUE,-2.665756,-0.421158,0.000000,-0.178848,-0.121719,0.000000,-0.075000,-0.092000,-0.100000,2.790000,-5.970000,-0.180000,-6.158227,Hold,14.433594,0.000000,Hold,-77913.000000,77824.000000,Shoot,3262.500000,-3272.727273,Speed,3262.500000,-3272.727273,Speed,On,On,0.000000,FALSE,43,Read: /home/lvuser/scripts/auto_43.bee,File good!,SET_HEADING 179 75,SET_HEADING,0.000000,0.000000
02:40:02.899 PM 04/09/2016,Autonomous Enabled,9,FALSE,0,NO ERROR,0.562500,-19.853120,0.562500,-13.661051,TRUE,FALSE,FALSE,TRUE,FALSE,FALSE,Disabled,0.000000,-0.849282,-5.180718,TRUE,-2.684570,-0.433487,0.000000,-0.418091,-0.365707,0.000000,-0.287000,0.064000,0.047000,2.050000,-8.670000,-0.960000,-6.589934,Hold,2.273682,0.000000,Hold,-77913.000000,77824.000000,Shoot,3240.000000,-3272.727273,Speed,3240.000000,-3272.727273,Speed,On,On,0.000000,FALSE,43,Read: /home/lvuser/scripts/auto_43.bee,File good!,SET_HEADING 179 75,SET_HEADING,0.000000,0.000000
02:40:02.999 PM 04/09/2016,Autonomous Enabled,9,FALSE,0,NO ERROR,0.562500,-21.495783,0.562500,-11.318974,TRUE,FALSE,FALSE,TRUE,FALSE,FALSE,Disabled,0.000000,-0.849282,-5.180718,TRUE,-2.704269,-0.448410,0.000000,-0.487656,-0.426453,0.000000,0.052000,-0.610000,0.350000,2.210000,-15.540000,-1.060000,-13.938305,Hold,1.269043,0.000000,Hold,-77913.000000,77824.000000,Shoot,3210.000000,-3272.727273,Speed,3172.500000,-3272.727273,Speed,On,On,0.000000,FALSE,43,Read: /home/lvuser/scripts/auto_43.bee,File good!,SET_HEADING 179 75,SET_HEADING,0.000000,0.000000
02:40:03.099 PM 04/09/2016,Autonomous Enabled,10,FALSE,0,NO ERROR,0.562500,-24.165110,0.562500,-8.335231,TRUE,FALSE,FALSE,TRUE,FALSE,FALSE,Disabled,0.000000,-0.849282,-5.180718,TRUE,-2.723312,-0.482925,0.000000,-0.274704,-0.804031,0.000000,0.078000,0.164000,0.123000,0.670000,-26.690000,-1.520000,-24.255221,Hold,0.999512,0.000000,Hold,-77912.000000,77824.000000,Shoot,3202.500000,-3272.727273,Speed,3180.000000,-3272.727273,Speed,On,On,0.000000,FALSE,43,Read: /home/lvuser/scripts/auto_43.bee,File good!,SET_HEADING 179 75,SET_HEADING,0.000000,0.000000
02:40:03.199 PM 04/09/2016,Autonomous Enabled,11,FALSE,0,NO ERROR,0.562500,-26.937104,0.562500,-5.203904,TRUE,FALSE,FALSE,TRUE,FALSE,FALSE,Disabled,0.000000,-0.849282,-5.180718,TRUE,-2.737625,-0.517151,0.000000,-0.301865,-0.630188,0.000000,0.190000,-0.102000,0.050000,1.360000,-36.130000,-1.510000,-35.810123,Hold,0.952637,0.000000,Hold,-77917.000000,77824.000000,Shoot,3217.500000,-3272.727273,Speed,3195.000000,-3272.727273,Speed,On,On,0.000000,FALSE,43,Read: /home/lvuser/scripts/auto_43.bee,File good!,SET_HEADING 179 75,SET_HEADING,0.000000,0.000000
02:40:03.300 PM 04/09/2016,Autonomous Enabled,10,FALSE,0,NO ERROR,0.562500,-29.965763,0.562500,-2.091828,TRUE,FALSE,FALSE,TRUE,FALSE,FALSE,Disabled,0.000000,-0.849282,-5.180718,TRUE,-2.748306,-0.553116,0.000000,-0.194458,-0.715424,0.000000,-0.146000,0.115000,0.245000,0.910000,-48.530000,-0.890000,-47.902532,Hold,0.945801,0.000000,Hold,-77917.000000,77824.000000,Shoot,3232.500000,-3272.727273,Speed,3210.000000,-3272.727273,Speed,On,On,0.000000,FALSE,43,Read: /home/lvuser/scripts/auto_43.bee,File good!,SET_HEADING 179 75,SET_HEADING,0.000000,0.000000
02:40:03.400 PM 04/09/2016,Autonomous Enabled,10,FALSE,0,NO ERROR,0.562500,-32.936673,0.562500,1.039498,TRUE,FALSE,FALSE,TRUE,FALSE,FALSE,Disabled,0.000000,-0.849282,-5.180718,TRUE,-2.756592,-0.586121,0.000000,-0.045593,-0.699554,0.000000,0.017000,0.067000,-0.165000,0.180000,-63.210000,-1.020000,-59.736125,Hold,0.945801,0.000000,Hold,-77917.000000,77824.000000,Dwell,3225.000000,-3272.727273,Speed,3210.000000,-3272.727273,Speed,Off,On,0.000000,FALSE,43,Read: /home/lvuser/scripts/auto_43.bee,File good!,SET_HEADING 179 75,SET_HEADING,0.000000,0.000000
02:40:03.506 PM 04/09/2016,Autonomous Enabled,10,FALSE,0,NO ERROR,0.562500,-35.946083,0.562500,4.183657,TRUE,FALSE,FALSE,TRUE,FALSE,FALSE,Disabled,0.000000,-0.849282,-5.180718,TRUE,-2.758530,-0.620697,0.000000,-0.096802,-0.660568,0.000000,0.323000,0.051000,-0.057000,0.320000,-78.280000,-1.000000,-72.028808,Hold,0.945801,0.000000,Hold,-77917.000000,77824.000000,Dwell,3210.000000,-3272.727273,Speed,3202.500000,-3272.727273,Speed,Off,On,0.000000,FALSE,43,Read: /home/lvuser/scripts/auto_43.bee,File good!,SET_HEADING 179 75,SET_HEADING,0.000000,0.000000
02:40:03.606 PM 04/09/2016,Autonomous Enabled,10,FALSE,0,NO ERROR,0.562500,-39.180075,0.562500,7.488232,TRUE,FALSE,FALSE,TRUE,FALSE,FALSE,Disabled,0.000000,-0.849282,-5.180718,TRUE,-2.758545,-0.656876,0.000000,0.047684,-0.556366,0.000000,0.051000,0.117000,0.222000,0.270000,-88.740000,-0.770000,-84.655000,Hold,0.945801,0.000000,Hold,-77917.000000,77824.000000,Dwell,3217.500000,-3272.727273,Speed,3210.000000,-3272.727273,Speed,Off,On,0.000000,FALSE,43,Read: /home/lvuser/scripts/auto_43.bee,File good!,SET_HEADING 179 75,SET_HEADING,0.000000,0.000000
02:40:03.707 PM 04/09/2016,Autonomous Enabled,10,FALSE,0,NO ERROR,0.562500,-42.388401,0.562500,10.805641,TRUE,FALSE,FALSE,TRUE,FALSE,FALSE,Disabled,0.000000,-0.849282,-5.180718,TRUE,-2.753281,-0.682068,0.000000,0.149887,-0.490921,0.000000,0.095000,0.068000,0.147000,-0.140000,-102.010000,-0.930000,-97.514727,Hold,0.945801,0.000000,Hold,-77917.000000,77824.000000,Dwell,3225.000000,-3272.727273,Speed,3210.000000,-3272.727273,Speed,Off,On,0.000000,FALSE,43,Read: /home/lvuser/scripts/auto_43.bee,File good!,SET_HEADING 179 75,SET_HEADING,0.000000,0.000000
02:40:03.807 PM 04/09/2016,Autonomous Enabled,10,FALSE,0,NO ERROR,0.562500,-45.609560,0.562500,14.116634,TRUE,FALSE,FALSE,TRUE,FALSE,FALSE,Disabled,0.000000,-0.849282,-5.180718,TRUE,-2.748428,-0.704849,0.000000,0.083450,-0.416489,0.000000,-0.178000,0.240000,-0.102000,0.010000,-115.400000,-0.980000,-113.197820,Hold,0.945801,0.000000,Hold,-77917.000000,77824.000000,Dwell,3225.000000,-3272.727273,Speed,3217.500000,-3272.727273,Speed,Off,On,0.000000,FALSE,43,Read: /home/lvuser/scripts/auto_43.bee,File good!,SET_HEADING 179 75,SET_HEADING,0.000000,0.000000
02:40:03.907 PM 04/09/2016,Autonomous Enabled,11,FALSE,0,NO ERROR,0.562500,-48.747303,0.562500,17.363459,TRUE,FALSE,FALSE,TRUE,FALSE,FALSE,Disabled,0.000000,-0.849282,-5.180718,TRUE,-2.745163,-0.719833,0.000000,0.035965,-0.242935,0.000000,-0.218000,0.012000,0.215000,-0.120000,-128.310000,-1.060000,-125.741094,Hold,0.945801,0.000000,Hold,-77917.000000,77824.000000,Dwell,3225.000000,-3272.727273,Speed,3210.000000,-3272.727273,Speed,Off,On,0.000000,FALSE,43,Read: /home/lvuser/scripts/auto_43.bee,File good!,SET_HEADING 179 75,SET_HEADING,0.000000,0.000000
02:40:04.009 PM 04/09/2016,Autonomous Enabled,12,FALSE,0,NO ERROR,0.562500,-51.769546,0.562500,20.417786,TRUE,FALSE,FALSE,TRUE,FALSE,FALSE,Disabled,0.000000,-0.849282,-5.180718,TRUE,-2.746002,-0.729126,0.000000,-0.088226,-0.200058,0.000000,-0.230000,-0.090000,-0.135000,-0.030000,-140.310000,-1.010000,-137.437189,Hold,0.945801,0.000000,Hold,-77917.000000,77824.000000,Dwell,3202.500000,-3272.727273,Speed,3210.000000,-3272.727273,Speed,Off,On,0.000000,FALSE,43,Read: /home/lvuser/scripts/auto_43.bee,File good!,SET_HEADING 179 75,SET_HEADING,0.000000,0.000000
02:40:04.108 PM 04/09/2016,Autonomous Enabled,11,FALSE,0,NO ERROR,0.562500,-54.624956,0.562500,23.395112,TRUE,FALSE,FALSE,TRUE,FALSE,FALSE,Disabled,0.000000,-0.849282,-5.180718,TRUE,-2.753174,-0.738220,0.000000,-0.166214,-0.150513,0.000000,-0.348000,0.039000,-0.169000,-0.180000,-151.790000,-1.210000,-148.638829,Hold,0.945801,0.000000,Hold,-77917.000000,77824.000000,Dwell,3187.500000,-3272.727273,Speed,3202.500000,-3272.727273,Speed,Off,On,0.000000,FALSE,43,Read: /home/lvuser/scripts/auto_43.bee,File good!,SET_HEADING 179 75,SET_HEADING,0.000000,0.000000
02:40:04.208 PM 04/09/2016,Autonomous Enabled,11,FALSE,0,NO ERROR,0.562500,-57.583032,0.562500,26.327522,TRUE,FALSE,FALSE,TRUE,FALSE,FALSE,Disabled,0.000000,-0.849282,-5.180718,TRUE,-2.764420,-0.742828,0.000000,-0.245850,-0.062805,0.000000,0.074000,0.239000,-0.004000,-0.220000,-163.720000,-1.260000,-160.273728,Hold,0.945801,0.000000,Hold,-77917.000000,77824.000000,Dwell,3195.000000,-3272.727273,Speed,3202.500000,-3272.727273,Speed,Off,On,0.000000,FALSE,43,Read: /home/lvuser/scripts/auto_43.bee,File good!,SET_HEADING 179 75,SET_HEADING,0.000000,0.000000
02:40:04.308 PM 04/09/2016,Autonomous Enabled,10,FALSE,0,NO ERROR,0.562500,-60.656608,0.562500,29.452431,TRUE,FALSE,FALSE,TRUE,FALSE,FALSE,Disabled,0.000000,-0.849282,-5.180718,TRUE,-2.777023,-0.743790,0.000000,-0.253052,-0.012192,0.000000,0.053000,0.000000,0.187000,-0.370000,-178.510000,-1.450000,-172.281309,Hold,0.945801,0.000000,Hold,-77917.000000,77824.000000,Dwell,3195.000000,-3272.727273,Speed,3202.500000,-3272.727273,Speed,Off,On,0.000000,FALSE,43,Read: /home/lvuser/scripts/auto_43.bee,File good!,SET_HEADING 179 75,SET_HEADING,0.000000,0.000000
02:40:04.410 PM 04/09/2016,Autonomous Enabled,11,FALSE,0,NO ERROR,-0.562500,-63.736601,-0.562500,32.641507,TRUE,FALSE,FALSE,TRUE,FALSE,FALSE,Disabled,0.000000,-0.849282,-5.180718,TRUE,-2.792252,-0.746033,0.000000,-0.358719,-0.060410,0.000000,-0.072000,0.198000,-0.008000,-0.210000,171.450000,-1.500000,175.497892,Hold,0.945801,0.000000,Hold,-77917.000000,77824.000000,Dwell,3195.000000,-3272.727273,Speed,3210.000000,-3272.727273,Speed,Off,On,0.000000,FALSE,43,Read: /home/lvuser/scripts/auto_43.bee,File good!,SET_HEADING 179 75,SET_HEADING,0.000000,0.000000
02:40:04.510 PM 04/09/2016,Autonomous Enabled,11,FALSE,0,NO ERROR,-0.562500,-64.545099,-0.562500,33.539838,TRUE,FALSE,FALSE,TRUE,FALSE,FALSE,Disabled,0.000000,-0.849282,-5.180718,TRUE,-2.814087,-0.750076,0.000000,-0.546387,-0.231171,0.000000,-0.781000,-1.111000,-0.079000,1.500000,158.670000,1.070000,164.356738,Hold,0.945801,0.000000,Hold,-77917.000000,77824.000000,Dwell,3195.000000,-3272.727273,Speed,3210.000000,-3272.727273,Speed,Off,On,0.000000,FALSE,43,Read: /home/lvuser/scripts/auto_43.bee,File good!,SET_HEADING 179 75,SET_HEADING,0.000000,0.000000
02:40:04.610 PM 04/09/2016,Autonomous Enabled,11,FALSE,0,NO ERROR,-0.562500,-63.152686,-0.562500,31.954925,TRUE,FALSE,FALSE,TRUE,FALSE,FALSE,Disabled,0.000000,-0.849282,-5.180718,TRUE,-2.858185,-0.794174,0.000000,-0.733994,-0.880295,0.000000,-0.113000,0.129000,-0.033000,2.900000,167.840000,0.990000,168.407066,Hold,0.945801,0.000000,Hold,-77917.000000,77824.000000,Empty,3172.500000,-3272.727273,Speed,3195.000000,-3272.727273,Speed,Off,On,0.000000,FALSE,43,Read: /home/lvuser/scripts/auto_43.bee,File good!,SET_HEADING 179 75,SET_HEADING,0.000000,0.000000
02:40:04.710 PM 04/09/2016,Autonomous Enabled,11,FALSE,0,NO ERROR,-0.562500,-60.669441,-0.562500,29.317681,FALSE,FALSE,FALSE,TRUE,FALSE,FALSE,Disabled,0.000000,-0.849282,-5.180718,TRUE,-2.896622,-0.839615,0.000000,-0.801926,-0.878769,0.000000,-0.155000,-0.022000,-0.043000,3.020000,176.220000,1.000000,177.874627,Hold,0.945801,0.000000,Hold,-77917.000000,77824.000000,Empty,3127.500000,-3272.727273,Speed,3165.000000,-3272.727273,Speed,Off,On,0.000000,FALSE,43,Read: /home/lvuser/scripts/auto_43.bee,File good!,SET_HEADING 179 75,SET_HEADING,0.000000,0.000000
