Time,Robot Mode,Loop Time,Error Status,Error Code,Error Source,Left Motor Output,Left Motor Encoder,Right Motor Output,Right Motor Encoder,Is Level,Is Stalled,Ball Detector Photoeye,Vision Enabled,Vision Teleop Control,Vision Auto Control,Vision Current State,Vision X Output,Vision NavX Error,Vision NavX Target,NavX Connection Status,NavX Displacement X,NavX Displacement Y,NavX Displacement Z,NavX Velocity X,NavX Velocity Y,NavX Velocity Z,NavX Acceleration X,NavX Acceleration Y,NavX Acceleration Z,NavX Pitch,NavX Yaw,NavX Roll,Gyro Angle,Roller Arm State,Roller Arm Actual,Roller Arm Desired,Shooter Arm State,Shooter Arm Actual,Shooter Arm Desired,Shooter State,Actual RPM Left,Desired RPM Left,Control Mode Left,Actual RPM Right,Desired RPM Right,Control Mode Right,Ball Shooter Cylinder,Ball Halo Cylinder,Scaler Motor Output,Scaler Solenoid Fire,Auto To Run,Auto Current File,Auto File Status,Auto Current Command,Auto Trimmed Command,Shooter Amps Left,Shooter Amps Right
04:11:07.505 PM 04/09/2016,Autonomous Enabled,11,TRUE,7,Read from Text File in DoesScriptNumberContainNull.vi->Disabled.vi->Robot Main.vi<APPEND> /home/lvuser/scripts/auto_42.bee,0.000000,-40.437739,-0.000000,-42.587317,TRUE,FALSE,TRUE,TRUE,FALSE,FALSE,Disabled,0.000000,0.445355,33.184645,TRUE,-0.048996,0.777206,0.000000,0.000000,0.000000,0.000000,0.000000,0.000000,0.020000,2.390000,5.400000,-0.210000,17.560303,ResetBack,-63.052734,-0.000049,ResetBack,53186.000000,-0.250000,LowGoal,0.000000,-2181.818182,Speed,0.000000,-2181.818182,Speed,Off,Off,0.000000,FALSE,43,,,,,0.000000,0.000000
04:11:07.605 PM 04/09/2016,Autonomous Enabled,10,TRUE,7,Read from Text File in DoesScriptNumberContainNull.vi->Disabled.vi->Robot Main.vi<APPEND> /home/lvuser/scripts/auto_42.bee,0.000000,-40.437739,-0.000000,-42.587317,TRUE,FALSE,TRUE,TRUE,FALSE,FALSE,Disabled,0.000000,0.445355,33.184645,TRUE,-0.048996,0.777206,0.000000,0.000000,0.000000,0.000000,-0.187000,-0.003000,0.041000,2.370000,5.400000,-0.140000,17.567433,ResetBack,-65.036377,-0.000049,ResetBack,53428.000000,-0.250000,LowGoal,7.500000,-2181.818182,Speed,0.000000,-2181.818182,Speed,Off,Off,0.000000,FALSE,43,Read: /home/lvuser/scripts/auto_43.bee,File good!,WAIT 1500,WAIT,0.000000,0.000000
04:11:07.705 PM 04/09/2016,Autonomous Enabled,10,TRUE,7,Read from Text File in DoesScriptNumberContainNull.vi->Disabled.vi->Robot Main.vi<APPEND> /home/lvuser/scripts/auto_42.bee,0.000000,-40.437739,-0.000000,-42.587317,TRUE,FALSE,TRUE,TRUE,FALSE,FALSE,Disabled,0.000000,0.445355,33.184645,TRUE,-0.050110,0.777588,0.000000,-0.029022,0.021057,0.000000,0.042000,0.072000,0.006000,2.370000,5.410000,-0.150000,17.563050,ResetBack,-65.184814,-0.000049,ResetBack,53428.000000,-0.250000,LowGoal,435.000000,-2181.818182,Speed,375.000000,-2181.818182,Speed,Off,Off,0.000000,FALSE,43,Read: /home/lvuser/scripts/auto_43.bee,File good!,WAIT 1500,WAIT,0.000000,0.000000
04:11:07.805 PM 04/09/2016,Autonomous Enabled,9,TRUE,7,Read from Text File in DoesScriptNumberContainNull.vi->Disabled.vi->Robot Main.vi<APPEND> /home/lvuser/scripts/auto_42.bee,0.000000,-40.437739,-0.000000,-42.587317,TRUE,FALSE,TRUE,TRUE,FALSE,FALSE,Disabled,0.000000,0.445355,33.184645,TRUE,-0.051941,0.780106,0.000000,-0.045715,0.060333,0.000000,-0.074000,0.015000,-0.054000,2.360000,5.410000,-0.130000,17.572806,ResetBack,-65.184814,-0.000049,ResetBack,57510.000000,-0.250000,LowGoal,1132.500000,-2181.818182,Speed,1027.500000,-2181.818182,Speed,Off,Off,0.000000,FALSE,43,Read: /home/lvuser/scripts/auto_43.bee,File good!,WAIT 1500,WAIT,0.000000,0.000000
04:11:07.905 PM 04/09/2016,Autonomous Enabled,11,TRUE,7,Read from Text File in DoesScriptNumberContainNull.vi->Disabled.vi->Robot Main.vi<APPEND> /home/lvuser/scripts/auto_42.bee,0.000000,-40.437739,-0.000000,-42.580900,TRUE,FALSE,TRUE,TRUE,FALSE,FALSE,Disabled,0.000000,0.445355,33.184645,TRUE,-0.055725,0.783646,0.000000,-0.091385,0.083618,0.000000,-0.025000,-0.020000,0.004000,2.360000,5.410000,-0.130000,17.583093,Reset,-65.185059,0.000000,ResetBack,62887.000000,-0.250000,LowGoal,1710.000000,-2181.818182,Speed,1552.500000,-2181.818182,Speed,Off,Off,0.000000,FALSE,43,Read: /home/lvuser/scripts/auto_43.bee,File good!,WAIT 1500,WAIT,0.000000,0.000000
04:11:08.005 PM 04/09/2016,Autonomous Enabled,9,TRUE,7,Read from Text File in DoesScriptNumberContainNull.vi->Disabled.vi->Robot Main.vi<APPEND> /home/lvuser/scripts/auto_42.bee,0.000000,-40.437739,-0.000000,-42.580900,TRUE,FALSE,TRUE,TRUE,FALSE,FALSE,Disabled,0.000000,0.445355,33.184645,TRUE,-0.060333,0.787262,0.000000,-0.097778,0.063049,0.000000,-0.112000,0.008000,0.022000,2.370000,5.410000,-0.120000,17.587079,Hold,1.066650,0.000000,ResetBack,67712.000000,-0.250000,LowGoal,2085.000000,-2181.818182,Speed,1987.500000,-2181.818182,Speed,Off,Off,0.000000,FALSE,43,Read: /home/lvuser/scripts/auto_43.bee,File good!,WAIT 1500,WAIT,0.000000,0.000000
04:11:08.105 PM 04/09/2016,Autonomous Enabled,10,TRUE,7,Read from Text File in DoesScriptNumberContainNull.vi->Disabled.vi->Robot Main.vi<APPEND> /home/lvuser/scripts/auto_42.bee,0.000000,-40.437739,-0.000000,-42.580900,TRUE,FALSE,TRUE,TRUE,FALSE,FALSE,Disabled,0.000000,0.445355,33.184645,TRUE,-0.065750,0.784958,0.000000,0.000000,-0.126328,0.000000,-0.002000,-0.234000,0.189000,2.420000,5.410000,-0.110000,17.606753,Hold,0.920410,0.000000,ResetBack,71011.000000,-0.250000,LowGoal,2265.000000,-2181.818182,Speed,2220.000000,-2181.818182,Speed,Off,Off,0.000000,FALSE,43,Read: /home/lvuser/scripts/auto_43.bee,File good!,WAIT 1500,WAIT,0.000000,0.000000
04:11:08.207 PM 04/09/2016,Autonomous Enabled,10,TRUE,7,Read from Text File in DoesScriptNumberContainNull.vi->Disabled.vi->Robot Main.vi<APPEND> /home/lvuser/scripts/auto_42.bee,0.000000,-40.437739,-0.000000,-42.580900,TRUE,FALSE,TRUE,TRUE,FALSE,FALSE,Disabled,0.000000,0.445355,33.184645,TRUE,-0.065765,0.766693,0.000000,0.000778,-0.405441,0.000000,0.017000,-0.142000,0.168000,2.380000,5.410000,-0.150000,17.594222,Hold,0.920410,0.000000,ResetBack,72934.000000,-0.250000,LowGoal,2182.500000,-2181.818182,Speed,2182.500000,-2181.818182,Speed,Off,Off,0.000000,FALSE,43,Read: /home/lvuser/scripts/auto_43.bee,File good!,WAIT 1500,WAIT,0.000000,0.000000
04:11:08.307 PM 04/09/2016,Autonomous Enabled,10,TRUE,7,Read from Text File in DoesScriptNumberContainNull.vi->Disabled.vi->Robot Main.vi<APPEND> /home/lvuser/scripts/auto_42.bee,0.000000,-40.437739,-0.000000,-42.580900,TRUE,FALSE,TRUE,TRUE,FALSE,FALSE,Disabled,0.000000,0.445355,33.184645,TRUE,-0.065247,0.741135,0.000000,0.033112,-0.606522,0.000000,0.120000,-0.414000,0.072000,2.430000,5.400000,-0.160000,17.579809,Hold,0.920410,0.000000,ResetBack,74606.000000,-0.250000,LowGoal,2130.000000,-2181.818182,Speed,2107.500000,-2181.818182,Speed,Off,Off,0.000000,FALSE,43,Read: /home/lvuser/scripts/auto_43.bee,File good!,WAIT 1500,WAIT,0.000000,0.000000
04:11:08.407 PM 04/09/2016,Autonomous Enabled,9,TRUE,7,Read from Text File in DoesScriptNumberContainNull.vi->Disabled.vi->Robot Main.vi<APPEND> /home/lvuser/scripts/auto_42.bee,0.000000,-40.437739,-0.000000,-42.580900,TRUE,FALSE,TRUE,TRUE,FALSE,FALSE,Disabled,0.000000,0.445355,33.184645,TRUE,-0.061249,0.700302,0.000000,0.088974,-0.939056,0.000000,-0.055000,-0.202000,0.090000,2.450000,5.400000,-0.190000,17.584205,Hold,0.920410,0.000000,ResetBack,74606.000000,-0.250000,LowGoal,2130.000000,-2181.818182,Speed,2100.000000,-2181.818182,Speed,Off,Off,0.000000,FALSE,43,Read: /home/lvuser/scripts/auto_43.bee,File good!,WAIT 1500,WAIT,0.000000,0.000000
04:11:08.507 PM 04/09/2016,Autonomous Enabled,10,TRUE,7,Read from Text File in DoesScriptNumberContainNull.vi->Disabled.vi->Robot Main.vi<APPEND> /home/lvuser/scripts/auto_42.bee,0.000000,-40.437739,-0.000000,-42.580900,TRUE,FALSE,TRUE,TRUE,FALSE,FALSE,Disabled,0.000000,0.445355,33.184645,TRUE,-0.056747,0.648087,0.000000,0.120407,-1.088272,0.000000,0.119000,0.059000,0.078000,2.410000,5.410000,-0.220000,17.583988,Hold,0.920410,0.000000,ResetBack,75192.000000,-0.250000,LowGoal,2130.000000,-2181.818182,Speed,2122.500000,-2181.818182,Speed,Off,Off,0.000000,FALSE,43,Read: /home/lvuser/scripts/auto_43.bee,File good!,WAIT 1500,WAIT,0.000000,0.000000
04:11:08.607 PM 04/09/2016,Autonomous Enabled,9,TRUE,7,Read from Text File in DoesScriptNumberContainNull.vi->Disabled.vi->Robot Main.vi<APPEND> /home/lvuser/scripts/auto_42.bee,0.000000,-40.437739,-0.000000,-42.580900,TRUE,FALSE,TRUE,TRUE,FALSE,FALSE,Disabled,0.000000,0.445355,33.184645,TRUE,-0.046478,0.586929,0.000000,0.170044,-0.930023,0.000000,-0.090000,0.251000,-0.112000,2.400000,5.410000,-0.180000,17.596205,Hold,0.920410,0.000000,ResetBack,75447.000000,-0.250000,LowGoal,2145.000000,-2181.818182,Speed,2122.500000,-2181.818182,Speed,Off,Off,0.000000,FALSE,43,Read: /home/lvuser/scripts/auto_43.bee,File good!,WAIT 1500,WAIT,0.000000,0.000000
04:11:08.707 PM 04/09/2016,Autonomous Enabled,9,TRUE,7,Read from Text File in DoesScriptNumberContainNull.vi->Disabled.vi->Robot Main.vi<APPEND> /home/lvuser/scripts/auto_42.bee,0.000000,-40.437739,-0.000000,-42.580900,TRUE,FALSE,TRUE,TRUE,FALSE,FALSE,Disabled,0.000000,0.445355,33.184645,TRUE,-0.041748,0.555038,0.000000,0.099518,-0.710358,0.000000,-0.015000,0.299000,-0.147000,2.360000,5.410000,-0.210000,17.587881,Hold,0.920410,0.000000,ResetBack,75459.000000,-0.250000,LowGoal,2160.000000,-2181.818182,Speed,2122.500000,-2181.818182,Speed,Off,Off,0.000000,FALSE,43,Read: /home/lvuser/scripts/auto_43.bee,File good!,WAIT 1500,WAIT,0.000000,0.000000
04:11:08.807 PM 04/09/2016,Autonomous Enabled,10,TRUE,7,Read from Text File in DoesScriptNumberContainNull.vi->Disabled.vi->Robot Main.vi<APPEND> /home/lvuser/scripts/auto_42.bee,0.000000,-40.437739,-0.000000,-42.580900,TRUE,FALSE,TRUE,TRUE,FALSE,FALSE,Disabled,0.000000,0.445355,33.184645,TRUE,-0.037201,0.528305,0.000000,0.079620,-0.417542,0.000000,-0.086000,0.266000,-0.065000,2.320000,5.410000,-0.190000,17.585788,Hold,0.920410,0.000000,Reset,75543.000000,2.000000,LowGoal,2152.500000,-2181.818182,Speed,2115.000000,-2181.818182,Speed,Off,Off,0.000000,FALSE,43,Read: /home/lvuser/scripts/auto_43.bee,File good!,WAIT 1500,WAIT,0.000000,0.000000
04:11:08.907 PM 04/09/2016,Autonomous Enabled,10,TRUE,7,Read from Text File in DoesScriptNumberContainNull.vi->Disabled.vi->Robot Main.vi<APPEND> /home/lvuser/scripts/auto_42.bee,0.000000,-40.437739,-0.000000,-42.580900,TRUE,FALSE,TRUE,TRUE,FALSE,FALSE,Disabled,0.000000,0.445355,33.184645,TRUE,-0.036606,0.514420,0.000000,-0.050598,-0.199738,0.000000,-0.102000,0.148000,-0.041000,2.370000,5.410000,-0.200000,17.579055,Hold,0.920410,0.000000,Hold,-75.000000,2.000000,LowGoal,2152.500000,-2181.818182,Speed,2122.500000,-2181.818182,Speed,Off,Off,0.000000,FALSE,43,Read: /home/lvuser/scripts/auto_43.bee,File good!,WAIT 1500,WAIT,0.000000,0.000000
04:11:09.007 PM 04/09/2016,Autonomous Enabled,10,TRUE,7,Read from Text File in DoesScriptNumberContainNull.vi->Disabled.vi->Robot Main.vi<APPEND> /home/lvuser/scripts/auto_42.bee,0.000000,-40.437739,-0.000000,-42.580900,TRUE,FALSE,TRUE,TRUE,FALSE,FALSE,Disabled,0.000000,0.445355,33.184645,TRUE,-0.043076,0.504684,0.000000,-0.118439,-0.198792,0.000000,0.030000,-0.177000,-0.061000,2.390000,5.410000,-0.300000,17.570410,Hold,0.920410,0.000000,Hold,-75.000000,2.000000,LowGoal,2160.000000,-2181.818182,Speed,2130.000000,-2181.818182,Speed,Off,Off,0.000000,FALSE,43,Read: /home/lvuser/scripts/auto_43.bee,File good!,WAIT 1500,WAIT,0.000000,0.000000
04:11:09.108 PM 04/09/2016,Autonomous Enabled,11,TRUE,7,Read from Text File in DoesScriptNumberContainNull.vi->Disabled.vi->Robot Main.vi<APPEND> /home/lvuser/scripts/auto_42.bee,0.000000,-40.437739,-0.000000,-42.580900,TRUE,FALSE,TRUE,TRUE,FALSE,FALSE,Disabled,0.000000,0.445355,33.184645,TRUE,-0.046417,0.489761,0.000000,-0.046097,-0.365082,0.000000,0.032000,-0.153000,-0.004000,2.400000,5.410000,-0.260000,17.599779,Hold,0.920410,0.000000,Hold,-75.000000,2.000000,LowGoal,2160.000000,-2181.818182,Speed,2130.000000,-2181.818182,Speed,Off,Off,0.000000,FALSE,43,Read: /home/lvuser/scripts/auto_43.bee,File good!,NAVX_ZERO_YAW,NAVX_ZERO_YAW,0.000000,0.000000
04:11:09.209 PM 04/09/2016,Autonomous Enabled,10,TRUE,7,Read from Text File in DoesScriptNumberContainNull.vi->Disabled.vi->Robot Main.vi<APPEND> /home/lvuser/scripts/auto_42.bee,-0.562500,-40.437739,0.562500,-42.580900,TRUE,FALSE,TRUE,TRUE,FALSE,FALSE,Disabled,0.000000,0.445355,33.184645,TRUE,-0.050415,0.462952,0.000000,-0.063538,-0.480148,0.000000,0.124000,-0.006000,0.090000,2.390000,0.000000,-0.300000,-0.003653,Hold,0.920410,0.000000,Hold,-76.000000,2.000000,LowGoal,2152.500000,2400.000000,Speed,2122.500000,2400.000000,Speed,Off,Off,0.000000,FALSE,43,Read: /home/lvuser/scripts/auto_43.bee,File good!,DRIVE_STRAIGHT_NAVX_RAMPARTS 200 5000 10,DRIVE_STRAIGHT_NAVX_RAMPARTS,0.000000,0.000000
04:11:09.309 PM 04/09/2016,Autonomous Enabled,7,TRUE,7,Read from Text File in DoesScriptNumberContainNull.vi->Disabled.vi->Robot Main.vi<APPEND> /home/lvuser/scripts/auto_42.bee,-0.562500,-0.744332,0.562500,-0.718665,TRUE,FALSE,TRUE,TRUE,FALSE,FALSE,Disabled,0.000000,0.445355,33.184645,TRUE,-0.048050,0.439545,0.000000,0.210907,-0.456589,0.000000,1.158000,-0.163000,-0.716000,2.100000,-0.110000,2.650000,-0.015956,Hold,0.920410,0.000000,Hold,-76.000000,2.000000,LowGoal,2085.000000,2400.000000,Speed,2077.500000,2400.000000,Speed,Off,Off,0.000000,FALSE,43,Read: /home/lvuser/scripts/auto_43.bee,File good!,DRIVE_STRAIGHT_NAVX_RAMPARTS 200 5000 10,DRIVE_STRAIGHT_NAVX_RAMPARTS,0.000000,0.000000
04:11:09.410 PM 04/09/2016,Autonomous Enabled,10,TRUE,7,Read from Text File in DoesScriptNumberContainNull.vi->Disabled.vi->Robot Main.vi<APPEND> /home/lvuser/scripts/auto_42.bee,-0.562500,-2.579494,0.562500,-2.534577,FALSE,FALSE,TRUE,TRUE,FALSE,FALSE,Disabled,0.000000,0.445355,33.184645,TRUE,-0.036743,0.424179,0.000000,0.268021,-0.307968,0.000000,0.136000,-0.227000,-1.012000,1.990000,-0.160000,4.130000,-0.085004,Hold,0.920410,0.000000,Hold,-79.000000,2.000000,LowGoal,1222.500000,2400.000000,Speed,2077.500000,2400.000000,Speed,Off,Off,0.000000,FALSE,43,Read: /home/lvuser/scripts/auto_43.bee,File good!,DRIVE_STRAIGHT_NAVX_RAMPARTS 200 5000 10,DRIVE_STRAIGHT_NAVX_RAMPARTS,0.000000,0.000000
04:11:09.513 PM 04/09/2016,Autonomous Enabled,10,TRUE,7,Read from Text File in DoesScriptNumberContainNull.vi->Disabled.vi->Robot Main.vi<APPEND> /home/lvuser/scripts/auto_42.bee,-0.562500,-4.960072,0.562500,-4.806072,TRUE,FALSE,TRUE,TRUE,FALSE,FALSE,Disabled,0.000000,0.445355,33.184645,TRUE,-0.016739,0.406769,0.000000,0.386185,-0.243240,0.000000,0.125000,0.077000,0.040000,2.300000,-0.500000,2.240000,-0.353406,Hold,0.920410,0.000000,Hold,-79.000000,2.000000,LowGoal,142.500000,2400.000000,Speed,165.000000,2400.000000,Speed,Off,Off,0.000000,FALSE,43,Read: /home/lvuser/scripts/auto_43.bee,File good!,DRIVE_STRAIGHT_NAVX_RAMPARTS 200 5000 10,DRIVE_STRAIGHT_NAVX_RAMPARTS,0.000000,0.000000
04:11:09.614 PM 04/09/2016,Autonomous Enabled,11,TRUE,7,Read from Text File in DoesScriptNumberContainNull.vi->Disabled.vi->Robot Main.vi<APPEND> /home/lvuser/scripts/auto_42.bee,-0.562500,-8.149148,0.562500,-8.020815,FALSE,FALSE,TRUE,TRUE,FALSE,FALSE,Disabled,0.000000,0.445355,33.184645,TRUE,0.005463,0.396072,0.000000,0.452835,-0.193771,0.000000,0.031000,0.077000,0.182000,2.240000,-0.500000,3.150000,-0.394486,Hold,0.920410,0.000000,Hold,-79.000000,2.000000,LowGoal,-675.000000,2400.000000,Speed,165.000000,2400.000000,Speed,Off,Off,0.000000,FALSE,43,Read: /home/lvuser/scripts/auto_43.bee,File good!,DRIVE_STRAIGHT_NAVX_RAMPARTS 200 5000 10,DRIVE_STRAIGHT_NAVX_RAMPARTS,0.000000,0.000000
04:11:09.714 PM 04/09/2016,Autonomous Enabled,11,FALSE,0,NO ERROR,-0.562500,-11.511473,0.535531,-11.306140,TRUE,FALSE,TRUE,TRUE,FALSE,FALSE,Disabled,0.000000,0.445355,33.184645,TRUE,0.026779,0.387512,0.000000,0.400452,-0.181717,0.000000,-0.016000,-0.018000,-0.150000,2.210000,-0.700000,2.990000,-0.522243,Hold,0.920410,0.000000,Hold,-80.000000,2.000000,LowGoal,-1335.000000,2400.000000,Speed,-645.000000,2400.000000,Speed,Off,Off,0.000000,FALSE,43,Read: /home/lvuser/scripts/auto_43.bee,File good!,DRIVE_STRAIGHT_NAVX_RAMPARTS 200 5000 10,DRIVE_STRAIGHT_NAVX_RAMPARTS,0.000000,0.000000
04:11:09.814 PM 04/09/2016,Autonomous Enabled,11,FALSE,0,NO ERROR,-0.562500,-15.072715,0.527948,-14.835299,TRUE,FALSE,TRUE,TRUE,FALSE,FALSE,Disabled,0.000000,0.445355,33.184645,TRUE,0.046280,0.386429,0.000000,0.378998,0.046036,0.000000,0.161000,-0.112000,-0.061000,2.380000,-0.910000,2.540000,-0.808746,Hold,0.920410,0.000000,Hold,-80.000000,2.000000,LowGoal,-1335.000000,2400.000000,Speed,-1282.500000,2400.000000,Speed,Off,Off,0.000000,FALSE,43,Read: /home/lvuser/scripts/auto_43.bee,File good!,DRIVE_STRAIGHT_NAVX_RAMPARTS 200 5000 10,DRIVE_STRAIGHT_NAVX_RAMPARTS,0.000000,0.000000
04:11:09.915 PM 04/09/2016,Autonomous Enabled,10,FALSE,0,NO ERROR,-0.562500,-18.614706,0.534390,-18.518457,TRUE,FALSE,TRUE,TRUE,FALSE,FALSE,Disabled,0.000000,0.445355,33.184645,TRUE,0.071915,0.385574,0.000000,0.433716,-0.055237,0.000000,0.050000,0.049000,0.172000,2.380000,-0.910000,2.540000,-0.711969,Hold,0.920410,0.000000,Hold,-80.000000,2.000000,LowGoal,-1882.500000,2400.000000,Speed,-1792.500000,2400.000000,Speed,Off,Off,0.000000,FALSE,43,Read: /home/lvuser/scripts/auto_43.bee,File good!,DRIVE_STRAIGHT_NAVX_RAMPARTS 200 5000 10,DRIVE_STRAIGHT_NAVX_RAMPARTS,0.000000,0.000000
04:11:10.014 PM 04/09/2016,Autonomous Enabled,9,FALSE,0,NO ERROR,-0.562500,-22.374864,0.538198,-22.368448,TRUE,FALSE,TRUE,TRUE,FALSE,FALSE,Disabled,0.000000,0.445355,33.184645,TRUE,0.088867,0.382126,0.000000,0.441544,-0.128876,0.000000,0.213000,-0.288000,-0.073000,2.340000,-0.630000,2.850000,-0.563919,Hold,0.920410,0.000000,Hold,-80.000000,2.000000,LowGoal,-2325.000000,2400.000000,Speed,-2220.000000,2400.000000,Speed,Off,Off,0.000000,FALSE,43,Read: /home/lvuser/scripts/auto_43.bee,File good!,DRIVE_STRAIGHT_NAVX_RAMPARTS 200 5000 10,DRIVE_STRAIGHT_NAVX_RAMPARTS,0.000000,0.000000
04:11:10.114 PM 04/09/2016,Autonomous Enabled,10,FALSE,0,NO ERROR,-0.562500,-26.462271,0.539343,-26.526438,FALSE,FALSE,TRUE,TRUE,FALSE,FALSE,Disabled,0.000000,0.445355,33.184645,TRUE,0.116180,0.373581,0.000000,0.403244,-0.064636,0.000000,0.029000,-0.136000,-0.342000,2.280000,-0.600000,3.030000,-0.528016,Hold,0.920410,0.000000,Hold,-80.000000,2.000000,LowGoal,-2490.000000,2400.000000,Speed,-2437.500000,2400.000000,Speed,Off,Off,0.000000,FALSE,43,Read: /home/lvuser/scripts/auto_43.bee,File good!,DRIVE_STRAIGHT_NAVX_RAMPARTS 200 5000 10,DRIVE_STRAIGHT_NAVX_RAMPARTS,0.000000,0.000000
04:11:10.215 PM 04/09/2016,Autonomous Enabled,9,FALSE,0,NO ERROR,-0.562500,-30.626678,0.538580,-30.671595,FALSE,FALSE,TRUE,TRUE,FALSE,FALSE,Disabled,0.000000,0.445355,33.184645,TRUE,0.137390,0.364792,0.000000,0.442123,-0.260498,0.000000,-0.260000,0.245000,0.321000,2.280000,-0.600000,3.030000,-0.551157,Hold,0.920410,0.000000,Hold,-80.000000,2.000000,LowGoal,-2467.500000,2400.000000,Speed,-2400.000000,2400.000000,Speed,Off,Off,0.000000,FALSE,43,Read: /home/lvuser/scripts/auto_43.bee,File good!,DRIVE_STRAIGHT_NAVX_RAMPARTS 200 5000 10,DRIVE_STRAIGHT_NAVX_RAMPARTS,0.000000,0.000000
04:11:10.315 PM 04/09/2016,Autonomous Enabled,10,FALSE,0,NO ERROR,-0.562500,-34.759002,0.532112,-34.784669,FALSE,FALSE,TRUE,TRUE,FALSE,FALSE,Disabled,0.000000,0.445355,33.184645,TRUE,0.154465,0.358536,0.000000,0.297256,-0.015762,0.000000,-0.109000,0.178000,-0.192000,2.200000,-0.630000,3.050000,-0.700223,Hold,0.920410,0.000000,Hold,-81.000000,2.000000,LowGoal,-2407.500000,2400.000000,Speed,-2355.000000,2400.000000,Speed,Off,Off,0.000000,FALSE,43,Read: /home/lvuser/scripts/auto_43.bee,File good!,DRIVE_STRAIGHT_NAVX_RAMPARTS 200 5000 10,DRIVE_STRAIGHT_NAVX_RAMPARTS,0.000000,0.000000
04:11:10.416 PM 04/09/2016,Autonomous Enabled,7,FALSE,0,NO ERROR,-0.562500,-39.090242,0.529838,-39.103075,TRUE,FALSE,TRUE,TRUE,FALSE,FALSE,Disabled,0.000000,0.445355,33.184645,TRUE,0.170807,0.355469,0.000000,0.361816,-0.165466,0.000000,-0.038000,-0.190000,0.267000,2.360000,-0.820000,2.460000,-0.762761,Hold,0.920410,0.000000,Hold,-81.000000,2.000000,LowGoal,-2392.500000,2400.000000,Speed,-2340.000000,2400.000000,Speed,Off,Off,0.000000,FALSE,43,Read: /home/lvuser/scripts/auto_43.bee,File good!,DRIVE_STRAIGHT_NAVX_RAMPARTS 200 5000 10,DRIVE_STRAIGHT_NAVX_RAMPARTS,0.000000,0.000000
04:11:10.516 PM 04/09/2016,Autonomous Enabled,11,FALSE,0,NO ERROR,-0.562500,-43.357315,0.526815,-43.517732,TRUE,FALSE,TRUE,TRUE,FALSE,FALSE,Disabled,0.000000,0.445355,33.184645,TRUE,0.186508,0.346619,0.000000,0.229172,-0.107544,0.000000,-0.399000,0.035000,-0.462000,2.360000,-0.840000,2.340000,-0.809886,Hold,0.920410,0.000000,Hold,-81.000000,2.000000,LowGoal,-2407.500000,2400.000000,Speed,-2362.500000,2400.000000,Speed,Off,Off,0.000000,FALSE,43,Read: /home/lvuser/scripts/auto_43.bee,File good!,DRIVE_STRAIGHT_NAVX_RAMPARTS 200 5000 10,DRIVE_STRAIGHT_NAVX_RAMPARTS,0.000000,0.000000
04:11:10.616 PM 04/09/2016,Autonomous Enabled,10,FALSE,0,NO ERROR,-0.562500,-47.489639,0.523800,-47.573055,FALSE,FALSE,TRUE,TRUE,FALSE,FALSE,Disabled,0.000000,0.445355,33.184645,TRUE,0.191727,0.338364,0.000000,0.025330,-0.219574,0.000000,-0.399000,0.035000,-0.462000,2.370000,-0.930000,4.800000,-0.907899,Hold,0.920410,0.000000,Hold,-81.000000,2.000000,LowGoal,-2407.500000,2400.000000,Speed,-2370.000000,2400.000000,Speed,Off,Off,0.000000,FALSE,43,Read: /home/lvuser/scripts/auto_43.bee,File good!,DRIVE_STRAIGHT_NAVX_RAMPARTS 200 5000 10,DRIVE_STRAIGHT_NAVX_RAMPARTS,0.000000,0.000000
04:11:10.717 PM 04/09/2016,Autonomous Enabled,9,FALSE,0,NO ERROR,-0.562500,-51.365297,0.516673,-51.512880,FALSE,FALSE,TRUE,TRUE,FALSE,FALSE,Disabled,0.000000,0.445355,33.184645,TRUE,0.190002,0.328857,0.000000,-0.066376,-0.239578,0.000000,-0.074000,0.098000,0.251000,2.130000,-1.210000,8.940000,-1.078016,Hold,0.920410,0.000000,Hold,-82.000000,2.000000,LowGoal,-2400.000000,2400.000000,Speed,-2362.500000,2400.000000,Speed,Off,Off,0.000000,FALSE,43,Read: /home/lvuser/scripts/auto_43.bee,File good!,DRIVE_STRAIGHT_NAVX_RAMPARTS 200 5000 10,DRIVE_STRAIGHT_NAVX_RAMPARTS,0.000000,0.000000
04:11:10.817 PM 04/09/2016,Autonomous Enabled,11,FALSE,0,NO ERROR,-0.562500,-54.862372,0.516300,-55.074121,FALSE,FALSE,TRUE,TRUE,FALSE,FALSE,Disabled,0.000000,0.445355,33.184645,TRUE,0.177963,0.320618,0.000000,-0.450470,0.019394,0.000000,-0.074000,0.098000,0.251000,2.130000,-1.210000,8.940000,-1.107340,Hold,0.920410,0.000000,Hold,-82.000000,2.000000,LowGoal,-2400.000000,2400.000000,Speed,-2362.500000,2400.000000,Speed,Off,Off,0.000000,FALSE,43,Read: /home/lvuser/scripts/auto_43.bee,File good!,DRIVE_STRAIGHT_NAVX_RAMPARTS 200 5000 10,DRIVE_STRAIGHT_NAVX_RAMPARTS,0.000000,0.000000
04:11:10.917 PM 04/09/2016,Autonomous Enabled,9,FALSE,0,NO ERROR,-0.562500,-58.128447,0.493029,-58.308114,FALSE,FALSE,TRUE,TRUE,FALSE,FALSE,Disabled,0.000000,0.445355,33.184645,TRUE,0.153793,0.321106,0.000000,-0.455780,0.000732,0.000000,-0.681000,0.198000,0.071000,2.430000,-1.380000,11.520000,-1.707578,Hold,0.920410,0.000000,Hold,-83.000000,2.000000,LowGoal,-2400.000000,2400.000000,Speed,-2355.000000,2400.000000,Speed,Off,Off,0.000000,FALSE,43,Read: /home/lvuser/scripts/auto_43.bee,File good!,DRIVE_STRAIGHT_NAVX_RAMPARTS 200 5000 10,DRIVE_STRAIGHT_NAVX_RAMPARTS,0.000000,0.000000
04:11:11.017 PM 04/09/2016,Autonomous Enabled,9,FALSE,0,NO ERROR,-0.562500,-61.022357,0.486841,-61.330357,FALSE,FALSE,TRUE,TRUE,FALSE,FALSE,Disabled,0.000000,0.445355,33.184645,TRUE,0.137451,0.319534,0.000000,-0.284225,-0.026627,0.000000,-0.042000,0.283000,-0.157000,1.850000,-2.010000,20.500000,-1.822353,Hold,0.920410,0.000000,Hold,-84.000000,2.000000,LowGoal,-2392.500000,2400.000000,Speed,-2355.000000,2400.000000,Speed,Off,Off,0.000000,FALSE,43,Read: /home/lvuser/scripts/auto_43.bee,File good!,DRIVE_STRAIGHT_NAVX_RAMPARTS 200 5000 10,DRIVE_STRAIGHT_NAVX_RAMPARTS,0.000000,0.000000
04:11:11.117 PM 04/09/2016,Autonomous Enabled,7,FALSE,0,NO ERROR,-0.562500,-63.743018,0.498521,-64.275600,FALSE,FALSE,TRUE,TRUE,FALSE,FALSE,Disabled,0.000000,0.445355,33.184645,TRUE,0.126907,0.323700,0.000000,-0.250092,0.141876,0.000000,-0.056000,-0.121000,0.968000,1.850000,-2.010000,20.500000,-1.565452,Hold,0.920410,0.000000,Hold,-84.000000,2.000000,LowGoal,-2400.000000,2400.000000,Speed,-2347.500000,2400.000000,Speed,Off,Off,0.000000,FALSE,43,Read: /home/lvuser/scripts/auto_43.bee,File good!,DRIVE_STRAIGHT_NAVX_RAMPARTS 200 5000 10,DRIVE_STRAIGHT_NAVX_RAMPARTS,0.000000,0.000000
04:11:11.216 PM 04/09/2016,Autonomous Enabled,11,FALSE,0,NO ERROR,-0.562500,-66.438011,0.529460,-67.278593,FALSE,FALSE,TRUE,TRUE,FALSE,FALSE,Disabled,0.000000,0.445355,33.184645,TRUE,0.106537,0.328262,0.000000,-0.538712,0.048889,0.000000,-0.056000,-0.121000,0.968000,2.350000,-1.570000,15.880000,-0.499532,Hold,0.920410,0.000000,Hold,-84.000000,2.000000,LowGoal,-2400.000000,2400.000000,Speed,-2340.000000,2400.000000,Speed,Off,Off,0.000000,FALSE,43,Read: /home/lvuser/scripts/auto_43.bee,File good!,DRIVE_STRAIGHT_NAVX_RAMPARTS 200 5000 10,DRIVE_STRAIGHT_NAVX_RAMPARTS,0.000000,0.000000
04:11:11.317 PM 04/09/2016,Autonomous Enabled,9,FALSE,0,NO ERROR,-0.562500,-69.396088,0.571113,-70.288002,FALSE,FALSE,TRUE,TRUE,FALSE,FALSE,Disabled,0.000000,0.445355,33.184645,TRUE,0.071686,0.339020,0.000000,-0.701492,0.318909,0.000000,-0.341000,0.313000,0.237000,2.820000,-0.200000,5.830000,0.252009,Hold,0.920410,0.000000,Hold,-84.000000,2.000000,LowGoal,-2392.500000,2400.000000,Speed,-2347.500000,2400.000000,Speed,Off,Off,0.000000,FALSE,43,Read: /home/lvuser/scripts/auto_43.bee,File good!,DRIVE_STRAIGHT_NAVX_RAMPARTS 200 5000 10,DRIVE_STRAIGHT_NAVX_RAMPARTS,0.000000,0.000000
04:11:11.418 PM 04/09/2016,Autonomous Enabled,9,FALSE,0,NO ERROR,-0.562500,-73.207579,0.592130,-74.035327,FALSE,FALSE,TRUE,TRUE,FALSE,FALSE,Disabled,0.000000,0.445355,33.184645,TRUE,0.042801,0.355286,0.000000,-0.376755,0.261627,0.000000,0.056000,0.136000,-0.897000,2.820000,0.420000,3.970000,0.706492,Hold,0.920410,0.000000,Hold,-86.000000,2.000000,LowGoal,-2392.500000,2400.000000,Speed,-2347.500000,2400.000000,Speed,Off,Off,0.000000,FALSE,43,Read: /home/lvuser/scripts/auto_43.bee,File good!,DRIVE_STRAIGHT_NAVX_RAMPARTS 200 5000 10,DRIVE_STRAIGHT_NAVX_RAMPARTS,0.000000,0.000000
04:11:11.517 PM 04/09/2016,Autonomous Enabled,11,FALSE,0,NO ERROR,-0.562500,-77.339902,0.600966,-78.360150,FALSE,FALSE,TRUE,TRUE,FALSE,FALSE,Disabled,0.000000,0.445355,33.184645,TRUE,0.037567,0.370651,0.000000,-0.072693,0.395142,0.000000,0.474000,0.006000,0.471000,2.070000,0.810000,8.260000,0.812292,Hold,0.920410,0.000000,Hold,-86.000000,2.000000,LowGoal,-2392.500000,2400.000000,Speed,-2355.000000,2400.000000,Speed,Off,Off,0.000000,FALSE,43,Read: /home/lvuser/scripts/auto_43.bee,File good!,DRIVE_STRAIGHT_NAVX_RAMPARTS 200 5000 10,DRIVE_STRAIGHT_NAVX_RAMPARTS,0.000000,0.000000
04:11:11.618 PM 04/09/2016,Autonomous Enabled,11,FALSE,0,NO ERROR,-0.562500,-80.464812,0.508854,-81.414476,FALSE,FALSE,TRUE,TRUE,FALSE,FALSE,Disabled,0.000000,0.445355,33.184645,TRUE,0.037567,0.370651,0.000000,-0.072693,0.395142,0.000000,-1.608000,0.053000,0.573000,2.540000,0.510000,18.480000,-1.196967,Hold,0.919922,0.000000,Hold,-87.000000,2.000000,LowGoal,-2392.500000,2400.000000,Speed,-2355.000000,2400.000000,Speed,Off,Off,0.000000,FALSE,43,Read: /home/lvuser/scripts/auto_43.bee,File good!,DRIVE_STRAIGHT_NAVX_RAMPARTS 200 5000 10,DRIVE_STRAIGHT_NAVX_RAMPARTS,0.000000,0.000000
04:11:11.718 PM 04/09/2016,Autonomous Enabled,11,FALSE,0,NO ERROR,-0.562500,-83.538388,0.429156,-84.860218,FALSE,FALSE,TRUE,TRUE,FALSE,FALSE,Disabled,0.000000,0.445355,33.184645,TRUE,0.012985,0.384964,0.000000,0.181808,0.015732,0.000000,0.055000,-0.041000,-0.969000,1.090000,-2.620000,8.100000,-3.512050,Hold,0.987305,0.000000,Hold,-88.000000,2.000000,LowGoal,-2392.500000,2400.000000,Speed,-2347.500000,2400.000000,Speed,Off,Off,0.000000,FALSE,43,Read: /home/lvuser/scripts/auto_43.bee,File good!,DRIVE_STRAIGHT_NAVX_RAMPARTS 200 5000 10,DRIVE_STRAIGHT_NAVX_RAMPARTS,0.000000,0.000000
04:11:11.818 PM 04/09/2016,Autonomous Enabled,11,FALSE,0,NO ERROR,-0.562500,-86.239798,0.465315,-88.113461,FALSE,FALSE,TRUE,TRUE,FALSE,FALSE,Disabled,0.000000,0.445355,33.184645,TRUE,0.012985,0.384964,0.000000,0.181808,0.015732,0.000000,-0.613000,-0.842000,0.834000,1.700000,-3.820000,3.240000,-2.517780,Hold,0.945801,0.000000,Hold,-94.000000,2.000000,LowGoal,-2362.500000,2400.000000,Speed,-2347.500000,2400.000000,Speed,Off,Off,0.000000,FALSE,43,Read: /home/lvuser/scripts/auto_43.bee,File good!,DRIVE_STRAIGHT_NAVX_RAMPARTS 200 5000 10,DRIVE_STRAIGHT_NAVX_RAMPARTS,0.000000,0.000000
04:11:11.919 PM 04/09/2016,Autonomous Enabled,11,FALSE,0,NO ERROR,-0.562500,-89.865207,0.521544,-91.642619,TRUE,FALSE,TRUE,TRUE,FALSE,FALSE,Disabled,0.000000,0.445355,33.184645,TRUE,0.025055,0.382080,0.000000,0.102966,-0.018921,0.000000,-0.012000,0.001000,-0.420000,0.180000,-2.310000,2.140000,-0.982465,Hold,0.945801,0.000000,Hold,-95.000000,2.000000,LowGoal,-2347.500000,2400.000000,Speed,-2340.000000,2400.000000,Speed,Off,Off,0.000000,FALSE,43,Read: /home/lvuser/scripts/auto_43.bee,File good!,DRIVE_STRAIGHT_NAVX_RAMPARTS 200 5000 10,DRIVE_STRAIGHT_NAVX_RAMPARTS,0.000000,0.000000
04:11:12.020 PM 04/09/2016,Autonomous Enabled,11,FALSE,0,NO ERROR,-0.562500,-91.803035,0.575049,-93.740864,TRUE,FALSE,TRUE,TRUE,FALSE,FALSE,Disabled,0.000000,0.445355,33.184645,TRUE,0.025055,0.382080,0.000000,0.102966,-0.018921,0.000000,0.469000,-0.187000,0.871000,2.800000,-0.220000,1.530000,0.401616,Hold,0.945801,0.000000,Hold,-95.000000,2.000000,LowGoal,-2377.500000,2400.000000,Speed,-2347.500000,2400.000000,Speed,Off,Off,0.000000,FALSE,43,Read: /home/lvuser/scripts/auto_43.bee,File good!,DRIVE_STRAIGHT_NAVX_RAMPARTS 200 5000 10,DRIVE_STRAIGHT_NAVX_RAMPARTS,0.000000,0.000000
04:11:12.121 PM 04/09/2016,Autonomous Enabled,10,FALSE,0,NO ERROR,-0.562500,-96.108609,0.611899,-97.764105,TRUE,FALSE,TRUE,TRUE,FALSE,FALSE,Disabled,0.000000,0.445355,33.184645,TRUE,0.041428,0.365997,0.000000,0.275208,-0.415375,0.000000,0.007000,-0.553000,-1.186000,1.330000,0.460000,-0.470000,1.263395,Hold,0.945801,0.000000,Hold,-95.000000,2.000000,LowGoal,-2377.500000,2400.000000,Speed,-2340.000000,2400.000000,Speed,Off,Off,0.000000,FALSE,43,Read: /home/lvuser/scripts/auto_43.bee,File good!,DRIVE_STRAIGHT_NAVX_RAMPARTS 200 5000 10,DRIVE_STRAIGHT_NAVX_RAMPARTS,0.000000,0.000000
04:11:12.222 PM 04/09/2016,Autonomous Enabled,11,FALSE,0,NO ERROR,-0.562500,-100.574598,0.579395,-101.813012,FALSE,FALSE,TRUE,TRUE,FALSE,FALSE,Disabled,0.000000,0.445355,33.184645,TRUE,0.058197,0.344299,0.000000,0.389893,-0.413406,0.000000,0.204000,0.457000,-0.179000,1.160000,1.080000,-5.430000,0.042337,Hold,0.945801,0.000000,Hold,-96.000000,2.000000,LowGoal,-2370.000000,2400.000000,Speed,-2332.500000,2400.000000,Speed,Off,Off,0.000000,FALSE,43,Read: /home/lvuser/scripts/auto_43.bee,File good!,DRIVE_STRAIGHT_NAVX_RAMPARTS 200 5000 10,DRIVE_STRAIGHT_NAVX_RAMPARTS,0.000000,0.000000
04:11:12.324 PM 04/09/2016,Autonomous Enabled,10,FALSE,0,NO ERROR,-0.562500,-103.943340,0.543552,-104.828838,FALSE,FALSE,TRUE,TRUE,FALSE,FALSE,Disabled,0.000000,0.445355,33.184645,TRUE,0.092072,0.328644,0.000000,0.794647,-0.345947,0.000000,-0.664000,-0.448000,-0.965000,3.130000,-0.190000,3.050000,-0.853613,Hold,0.945801,0.000000,Hold,-115.000000,2.000000,LowGoal,-2370.000000,2400.000000,Speed,-2347.500000,2400.000000,Speed,Off,Off,0.000000,FALSE,43,Read: /home/lvuser/scripts/auto_43.bee,File good!,DRIVE_STRAIGHT_NAVX_RAMPARTS 200 5000 10,DRIVE_STRAIGHT_NAVX_RAMPARTS,0.000000,0.000000
04:11:12.424 PM 04/09/2016,Autonomous Enabled,9,FALSE,0,NO ERROR,-0.562500,-103.943340,0.516673,-104.828838,FALSE,FALSE,TRUE,TRUE,FALSE,FALSE,Disabled,0.000000,0.445355,33.184645,TRUE,0.107346,0.305313,0.000000,0.130707,-0.463806,0.000000,-0.011000,0.211000,-0.511000,2.030000,-0.720000,7.890000,-0.853613,Hold,0.945801,0.000000,Hold,-116.000000,2.000000,LowGoal,-2370.000000,2400.000000,Speed,-2340.000000,2400.000000,Speed,Off,Off,0.000000,FALSE,43,Read: /home/lvuser/scripts/auto_43.bee,File good!,DRIVE_STRAIGHT_NAVX_RAMPARTS 200 5000 10,DRIVE_STRAIGHT_NAVX_RAMPARTS,0.000000,0.000000
04:11:12.525 PM 04/09/2016,Autonomous Enabled,10,FALSE,0,NO ERROR,-0.562500,-107.709915,0.482497,-108.415746,FALSE,FALSE,TRUE,TRUE,FALSE,FALSE,Disabled,0.000000,0.445355,33.184645,TRUE,0.112671,0.287811,0.000000,0.172485,-0.331650,0.000000,0.388000,-0.150000,1.195000,2.040000,-1.750000,16.480000,-1.546748,Hold,0.945801,0.000000,Hold,-116.000000,2.000000,LowGoal,-2362.500000,2400.000000,Speed,-2340.000000,2400.000000,Speed,Off,Off,0.000000,FALSE,43,Read: /home/lvuser/scripts/auto_43.bee,File good!,DRIVE_STRAIGHT_NAVX_RAMPARTS 200 5000 10,DRIVE_STRAIGHT_NAVX_RAMPARTS,0.000000,0.000000
04:11:12.626 PM 04/09/2016,Autonomous Enabled,11,FALSE,0,NO ERROR,-0.562500,-109.981409,0.459657,-110.584575,FALSE,FALSE,TRUE,TRUE,FALSE,FALSE,Disabled,0.000000,0.445355,33.184645,TRUE,0.139435,0.263412,0.000000,0.750870,-0.580963,0.000000,0.246000,-0.284000,-0.842000,1.860000,-2.310000,18.120000,-2.224295,Hold,0.945801,0.000000,Hold,-116.000000,2.000000,LowGoal,-2370.000000,2400.000000,Speed,-2325.000000,2400.000000,Speed,Off,Off,0.000000,FALSE,43,Read: /home/lvuser/scripts/auto_43.bee,File good!,DRIVE_STRAIGHT_NAVX_RAMPARTS 200 5000 10,DRIVE_STRAIGHT_NAVX_RAMPARTS,0.000000,0.000000
04:11:12.726 PM 04/09/2016,Autonomous Enabled,6,FALSE,0,NO ERROR,-0.562500,-112.843236,0.489384,-113.812151,FALSE,FALSE,TRUE,TRUE,FALSE,FALSE,Disabled,0.000000,0.445355,33.184645,TRUE,0.189072,0.230698,0.000000,0.802338,-0.410797,0.000000,0.092000,0.038000,1.119000,2.180000,-2.410000,15.230000,-2.542391,Hold,0.945801,0.000000,Hold,-116.000000,2.000000,LowGoal,-2392.500000,2400.000000,Speed,-2340.000000,2400.000000,Speed,Off,Off,0.000000,FALSE,43,Read: /home/lvuser/scripts/auto_43.bee,File good!,DRIVE_STRAIGHT_NAVX_RAMPARTS 200 5000 10,DRIVE_STRAIGHT_NAVX_RAMPARTS,0.000000,0.000000
04:11:12.826 PM 04/09/2016,Autonomous Enabled,9,FALSE,0,NO ERROR,-0.562500,-115.640896,0.540872,-117.058976,FALSE,FALSE,TRUE,TRUE,FALSE,FALSE,Disabled,0.000000,0.445355,33.184645,TRUE,0.237808,0.204422,0.000000,1.103699,-0.741379,0.000000,-0.071000,-1.328000,-3.024000,0.530000,-1.170000,4.140000,-1.745559,Hold,0.945801,0.000000,Hold,-116.000000,2.000000,LowGoal,-2400.000000,2400.000000,Speed,-2340.000000,2400.000000,Speed,Off,Off,0.000000,FALSE,43,Read: /home/lvuser/scripts/auto_43.bee,File good!,DRIVE_STRAIGHT_NAVX_RAMPARTS 200 5000 10,DRIVE_STRAIGHT_NAVX_RAMPARTS,0.000000,0.000000
04:11:12.926 PM 04/09/2016,Autonomous Enabled,10,FALSE,0,NO ERROR,-0.562500,-118.258890,0.622931,-120.113302,FALSE,FALSE,TRUE,TRUE,FALSE,FALSE,Disabled,0.000000,0.445355,33.184645,TRUE,0.296677,0.146439,0.000000,1.388687,-1.162003,0.000000,1.614000,-0.312000,-0.302000,2.170000,0.380000,-14.160000,-0.302807,Hold,0.945801,0.000000,Hold,-116.000000,2.000000,LowGoal,-2385.000000,2400.000000,Speed,-2340.000000,2400.000000,Speed,Off,Off,0.000000,FALSE,43,Read: /home/lvuser/scripts/auto_43.bee,File good!,DRIVE_STRAIGHT_NAVX_RAMPARTS 200 5000 10,DRIVE_STRAIGHT_NAVX_RAMPARTS,0.000000,0.000000
04:11:13.026 PM 04/09/2016,Autonomous Enabled,9,FALSE,0,NO ERROR,-0.562500,-122.262881,0.677428,-124.085210,FALSE,FALSE,TRUE,TRUE,FALSE,FALSE,Disabled,0.000000,0.445355,33.184645,TRUE,0.375183,0.083389,0.000000,1.661087,-1.272156,0.000000,0.131000,0.641000,-0.500000,1.090000,2.250000,-9.250000,1.223626,Hold,0.945801,0.000000,Hold,-57.000000,2.000000,LowGoal,-2362.500000,2400.000000,Speed,-2340.000000,2400.000000,Speed,Off,Off,0.000000,FALSE,43,Read: /home/lvuser/scripts/auto_43.bee,File good!,DRIVE_STRAIGHT_NAVX_RAMPARTS 200 5000 10,DRIVE_STRAIGHT_NAVX_RAMPARTS,0.000000,0.000000
04:11:13.126 PM 04/09/2016,Autonomous Enabled,11,FALSE,0,NO ERROR,-0.562500,-127.781201,0.723112,-128.756532,TRUE,FALSE,TRUE,TRUE,FALSE,FALSE,Disabled,0.000000,0.445355,33.184645,TRUE,0.448776,0.014511,0.000000,1.462189,-1.341202,0.000000,-0.188000,0.442000,-0.434000,0.000000,3.640000,-2.580000,3.097201,Hold,0.945801,0.000000,Hold,-113.000000,2.000000,LowGoal,-2370.000000,2400.000000,Speed,-2340.000000,2400.000000,Speed,Off,Off,0.000000,FALSE,43,Read: /home/lvuser/scripts/auto_43.bee,File good!,DRIVE_STRAIGHT_NAVX_RAMPARTS 200 5000 10,DRIVE_STRAIGHT_NAVX_RAMPARTS,0.000000,0.000000
04:11:13.227 PM 04/09/2016,Autonomous Enabled,10,FALSE,0,NO ERROR,-0.562500,-133.273855,0.562500,-133.543354,TRUE,FALSE,TRUE,TRUE,FALSE,FALSE,Disabled,0.000000,0.445355,33.184645,TRUE,0.542221,-0.061081,0.000000,1.596512,-1.296539,0.000000,-0.807000,-0.116000,-1.534000,0.550000,2.890000,-0.850000,2.937352,Hold,0.945801,0.000000,Hold,-82.000000,2.000000,LowGoal,-2385.000000,2400.000000,Speed,-2340.000000,2400.000000,Speed,Off,Off,0.000000,FALSE,43,Read: /home/lvuser/scripts/auto_43.bee,File good!,DRIVE_STRAIGHT_TARGET 12 0 10000 75,DRIVE_STRAIGHT_TARGET,0.000000,0.000000
04:11:13.328 PM 04/09/2016,Autonomous Enabled,10,FALSE,0,NO ERROR,-0.562500,-2.707827,0.562500,-2.444744,TRUE,FALSE,TRUE,TRUE,FALSE,FALSE,Disabled,0.000000,0.445355,33.184645,TRUE,0.602844,-0.116745,0.000000,1.467911,-1.365417,0.000000,-0.372000,0.194000,1.014000,0.900000,2.150000,-1.110000,1.581769,Hold,0.945801,0.000000,Hold,-91.000000,2.000000,LowGoal,-2385.000000,2400.000000,Speed,-2332.500000,2400.000000,Speed,Off,Off,0.000000,FALSE,43,Read: /home/lvuser/scripts/auto_43.bee,File good!,DRIVE_STRAIGHT_TARGET 12 0 10000 75,DRIVE_STRAIGHT_TARGET,0.000000,0.000000
04:11:13.428 PM 04/09/2016,Autonomous Enabled,10,FALSE,0,NO ERROR,-0.562500,-7.674315,0.562500,-7.180233,FALSE,FALSE,TRUE,TRUE,FALSE,FALSE,Disabled,0.000000,0.445355,33.184645,TRUE,0.683807,-0.190338,0.000000,1.273087,-1.112198,0.000000,-0.012000,-0.480000,-1.011000,3.280000,1.190000,5.050000,0.737503,Hold,0.945801,0.000000,Hold,-91.000000,2.000000,LowGoal,-2377.500000,2400.000000,Speed,-2340.000000,2400.000000,Speed,Off,Off,0.000000,FALSE,43,Read: /home/lvuser/scripts/auto_43.bee,File good!,DRIVE_STRAIGHT_TARGET 12 0 10000 75,DRIVE_STRAIGHT_TARGET,0.000000,0.000000
04:11:13.528 PM 04/09/2016,Autonomous Enabled,11,FALSE,0,NO ERROR,0.000000,-11.505056,-0.000000,-11.113641,FALSE,FALSE,TRUE,TRUE,FALSE,TRUE,Disabled,0.000000,0.445355,33.184645,TRUE,0.734100,-0.238800,0.000000,1.272202,-1.159210,0.000000,-0.171000,-0.078000,0.734000,3.130000,0.190000,3.010000,-0.019309,Hold,0.945801,45.000000,Hold,-94.000000,2.000000,LowGoal,-2377.500000,2400.000000,Speed,-2347.500000,2400.000000,Speed,Off,Off,0.000000,FALSE,43,Read: /home/lvuser/scripts/auto_43.bee,File good!,SEARCH_FOR_GOAL,SEARCH_FOR_GOAL,0.000000,0.000000
04:11:13.629 PM 04/09/2016,Autonomous Enabled,12,FALSE,0,NO ERROR,0.000000,-14.841715,-0.000000,-14.148717,FALSE,FALSE,TRUE,TRUE,FALSE,TRUE,Disabled,0.000000,0.445355,33.184645,TRUE,0.799164,-0.297684,0.000000,1.402206,-1.225555,0.000000,-0.718000,-0.256000,-0.166000,3.070000,-0.320000,0.320000,-0.709487,Hold,0.945801,45.000000,Hold,-94.000000,77824.000000,LowGoal,-2377.500000,-3272.727273,Speed,-2347.500000,-3272.727273,Speed,Off,Off,0.000000,FALSE,43,Read: /home/lvuser/scripts/auto_43.bee,File good!,SEARCH_FOR_GOAL,SEARCH_FOR_GOAL,0.000000,0.000000
04:11:13.733 PM 04/09/2016,Autonomous Enabled,11,FALSE,0,NO ERROR,0.000000,-16.773127,-0.000000,-16.009546,FALSE,FALSE,TRUE,TRUE,FALSE,TRUE,Disabled,0.000000,0.445355,33.184645,TRUE,0.856705,-0.364029,0.000000,0.852264,-1.311234,0.000000,-0.365000,0.177000,-0.478000,3.270000,-0.130000,-3.850000,-0.759404,Hold,0.945801,45.000000,Hold,-3806.000000,77824.000000,LowGoal,-2250.000000,-3272.727273,Speed,-2287.500000,-3272.727273,Speed,Off,Off,0.000000,FALSE,43,Read: /home/lvuser/scripts/auto_43.bee,File good!,SEARCH_FOR_GOAL,SEARCH_FOR_GOAL,0.000000,0.000000
04:11:13.833 PM 04/09/2016,Autonomous Enabled,11,FALSE,0,NO ERROR,0.000000,-17.697125,-0.000000,-17.010544,FALSE,FALSE,TRUE,TRUE,FALSE,TRUE,Disabled,0.000000,0.445355,33.184645,TRUE,0.893265,-0.431900,0.000000,0.518829,-1.056732,0.000000,-0.085000,-0.177000,0.998000,3.300000,0.000000,-2.290000,-0.660933,Hold,0.945801,45.000000,Hold,-16085.000000,77824.000000,LowGoal,-1245.000000,-3272.727273,Speed,-1402.500000,-3272.727273,Speed,Off,Off,0.000000,FALSE,43,Read: /home/lvuser/scripts/auto_43.bee,File good!,SEARCH_FOR_GOAL,SEARCH_FOR_GOAL,0.000000,0.000000
04:11:13.934 PM 04/09/2016,Autonomous Enabled,9,FALSE,0,NO ERROR,0.000000,-17.761292,-0.000000,-17.100377,FALSE,FALSE,TRUE,TRUE,FALSE,TRUE,Disabled,0.000000,0.445355,33.184645,TRUE,0.917130,-0.485413,0.000000,0.478302,-1.068588,0.000000,0.084000,0.047000,-0.049000,3.030000,-0.020000,-2.000000,-0.692915,Hold,0.945801,45.000000,Hold,-28267.000000,77824.000000,LowGoal,-195.000000,-3272.727273,Speed,-285.000000,-3272.727273,Speed,Off,Off,0.000000,FALSE,43,Read: /home/lvuser/scripts/auto_43.bee,File good!,SEARCH_FOR_GOAL,SEARCH_FOR_GOAL,0.000000,0.000000
04:11:14.034 PM 04/09/2016,Autonomous Enabled,10,FALSE,0,NO ERROR,0.000000,-17.709959,-0.000000,-17.074710,FALSE,FALSE,TRUE,TRUE,FALSE,TRUE,Disabled,0.000000,0.445355,33.184645,TRUE,0.949570,-0.548691,0.000000,0.569275,-1.059479,0.000000,-0.074000,-0.042000,-0.167000,3.040000,0.000000,-2.020000,-0.665784,Hold,0.945801,45.000000,Hold,-39108.000000,77824.000000,LowGoal,487.500000,-3272.727273,Speed,555.000000,-3272.727273,Speed,Off,Off,0.000000,FALSE,43,Read: /home/lvuser/scripts/auto_43.bee,File good!,SEARCH_FOR_GOAL,SEARCH_FOR_GOAL,0.000000,0.000000
04:11:14.135 PM 04/09/2016,Autonomous Enabled,12,FALSE,0,NO ERROR,0.000000,-17.645792,-0.000000,-16.997710,FALSE,FALSE,TRUE,TRUE,FALSE,TRUE,Disabled,0.000000,0.445355,33.184645,TRUE,0.972214,-0.591034,0.000000,0.572754,-1.057632,0.000000,-0.031000,-0.062000,-0.027000,3.060000,0.000000,-2.060000,-0.661494,Hold,0.945801,45.000000,Hold,-39108.000000,77824.000000,LowGoal,1177.500000,-3272.727273,Speed,1230.000000,-3272.727273,Speed,Off,Off,0.000000,FALSE,43,Read: /home/lvuser/scripts/auto_43.bee,File good!,SEARCH_FOR_GOAL,SEARCH_FOR_GOAL,0.000000,0.000000
04:11:14.235 PM 04/09/2016,Autonomous Enabled,11,FALSE,0,NO ERROR,0.000000,-17.645792,-0.000000,-16.933544,FALSE,FALSE,TRUE,TRUE,FALSE,TRUE,Disabled,0.000000,0.445355,33.184645,TRUE,1.002502,-0.645004,0.000000,0.616501,-1.074707,0.000000,-0.115000,0.081000,0.052000,3.030000,-0.060000,-1.850000,-0.692223,Hold,0.945801,45.000000,Hold,-51701.000000,77824.000000,LowGoal,1747.500000,-3272.727273,Speed,1770.000000,-3272.727273,Speed,Off,Off,0.000000,FALSE,43,Read: /home/lvuser/scripts/auto_43.bee,File good!,SEARCH_FOR_GOAL,SEARCH_FOR_GOAL,0.000000,0.000000
04:11:14.335 PM 04/09/2016,Autonomous Enabled,12,FALSE,0,NO ERROR,0.000000,-17.639375,-0.000000,-16.933544,TRUE,FALSE,TRUE,TRUE,FALSE,TRUE,Disabled,0.000000,0.445355,33.184645,TRUE,1.040192,-0.710358,0.000000,0.704147,-1.171783,0.000000,0.186000,-0.183000,0.180000,2.990000,-0.040000,-1.760000,-0.668073,Hold,0.945801,45.000000,Hold,-65603.000000,77824.000000,LowGoal,2220.000000,-3272.727273,Speed,2130.000000,-3272.727273,Speed,Off,Off,0.000000,FALSE,43,Read: /home/lvuser/scripts/auto_43.bee,File good!,SEARCH_FOR_GOAL,SEARCH_FOR_GOAL,0.000000,0.000000
04:11:14.438 PM 04/09/2016,Autonomous Enabled,12,FALSE,0,NO ERROR,0.000000,-17.671459,-0.000000,-16.959210,FALSE,FALSE,TRUE,TRUE,FALSE,TRUE,Disabled,0.000000,0.445355,33.184645,TRUE,1.055435,-0.758713,0.000000,0.000000,-1.162186,0.000000,0.049000,-0.017000,-0.316000,3.050000,0.000000,-1.720000,-0.633923,Hold,0.945801,45.000000,Hold,-79415.000000,77824.000000,LowGoal,2625.000000,-3272.727273,Speed,2580.000000,-3272.727273,Speed,Off,Off,0.000000,FALSE,43,Read: /home/lvuser/scripts/auto_43.bee,File good!,SEARCH_FOR_GOAL,SEARCH_FOR_GOAL,0.000000,0.000000
04:11:14.539 PM 04/09/2016,Autonomous Enabled,11,FALSE,0,NO ERROR,0.000000,-17.774125,-0.000000,-17.113210,TRUE,FALSE,TRUE,TRUE,FALSE,TRUE,Disabled,0.000000,0.445355,33.184645,TRUE,1.057205,-0.829330,0.000000,0.038818,-1.189270,0.000000,-0.207000,0.105000,-0.302000,2.960000,0.070000,-1.580000,-0.561302,Hold,0.945801,45.000000,Hold,-77939.000000,77824.000000,LowGoal,2947.500000,-3272.727273,Speed,2827.500000,-3272.727273,Speed,Off,Off,0.000000,FALSE,43,Read: /home/lvuser/scripts/auto_43.bee,File good!,SEARCH_FOR_GOAL,SEARCH_FOR_GOAL,0.000000,0.000000
04:11:14.643 PM 04/09/2016,Autonomous Enabled,10,FALSE,0,NO ERROR,0.000000,-17.774125,-0.000000,-17.119627,TRUE,FALSE,TRUE,TRUE,FALSE,TRUE,Disabled,0.000000,0.445355,33.184645,TRUE,1.056000,-0.887497,0.000000,-0.049377,-1.158691,0.000000,-0.092000,-0.167000,0.068000,2.960000,0.000000,-1.570000,-0.616999,Hold,0.945801,45.000000,Hold,-77933.000000,77824.000000,LowGoal,3225.000000,-3272.727273,Speed,3105.000000,-3272.727273,Speed,Off,Off,0.000000,FALSE,43,Read: /home/lvuser/scripts/auto_43.bee,File good!,SEARCH_FOR_GOAL,SEARCH_FOR_GOAL,0.000000,0.000000
04:11:14.744 PM 04/09/2016,Autonomous Enabled,11,FALSE,0,NO ERROR,0.000000,-17.652209,-0.000000,-16.984877,TRUE,FALSE,TRUE,TRUE,FALSE,TRUE,Disabled,0.000000,0.445355,33.184645,TRUE,1.055847,-0.956985,0.000000,0.045959,-1.153259,0.000000,-0.116000,-0.065000,0.217000,2.910000,-0.050000,-1.430000,-0.665233,Hold,0.945801,45.000000,Hold,-77933.000000,77824.000000,LowGoal,3337.500000,-3272.727273,Speed,3292.500000,-3272.727273,Speed,Off,Off,0.000000,FALSE,43,Read: /home/lvuser/scripts/auto_43.bee,File good!,SEARCH_FOR_GOAL,SEARCH_FOR_GOAL,0.000000,0.000000
04:11:14.845 PM 04/09/2016,Autonomous Enabled,10,FALSE,0,NO ERROR,0.000000,-17.652209,-0.000000,-16.984877,TRUE,FALSE,TRUE,TRUE,FALSE,TRUE,Disabled,0.000000,0.445355,33.184645,TRUE,1.057617,-1.013184,0.000000,0.024124,-1.113358,0.000000,-0.059000,-0.007000,0.106000,2.930000,-0.010000,-1.190000,-0.628174,Hold,0.945801,45.000000,Hold,-77933.000000,77824.000000,LowGoal,3322.500000,-3272.727273,Speed,3300.000000,-3272.727273,Speed,Off,Off,0.000000,FALSE,43,Read: /home/lvuser/scripts/auto_43.bee,File good!,SEARCH_FOR_GOAL,SEARCH_FOR_GOAL,0.000000,0.000000
04:11:14.946 PM 04/09/2016,Autonomous Enabled,11,FALSE,0,NO ERROR,0.000000,-17.645792,-0.000000,-16.984877,TRUE,FALSE,TRUE,TRUE,FALSE,TRUE,Disabled,0.000000,0.445355,33.184645,TRUE,1.059372,-1.069016,0.000000,0.043289,-1.107925,0.000000,0.029000,-0.002000,-0.060000,2.960000,-0.020000,-1.170000,-0.632236,Hold,0.945801,45.000000,Hold,-77933.000000,77824.000000,LowGoal,3300.000000,-3272.727273,Speed,3262.500000,-3272.727273,Speed,Off,Off,0.000000,FALSE,43,Read: /home/lvuser/scripts/auto_43.bee,File good!,SEARCH_FOR_GOAL,SEARCH_FOR_GOAL,0.000000,0.000000
04:11:15.047 PM 04/09/2016,Autonomous Enabled,11,FALSE,0,NO ERROR,0.000000,-17.645792,-0.000000,-16.984877,TRUE,FALSE,TRUE,TRUE,FALSE,TRUE,Disabled,0.000000,0.445355,33.184645,TRUE,1.062546,-1.101944,0.000000,0.096741,0.005432,0.000000,0.081000,-0.091000,0.046000,2.960000,0.000000,-1.040000,-0.608710,Hold,0.945801,45.000000,Hold,-77933.000000,77824.000000,LowGoal,3292.500000,-3272.727273,Speed,3247.500000,-3272.727273,Speed,Off,Off,0.000000,FALSE,43,Read: /home/lvuser/scripts/auto_43.bee,File good!,SEARCH_FOR_GOAL,SEARCH_FOR_GOAL,0.000000,0.000000
04:11:15.148 PM 04/09/2016,Autonomous Enabled,9,FALSE,0,NO ERROR,0.000000,-17.645792,-0.000000,-16.984877,TRUE,FALSE,TRUE,TRUE,FALSE,TRUE,Enable,-0.687500,0.445355,33.184645,TRUE,1.073303,-1.102417,0.000000,0.261414,-0.026993,0.000000,0.081000,-0.091000,0.046000,2.940000,-0.010000,-1.020000,-0.597404,Hold,0.945801,45.000000,Hold,-77933.000000,77824.000000,LowGoal,3292.500000,-3272.727273,Speed,3262.500000,-3272.727273,Speed,Off,Off,0.000000,FALSE,43,Read: /home/lvuser/scripts/auto_43.bee,File good!,SEARCH_FOR_GOAL,SEARCH_FOR_GOAL,0.000000,0.000000
04:11:15.249 PM 04/09/2016,Autonomous Enabled,10,FALSE,0,NO ERROR,0.546027,-18.043624,0.546027,-16.715378,TRUE,FALSE,TRUE,TRUE,FALSE,TRUE,PID,-0.687500,27.114888,-27.124888,TRUE,1.091934,-1.105972,0.000000,0.407928,-0.103363,0.000000,0.235000,-0.170000,0.025000,2.940000,-0.010000,-1.020000,-0.599435,Hold,0.945801,45.000000,Hold,-77933.000000,77824.000000,LowGoal,3285.000000,-3272.727273,Speed,3262.500000,-3272.727273,Speed,Off,Off,0.000000,FALSE,43,Read: /home/lvuser/scripts/auto_43.bee,File good!,SEARCH_FOR_GOAL,SEARCH_FOR_GOAL,0.000000,0.000000
04:11:15.351 PM 04/09/2016,Autonomous Enabled,10,FALSE,0,NO ERROR,0.436671,-19.769704,0.436671,-14.931548,TRUE,FALSE,TRUE,TRUE,FALSE,TRUE,PID,-0.687500,27.114888,-27.124888,TRUE,1.104752,-1.119354,0.000000,0.226547,-0.357498,0.000000,-0.103000,-0.141000,0.083000,1.720000,-6.260000,-1.950000,-6.312615,Hold,0.945801,45.000000,Hold,-77933.000000,77824.000000,LowGoal,3270.000000,-3272.727273,Speed,3225.000000,-3272.727273,Speed,Off,Off,0.000000,FALSE,43,Read: /home/lvuser/scripts/auto_43.bee,File good!,SEARCH_FOR_GOAL,SEARCH_FOR_GOAL,0.000000,0.000000
04:11:15.451 PM 04/09/2016,Autonomous Enabled,10,FALSE,0,NO ERROR,0.287228,-22.118198,0.287228,-12.480387,TRUE,FALSE,TRUE,TRUE,FALSE,TRUE,PID,-0.687500,27.114888,-27.124888,TRUE,1.115524,-1.134933,0.000000,0.305130,-0.401917,0.000000,0.162000,0.055000,-0.045000,1.700000,-14.250000,-1.790000,-15.980998,Hold,0.945801,45.000000,Hold,-77933.000000,77824.000000,LowGoal,3247.500000,-3272.727273,Speed,3210.000000,-3272.727273,Speed,Off,Off,0.000000,FALSE,43,Read: /home/lvuser/scripts/auto_43.bee,File good!,SEARCH_FOR_GOAL,SEARCH_FOR_GOAL,0.000000,0.000000
04:11:15.552 PM 04/09/2016,Autonomous Enabled,11,FALSE,0,NO ERROR,0.201319,-23.998277,0.201319,-10.471976,TRUE,FALSE,TRUE,TRUE,FALSE,TRUE,PID,-0.687500,27.114888,-27.124888,TRUE,1.135437,-1.151108,0.000000,0.456024,-0.253418,0.000000,0.062000,0.209000,0.032000,2.350000,-24.680000,-1.060000,-24.290897,Hold,0.945801,45.000000,Hold,-77933.000000,77824.000000,LowGoal,3262.500000,-3272.727273,Speed,3247.500000,-3272.727273,Speed,Off,Off,0.000000,FALSE,43,Read: /home/lvuser/scripts/auto_43.bee,File good!,SEARCH_FOR_GOAL,SEARCH_FOR_GOAL,0.000000,0.000000
04:11:15.653 PM 04/09/2016,Autonomous Enabled,9,FALSE,0,NO ERROR,0.000000,-24.973608,-0.000000,-9.297728,TRUE,FALSE,TRUE,TRUE,FALSE,TRUE,Suspended,-0.687500,27.114888,-27.124888,TRUE,1.162735,-1.159943,0.000000,0.615799,-0.131775,0.000000,0.256000,0.055000,-0.018000,2.530000,-29.920000,-0.590000,-29.498630,Hold,0.945801,45.000000,Hold,-77933.000000,77824.000000,LowGoal,3285.000000,-3272.727273,Speed,3277.500000,-3272.727273,Speed,Off,Off,0.000000,FALSE,43,Read: /home/lvuser/scripts/auto_43.bee,File good!,SEARCH_FOR_GOAL,SEARCH_FOR_GOAL,0.000000,0.000000
04:11:15.753 PM 04/09/2016,Autonomous Enabled,10,FALSE,0,NO ERROR,0.000000,-25.050608,-0.000000,-9.227145,FALSE,FALSE,TRUE,TRUE,FALSE,TRUE,Suspended,-0.687500,27.114888,-27.124888,TRUE,1.198471,-1.161041,0.000000,0.756439,0.071472,0.000000,0.005000,0.309000,-0.034000,3.160000,-31.030000,0.040000,-30.697903,Hold,0.945801,45.000000,Hold,-77933.000000,77824.000000,LowGoal,3292.500000,-3272.727273,Speed,3277.500000,-3272.727273,Speed,Off,Off,0.000000,FALSE,43,Read: /home/lvuser/scripts/auto_43.bee,File good!,SEARCH_FOR_GOAL,SEARCH_FOR_GOAL,0.000000,0.000000
04:11:15.853 PM 04/09/2016,Autonomous Enabled,11,FALSE,0,NO ERROR,0.000000,-24.922275,-0.000000,-9.297728,TRUE,FALSE,TRUE,TRUE,FALSE,TRUE,Suspended,-0.687500,27.114888,-27.124888,TRUE,1.247009,-1.153564,0.000000,0.853149,0.098495,0.000000,0.139000,-0.229000,0.068000,2.930000,-30.280000,0.010000,-29.980323,Hold,0.945801,45.000000,Hold,-77933.000000,77824.000000,LowGoal,3285.000000,-3272.727273,Speed,3277.500000,-3272.727273,Speed,Off,Off,0.000000,FALSE,43,Read: /home/lvuser/scripts/auto_43.bee,File good!,SEARCH_FOR_GOAL,SEARCH_FOR_GOAL,0.000000,0.000000
04:11:15.954 PM 04/09/2016,Autonomous Enabled,10,FALSE,0,NO ERROR,0.000000,-24.922275,-0.000000,-9.297728,FALSE,FALSE,TRUE,TRUE,FALSE,TRUE,Suspended,-0.687500,27.114888,-27.124888,TRUE,1.292526,-1.148956,0.000000,0.935684,0.100250,0.000000,0.010000,0.194000,-0.070000,3.020000,-30.400000,0.020000,-30.099632,Hold,0.945801,45.000000,Hold,-77933.000000,77824.000000,LowGoal,3285.000000,-3272.727273,Speed,3262.500000,-3272.727273,Speed,Off,Off,0.000000,FALSE,43,Read: /home/lvuser/scripts/auto_43.bee,File good!,SEARCH_FOR_GOAL,SEARCH_FOR_GOAL,0.000000,0.000000
04:11:16.055 PM 04/09/2016,Autonomous Enabled,10,FALSE,0,NO ERROR,0.000000,-24.922275,-0.000000,-9.297728,FALSE,FALSE,TRUE,TRUE,FALSE,TRUE,Suspended,-0.687500,27.114888,-27.124888,TRUE,1.341339,-1.143112,0.000000,1.002945,0.120300,0.000000,-0.031000,0.220000,-0.086000,3.020000,-30.400000,0.020000,-30.093848,Hold,0.945801,45.000000,Hold,-77933.000000,77824.000000,LowGoal,3285.000000,-3272.727273,Speed,3262.500000,-3272.727273,Speed,Off,Off,0.000000,FALSE,43,Read: /home/lvuser/scripts/auto_43.bee,File good!,SEARCH_FOR_GOAL,SEARCH_FOR_GOAL,0.000000,0.000000
04:11:16.156 PM 04/09/2016,Autonomous Enabled,11,FALSE,0,NO ERROR,0.000000,-24.922275,-0.000000,-9.297728,TRUE,FALSE,TRUE,TRUE,FALSE,TRUE,Enable,0.112500,27.114888,-27.124888,TRUE,1.392593,-1.137070,0.000000,1.042770,0.107193,0.000000,-0.031000,0.220000,-0.086000,2.960000,-30.370000,0.040000,-30.092443,Hold,0.945801,45.000000,Hold,-77933.000000,77824.000000,LowGoal,3285.000000,-3272.727273,Speed,3270.000000,-3272.727273,Speed,Off,Off,0.000000,FALSE,43,Read: /home/lvuser/scripts/auto_43.bee,File good!,SEARCH_FOR_GOAL,SEARCH_FOR_GOAL,0.000000,0.000000
04:11:16.257 PM 04/09/2016,Autonomous Enabled,10,FALSE,0,NO ERROR,-0.225956,-24.883775,-0.225956,-9.400395,TRUE,FALSE,TRUE,TRUE,FALSE,TRUE,PID,0.112500,-6.027832,-24.332168,TRUE,1.444199,-1.130600,0.000000,1.015671,0.145309,0.000000,0.158000,0.298000,-0.143000,2.940000,-30.370000,0.030000,-30.092564,Hold,0.945801,45.000000,Hold,-77933.000000,77824.000000,LowGoal,3292.500000,-3272.727273,Speed,3270.000000,-3272.727273,Speed,Off,Off,0.000000,FALSE,43,Read: /home/lvuser/scripts/auto_43.bee,File good!,SEARCH_FOR_GOAL,SEARCH_FOR_GOAL,0.000000,0.000000
04:11:16.358 PM 04/09/2016,Autonomous Enabled,10,FALSE,0,NO ERROR,-0.210197,-24.120194,-0.210197,-9.977893,FALSE,FALSE,TRUE,TRUE,FALSE,TRUE,PID,0.112500,-6.027832,-24.332168,TRUE,1.496597,-1.120209,0.000000,1.019867,0.235977,0.000000,-0.138000,-0.143000,0.107000,3.330000,-28.430000,0.230000,-28.770673,Hold,0.945801,45.000000,Hold,-77933.000000,77824.000000,LowGoal,3285.000000,-3272.727273,Speed,3262.500000,-3272.727273,Speed,Off,Off,0.000000,FALSE,43,Read: /home/lvuser/scripts/auto_43.bee,File good!,SEARCH_FOR_GOAL,SEARCH_FOR_GOAL,0.000000,0.000000
04:11:16.459 PM 04/09/2016,Autonomous Enabled,9,FALSE,0,NO ERROR,-0.178272,-23.407945,-0.178272,-10.619559,FALSE,FALSE,TRUE,TRUE,FALSE,TRUE,PID,0.112500,-6.027832,-24.332168,TRUE,1.545990,-1.108673,0.000000,0.975952,0.206680,0.000000,-0.030000,-0.007000,-0.047000,3.210000,-25.590000,0.160000,-25.450274,Hold,0.945801,45.000000,Hold,-77933.000000,77824.000000,LowGoal,3277.500000,-3272.727273,Speed,3262.500000,-3272.727273,Speed,Off,Off,0.000000,FALSE,43,Read: /home/lvuser/scripts/auto_43.bee,File good!,SEARCH_FOR_GOAL,SEARCH_FOR_GOAL,0.000000,0.000000
04:11:16.559 PM 04/09/2016,Autonomous Enabled,10,FALSE,0,NO ERROR,0.000000,-22.868947,-0.000000,-10.998141,FALSE,FALSE,TRUE,TRUE,FALSE,TRUE,Suspended,0.112500,-6.027832,-24.332168,TRUE,1.593826,-1.100922,0.000000,0.946442,0.118439,0.000000,-0.037000,-0.144000,0.190000,3.030000,-23.580000,0.070000,-23.494433,Hold,0.945801,45.000000,Hold,-77933.000000,77824.000000,LowGoal,3277.500000,-3272.727273,Speed,3262.500000,-3272.727273,Speed,Off,Off,0.000000,FALSE,43,Read: /home/lvuser/scripts/auto_43.bee,File good!,SEARCH_FOR_GOAL,SEARCH_FOR_GOAL,0.000000,0.000000
04:11:16.660 PM 04/09/2016,Autonomous Enabled,11,FALSE,0,NO ERROR,0.000000,-22.894613,-0.000000,-10.876225,FALSE,FALSE,TRUE,TRUE,FALSE,TRUE,Suspended,0.112500,-6.027832,-24.332168,TRUE,1.639450,-1.097748,0.000000,0.889908,0.055786,0.000000,0.048000,0.211000,-0.237000,3.030000,-23.580000,0.070000,-23.507911,Hold,0.945801,45.000000,Hold,-77933.000000,77824.000000,LowGoal,3277.500000,-3272.727273,Speed,3255.000000,-3272.727273,Speed,Off,Off,0.000000,FALSE,43,Read: /home/lvuser/scripts/auto_43.bee,File good!,SEARCH_FOR_GOAL,SEARCH_FOR_GOAL,0.000000,0.000000
04:11:16.761 PM 04/09/2016,Autonomous Enabled,10,FALSE,0,NO ERROR,0.000000,-22.952363,-0.000000,-10.837725,TRUE,FALSE,TRUE,TRUE,FALSE,TRUE,Suspended,0.112500,-6.027832,-24.332168,TRUE,1.693619,-1.092514,0.000000,0.918137,0.068924,0.000000,-0.076000,-0.131000,0.178000,2.970000,-23.720000,-0.030000,-23.694284,Hold,0.945801,45.000000,Hold,-77933.000000,77824.000000,LowGoal,3285.000000,-3272.727273,Speed,3262.500000,-3272.727273,Speed,Off,Off,0.000000,FALSE,43,Read: /home/lvuser/scripts/auto_43.bee,File good!,SEARCH_FOR_GOAL,SEARCH_FOR_GOAL,0.000000,0.000000
04:11:16.861 PM 04/09/2016,Autonomous Enabled,9,FALSE,0,NO ERROR,0.000000,-22.952363,-0.000000,-10.837725,TRUE,FALSE,TRUE,TRUE,FALSE,TRUE,Suspended,0.112500,-6.027832,-24.332168,TRUE,1.738892,-1.088257,0.000000,0.896088,0.100433,0.000000,-0.043000,0.043000,-0.033000,2.900000,-23.780000,-0.090000,-23.679959,Hold,0.945801,45.000000,Hold,-77933.000000,77824.000000,LowGoal,3285.000000,-3272.727273,Speed,3270.000000,-3272.727273,Speed,Off,Off,0.000000,FALSE,43,Read: /home/lvuser/scripts/auto_43.bee,File good!,SEARCH_FOR_GOAL,SEARCH_FOR_GOAL,0.000000,0.000000
04:11:16.962 PM 04/09/2016,Autonomous Enabled,10,FALSE,0,NO ERROR,0.000000,-22.952363,-0.000000,-10.837725,TRUE,FALSE,TRUE,TRUE,FALSE,TRUE,Suspended,0.112500,-6.027832,-24.332168,TRUE,1.738892,-1.088257,0.000000,0.896088,0.100433,0.000000,-0.043000,0.043000,-0.033000,2.920000,-23.790000,-0.080000,-23.666933,Hold,0.945801,45.000000,Hold,-77933.000000,77824.000000,LowGoal,3285.000000,-3272.727273,Speed,3270.000000,-3272.727273,Speed,Off,Off,0.000000,FALSE,43,Read: /home/lvuser/scripts/auto_43.bee,File good!,SEARCH_FOR_GOAL,SEARCH_FOR_GOAL,0.000000,0.000000
04:11:17.063 PM 04/09/2016,Autonomous Enabled,11,FALSE,0,NO ERROR,0.000000,-22.952363,-0.000000,-10.837725,TRUE,FALSE,TRUE,TRUE,FALSE,TRUE,Suspended,0.112500,-6.027832,-24.332168,TRUE,1.833206,-1.082581,0.000000,1.018524,0.016113,0.000000,0.162000,0.000000,0.069000,2.950000,-23.780000,-0.040000,-23.666888,Hold,0.945801,45.000000,Hold,-77933.000000,77824.000000,LowGoal,3292.500000,-3272.727273,Speed,3262.500000,-3272.727273,Speed,Off,Off,0.000000,FALSE,43,Read: /home/lvuser/scripts/auto_43.bee,File good!,SEARCH_FOR_GOAL,SEARCH_FOR_GOAL,0.000000,0.000000
04:11:17.163 PM 04/09/2016,Autonomous Enabled,10,FALSE,0,NO ERROR,0.000000,-22.952363,-0.000000,-10.837725,TRUE,FALSE,TRUE,TRUE,FALSE,TRUE,Enable,-0.056250,-6.027832,-24.332168,TRUE,1.886826,-1.080551,0.000000,1.117798,0.037903,0.000000,-0.013000,0.087000,-0.038000,2.880000,-23.780000,-0.080000,-23.668138,Hold,0.945801,45.000000,Hold,-77933.000000,77824.000000,LowGoal,3292.500000,-3272.727273,Speed,3270.000000,-3272.727273,Speed,Off,Off,0.000000,FALSE,43,Read: /home/lvuser/scripts/auto_43.bee,File good!,SEARCH_FOR_GOAL,SEARCH_FOR_GOAL,0.000000,0.000000
04:11:17.265 PM 04/09/2016,Autonomous Enabled,10,FALSE,0,NO ERROR,0.000000,-22.952363,-0.000000,-10.837725,TRUE,FALSE,TRUE,TRUE,FALSE,TRUE,Suspended,-0.056250,0.963210,-24.733210,TRUE,1.946045,-1.078796,0.000000,1.212616,0.043045,0.000000,0.180000,-0.105000,0.145000,2.910000,-23.770000,-0.060000,-23.660275,Hold,0.945801,45.000000,Hold,-77933.000000,77824.000000,LowGoal,3285.000000,-3272.727273,Speed,3270.000000,-3272.727273,Speed,Off,Off,0.000000,FALSE,43,Read: /home/lvuser/scripts/auto_43.bee,File good!,SEARCH_FOR_GOAL,SEARCH_FOR_GOAL,0.000000,0.000000
04:11:17.365 PM 04/09/2016,Autonomous Enabled,11,FALSE,0,NO ERROR,0.000000,-22.952363,-0.000000,-10.837725,TRUE,FALSE,TRUE,TRUE,FALSE,TRUE,Suspended,-0.056250,0.963210,-24.733210,TRUE,2.009064,-1.077194,0.000000,1.287476,0.028961,0.000000,-0.023000,0.088000,-0.195000,2.860000,-23.770000,-0.050000,-23.668196,Hold,0.945801,45.000000,Hold,-77933.000000,77824.000000,Shoot,3292.500000,-3272.727273,Speed,3270.000000,-3272.727273,Speed,Off,On,0.000000,FALSE,43,Read: /home/lvuser/scripts/auto_43.bee,File good!,SEARCH_FOR_GOAL,SEARCH_FOR_GOAL,0.000000,0.000000
