Time,Robot Mode,Loop Time,Error Status,Error Code,Error Source,Left Motor Output,Left Motor Encoder,Right Motor Output,Right Motor Encoder,Is Level,Is Stalled,Ball Detector Photoeye,Vision Enabled,Vision Teleop Control,Vision Auto Control,Vision Current State,Vision X Output,Vision NavX Error,Vision NavX Target,NavX Connection Status,NavX Displacement X,NavX Displacement Y,NavX Displacement Z,NavX Velocity X,NavX Velocity Y,NavX Velocity Z,NavX Acceleration X,NavX Acceleration Y,NavX Acceleration Z,NavX Pitch,NavX Yaw,NavX Roll,Gyro Angle,Roller Arm State,Roller Arm Actual,Roller Arm Desired,Shooter Arm State,Shooter Arm Actual,Shooter Arm Desired,Shooter State,Actual RPM Left,Desired RPM Left,Control Mode Left,Actual RPM Right,Desired RPM Right,Control Mode Right,Ball Shooter Cylinder,Ball Halo Cylinder,Scaler Motor Output,Scaler Solenoid Fire,Auto To Run,Auto Current File,Auto File Status,Auto Current Command,Auto Trimmed Command,Shooter Amps Left,Shooter Amps Right
04:18:23.085 PM 04/09/2016,Autonomous Disabled,12670,FALSE,0,NO ERROR,-0.000000,375.778371,-0.000000,284.905750,TRUE,FALSE,TRUE,FALSE,FALSE,FALSE,Disabled,0.000000,0.963210,-24.733210,TRUE,0.000000,0.000000,0.000000,0.000000,0.000000,0.000000,0.001000,0.000000,0.022000,2.500000,175.100000,0.130000,95.435546,Hold,0.951416,0.000000,Hold,-150.000000,2.000000,LowGoal,0.000000,-2181.818182,Speed,0.000000,-2181.818182,Speed,Off,Off,0.000000,FALSE,0,Read: /home/lvuser/scripts/auto_43.bee,File good!,DRIVE_STRAIGHT_NAVX_RAMPARTS 200 5000 10,DRIVE_STRAIGHT_NAVX_RAMPARTS,0.000000,0.000000
04:18:23.185 PM 04/09/2016,Teleop Disabled,11,FALSE,0,NO ERROR,-0.000000,0.000000,-0.000000,0.000000,TRUE,TRUE,TRUE,TRUE,FALSE,FALSE,Disabled,0.000000,0.963210,-24.733210,TRUE,16.237915,-62.301361,0.000000,0.000000,0.000000,0.000000,0.000000,0.000000,0.018000,2.500000,0.000000,0.070000,-0.006403,ResetBack,0.951416,-0.000049,ResetBack,-150.000000,-0.250000,Empty,0.000000,0.000000,Speed,0.000000,0.000000,Speed,Off,On,0.000000,FALSE,0,Read: /home/lvuser/scripts/auto_43.bee,File good!,DRIVE_STRAIGHT_NAVX_RAMPARTS 200 5000 10,DRIVE_STRAIGHT_NAVX_RAMPARTS,0.000000,0.000000
04:18:23.286 PM 04/09/2016,Teleop Disabled,9,FALSE,0,NO ERROR,-0.000000,0.000000,-0.000000,0.000000,TRUE,FALSE,TRUE,TRUE,FALSE,FALSE,Disabled,0.000000,0.963210,-24.733210,TRUE,16.237915,-62.301361,0.000000,0.000000,0.000000,0.000000,0.000000,0.001000,0.021000,2.490000,-0.010000,0.070000,-0.012490,ResetBack,0.951416,-0.000049,ResetBack,-150.000000,-0.250000,Empty,0.000000,0.000000,Speed,0.000000,0.000000,Speed,Off,On,0.000000,FALSE,0,Read: /home/lvuser/scripts/auto_43.bee,File good!,DRIVE_STRAIGHT_NAVX_RAMPARTS 200 5000 10,DRIVE_STRAIGHT_NAVX_RAMPARTS,0.000000,0.000000
04:18:23.387 PM 04/09/2016,Teleop Disabled,10,FALSE,0,NO ERROR,-0.000000,0.000000,-0.000000,0.000000,TRUE,FALSE,TRUE,TRUE,FALSE,FALSE,Disabled,0.000000,0.963210,-24.733210,TRUE,16.237915,-62.301361,0.000000,0.000000,0.000000,0.000000,0.000000,-0.001000,0.018000,2.480000,-0.020000,0.060000,-0.016473,ResetBack,0.951416,-0.000049,ResetBack,-150.000000,-0.250000,Empty,0.000000,0.000000,Speed,0.000000,0.000000,Speed,Off,On,0.000000,FALSE,0,Read: /home/lvuser/scripts/auto_43.bee,File good!,DRIVE_STRAIGHT_NAVX_RAMPARTS 200 5000 10,DRIVE_STRAIGHT_NAVX_RAMPARTS,0.000000,0.000000
04:18:23.488 PM 04/09/2016,Teleop Disabled,10,FALSE,0,NO ERROR,-0.000000,0.000000,-0.000000,0.000000,TRUE,FALSE,TRUE,TRUE,FALSE,FALSE,Disabled,0.000000,0.963210,-24.733210,TRUE,16.237915,-62.301361,0.000000,0.000000,0.000000,0.000000,-0.001000,0.000000,0.021000,2.480000,-0.030000,0.070000,-0.031754,ResetBack,0.951416,-0.000049,ResetBack,-150.000000,-0.250000,Empty,0.000000,0.000000,Speed,0.000000,0.000000,Speed,Off,On,0.000000,FALSE,0,Read: /home/lvuser/scripts/auto_43.bee,File good!,DRIVE_STRAIGHT_NAVX_RAMPARTS 200 5000 10,DRIVE_STRAIGHT_NAVX_RAMPARTS,0.000000,0.000000
04:18:23.589 PM 04/09/2016,Teleop Disabled,10,FALSE,0,NO ERROR,-0.000000,0.000000,-0.000000,0.000000,TRUE,FALSE,TRUE,TRUE,FALSE,FALSE,Disabled,0.000000,0.963210,-24.733210,TRUE,16.237915,-62.301361,0.000000,0.000000,0.000000,0.000000,0.000000,0.003000,0.024000,2.480000,-0.030000,0.070000,-0.043617,ResetBack,0.951416,-0.000049,ResetBack,-150.000000,-0.250000,Empty,0.000000,0.000000,Speed,0.000000,0.000000,Speed,Off,On,0.000000,FALSE,0,Read: /home/lvuser/scripts/auto_43.bee,File good!,DRIVE_STRAIGHT_NAVX_RAMPARTS 200 5000 10,DRIVE_STRAIGHT_NAVX_RAMPARTS,0.000000,0.000000
04:18:23.693 PM 04/09/2016,Teleop Disabled,9,FALSE,0,NO ERROR,-0.000000,0.000000,-0.000000,0.000000,TRUE,FALSE,TRUE,TRUE,FALSE,FALSE,Disabled,0.000000,0.963210,-24.733210,TRUE,16.237915,-62.301361,0.000000,0.000000,0.000000,0.000000,0.001000,0.000000,0.022000,2.480000,-0.050000,0.070000,-0.052960,ResetBack,0.951416,-0.000049,ResetBack,-150.000000,-0.250000,Empty,0.000000,0.000000,Speed,0.000000,0.000000,Speed,Off,On,0.000000,FALSE,0,Read: /home/lvuser/scripts/auto_43.bee,File good!,DRIVE_STRAIGHT_NAVX_RAMPARTS 200 5000 10,DRIVE_STRAIGHT_NAVX_RAMPARTS,0.000000,0.000000
04:18:23.794 PM 04/09/2016,Teleop Disabled,11,FALSE,0,NO ERROR,-0.000000,0.000000,-0.000000,0.000000,TRUE,FALSE,TRUE,TRUE,FALSE,FALSE,Disabled,0.000000,0.963210,-24.733210,TRUE,16.237915,-62.301361,0.000000,0.000000,0.000000,0.000000,0.000000,-0.001000,0.023000,2.480000,-0.060000,0.070000,-0.059322,ResetBack,0.951416,-0.000049,ResetBack,-150.000000,-0.250000,Empty,0.000000,0.000000,Speed,0.000000,0.000000,Speed,Off,On,0.000000,FALSE,0,Read: /home/lvuser/scripts/auto_43.bee,File good!,DRIVE_STRAIGHT_NAVX_RAMPARTS 200 5000 10,DRIVE_STRAIGHT_NAVX_RAMPARTS,0.000000,0.000000
04:18:23.895 PM 04/09/2016,Teleop Disabled,9,FALSE,0,NO ERROR,-0.000000,0.000000,-0.000000,0.000000,TRUE,FALSE,TRUE,TRUE,FALSE,FALSE,Disabled,0.000000,0.963210,-24.733210,TRUE,16.237915,-62.301361,0.000000,0.000000,0.000000,0.000000,-0.001000,0.000000,0.020000,2.470000,-0.070000,0.070000,-0.063622,ResetBack,0.951416,-0.000049,ResetBack,-150.000000,-0.250000,Empty,0.000000,0.000000,Speed,0.000000,0.000000,Speed,Off,On,0.000000,FALSE,0,Read: /home/lvuser/scripts/auto_43.bee,File good!,DRIVE_STRAIGHT_NAVX_RAMPARTS 200 5000 10,DRIVE_STRAIGHT_NAVX_RAMPARTS,0.000000,0.000000
04:18:23.994 PM 04/09/2016,Teleop Disabled,11,FALSE,0,NO ERROR,-0.000000,0.000000,-0.000000,0.000000,TRUE,FALSE,TRUE,TRUE,FALSE,FALSE,Disabled,0.000000,0.963210,-24.733210,TRUE,16.237915,-62.301361,0.000000,0.000000,0.000000,0.000000,0.002000,0.001000,0.023000,2.480000,-0.080000,0.070000,-0.070053,ResetBack,0.951416,-0.000049,ResetBack,-150.000000,-0.250000,Empty,0.000000,0.000000,Speed,0.000000,0.000000,Speed,Off,On,0.000000,FALSE,0,Read: /home/lvuser/scripts/auto_43.bee,File good!,DRIVE_STRAIGHT_NAVX_RAMPARTS 200 5000 10,DRIVE_STRAIGHT_NAVX_RAMPARTS,0.000000,0.000000
04:18:24.095 PM 04/09/2016,Teleop Disabled,12,FALSE,0,NO ERROR,-0.000000,0.000000,-0.000000,0.000000,TRUE,FALSE,TRUE,TRUE,FALSE,FALSE,Disabled,0.000000,0.963210,-24.733210,TRUE,16.237915,-62.301361,0.000000,0.000000,0.000000,0.000000,0.000000,0.001000,0.020000,2.470000,-0.080000,0.080000,-0.090133,ResetBack,0.951416,-0.000049,ResetBack,-150.000000,-0.250000,Empty,0.000000,0.000000,Speed,0.000000,0.000000,Speed,Off,On,0.000000,FALSE,0,Read: /home/lvuser/scripts/auto_43.bee,File good!,DRIVE_STRAIGHT_NAVX_RAMPARTS 200 5000 10,DRIVE_STRAIGHT_NAVX_RAMPARTS,0.000000,0.000000
04:18:24.195 PM 04/09/2016,Teleop Disabled,11,FALSE,0,NO ERROR,-0.000000,0.000000,-0.000000,0.000000,TRUE,FALSE,TRUE,TRUE,FALSE,FALSE,Disabled,0.000000,0.963210,-24.733210,TRUE,16.237915,-62.301361,0.000000,0.000000,0.000000,0.000000,0.001000,-0.003000,0.023000,2.480000,-0.090000,0.080000,-0.105201,ResetBack,0.951416,-0.000049,ResetBack,-150.000000,-0.250000,Empty,0.000000,0.000000,Speed,0.000000,0.000000,Speed,Off,On,0.000000,FALSE,0,Read: /home/lvuser/scripts/auto_43.bee,File good!,DRIVE_STRAIGHT_NAVX_RAMPARTS 200 5000 10,DRIVE_STRAIGHT_NAVX_RAMPARTS,0.000000,0.000000
04:18:24.295 PM 04/09/2016,Teleop Disabled,11,FALSE,0,NO ERROR,-0.000000,0.000000,-0.000000,0.000000,TRUE,FALSE,TRUE,TRUE,FALSE,FALSE,Disabled,0.000000,0.963210,-24.733210,TRUE,16.237915,-62.301361,0.000000,0.000000,0.000000,0.000000,0.000000,0.000000,0.021000,2.480000,-0.100000,0.080000,-0.112176,ResetBack,0.951416,-0.000049,ResetBack,-150.000000,-0.250000,Empty,0.000000,0.000000,Speed,0.000000,0.000000,Speed,Off,On,0.000000,FALSE,0,Read: /home/lvuser/scripts/auto_43.bee,File good!,DRIVE_STRAIGHT_NAVX_RAMPARTS 200 5000 10,DRIVE_STRAIGHT_NAVX_RAMPARTS,0.000000,0.000000
04:18:24.395 PM 04/09/2016,Teleop Disabled,10,FALSE,0,NO ERROR,-0.000000,0.000000,-0.000000,0.000000,TRUE,FALSE,TRUE,TRUE,FALSE,FALSE,Disabled,0.000000,0.963210,-24.733210,TRUE,16.237915,-62.301361,0.000000,0.000000,0.000000,0.000000,0.000000,0.002000,0.020000,2.480000,-0.110000,0.070000,-0.121068,ResetBack,0.951416,-0.000049,ResetBack,-150.000000,-0.250000,Suck,0.000000,1818.181818,Speed,0.000000,1818.181818,Speed,Off,On,0.000000,FALSE,0,Read: /home/lvuser/scripts/auto_43.bee,File good!,DRIVE_STRAIGHT_NAVX_RAMPARTS 200 5000 10,DRIVE_STRAIGHT_NAVX_RAMPARTS,0.000000,0.000000
04:18:24.496 PM 04/09/2016,Teleop Disabled,10,FALSE,0,NO ERROR,-0.000000,0.000000,-0.000000,0.000000,TRUE,FALSE,TRUE,TRUE,FALSE,FALSE,Disabled,0.000000,0.963210,-24.733210,TRUE,16.237915,-62.301361,0.000000,0.000000,0.000000,0.000000,0.000000,0.000000,0.019000,2.480000,-0.110000,0.070000,-0.111460,ResetBack,0.951416,-0.000049,ResetBack,-150.000000,-0.250000,Hold,0.000000,0.000000,Speed,0.000000,0.000000,Speed,Off,Off,0.000000,FALSE,0,Read: /home/lvuser/scripts/auto_43.bee,File good!,DRIVE_STRAIGHT_NAVX_RAMPARTS 200 5000 10,DRIVE_STRAIGHT_NAVX_RAMPARTS,0.000000,0.000000
04:18:24.597 PM 04/09/2016,Teleop Disabled,9,FALSE,0,NO ERROR,-0.000000,0.000000,-0.000000,0.000000,TRUE,FALSE,TRUE,TRUE,FALSE,FALSE,Disabled,0.000000,0.963210,-24.733210,TRUE,16.237915,-62.301361,0.000000,0.000000,0.000000,0.000000,0.001000,0.000000,0.025000,2.480000,-0.120000,0.070000,-0.118500,ResetBack,0.951416,-0.000049,ResetBack,-150.000000,-0.250000,Hold,0.000000,0.000000,Speed,0.000000,0.000000,Speed,Off,Off,0.000000,FALSE,0,Read: /home/lvuser/scripts/auto_43.bee,File good!,DRIVE_STRAIGHT_NAVX_RAMPARTS 200 5000 10,DRIVE_STRAIGHT_NAVX_RAMPARTS,0.000000,0.000000
04:18:24.699 PM 04/09/2016,Teleop Disabled,11,FALSE,0,NO ERROR,-0.000000,0.000000,-0.000000,0.000000,TRUE,FALSE,TRUE,TRUE,FALSE,FALSE,Disabled,0.000000,0.963210,-24.733210,TRUE,16.237915,-62.301361,0.000000,0.000000,0.000000,0.000000,0.000000,0.001000,0.017000,2.490000,-0.120000,0.080000,-0.099063,ResetBack,0.951416,-0.000049,ResetBack,-150.000000,-0.250000,Hold,0.000000,0.000000,Speed,0.000000,0.000000,Speed,Off,Off,0.000000,FALSE,0,Read: /home/lvuser/scripts/auto_43.bee,File good!,DRIVE_STRAIGHT_NAVX_RAMPARTS 200 5000 10,DRIVE_STRAIGHT_NAVX_RAMPARTS,0.000000,0.000000
04:18:24.801 PM 04/09/2016,Teleop Disabled,10,FALSE,0,NO ERROR,-0.000000,0.000000,-0.000000,0.000000,TRUE,FALSE,TRUE,TRUE,FALSE,FALSE,Disabled,0.000000,0.963210,-24.733210,TRUE,16.237915,-62.301361,0.000000,0.000000,0.000000,0.000000,-0.001000,0.001000,0.021000,2.490000,-0.120000,0.080000,-0.097738,ResetBack,0.951416,-0.000049,ResetBack,-150.000000,-0.250000,Hold,0.000000,0.000000,Speed,0.000000,0.000000,Speed,Off,Off,0.000000,FALSE,0,Read: /home/lvuser/scripts/auto_43.bee,File good!,DRIVE_STRAIGHT_NAVX_RAMPARTS 200 5000 10,DRIVE_STRAIGHT_NAVX_RAMPARTS,0.000000,0.000000
04:18:24.901 PM 04/09/2016,Teleop Disabled,11,FALSE,0,NO ERROR,-0.000000,0.000000,-0.000000,0.000000,TRUE,FALSE,TRUE,TRUE,FALSE,FALSE,Disabled,0.000000,0.963210,-24.733210,TRUE,16.237915,-62.301361,0.000000,0.000000,0.000000,0.000000,0.001000,0.000000,0.018000,2.490000,-0.120000,0.080000,-0.107236,ResetBack,0.951416,-0.000049,ResetBack,-150.000000,-0.250000,Hold,0.000000,0.000000,Speed,0.000000,0.000000,Speed,Off,Off,0.000000,FALSE,0,Read: /home/lvuser/scripts/auto_43.bee,File good!,DRIVE_STRAIGHT_NAVX_RAMPARTS 200 5000 10,DRIVE_STRAIGHT_NAVX_RAMPARTS,0.000000,0.000000
04:18:25.001 PM 04/09/2016,Teleop Disabled,10,FALSE,0,NO ERROR,-0.000000,0.000000,-0.000000,0.000000,TRUE,FALSE,TRUE,TRUE,FALSE,FALSE,Disabled,0.000000,0.963210,-24.733210,TRUE,16.237915,-62.301361,0.000000,0.000000,0.000000,0.000000,0.000000,0.000000,0.016000,2.500000,-0.130000,0.090000,-0.109983,ResetBack,0.951416,-0.000049,ResetBack,-150.000000,-0.250000,Hold,0.000000,0.000000,Speed,0.000000,0.000000,Speed,Off,Off,0.000000,FALSE,0,Read: /home/lvuser/scripts/auto_43.bee,File good!,DRIVE_STRAIGHT_NAVX_RAMPARTS 200 5000 10,DRIVE_STRAIGHT_NAVX_RAMPARTS,0.000000,0.000000
04:18:25.102 PM 04/09/2016,Teleop Disabled,9,FALSE,0,NO ERROR,-0.000000,0.000000,-0.000000,0.000000,TRUE,FALSE,TRUE,TRUE,FALSE,FALSE,Disabled,0.000000,0.963210,-24.733210,TRUE,16.237915,-62.301361,0.000000,0.000000,0.000000,0.000000,0.000000,-0.002000,0.021000,2.500000,-0.130000,0.090000,-0.109019,ResetBack,0.951416,-0.000049,ResetBack,-150.000000,-0.250000,Hold,0.000000,0.000000,Speed,0.000000,0.000000,Speed,Off,Off,0.000000,FALSE,0,Read: /home/lvuser/scripts/auto_43.bee,File good!,DRIVE_STRAIGHT_NAVX_RAMPARTS 200 5000 10,DRIVE_STRAIGHT_NAVX_RAMPARTS,0.000000,0.000000
04:18:25.202 PM 04/09/2016,Teleop Disabled,9,FALSE,0,NO ERROR,-0.000000,0.000000,-0.000000,0.000000,TRUE,FALSE,TRUE,TRUE,FALSE,FALSE,Disabled,0.000000,0.963210,-24.733210,TRUE,16.237915,-62.301361,0.000000,0.000000,0.000000,0.000000,0.000000,0.000000,0.016000,2.500000,-0.130000,0.090000,-0.107835,ResetBack,0.951416,-0.000049,ResetBack,-150.000000,-0.250000,Hold,0.000000,0.000000,Speed,0.000000,0.000000,Speed,Off,Off,0.000000,FALSE,0,Read: /home/lvuser/scripts/auto_43.bee,File good!,DRIVE_STRAIGHT_NAVX_RAMPARTS 200 5000 10,DRIVE_STRAIGHT_NAVX_RAMPARTS,0.000000,0.000000
04:18:25.303 PM 04/09/2016,Teleop Disabled,11,FALSE,0,NO ERROR,-0.000000,0.000000,-0.000000,0.000000,TRUE,FALSE,TRUE,TRUE,FALSE,FALSE,Disabled,0.000000,0.963210,-24.733210,TRUE,16.237915,-62.301361,0.000000,0.000000,0.000000,0.000000,0.001000,0.000000,0.020000,2.500000,-0.130000,0.090000,-0.117591,ResetBack,0.951416,-0.000049,ResetBack,-150.000000,-0.250000,Hold,0.000000,0.000000,Speed,0.000000,0.000000,Speed,Off,Off,0.000000,FALSE,0,Read: /home/lvuser/scripts/auto_43.bee,File good!,DRIVE_STRAIGHT_NAVX_RAMPARTS 200 5000 10,DRIVE_STRAIGHT_NAVX_RAMPARTS,0.000000,0.000000
04:18:25.404 PM 04/09/2016,Teleop Disabled,11,FALSE,0,NO ERROR,-0.000000,0.000000,-0.000000,0.000000,TRUE,FALSE,TRUE,TRUE,FALSE,FALSE,Disabled,0.000000,0.963210,-24.733210,TRUE,16.237915,-62.301361,0.000000,0.000000,0.000000,0.000000,-0.001000,0.001000,0.019000,2.510000,-0.130000,0.090000,-0.116503,ResetBack,0.951416,-0.000049,ResetBack,-150.000000,-0.250000,Hold,0.000000,0.000000,Speed,0.000000,0.000000,Speed,Off,Off,0.000000,FALSE,0,Read: /home/lvuser/scripts/auto_43.bee,File good!,DRIVE_STRAIGHT_NAVX_RAMPARTS 200 5000 10,DRIVE_STRAIGHT_NAVX_RAMPARTS,0.000000,0.000000
04:18:25.505 PM 04/09/2016,Teleop Disabled,10,FALSE,0,NO ERROR,-0.000000,0.000000,-0.000000,0.000000,TRUE,FALSE,TRUE,TRUE,FALSE,FALSE,Disabled,0.000000,0.963210,-24.733210,TRUE,16.237915,-62.301361,0.000000,0.000000,0.000000,0.000000,0.000000,0.000000,0.021000,2.510000,-0.130000,0.090000,-0.118393,ResetBack,0.951416,-0.000049,ResetBack,-150.000000,-0.250000,Hold,0.000000,0.000000,Speed,0.000000,0.000000,Speed,Off,Off,0.000000,FALSE,0,Read: /home/lvuser/scripts/auto_43.bee,File good!,DRIVE_STRAIGHT_NAVX_RAMPARTS 200 5000 10,DRIVE_STRAIGHT_NAVX_RAMPARTS,0.000000,0.000000
04:18:25.604 PM 04/09/2016,Teleop Disabled,11,FALSE,0,NO ERROR,-0.000000,0.000000,-0.000000,0.000000,TRUE,FALSE,TRUE,TRUE,FALSE,FALSE,Disabled,0.000000,0.963210,-24.733210,TRUE,16.237915,-62.301361,0.000000,0.000000,0.000000,0.000000,0.002000,0.002000,0.021000,2.510000,-0.130000,0.100000,-0.115322,ResetBack,0.951416,-0.000049,ResetBack,-150.000000,-0.250000,Hold,0.000000,0.000000,Speed,0.000000,0.000000,Speed,Off,Off,0.000000,FALSE,0,Read: /home/lvuser/scripts/auto_43.bee,File good!,DRIVE_STRAIGHT_NAVX_RAMPARTS 200 5000 10,DRIVE_STRAIGHT_NAVX_RAMPARTS,0.000000,0.000000
04:18:25.706 PM 04/09/2016,Teleop Disabled,12,FALSE,0,NO ERROR,-0.000000,0.000000,-0.000000,0.000000,TRUE,FALSE,TRUE,TRUE,FALSE,FALSE,Disabled,0.000000,0.963210,-24.733210,TRUE,16.237915,-62.301361,0.000000,0.000000,0.000000,0.000000,0.000000,0.000000,0.020000,2.510000,-0.130000,0.100000,-0.099996,ResetBack,0.951416,-0.000049,ResetBack,-150.000000,-0.250000,LowGoal,0.000000,-2181.818182,Speed,0.000000,-2181.818182,Speed,Off,Off,0.000000,FALSE,0,Read: /home/lvuser/scripts/auto_43.bee,File good!,DRIVE_STRAIGHT_NAVX_RAMPARTS 200 5000 10,DRIVE_STRAIGHT_NAVX_RAMPARTS,0.000000,0.000000
04:18:25.805 PM 04/09/2016,Teleop Disabled,11,FALSE,0,NO ERROR,-0.000000,0.000000,-0.000000,0.000000,TRUE,FALSE,TRUE,TRUE,FALSE,FALSE,Disabled,0.000000,0.963210,-24.733210,TRUE,16.237915,-62.301361,0.000000,0.000000,0.000000,0.000000,-0.002000,-0.001000,0.020000,2.520000,-0.140000,0.100000,-0.091627,ResetBack,0.951416,-0.000049,ResetBack,-150.000000,-0.250000,LowGoal,0.000000,-2181.818182,Speed,0.000000,-2181.818182,Speed,Off,Off,0.000000,FALSE,0,Read: /home/lvuser/scripts/auto_43.bee,File good!,DRIVE_STRAIGHT_NAVX_RAMPARTS 200 5000 10,DRIVE_STRAIGHT_NAVX_RAMPARTS,0.000000,0.000000
04:18:25.904 PM 04/09/2016,Teleop Disabled,11,FALSE,0,NO ERROR,-0.000000,0.000000,-0.000000,0.000000,TRUE,FALSE,TRUE,TRUE,FALSE,FALSE,Disabled,0.000000,0.963210,-24.733210,TRUE,16.237915,-62.301361,0.000000,0.000000,0.000000,0.000000,0.000000,0.001000,0.019000,2.510000,-0.140000,0.100000,-0.094185,ResetBack,0.951416,-0.000049,ResetBack,-150.000000,-0.250000,LowGoal,0.000000,-2181.818182,Speed,0.000000,-2181.818182,Speed,Off,Off,0.000000,FALSE,0,Read: /home/lvuser/scripts/auto_43.bee,File good!,DRIVE_STRAIGHT_NAVX_RAMPARTS 200 5000 10,DRIVE_STRAIGHT_NAVX_RAMPARTS,0.000000,0.000000
04:18:26.005 PM 04/09/2016,Teleop Disabled,11,FALSE,0,NO ERROR,-0.000000,0.000000,-0.000000,0.000000,TRUE,FALSE,TRUE,TRUE,FALSE,FALSE,Disabled,0.000000,0.963210,-24.733210,TRUE,16.237915,-62.301361,0.000000,0.000000,0.000000,0.000000,0.002000,-0.001000,0.021000,2.520000,-0.140000,0.100000,-0.098175,ResetBack,0.951416,-0.000049,ResetBack,-150.000000,-0.250000,LowGoal,0.000000,-2181.818182,Speed,0.000000,-2181.818182,Speed,Off,Off,0.000000,FALSE,0,Read: /home/lvuser/scripts/auto_43.bee,File good!,DRIVE_STRAIGHT_NAVX_RAMPARTS 200 5000 10,DRIVE_STRAIGHT_NAVX_RAMPARTS,0.000000,0.000000
04:18:26.106 PM 04/09/2016,Teleop Disabled,11,FALSE,0,NO ERROR,-0.000000,0.000000,-0.000000,0.000000,TRUE,FALSE,TRUE,TRUE,FALSE,FALSE,Disabled,0.000000,0.963210,-24.733210,TRUE,16.237915,-62.301361,0.000000,0.000000,0.000000,0.000000,0.002000,-0.001000,0.021000,2.520000,-0.140000,0.100000,-0.111401,ResetBack,0.951416,-0.000049,ResetBack,-150.000000,-0.250000,LowGoal,0.000000,-2181.818182,Speed,0.000000,-2181.818182,Speed,Off,Off,0.000000,FALSE,0,Read: /home/lvuser/scripts/auto_43.bee,File good!,DRIVE_STRAIGHT_NAVX_RAMPARTS 200 5000 10,DRIVE_STRAIGHT_NAVX_RAMPARTS,0.000000,0.000000
04:18:26.206 PM 04/09/2016,Teleop Disabled,11,FALSE,0,NO ERROR,-0.000000,0.000000,-0.000000,0.000000,TRUE,FALSE,TRUE,TRUE,FALSE,FALSE,Disabled,0.000000,0.963210,-24.733210,TRUE,16.237915,-62.301361,0.000000,0.000000,0.000000,0.000000,0.003000,0.000000,0.019000,2.520000,-0.150000,0.110000,-0.104062,ResetBack,0.951416,-0.000049,ResetBack,-150.000000,-0.250000,LowGoal,0.000000,-2181.818182,Speed,0.000000,-2181.818182,Speed,Off,Off,0.000000,FALSE,0,Read: /home/lvuser/scripts/auto_43.bee,File good!,DRIVE_STRAIGHT_NAVX_RAMPARTS 200 5000 10,DRIVE_STRAIGHT_NAVX_RAMPARTS,0.000000,0.000000
04:18:26.306 PM 04/09/2016,Teleop Disabled,10,FALSE,0,NO ERROR,-0.000000,0.000000,-0.000000,0.000000,TRUE,FALSE,TRUE,TRUE,FALSE,FALSE,Disabled,0.000000,0.963210,-24.733210,TRUE,16.237915,-62.301361,0.000000,0.000000,0.000000,0.000000,0.000000,0.000000,0.022000,2.520000,-0.150000,0.110000,-0.122655,ResetBack,0.951416,-0.000049,ResetBack,-150.000000,-0.250000,LowGoal,0.000000,-2181.818182,Speed,0.000000,-2181.818182,Speed,Off,Off,0.000000,FALSE,0,Read: /home/lvuser/scripts/auto_43.bee,File good!,DRIVE_STRAIGHT_NAVX_RAMPARTS 200 5000 10,DRIVE_STRAIGHT_NAVX_RAMPARTS,0.000000,0.000000
04:18:26.406 PM 04/09/2016,Teleop Disabled,11,FALSE,0,NO ERROR,-0.000000,0.000000,-0.000000,0.000000,TRUE,FALSE,TRUE,TRUE,FALSE,FALSE,Disabled,0.000000,0.963210,-24.733210,TRUE,16.237915,-62.301361,0.000000,0.000000,0.000000,0.000000,0.000000,0.000000,0.022000,2.520000,-0.150000,0.110000,-0.113474,ResetBack,0.951416,-0.000049,ResetBack,-150.000000,-0.250000,LowGoal,0.000000,-2181.818182,Speed,0.000000,-2181.818182,Speed,Off,Off,0.000000,FALSE,0,Read: /home/lvuser/scripts/auto_43.bee,File good!,DRIVE_STRAIGHT_NAVX_RAMPARTS 200 5000 10,DRIVE_STRAIGHT_NAVX_RAMPARTS,0.000000,0.000000
04:18:26.506 PM 04/09/2016,Teleop Disabled,11,FALSE,0,NO ERROR,-0.000000,0.000000,-0.000000,0.000000,TRUE,FALSE,TRUE,TRUE,FALSE,FALSE,Disabled,0.000000,0.963210,-24.733210,TRUE,16.237915,-62.301361,0.000000,0.000000,0.000000,0.000000,0.001000,0.000000,0.018000,2.520000,-0.150000,0.110000,-0.120696,ResetBack,0.951416,-0.000049,ResetBack,-150.000000,-0.250000,LowGoal,0.000000,-2181.818182,Speed,0.000000,-2181.818182,Speed,Off,Off,0.000000,FALSE,0,Read: /home/lvuser/scripts/auto_43.bee,File good!,DRIVE_STRAIGHT_NAVX_RAMPARTS 200 5000 10,DRIVE_STRAIGHT_NAVX_RAMPARTS,0.000000,0.000000
04:18:26.607 PM 04/09/2016,Teleop Disabled,9,FALSE,0,NO ERROR,-0.000000,0.000000,-0.000000,0.000000,TRUE,FALSE,TRUE,TRUE,FALSE,FALSE,Disabled,0.000000,0.963210,-24.733210,TRUE,16.237915,-62.301361,0.000000,0.000000,0.000000,0.000000,0.000000,0.002000,0.021000,2.530000,-0.150000,0.100000,-0.121016,ResetBack,0.951416,-0.000049,ResetBack,-150.000000,-0.250000,LowGoal,0.000000,-2181.818182,Speed,0.000000,-2181.818182,Speed,Off,Off,0.000000,FALSE,0,Read: /home/lvuser/scripts/auto_43.bee,File good!,DRIVE_STRAIGHT_NAVX_RAMPARTS 200 5000 10,DRIVE_STRAIGHT_NAVX_RAMPARTS,0.000000,0.000000
04:18:26.708 PM 04/09/2016,Teleop Disabled,11,FALSE,0,NO ERROR,-0.000000,0.000000,-0.000000,0.000000,TRUE,FALSE,TRUE,TRUE,FALSE,FALSE,Disabled,0.000000,0.963210,-24.733210,TRUE,16.237915,-62.301361,0.000000,0.000000,0.000000,0.000000,0.000000,-0.003000,0.019000,2.530000,-0.150000,0.100000,-0.118985,ResetBack,0.951416,-0.000049,ResetBack,-150.000000,-0.250000,LowGoal,0.000000,-2181.818182,Speed,0.000000,-2181.818182,Speed,Off,Off,0.000000,FALSE,0,Read: /home/lvuser/scripts/auto_43.bee,File good!,DRIVE_STRAIGHT_NAVX_RAMPARTS 200 5000 10,DRIVE_STRAIGHT_NAVX_RAMPARTS,0.000000,0.000000
04:18:26.808 PM 04/09/2016,Teleop Disabled,10,FALSE,0,NO ERROR,-0.000000,0.000000,-0.000000,0.000000,TRUE,FALSE,TRUE,TRUE,FALSE,FALSE,Disabled,0.000000,0.963210,-24.733210,TRUE,16.237915,-62.301361,0.000000,0.000000,0.000000,0.000000,0.000000,0.000000,0.022000,2.530000,-0.150000,0.110000,-0.120514,ResetBack,0.951416,-0.000049,ResetBack,-150.000000,-0.250000,LowGoal,0.000000,-2181.818182,Speed,0.000000,-2181.818182,Speed,Off,Off,0.000000,FALSE,0,Read: /home/lvuser/scripts/auto_43.bee,File good!,DRIVE_STRAIGHT_NAVX_RAMPARTS 200 5000 10,DRIVE_STRAIGHT_NAVX_RAMPARTS,0.000000,0.000000
04:18:26.908 PM 04/09/2016,Teleop Disabled,10,FALSE,0,NO ERROR,-0.000000,0.000000,-0.000000,0.000000,TRUE,FALSE,TRUE,TRUE,FALSE,FALSE,Disabled,0.000000,0.963210,-24.733210,TRUE,16.237915,-62.301361,0.000000,0.000000,0.000000,0.000000,0.000000,-0.003000,0.021000,2.530000,-0.150000,0.110000,-0.124992,ResetBack,0.951416,-0.000049,ResetBack,-150.000000,-0.250000,LowGoal,0.000000,-2181.818182,Speed,0.000000,-2181.818182,Speed,Off,Off,0.000000,FALSE,0,Read: /home/lvuser/scripts/auto_43.bee,File good!,DRIVE_STRAIGHT_NAVX_RAMPARTS 200 5000 10,DRIVE_STRAIGHT_NAVX_RAMPARTS,0.000000,0.000000
04:18:27.008 PM 04/09/2016,Teleop Disabled,11,FALSE,0,NO ERROR,-0.000000,0.000000,-0.000000,0.000000,TRUE,FALSE,TRUE,TRUE,FALSE,FALSE,Disabled,0.000000,0.963210,-24.733210,TRUE,16.237915,-62.301361,0.000000,0.000000,0.000000,0.000000,-0.001000,0.000000,0.018000,2.530000,-0.160000,0.110000,-0.121619,ResetBack,0.951416,-0.000049,ResetBack,-150.000000,-0.250000,LowGoal,0.000000,-2181.818182,Speed,0.000000,-2181.818182,Speed,Off,Off,0.000000,FALSE,0,Read: /home/lvuser/scripts/auto_43.bee,File good!,DRIVE_STRAIGHT_NAVX_RAMPARTS 200 5000 10,DRIVE_STRAIGHT_NAVX_RAMPARTS,0.000000,0.000000
04:18:27.108 PM 04/09/2016,Teleop Disabled,11,FALSE,0,NO ERROR,-0.000000,0.000000,-0.000000,0.000000,TRUE,FALSE,TRUE,TRUE,FALSE,FALSE,Disabled,0.000000,0.963210,-24.733210,TRUE,16.237915,-62.301361,0.000000,0.000000,0.000000,0.000000,0.000000,0.000000,0.026000,2.530000,-0.160000,0.110000,-0.129533,ResetBack,0.951416,-0.000049,ResetBack,-150.000000,-0.250000,LowGoal,0.000000,-2181.818182,Speed,0.000000,-2181.818182,Speed,Off,Off,0.000000,FALSE,0,Read: /home/lvuser/scripts/auto_43.bee,File good!,DRIVE_STRAIGHT_NAVX_RAMPARTS 200 5000 10,DRIVE_STRAIGHT_NAVX_RAMPARTS,0.000000,0.000000
04:18:27.209 PM 04/09/2016,Teleop Disabled,9,FALSE,0,NO ERROR,-0.000000,0.000000,-0.000000,0.000000,TRUE,FALSE,TRUE,TRUE,FALSE,FALSE,Disabled,0.000000,0.963210,-24.733210,TRUE,16.237915,-62.301361,0.000000,0.000000,0.000000,0.000000,0.000000,0.001000,0.022000,2.530000,-0.160000,0.110000,-0.137014,ResetBack,0.951416,-0.000049,ResetBack,-150.000000,-0.250000,LowGoal,0.000000,-2181.818182,Speed,0.000000,-2181.818182,Speed,Off,Off,0.000000,FALSE,0,Read: /home/lvuser/scripts/auto_43.bee,File good!,DRIVE_STRAIGHT_NAVX_RAMPARTS 200 5000 10,DRIVE_STRAIGHT_NAVX_RAMPARTS,0.000000,0.000000
04:18:27.309 PM 04/09/2016,Teleop Disabled,11,FALSE,0,NO ERROR,-0.000000,0.000000,-0.000000,0.000000,TRUE,FALSE,TRUE,TRUE,FALSE,FALSE,Disabled,0.000000,0.963210,-24.733210,TRUE,16.237915,-62.301361,0.000000,0.000000,0.000000,0.000000,0.002000,0.000000,0.020000,2.530000,-0.160000,0.110000,-0.139183,ResetBack,0.951416,-0.000049,ResetBack,-150.000000,-0.250000,LowGoal,0.000000,-2181.818182,Speed,0.000000,-2181.818182,Speed,Off,Off,0.000000,FALSE,0,Read: /home/lvuser/scripts/auto_43.bee,File good!,DRIVE_STRAIGHT_NAVX_RAMPARTS 200 5000 10,DRIVE_STRAIGHT_NAVX_RAMPARTS,0.000000,0.000000
04:18:27.410 PM 04/09/2016,Teleop Disabled,9,FALSE,0,NO ERROR,-0.000000,0.000000,-0.000000,0.000000,TRUE,FALSE,TRUE,TRUE,FALSE,FALSE,Disabled,0.000000,0.963210,-24.733210,TRUE,16.237915,-62.301361,0.000000,0.000000,0.000000,0.000000,-0.002000,0.000000,0.022000,2.530000,-0.170000,0.110000,-0.143792,ResetBack,0.951416,-0.000049,ResetBack,-150.000000,-0.250000,LowGoal,0.000000,-2181.818182,Speed,0.000000,-2181.818182,Speed,Off,Off,0.000000,FALSE,0,Read: /home/lvuser/scripts/auto_43.bee,File good!,DRIVE_STRAIGHT_NAVX_RAMPARTS 200 5000 10,DRIVE_STRAIGHT_NAVX_RAMPARTS,0.000000,0.000000
04:18:27.510 PM 04/09/2016,Teleop Disabled,10,FALSE,0,NO ERROR,-0.000000,0.000000,-0.000000,0.000000,TRUE,FALSE,TRUE,TRUE,FALSE,FALSE,Disabled,0.000000,0.963210,-24.733210,TRUE,16.237915,-62.301361,0.000000,0.000000,0.000000,0.000000,0.000000,0.000000,0.021000,2.520000,-0.170000,0.110000,-0.146278,ResetBack,0.951416,-0.000049,ResetBack,-150.000000,-0.250000,LowGoal,0.000000,-2181.818182,Speed,0.000000,-2181.818182,Speed,Off,Off,0.000000,FALSE,0,Read: /home/lvuser/scripts/auto_43.bee,File good!,DRIVE_STRAIGHT_NAVX_RAMPARTS 200 5000 10,DRIVE_STRAIGHT_NAVX_RAMPARTS,0.000000,0.000000
04:18:27.610 PM 04/09/2016,Teleop Disabled,11,FALSE,0,NO ERROR,-0.000000,0.000000,-0.000000,0.000000,TRUE,FALSE,TRUE,TRUE,FALSE,FALSE,Disabled,0.000000,0.963210,-24.733210,TRUE,16.237915,-62.301361,0.000000,0.000000,0.000000,0.000000,0.000000,0.001000,0.017000,2.520000,-0.170000,0.110000,-0.160323,ResetBack,0.951416,-0.000049,ResetBack,-150.000000,-0.250000,LowGoal,0.000000,-2181.818182,Speed,0.000000,-2181.818182,Speed,Off,Off,0.000000,FALSE,0,Read: /home/lvuser/scripts/auto_43.bee,File good!,DRIVE_STRAIGHT_NAVX_RAMPARTS 200 5000 10,DRIVE_STRAIGHT_NAVX_RAMPARTS,0.000000,0.000000
04:18:27.710 PM 04/09/2016,Teleop Disabled,10,FALSE,0,NO ERROR,-0.000000,0.000000,-0.000000,0.000000,TRUE,FALSE,TRUE,TRUE,FALSE,FALSE,Disabled,0.000000,0.963210,-24.733210,TRUE,16.237915,-62.301361,0.000000,0.000000,0.000000,0.000000,0.000000,0.000000,0.020000,2.530000,-0.180000,0.110000,-0.176803,ResetBack,0.951416,-0.000049,ResetBack,-150.000000,-0.250000,LowGoal,0.000000,-2181.818182,Speed,0.000000,-2181.818182,Speed,Off,Off,0.000000,FALSE,0,Read: /home/lvuser/scripts/auto_43.bee,File good!,DRIVE_STRAIGHT_NAVX_RAMPARTS 200 5000 10,DRIVE_STRAIGHT_NAVX_RAMPARTS,0.000000,0.000000
04:18:27.810 PM 04/09/2016,Teleop Disabled,10,FALSE,0,NO ERROR,-0.000000,0.000000,-0.000000,0.000000,TRUE,FALSE,TRUE,TRUE,FALSE,FALSE,Disabled,0.000000,0.963210,-24.733210,TRUE,16.237915,-62.301361,0.000000,0.000000,0.000000,0.000000,0.000000,0.000000,0.019000,2.530000,-0.180000,0.110000,-0.176803,ResetBack,0.951416,-0.000049,ResetBack,-150.000000,-0.250000,LowGoal,0.000000,-2181.818182,Speed,0.000000,-2181.818182,Speed,Off,Off,0.000000,FALSE,0,Read: /home/lvuser/scripts/auto_43.bee,File good!,DRIVE_STRAIGHT_NAVX_RAMPARTS 200 5000 10,DRIVE_STRAIGHT_NAVX_RAMPARTS,0.000000,0.000000
04:18:27.909 PM 04/09/2016,Teleop Disabled,10,FALSE,0,NO ERROR,-0.000000,0.000000,-0.000000,0.000000,TRUE,FALSE,TRUE,TRUE,FALSE,FALSE,Disabled,0.000000,0.963210,-24.733210,TRUE,16.237915,-62.301361,0.000000,0.000000,0.000000,0.000000,0.000000,0.000000,0.019000,2.530000,-0.180000,0.110000,-0.168888,ResetBack,0.951416,-0.000049,ResetBack,-150.000000,-0.250000,LowGoal,0.000000,-2181.818182,Speed,0.000000,-2181.818182,Speed,Off,Off,0.000000,FALSE,0,Read: /home/lvuser/scripts/auto_43.bee,File good!,DRIVE_STRAIGHT_NAVX_RAMPARTS 200 5000 10,DRIVE_STRAIGHT_NAVX_RAMPARTS,0.000000,0.000000
04:18:28.009 PM 04/09/2016,Teleop Disabled,11,FALSE,0,NO ERROR,-0.000000,0.000000,-0.000000,0.000000,TRUE,TRUE,TRUE,TRUE,FALSE,FALSE,Disabled,0.000000,0.963210,-24.733210,TRUE,16.237915,-62.301361,0.000000,0.000000,0.000000,0.000000,-0.003000,0.001000,0.022000,2.530000,-0.180000,0.110000,-0.166310,ResetBack,0.951416,-0.000049,ResetBack,-150.000000,-0.250000,LowGoal,0.000000,-2181.818182,Speed,0.000000,-2181.818182,Speed,Off,Off,0.000000,FALSE,0,Read: /home/lvuser/scripts/auto_43.bee,File good!,DRIVE_STRAIGHT_NAVX_RAMPARTS 200 5000 10,DRIVE_STRAIGHT_NAVX_RAMPARTS,0.000000,0.000000
04:18:28.110 PM 04/09/2016,Teleop Disabled,11,FALSE,0,NO ERROR,-0.000000,0.000000,-0.000000,0.000000,TRUE,TRUE,TRUE,TRUE,FALSE,FALSE,Disabled,0.000000,0.963210,-24.733210,TRUE,16.237915,-62.301361,0.000000,0.000000,0.000000,0.000000,0.001000,0.000000,0.025000,2.530000,-0.190000,0.120000,-0.169360,ResetBack,0.951416,-0.000049,ResetBack,-150.000000,-0.250000,LowGoal,0.000000,0.000000,Speed,0.000000,0.000000,Speed,Off,Off,0.000000,FALSE,0,Read: /home/lvuser/scripts/auto_43.bee,File good!,DRIVE_STRAIGHT_NAVX_RAMPARTS 200 5000 10,DRIVE_STRAIGHT_NAVX_RAMPARTS,0.000000,0.000000
04:18:28.210 PM 04/09/2016,Teleop Disabled,10,FALSE,0,NO ERROR,-0.000000,0.000000,-0.000000,0.000000,TRUE,FALSE,TRUE,TRUE,FALSE,FALSE,Disabled,0.000000,0.963210,-24.733210,TRUE,16.237915,-62.301361,0.000000,0.000000,0.000000,0.000000,0.000000,0.000000,0.021000,2.540000,-0.190000,0.110000,-0.157879,ResetBack,0.951416,-0.000049,ResetBack,-150.000000,-0.250000,LowGoal,0.000000,0.000000,Speed,0.000000,0.000000,Speed,Off,Off,0.000000,FALSE,0,Read: /home/lvuser/scripts/auto_43.bee,File good!,DRIVE_STRAIGHT_NAVX_RAMPARTS 200 5000 10,DRIVE_STRAIGHT_NAVX_RAMPARTS,0.000000,0.000000
04:18:28.310 PM 04/09/2016,Teleop Disabled,10,FALSE,0,NO ERROR,-0.000000,0.000000,-0.000000,0.000000,TRUE,FALSE,TRUE,TRUE,FALSE,FALSE,Disabled,0.000000,0.963210,-24.733210,TRUE,16.237915,-62.301361,0.000000,0.000000,0.000000,0.000000,-0.003000,0.000000,0.019000,2.540000,-0.190000,0.110000,-0.165126,ResetBack,0.951416,-0.000049,ResetBack,-150.000000,-0.250000,LowGoal,0.000000,-2181.818182,Speed,0.000000,-2181.818182,Speed,Off,Off,0.000000,FALSE,0,Read: /home/lvuser/scripts/auto_43.bee,File good!,DRIVE_STRAIGHT_NAVX_RAMPARTS 200 5000 10,DRIVE_STRAIGHT_NAVX_RAMPARTS,0.000000,0.000000
04:18:28.410 PM 04/09/2016,Teleop Disabled,10,FALSE,0,NO ERROR,-0.000000,0.000000,-0.000000,0.000000,TRUE,FALSE,TRUE,TRUE,FALSE,FALSE,Disabled,0.000000,0.963210,-24.733210,TRUE,16.237915,-62.301361,0.000000,0.000000,0.000000,0.000000,-0.001000,-0.001000,0.023000,2.530000,-0.200000,0.110000,-0.172558,ResetBack,0.951416,-0.000049,ResetBack,-150.000000,-0.250000,LowGoal,0.000000,-2181.818182,Speed,0.000000,-2181.818182,Speed,Off,Off,0.000000,FALSE,0,Read: /home/lvuser/scripts/auto_43.bee,File good!,DRIVE_STRAIGHT_NAVX_RAMPARTS 200 5000 10,DRIVE_STRAIGHT_NAVX_RAMPARTS,0.000000,0.000000
04:18:28.509 PM 04/09/2016,Teleop Disabled,11,FALSE,0,NO ERROR,-0.000000,0.000000,-0.000000,0.000000,TRUE,FALSE,TRUE,TRUE,FALSE,FALSE,Disabled,0.000000,0.963210,-24.733210,TRUE,16.237915,-62.301361,0.000000,0.000000,0.000000,0.000000,0.000000,-0.001000,0.026000,2.530000,-0.200000,0.110000,-0.183117,ResetBack,0.951416,-0.000049,ResetBack,-150.000000,-0.250000,LowGoal,0.000000,-2181.818182,Speed,0.000000,-2181.818182,Speed,Off,Off,0.000000,FALSE,0,Read: /home/lvuser/scripts/auto_43.bee,File good!,DRIVE_STRAIGHT_NAVX_RAMPARTS 200 5000 10,DRIVE_STRAIGHT_NAVX_RAMPARTS,0.000000,0.000000
04:18:28.610 PM 04/09/2016,Teleop Disabled,9,FALSE,0,NO ERROR,-0.000000,0.000000,-0.000000,0.000000,TRUE,FALSE,TRUE,TRUE,FALSE,FALSE,Disabled,0.000000,0.963210,-24.733210,TRUE,16.237915,-62.301361,0.000000,0.000000,0.000000,0.000000,0.001000,0.002000,0.018000,2.530000,-0.200000,0.110000,-0.170913,ResetBack,0.951416,-0.000049,ResetBack,-150.000000,-0.250000,LowGoal,0.000000,-2181.818182,Speed,0.000000,-2181.818182,Speed,Off,Off,0.000000,FALSE,0,Read: /home/lvuser/scripts/auto_43.bee,File good!,DRIVE_STRAIGHT_NAVX_RAMPARTS 200 5000 10,DRIVE_STRAIGHT_NAVX_RAMPARTS,0.000000,0.000000
04:18:28.710 PM 04/09/2016,Teleop Disabled,10,FALSE,0,NO ERROR,-0.000000,0.000000,-0.000000,0.000000,TRUE,FALSE,TRUE,TRUE,FALSE,FALSE,Disabled,0.000000,0.963210,-24.733210,TRUE,16.237915,-62.301361,0.000000,0.000000,0.000000,0.000000,0.000000,0.000000,0.019000,2.530000,-0.200000,0.120000,-0.161549,ResetBack,0.951416,-0.000049,ResetBack,-150.000000,-0.250000,LowGoal,0.000000,-2181.818182,Speed,0.000000,-2181.818182,Speed,Off,Off,0.000000,FALSE,0,Read: /home/lvuser/scripts/auto_43.bee,File good!,DRIVE_STRAIGHT_NAVX_RAMPARTS 200 5000 10,DRIVE_STRAIGHT_NAVX_RAMPARTS,0.000000,0.000000
04:18:28.810 PM 04/09/2016,Teleop Disabled,11,FALSE,0,NO ERROR,-0.000000,0.000000,-0.000000,0.000000,TRUE,FALSE,TRUE,TRUE,FALSE,FALSE,Disabled,0.000000,0.963210,-24.733210,TRUE,16.237915,-62.301361,0.000000,0.000000,0.000000,0.000000,-0.001000,-0.001000,0.021000,2.530000,-0.200000,0.110000,-0.155042,ResetBack,0.951416,-0.000049,ResetBack,-150.000000,-0.250000,LowGoal,0.000000,-2181.818182,Speed,0.000000,-2181.818182,Speed,Off,Off,0.000000,FALSE,0,Read: /home/lvuser/scripts/auto_43.bee,File good!,DRIVE_STRAIGHT_NAVX_RAMPARTS 200 5000 10,DRIVE_STRAIGHT_NAVX_RAMPARTS,0.000000,0.000000
04:18:28.910 PM 04/09/2016,Teleop Disabled,11,FALSE,0,NO ERROR,-0.000000,0.000000,-0.000000,0.000000,TRUE,FALSE,TRUE,TRUE,FALSE,FALSE,Disabled,0.000000,0.963210,-24.733210,TRUE,16.237915,-62.301361,0.000000,0.000000,0.000000,0.000000,0.000000,0.000000,0.017000,2.530000,-0.200000,0.110000,-0.162933,ResetBack,0.951416,-0.000049,ResetBack,-150.000000,-0.250000,LowGoal,0.000000,-2181.818182,Speed,0.000000,-2181.818182,Speed,Off,Off,0.000000,FALSE,0,Read: /home/lvuser/scripts/auto_43.bee,File good!,DRIVE_STRAIGHT_NAVX_RAMPARTS 200 5000 10,DRIVE_STRAIGHT_NAVX_RAMPARTS,0.000000,0.000000
04:18:29.010 PM 04/09/2016,Teleop Disabled,10,FALSE,0,NO ERROR,-0.000000,0.000000,-0.000000,0.000000,TRUE,FALSE,TRUE,TRUE,FALSE,FALSE,Disabled,0.000000,0.963210,-24.733210,TRUE,16.237915,-62.301361,0.000000,0.000000,0.000000,0.000000,0.000000,0.000000,0.018000,2.530000,-0.210000,0.120000,-0.165584,ResetBack,0.951416,-0.000049,ResetBack,-150.000000,-0.250000,LowGoal,0.000000,-2181.818182,Speed,0.000000,-2181.818182,Speed,Off,Off,0.000000,FALSE,0,Read: /home/lvuser/scripts/auto_43.bee,File good!,DRIVE_STRAIGHT_NAVX_RAMPARTS 200 5000 10,DRIVE_STRAIGHT_NAVX_RAMPARTS,0.000000,0.000000
04:18:29.110 PM 04/09/2016,Teleop Disabled,8,FALSE,0,NO ERROR,-0.000000,0.000000,-0.000000,0.000000,TRUE,FALSE,TRUE,TRUE,FALSE,FALSE,Disabled,0.000000,0.963210,-24.733210,TRUE,16.237915,-62.301361,0.000000,0.000000,0.000000,0.000000,0.000000,0.000000,0.019000,2.530000,-0.210000,0.120000,-0.166369,ResetBack,0.951416,-0.000049,ResetBack,-150.000000,-0.250000,LowGoal,0.000000,-2181.818182,Speed,0.000000,-2181.818182,Speed,Off,Off,0.000000,FALSE,0,Read: /home/lvuser/scripts/auto_43.bee,File good!,DRIVE_STRAIGHT_NAVX_RAMPARTS 200 5000 10,DRIVE_STRAIGHT_NAVX_RAMPARTS,0.000000,0.000000
04:18:29.210 PM 04/09/2016,Teleop Disabled,9,FALSE,0,NO ERROR,-0.000000,0.000000,-0.000000,0.000000,TRUE,FALSE,TRUE,TRUE,FALSE,FALSE,Disabled,0.000000,0.963210,-24.733210,TRUE,16.237915,-62.301361,0.000000,0.000000,0.000000,0.000000,0.001000,0.000000,0.021000,2.530000,-0.220000,0.120000,-0.181757,ResetBack,0.951416,-0.000049,ResetBack,-150.000000,-0.250000,LowGoal,0.000000,-2181.818182,Speed,0.000000,-2181.818182,Speed,Off,Off,0.000000,FALSE,0,Read: /home/lvuser/scripts/auto_43.bee,File good!,DRIVE_STRAIGHT_NAVX_RAMPARTS 200 5000 10,DRIVE_STRAIGHT_NAVX_RAMPARTS,0.000000,0.000000
04:18:29.310 PM 04/09/2016,Teleop Disabled,10,FALSE,0,NO ERROR,-0.000000,0.000000,-0.000000,0.000000,TRUE,FALSE,TRUE,TRUE,FALSE,FALSE,Disabled,0.000000,0.963210,-24.733210,TRUE,16.237915,-62.301361,0.000000,0.000000,0.000000,0.000000,-0.001000,0.000000,0.022000,2.530000,-0.220000,0.110000,-0.177891,ResetBack,0.951416,-0.000049,ResetBack,-150.000000,-0.250000,LowGoal,0.000000,-2181.818182,Speed,0.000000,-2181.818182,Speed,Off,Off,0.000000,FALSE,0,Read: /home/lvuser/scripts/auto_43.bee,File good!,DRIVE_STRAIGHT_NAVX_RAMPARTS 200 5000 10,DRIVE_STRAIGHT_NAVX_RAMPARTS,0.000000,0.000000
04:18:29.410 PM 04/09/2016,Teleop Disabled,10,FALSE,0,NO ERROR,-0.000000,0.000000,-0.000000,0.000000,TRUE,FALSE,TRUE,TRUE,FALSE,FALSE,Disabled,0.000000,0.963210,-24.733210,TRUE,16.237915,-62.301361,0.000000,0.000000,0.000000,0.000000,0.001000,0.000000,0.022000,2.530000,-0.220000,0.110000,-0.174176,ResetBack,0.951416,-0.000049,ResetBack,-150.000000,-0.250000,LowGoal,0.000000,-2181.818182,Speed,0.000000,-2181.818182,Speed,Off,Off,0.000000,FALSE,0,Read: /home/lvuser/scripts/auto_43.bee,File good!,DRIVE_STRAIGHT_NAVX_RAMPARTS 200 5000 10,DRIVE_STRAIGHT_NAVX_RAMPARTS,0.000000,0.000000
04:18:29.509 PM 04/09/2016,Teleop Disabled,11,FALSE,0,NO ERROR,-0.000000,0.000000,-0.000000,0.000000,TRUE,FALSE,TRUE,TRUE,FALSE,FALSE,Disabled,0.000000,0.963210,-24.733210,TRUE,16.237915,-62.301361,0.000000,0.000000,0.000000,0.000000,-0.001000,0.002000,0.020000,2.530000,-0.220000,0.110000,-0.177495,ResetBack,0.951416,-0.000049,ResetBack,-150.000000,-0.250000,LowGoal,0.000000,-2181.818182,Speed,0.000000,-2181.818182,Speed,Off,Off,0.000000,FALSE,0,Read: /home/lvuser/scripts/auto_43.bee,File good!,DRIVE_STRAIGHT_NAVX_RAMPARTS 200 5000 10,DRIVE_STRAIGHT_NAVX_RAMPARTS,0.000000,0.000000
04:18:29.610 PM 04/09/2016,Teleop Disabled,10,FALSE,0,NO ERROR,-0.000000,0.000000,-0.000000,0.000000,TRUE,FALSE,TRUE,TRUE,FALSE,FALSE,Disabled,0.000000,0.963210,-24.733210,TRUE,16.237915,-62.301361,0.000000,0.000000,0.000000,0.000000,0.000000,-0.001000,0.023000,2.540000,-0.220000,0.110000,-0.187568,ResetBack,0.951416,-0.000049,ResetBack,-150.000000,-0.250000,LowGoal,0.000000,-2181.818182,Speed,0.000000,-2181.818182,Speed,Off,Off,0.000000,FALSE,0,Read: /home/lvuser/scripts/auto_43.bee,File good!,DRIVE_STRAIGHT_NAVX_RAMPARTS 200 5000 10,DRIVE_STRAIGHT_NAVX_RAMPARTS,0.000000,0.000000
04:18:29.711 PM 04/09/2016,Teleop Disabled,10,FALSE,0,NO ERROR,-0.000000,0.000000,-0.000000,0.000000,TRUE,FALSE,TRUE,TRUE,FALSE,FALSE,Disabled,0.000000,0.963210,-24.733210,TRUE,16.237915,-62.301361,0.000000,0.000000,0.000000,0.000000,0.000000,0.000000,0.028000,2.530000,-0.220000,0.110000,-0.193169,ResetBack,0.951416,-0.000049,ResetBack,-150.000000,-0.250000,LowGoal,0.000000,-2181.818182,Speed,0.000000,-2181.818182,Speed,Off,Off,0.000000,FALSE,0,Read: /home/lvuser/scripts/auto_43.bee,File good!,DRIVE_STRAIGHT_NAVX_RAMPARTS 200 5000 10,DRIVE_STRAIGHT_NAVX_RAMPARTS,0.000000,0.000000
04:18:29.811 PM 04/09/2016,Teleop Disabled,12,FALSE,0,NO ERROR,-0.000000,0.000000,-0.000000,0.000000,TRUE,FALSE,TRUE,TRUE,FALSE,FALSE,Disabled,0.000000,0.963210,-24.733210,TRUE,16.237915,-62.301361,0.000000,0.000000,0.000000,0.000000,-0.002000,-0.002000,0.024000,2.530000,-0.220000,0.110000,-0.191151,ResetBack,0.951416,-0.000049,ResetBack,-150.000000,-0.250000,LowGoal,0.000000,-2181.818182,Speed,0.000000,-2181.818182,Speed,Off,Off,0.000000,FALSE,0,Read: /home/lvuser/scripts/auto_43.bee,File good!,DRIVE_STRAIGHT_NAVX_RAMPARTS 200 5000 10,DRIVE_STRAIGHT_NAVX_RAMPARTS,0.000000,0.000000
04:18:29.910 PM 04/09/2016,Teleop Disabled,11,FALSE,0,NO ERROR,-0.000000,0.000000,-0.000000,0.000000,TRUE,FALSE,TRUE,TRUE,FALSE,FALSE,Disabled,0.000000,0.963210,-24.733210,TRUE,16.237915,-62.301361,0.000000,0.000000,0.000000,0.000000,-0.001000,-0.001000,0.024000,2.530000,-0.220000,0.100000,-0.193258,ResetBack,0.951416,-0.000049,ResetBack,-150.000000,-0.250000,LowGoal,0.000000,-2181.818182,Speed,0.000000,-2181.818182,Speed,Off,Off,0.000000,FALSE,0,Read: /home/lvuser/scripts/auto_43.bee,File good!,DRIVE_STRAIGHT_NAVX_RAMPARTS 200 5000 10,DRIVE_STRAIGHT_NAVX_RAMPARTS,0.000000,0.000000
04:18:30.011 PM 04/09/2016,Teleop Disabled,13,FALSE,0,NO ERROR,-0.000000,0.000000,-0.000000,0.000000,TRUE,FALSE,TRUE,TRUE,FALSE,FALSE,Disabled,0.000000,0.963210,-24.733210,TRUE,16.237915,-62.301361,0.000000,0.000000,0.000000,0.000000,0.001000,0.001000,0.022000,2.530000,-0.230000,0.100000,-0.201596,ResetBack,0.951416,-0.000049,ResetBack,-150.000000,-0.250000,LowGoal,0.000000,-2181.818182,Speed,0.000000,-2181.818182,Speed,Off,Off,0.000000,FALSE,0,Read: /home/lvuser/scripts/auto_43.bee,File good!,DRIVE_STRAIGHT_NAVX_RAMPARTS 200 5000 10,DRIVE_STRAIGHT_NAVX_RAMPARTS,0.000000,0.000000
04:18:30.111 PM 04/09/2016,Teleop Disabled,7,FALSE,0,NO ERROR,-0.000000,0.000000,-0.000000,0.000000,TRUE,FALSE,TRUE,TRUE,FALSE,FALSE,Disabled,0.000000,0.963210,-24.733210,TRUE,16.237915,-62.301361,0.000000,0.000000,0.000000,0.000000,0.000000,-0.002000,0.023000,2.540000,-0.230000,0.100000,-0.210344,ResetBack,0.951416,-0.000049,ResetBack,-150.000000,-0.250000,LowGoal,0.000000,-2181.818182,Speed,0.000000,-2181.818182,Speed,Off,Off,0.000000,FALSE,0,Read: /home/lvuser/scripts/auto_43.bee,File good!,DRIVE_STRAIGHT_NAVX_RAMPARTS 200 5000 10,DRIVE_STRAIGHT_NAVX_RAMPARTS,0.000000,0.000000
04:18:30.211 PM 04/09/2016,Teleop Disabled,10,FALSE,0,NO ERROR,-0.000000,0.000000,-0.000000,0.000000,TRUE,FALSE,TRUE,TRUE,FALSE,FALSE,Disabled,0.000000,0.963210,-24.733210,TRUE,16.237915,-62.301361,0.000000,0.000000,0.000000,0.000000,0.000000,0.001000,0.021000,2.530000,-0.230000,0.100000,-0.202440,ResetBack,0.951416,-0.000049,ResetBack,-150.000000,-0.250000,LowGoal,0.000000,-2181.818182,Speed,0.000000,-2181.818182,Speed,Off,Off,0.000000,FALSE,0,Read: /home/lvuser/scripts/auto_43.bee,File good!,DRIVE_STRAIGHT_NAVX_RAMPARTS 200 5000 10,DRIVE_STRAIGHT_NAVX_RAMPARTS,0.000000,0.000000
04:18:30.311 PM 04/09/2016,Teleop Disabled,11,FALSE,0,NO ERROR,-0.000000,0.000000,-0.000000,0.000000,TRUE,FALSE,TRUE,TRUE,FALSE,FALSE,Disabled,0.000000,0.963210,-24.733210,TRUE,16.237915,-62.301361,0.000000,0.000000,0.000000,0.000000,0.001000,0.003000,0.018000,2.530000,-0.230000,0.100000,-0.178194,ResetBack,0.951416,-0.000049,ResetBack,-150.000000,-0.250000,LowGoal,0.000000,-2181.818182,Speed,0.000000,-2181.818182,Speed,Off,Off,0.000000,FALSE,0,Read: /home/lvuser/scripts/auto_43.bee,File good!,DRIVE_STRAIGHT_NAVX_RAMPARTS 200 5000 10,DRIVE_STRAIGHT_NAVX_RAMPARTS,0.000000,0.000000
04:18:30.411 PM 04/09/2016,Teleop Disabled,9,FALSE,0,NO ERROR,-0.000000,0.000000,-0.000000,0.000000,TRUE,FALSE,TRUE,TRUE,FALSE,FALSE,Disabled,0.000000,0.963210,-24.733210,TRUE,16.237915,-62.301361,0.000000,0.000000,0.000000,0.000000,0.000000,0.000000,0.018000,2.540000,-0.230000,0.100000,-0.164537,ResetBack,0.951416,-0.000049,ResetBack,-150.000000,-0.250000,LowGoal,0.000000,-2181.818182,Speed,0.000000,-2181.818182,Speed,Off,Off,0.000000,FALSE,0,Read: /home/lvuser/scripts/auto_43.bee,File good!,DRIVE_STRAIGHT_NAVX_RAMPARTS 200 5000 10,DRIVE_STRAIGHT_NAVX_RAMPARTS,0.000000,0.000000
04:18:30.511 PM 04/09/2016,Teleop Disabled,10,FALSE,0,NO ERROR,-0.000000,0.000000,-0.000000,0.000000,TRUE,TRUE,TRUE,TRUE,FALSE,FALSE,Disabled,0.000000,0.963210,-24.733210,TRUE,16.237915,-62.301361,0.000000,0.000000,0.000000,0.000000,-0.002000,-0.002000,0.020000,2.530000,-0.230000,0.100000,-0.157342,ResetBack,0.951416,-0.000049,ResetBack,-150.000000,-0.250000,LowGoal,0.000000,-2181.818182,Speed,0.000000,-2181.818182,Speed,Off,Off,0.000000,FALSE,0,Read: /home/lvuser/scripts/auto_43.bee,File good!,DRIVE_STRAIGHT_NAVX_RAMPARTS 200 5000 10,DRIVE_STRAIGHT_NAVX_RAMPARTS,0.000000,0.000000
04:18:30.611 PM 04/09/2016,Teleop Disabled,9,FALSE,0,NO ERROR,-0.000000,0.000000,-0.000000,0.000000,TRUE,TRUE,TRUE,TRUE,FALSE,FALSE,Disabled,0.000000,0.963210,-24.733210,TRUE,16.237915,-62.301361,0.000000,0.000000,0.000000,0.000000,0.002000,0.000000,0.025000,2.540000,-0.240000,0.090000,-0.156330,ResetBack,0.951416,-0.000049,ResetBack,-150.000000,-0.250000,LowGoal,0.000000,0.000000,Speed,0.000000,0.000000,Speed,Off,Off,0.000000,FALSE,0,Read: /home/lvuser/scripts/auto_43.bee,File good!,DRIVE_STRAIGHT_NAVX_RAMPARTS 200 5000 10,DRIVE_STRAIGHT_NAVX_RAMPARTS,0.000000,0.000000
04:18:30.711 PM 04/09/2016,Teleop Disabled,8,FALSE,0,NO ERROR,-0.000000,0.000000,-0.000000,0.000000,TRUE,FALSE,TRUE,TRUE,FALSE,FALSE,Disabled,0.000000,0.963210,-24.733210,TRUE,16.237915,-62.301361,0.000000,0.000000,0.000000,0.000000,0.000000,-0.001000,0.022000,2.540000,-0.240000,0.090000,-0.155160,ResetBack,0.951416,-0.000049,ResetBack,-150.000000,-0.250000,LowGoal,0.000000,0.000000,Speed,0.000000,0.000000,Speed,Off,Off,0.000000,FALSE,0,Read: /home/lvuser/scripts/auto_43.bee,File good!,DRIVE_STRAIGHT_NAVX_RAMPARTS 200 5000 10,DRIVE_STRAIGHT_NAVX_RAMPARTS,0.000000,0.000000
04:18:30.813 PM 04/09/2016,Teleop Disabled,10,FALSE,0,NO ERROR,-0.000000,0.000000,-0.000000,0.000000,TRUE,FALSE,TRUE,TRUE,FALSE,FALSE,Disabled,0.000000,0.963210,-24.733210,TRUE,16.237915,-62.301361,0.000000,0.000000,0.000000,0.000000,-0.001000,0.001000,0.020000,2.550000,-0.240000,0.090000,-0.154178,ResetBack,0.951416,-0.000049,ResetBack,-150.000000,-0.250000,LowGoal,0.000000,-2181.818182,Speed,0.000000,-2181.818182,Speed,Off,Off,0.000000,FALSE,0,Read: /home/lvuser/scripts/auto_43.bee,File good!,DRIVE_STRAIGHT_NAVX_RAMPARTS 200 5000 10,DRIVE_STRAIGHT_NAVX_RAMPARTS,0.000000,0.000000
04:18:30.913 PM 04/09/2016,Teleop Disabled,10,FALSE,0,NO ERROR,-0.000000,0.000000,-0.000000,0.000000,TRUE,FALSE,TRUE,TRUE,FALSE,FALSE,Disabled,0.000000,0.963210,-24.733210,TRUE,16.237915,-62.301361,0.000000,0.000000,0.000000,0.000000,0.001000,0.001000,0.021000,2.550000,-0.240000,0.090000,-0.160134,ResetBack,0.951416,-0.000049,ResetBack,-150.000000,-0.250000,LowGoal,0.000000,-2181.818182,Speed,0.000000,-2181.818182,Speed,Off,Off,0.000000,FALSE,0,Read: /home/lvuser/scripts/auto_43.bee,File good!,DRIVE_STRAIGHT_NAVX_RAMPARTS 200 5000 10,DRIVE_STRAIGHT_NAVX_RAMPARTS,0.000000,0.000000
04:18:31.013 PM 04/09/2016,Teleop Disabled,10,FALSE,0,NO ERROR,-0.000000,0.000000,-0.000000,0.000000,TRUE,FALSE,TRUE,TRUE,FALSE,FALSE,Disabled,0.000000,0.963210,-24.733210,TRUE,16.237915,-62.301361,0.000000,0.000000,0.000000,0.000000,-0.001000,0.001000,0.019000,2.550000,-0.240000,0.090000,-0.153225,ResetBack,0.951416,-0.000049,ResetBack,-150.000000,-0.250000,LowGoal,0.000000,-2181.818182,Speed,0.000000,-2181.818182,Speed,Off,Off,0.000000,FALSE,0,Read: /home/lvuser/scripts/auto_43.bee,File good!,DRIVE_STRAIGHT_NAVX_RAMPARTS 200 5000 10,DRIVE_STRAIGHT_NAVX_RAMPARTS,0.000000,0.000000
04:18:31.113 PM 04/09/2016,Teleop Disabled,10,FALSE,0,NO ERROR,-0.000000,0.000000,-0.000000,0.000000,TRUE,FALSE,TRUE,TRUE,FALSE,FALSE,Disabled,0.000000,0.963210,-24.733210,TRUE,16.237915,-62.301361,0.000000,0.000000,0.000000,0.000000,-0.001000,0.001000,0.019000,2.550000,-0.240000,0.090000,-0.146870,ResetBack,0.951416,-0.000049,ResetBack,-150.000000,-0.250000,LowGoal,0.000000,-2181.818182,Speed,0.000000,-2181.818182,Speed,Off,Off,0.000000,FALSE,0,Read: /home/lvuser/scripts/auto_43.bee,File good!,DRIVE_STRAIGHT_NAVX_RAMPARTS 200 5000 10,DRIVE_STRAIGHT_NAVX_RAMPARTS,0.000000,0.000000
04:18:31.214 PM 04/09/2016,Teleop Disabled,12,FALSE,0,NO ERROR,-0.000000,0.000000,-0.000000,0.000000,TRUE,FALSE,TRUE,TRUE,FALSE,FALSE,Disabled,0.000000,0.963210,-24.733210,TRUE,16.237915,-62.301361,0.000000,0.000000,0.000000,0.000000,-0.001000,0.001000,0.020000,2.550000,-0.250000,0.090000,-0.146495,ResetBack,0.951416,-0.000049,ResetBack,-150.000000,-0.250000,LowGoal,0.000000,-2181.818182,Speed,0.000000,-2181.818182,Speed,Off,Off,0.000000,FALSE,0,Read: /home/lvuser/scripts/auto_43.bee,File good!,DRIVE_STRAIGHT_NAVX_RAMPARTS 200 5000 10,DRIVE_STRAIGHT_NAVX_RAMPARTS,0.000000,0.000000
04:18:31.316 PM 04/09/2016,Teleop Disabled,11,FALSE,0,NO ERROR,-0.000000,0.000000,-0.000000,0.000000,TRUE,FALSE,TRUE,TRUE,FALSE,FALSE,Disabled,0.000000,0.963210,-24.733210,TRUE,16.237915,-62.301361,0.000000,0.000000,0.000000,0.000000,-0.001000,0.001000,0.020000,2.550000,-0.250000,0.090000,-0.146236,ResetBack,0.951416,-0.000049,ResetBack,-150.000000,-0.250000,LowGoal,0.000000,-2181.818182,Speed,0.000000,-2181.818182,Speed,Off,Off,0.000000,FALSE,0,Read: /home/lvuser/scripts/auto_43.bee,File good!,DRIVE_STRAIGHT_NAVX_RAMPARTS 200 5000 10,DRIVE_STRAIGHT_NAVX_RAMPARTS,0.000000,0.000000
04:18:31.420 PM 04/09/2016,Teleop Disabled,12,FALSE,0,NO ERROR,-0.000000,0.000000,-0.000000,0.000000,TRUE,FALSE,TRUE,TRUE,FALSE,FALSE,Disabled,0.000000,0.963210,-24.733210,TRUE,16.237915,-62.301361,0.000000,0.000000,0.000000,0.000000,0.000000,0.000000,0.020000,2.550000,-0.260000,0.090000,-0.135279,ResetBack,0.951416,-0.000049,ResetBack,-150.000000,-0.250000,LowGoal,0.000000,-2181.818182,Speed,0.000000,-2181.818182,Speed,Off,Off,0.000000,FALSE,0,Read: /home/lvuser/scripts/auto_43.bee,File good!,DRIVE_STRAIGHT_NAVX_RAMPARTS 200 5000 10,DRIVE_STRAIGHT_NAVX_RAMPARTS,0.000000,0.000000
04:18:31.520 PM 04/09/2016,Teleop Disabled,10,FALSE,0,NO ERROR,-0.000000,0.000000,-0.000000,0.000000,TRUE,FALSE,TRUE,TRUE,FALSE,FALSE,Disabled,0.000000,0.963210,-24.733210,TRUE,16.237915,-62.301361,0.000000,0.000000,0.000000,0.000000,0.001000,0.003000,0.018000,2.550000,-0.260000,0.090000,-0.125901,ResetBack,0.951416,-0.000049,ResetBack,-150.000000,-0.250000,LowGoal,0.000000,-2181.818182,Speed,0.000000,-2181.818182,Speed,Off,Off,0.000000,FALSE,0,Read: /home/lvuser/scripts/auto_43.bee,File good!,DRIVE_STRAIGHT_NAVX_RAMPARTS 200 5000 10,DRIVE_STRAIGHT_NAVX_RAMPARTS,0.000000,0.000000
04:18:31.622 PM 04/09/2016,Teleop Disabled,10,FALSE,0,NO ERROR,-0.000000,0.000000,-0.000000,0.000000,TRUE,FALSE,TRUE,TRUE,FALSE,FALSE,Disabled,0.000000,0.963210,-24.733210,TRUE,16.237915,-62.301361,0.000000,0.000000,0.000000,0.000000,-0.002000,0.002000,0.021000,2.550000,-0.260000,0.090000,-0.133812,ResetBack,0.951416,-0.000049,ResetBack,-150.000000,-0.250000,LowGoal,0.000000,-2181.818182,Speed,0.000000,-2181.818182,Speed,Off,Off,0.000000,FALSE,0,Read: /home/lvuser/scripts/auto_43.bee,File good!,DRIVE_STRAIGHT_NAVX_RAMPARTS 200 5000 10,DRIVE_STRAIGHT_NAVX_RAMPARTS,0.000000,0.000000
04:18:31.724 PM 04/09/2016,Teleop Disabled,10,FALSE,0,NO ERROR,-0.000000,0.000000,-0.000000,0.000000,TRUE,FALSE,TRUE,TRUE,FALSE,FALSE,Disabled,0.000000,0.963210,-24.733210,TRUE,16.237915,-62.301361,0.000000,0.000000,0.000000,0.000000,-0.001000,0.000000,0.021000,2.550000,-0.260000,0.090000,-0.123312,ResetBack,0.951416,-0.000049,ResetBack,-150.000000,-0.250000,LowGoal,0.000000,-2181.818182,Speed,0.000000,-2181.818182,Speed,Off,Off,0.000000,FALSE,0,Read: /home/lvuser/scripts/auto_43.bee,File good!,DRIVE_STRAIGHT_NAVX_RAMPARTS 200 5000 10,DRIVE_STRAIGHT_NAVX_RAMPARTS,0.000000,0.000000
04:18:31.824 PM 04/09/2016,Teleop Disabled,11,FALSE,0,NO ERROR,-0.000000,0.000000,-0.000000,0.000000,TRUE,FALSE,TRUE,TRUE,FALSE,FALSE,Disabled,0.000000,0.963210,-24.733210,TRUE,16.237915,-62.301361,0.000000,0.000000,0.000000,0.000000,0.001000,-0.001000,0.021000,2.550000,-0.260000,0.090000,-0.117787,ResetBack,0.951416,-0.000049,ResetBack,-150.000000,-0.250000,LowGoal,0.000000,-2181.818182,Speed,0.000000,-2181.818182,Speed,Off,Off,0.000000,FALSE,0,Read: /home/lvuser/scripts/auto_43.bee,File good!,DRIVE_STRAIGHT_NAVX_RAMPARTS 200 5000 10,DRIVE_STRAIGHT_NAVX_RAMPARTS,0.000000,0.000000
04:18:31.925 PM 04/09/2016,Teleop Disabled,9,FALSE,0,NO ERROR,-0.000000,0.000000,-0.000000,0.000000,TRUE,FALSE,TRUE,TRUE,FALSE,FALSE,Disabled,0.000000,0.963210,-24.733210,TRUE,16.237915,-62.301361,0.000000,0.000000,0.000000,0.000000,0.001000,-0.001000,0.021000,2.550000,-0.270000,0.090000,-0.116551,ResetBack,0.951416,-0.000049,ResetBack,-150.000000,-0.250000,LowGoal,0.000000,-2181.818182,Speed,0.000000,-2181.818182,Speed,Off,Off,0.000000,FALSE,0,Read: /home/lvuser/scripts/auto_43.bee,File good!,DRIVE_STRAIGHT_NAVX_RAMPARTS 200 5000 10,DRIVE_STRAIGHT_NAVX_RAMPARTS,0.000000,0.000000
04:18:32.025 PM 04/09/2016,Teleop Disabled,11,FALSE,0,NO ERROR,-0.000000,0.000000,-0.000000,0.000000,TRUE,FALSE,TRUE,TRUE,FALSE,FALSE,Disabled,0.000000,0.963210,-24.733210,TRUE,16.237915,-62.301361,0.000000,0.000000,0.000000,0.000000,0.001000,0.001000,0.021000,2.540000,-0.260000,0.100000,-0.097087,ResetBack,0.951416,-0.000049,ResetBack,-150.000000,-0.250000,LowGoal,0.000000,-2181.818182,Speed,0.000000,-2181.818182,Speed,Off,Off,0.000000,FALSE,0,Read: /home/lvuser/scripts/auto_43.bee,File good!,DRIVE_STRAIGHT_NAVX_RAMPARTS 200 5000 10,DRIVE_STRAIGHT_NAVX_RAMPARTS,0.000000,0.000000
04:19:27.906 PM 04/09/2016,Autonomous Enabled,11,TRUE,7,Read from Text File in DoesScriptNumberContainNull.vi->Disabled.vi->Robot Main.vi<APPEND> /home/lvuser/scripts/auto_42.bee,0.000000,0.000000,-0.000000,-0.012833,TRUE,FALSE,TRUE,TRUE,FALSE,FALSE,Disabled,0.000000,0.963210,-24.733210,TRUE,16.238190,-62.300781,0.000000,0.000000,0.000000,0.000000,0.000000,0.002000,0.023000,2.530000,-0.520000,0.070000,0.284056,ResetBack,0.951416,-0.000049,ResetBack,-150.000000,-0.250000,LowGoal,0.000000,-2181.818182,Speed,0.000000,-2181.818182,Speed,Off,Off,0.000000,FALSE,43,Read: /home/lvuser/scripts/auto_43.bee,File good!,DRIVE_STRAIGHT_NAVX_RAMPARTS 200 5000 10,DRIVE_STRAIGHT_NAVX_RAMPARTS,0.000000,0.000000
04:19:28.006 PM 04/09/2016,Autonomous Enabled,11,TRUE,7,Read from Text File in DoesScriptNumberContainNull.vi->Disabled.vi->Robot Main.vi<APPEND> /home/lvuser/scripts/auto_42.bee,0.000000,-0.012833,-0.000000,-0.012833,TRUE,FALSE,TRUE,TRUE,FALSE,FALSE,Disabled,0.000000,0.963210,-24.733210,TRUE,16.236816,-62.299545,0.000000,-0.051468,0.069168,0.000000,-0.065000,0.124000,-0.023000,2.490000,-0.520000,0.090000,0.285729,ResetBack,0.054199,-0.000049,ResetBack,-150.000000,-0.250000,LowGoal,105.000000,-2181.818182,Speed,75.000000,-2181.818182,Speed,Off,Off,0.000000,FALSE,43,Read: /home/lvuser/scripts/auto_43.bee,File good!,WAIT 1500,WAIT,0.000000,0.000000
04:19:28.107 PM 04/09/2016,Autonomous Enabled,10,TRUE,7,Read from Text File in DoesScriptNumberContainNull.vi->Disabled.vi->Robot Main.vi<APPEND> /home/lvuser/scripts/auto_42.bee,0.000000,-0.012833,-0.000000,-0.012833,TRUE,FALSE,TRUE,TRUE,FALSE,FALSE,Disabled,0.000000,0.963210,-24.733210,TRUE,16.234589,-62.295807,0.000000,-0.083954,0.145218,0.000000,-0.002000,0.080000,-0.020000,2.490000,-0.520000,0.100000,0.285274,ResetBack,0.019775,-0.000049,ResetBack,-149.000000,-0.250000,LowGoal,577.500000,-2181.818182,Speed,660.000000,-2181.818182,Speed,Off,Off,0.000000,FALSE,43,Read: /home/lvuser/scripts/auto_43.bee,File good!,WAIT 1500,WAIT,0.000000,0.000000
04:19:28.208 PM 04/09/2016,Autonomous Enabled,10,TRUE,7,Read from Text File in DoesScriptNumberContainNull.vi->Disabled.vi->Robot Main.vi<APPEND> /home/lvuser/scripts/auto_42.bee,0.000000,-0.012833,-0.000000,-0.012833,TRUE,FALSE,TRUE,TRUE,FALSE,FALSE,Disabled,0.000000,0.963210,-24.733210,TRUE,16.232544,-62.286484,0.000000,-0.018356,0.216064,0.000000,-0.011000,-0.011000,0.028000,2.490000,-0.530000,0.120000,0.272971,ResetBack,0.019287,-0.000049,ResetBack,-61.000000,-0.250000,LowGoal,1215.000000,-2181.818182,Speed,1275.000000,-2181.818182,Speed,Off,Off,0.000000,FALSE,43,Read: /home/lvuser/scripts/auto_43.bee,File good!,WAIT 1500,WAIT,0.000000,0.000000
04:19:28.308 PM 04/09/2016,Autonomous Enabled,11,TRUE,7,Read from Text File in DoesScriptNumberContainNull.vi->Disabled.vi->Robot Main.vi<APPEND> /home/lvuser/scripts/auto_42.bee,0.000000,-0.012833,-0.000000,-0.012833,TRUE,FALSE,TRUE,TRUE,FALSE,FALSE,Disabled,0.000000,0.963210,-24.733210,TRUE,16.230438,-62.281677,0.000000,-0.049698,0.019257,0.000000,0.135000,-0.005000,0.015000,2.500000,-0.520000,0.090000,0.272131,Reset,0.010742,0.000000,ResetBack,-44.000000,-0.250000,LowGoal,1852.500000,-2181.818182,Speed,1687.500000,-2181.818182,Speed,Off,Off,0.000000,FALSE,43,Read: /home/lvuser/scripts/auto_43.bee,File good!,WAIT 1500,WAIT,0.000000,0.000000
04:19:28.408 PM 04/09/2016,Autonomous Enabled,10,TRUE,7,Read from Text File in DoesScriptNumberContainNull.vi->Disabled.vi->Robot Main.vi<APPEND> /home/lvuser/scripts/auto_42.bee,0.000000,-0.012833,-0.000000,-0.012833,TRUE,FALSE,TRUE,TRUE,FALSE,FALSE,Disabled,0.000000,0.963210,-24.733210,TRUE,16.228317,-62.281067,0.000000,-0.018158,0.016678,0.000000,0.058000,0.086000,-0.054000,2.520000,-0.520000,0.060000,0.268289,Hold,1.087646,0.000000,ResetBack,436.000000,-0.250000,LowGoal,2167.500000,-2181.818182,Speed,2160.000000,-2181.818182,Speed,Off,Off,0.000000,FALSE,43,Read: /home/lvuser/scripts/auto_43.bee,File good!,WAIT 1500,WAIT,0.000000,0.000000
04:19:28.507 PM 04/09/2016,Autonomous Enabled,9,TRUE,7,Read from Text File in DoesScriptNumberContainNull.vi->Disabled.vi->Robot Main.vi<APPEND> /home/lvuser/scripts/auto_42.bee,0.000000,-0.012833,-0.000000,-0.012833,TRUE,FALSE,TRUE,TRUE,FALSE,FALSE,Disabled,0.000000,0.963210,-24.733210,TRUE,16.226944,-62.279373,0.000000,-0.062180,0.048889,0.000000,0.031000,-0.067000,-0.060000,2.550000,-0.520000,0.040000,0.264423,Hold,0.917725,0.000000,ResetBack,1549.000000,-0.250000,LowGoal,2272.500000,-2181.818182,Speed,2227.500000,-2181.818182,Speed,Off,Off,0.000000,FALSE,43,Read: /home/lvuser/scripts/auto_43.bee,File good!,WAIT 1500,WAIT,0.000000,0.000000
04:19:28.608 PM 04/09/2016,Autonomous Enabled,9,TRUE,7,Read from Text File in DoesScriptNumberContainNull.vi->Disabled.vi->Robot Main.vi<APPEND> /home/lvuser/scripts/auto_42.bee,0.000000,-0.012833,-0.000000,-0.012833,TRUE,FALSE,TRUE,TRUE,FALSE,FALSE,Disabled,0.000000,0.963210,-24.733210,TRUE,16.225372,-62.279526,0.000000,0.012451,-0.058701,0.000000,0.118000,-0.192000,0.045000,2.600000,-0.520000,0.050000,0.286806,Hold,0.917725,0.000000,ResetBack,1696.000000,-0.250000,LowGoal,2205.000000,-2181.818182,Speed,2167.500000,-2181.818182,Speed,Off,Off,0.000000,FALSE,43,Read: /home/lvuser/scripts/auto_43.bee,File good!,WAIT 1500,WAIT,0.000000,0.000000
04:19:28.707 PM 04/09/2016,Autonomous Enabled,10,TRUE,7,Read from Text File in DoesScriptNumberContainNull.vi->Disabled.vi->Robot Main.vi<APPEND> /home/lvuser/scripts/auto_42.bee,0.000000,-0.012833,-0.000000,-0.012833,TRUE,FALSE,TRUE,TRUE,FALSE,FALSE,Disabled,0.000000,0.963210,-24.733210,TRUE,16.230347,-62.290512,0.000000,0.129059,-0.250305,0.000000,0.087000,-0.058000,0.009000,2.620000,-0.520000,0.060000,0.282937,Hold,0.917725,0.000000,ResetBack,1696.000000,-0.250000,LowGoal,2152.500000,-2181.818182,Speed,2122.500000,-2181.818182,Speed,Off,Off,0.000000,FALSE,43,Read: /home/lvuser/scripts/auto_43.bee,File good!,WAIT 1500,WAIT,0.000000,0.000000
