Time,Robot Mode,Loop Time,Error Status,Error Code,Error Source,Left Motor Output,Left Motor Encoder,Right Motor Output,Right Motor Encoder,Is Level,Is Stalled,Ball Detector Photoeye,Vision Enabled,Vision Teleop Control,Vision Auto Control,Vision Current State,Vision X Output,Vision NavX Error,Vision NavX Target,NavX Connection Status,NavX Displacement X,NavX Displacement Y,NavX Displacement Z,NavX Velocity X,NavX Velocity Y,NavX Velocity Z,NavX Acceleration X,NavX Acceleration Y,NavX Acceleration Z,NavX Pitch,NavX Yaw,NavX Roll,Gyro Angle,Roller Arm State,Roller Arm Actual,Roller Arm Desired,Shooter Arm State,Shooter Arm Actual,Shooter Arm Desired,Shooter State,Actual RPM Left,Desired RPM Left,Control Mode Left,Actual RPM Right,Desired RPM Right,Control Mode Right,Ball Shooter Cylinder,Ball Halo Cylinder,Scaler Motor Output,Scaler Solenoid Fire,Auto To Run,Auto Current File,Auto File Status,Auto Current Command,Auto Trimmed Command,Shooter Amps Left,Shooter Amps Right
02:52:24.037 PM 04/09/2016,Teleop Enabled,10,FALSE,0,NO ERROR,-0.000000,0.000000,-0.000000,0.000000,TRUE,FALSE,FALSE,FALSE,FALSE,FALSE,Disabled,-0.050000,0.833747,38.866253,TRUE,-0.945190,2.680740,0.000000,0.000000,0.000000,0.000000,0.000000,-0.001000,0.026000,2.470000,-0.170000,-0.680000,0.671464,ResetBack,64.806885,-0.000049,ResetBack,-77945.000000,-0.250000,Suck,0.000000,1818.181818,Speed,0.000000,1818.181818,Speed,Off,On,0.000000,FALSE,0,Read: /home/lvuser/scripts/auto_43.bee,File good!,DRIVE_STRAIGHT_NAVX_RAMPARTS 200 5000 10,DRIVE_STRAIGHT_NAVX_RAMPARTS,0.000000,0.000000
02:52:24.138 PM 04/09/2016,Teleop Enabled,11,FALSE,0,NO ERROR,-0.000000,-0.211750,-0.000000,-0.064167,TRUE,TRUE,TRUE,FALSE,FALSE,FALSE,Disabled,-0.050000,0.833747,38.866253,TRUE,-0.959610,2.683609,0.000000,0.000000,0.000000,0.000000,0.000000,0.000000,0.023000,2.490000,0.000000,-0.110000,-0.002923,ResetBack,0.935791,-0.000049,ResetBack,-113.000000,-0.250000,Empty,0.000000,0.000000,Speed,0.000000,0.000000,Speed,Off,On,0.000000,FALSE,0,Read: /home/lvuser/scripts/auto_43.bee,File good!,DRIVE_STRAIGHT_NAVX_RAMPARTS 200 5000 10,DRIVE_STRAIGHT_NAVX_RAMPARTS,0.000000,0.000000
02:52:24.238 PM 04/09/2016,Teleop Enabled,10,FALSE,0,NO ERROR,-0.204724,-0.211750,-0.204724,-0.064167,TRUE,FALSE,TRUE,FALSE,FALSE,FALSE,Disabled,-0.050000,0.833747,38.866253,TRUE,-0.959610,2.683609,0.000000,0.000000,0.000000,0.000000,0.006000,-0.008000,0.021000,2.490000,0.000000,-0.110000,0.002716,ResetBack,0.216064,-0.000049,ResetBack,-111.000000,-0.250000,Empty,0.000000,0.000000,Speed,0.000000,0.000000,Speed,Off,On,0.000000,FALSE,0,Read: /home/lvuser/scripts/auto_43.bee,File good!,DRIVE_STRAIGHT_NAVX_RAMPARTS 200 5000 10,DRIVE_STRAIGHT_NAVX_RAMPARTS,0.000000,0.000000
02:52:24.338 PM 04/09/2016,Teleop Enabled,11,FALSE,0,NO ERROR,-0.346457,0.077000,-0.346457,-0.070583,TRUE,FALSE,TRUE,FALSE,FALSE,FALSE,Disabled,-0.050000,0.833747,38.866253,TRUE,-0.959610,2.683609,0.000000,0.000000,0.000000,0.000000,-0.121000,0.028000,0.031000,2.490000,0.000000,-0.110000,-0.008276,ResetBack,-0.157471,-0.000049,ResetBack,-111.000000,-0.250000,Empty,0.000000,0.000000,Speed,0.000000,0.000000,Speed,Off,On,0.000000,FALSE,0,Read: /home/lvuser/scripts/auto_43.bee,File good!,DRIVE_STRAIGHT_NAVX_RAMPARTS 200 5000 10,DRIVE_STRAIGHT_NAVX_RAMPARTS,0.000000,0.000000
02:52:24.438 PM 04/09/2016,Teleop Enabled,11,FALSE,0,NO ERROR,-0.346457,0.474832,-0.346457,-0.609582,TRUE,FALSE,TRUE,FALSE,FALSE,FALSE,Disabled,-0.050000,0.833747,38.866253,TRUE,-0.957031,2.683853,0.000000,0.115616,-0.004211,0.000000,-0.039000,-0.144000,-0.087000,2.620000,1.500000,0.370000,1.074508,Reset,-0.157715,0.000000,ResetBack,-111.000000,-0.250000,Empty,0.000000,0.000000,Speed,0.000000,0.000000,Speed,Off,On,0.000000,FALSE,0,Read: /home/lvuser/scripts/auto_43.bee,File good!,DRIVE_STRAIGHT_NAVX_RAMPARTS 200 5000 10,DRIVE_STRAIGHT_NAVX_RAMPARTS,0.000000,0.000000
02:52:24.540 PM 04/09/2016,Teleop Enabled,9,FALSE,0,NO ERROR,-0.346457,0.923998,-0.346457,-1.148581,TRUE,FALSE,TRUE,FALSE,FALSE,FALSE,Disabled,-0.050000,0.833747,38.866253,TRUE,-0.954391,2.681686,0.000000,0.011673,-0.048569,0.000000,-0.039000,0.037000,0.014000,2.720000,3.230000,0.000000,2.701888,Hold,1.160889,0.000000,ResetBack,-111.000000,-0.250000,Empty,0.000000,0.000000,Speed,0.000000,0.000000,Speed,Off,On,0.000000,FALSE,0,Read: /home/lvuser/scripts/auto_43.bee,File good!,DRIVE_STRAIGHT_NAVX_RAMPARTS 200 5000 10,DRIVE_STRAIGHT_NAVX_RAMPARTS,0.000000,0.000000
02:52:24.639 PM 04/09/2016,Teleop Enabled,11,FALSE,0,NO ERROR,-0.346457,1.020248,-0.346457,-1.456580,TRUE,FALSE,TRUE,FALSE,FALSE,FALSE,Disabled,-0.050000,0.833747,38.866253,TRUE,-0.954437,2.678421,0.000000,-0.009567,-0.105957,0.000000,-0.012000,-0.055000,0.036000,2.440000,4.410000,-0.070000,3.184363,Hold,0.945068,0.000000,ResetBack,-110.000000,-0.250000,Empty,0.000000,0.000000,Speed,0.000000,0.000000,Speed,Off,On,0.000000,FALSE,0,Read: /home/lvuser/scripts/auto_43.bee,File good!,DRIVE_STRAIGHT_NAVX_RAMPARTS 200 5000 10,DRIVE_STRAIGHT_NAVX_RAMPARTS,0.000000,0.000000
02:52:24.740 PM 04/09/2016,Teleop Enabled,9,FALSE,0,NO ERROR,-0.346457,1.039498,-0.346457,-1.681163,TRUE,FALSE,TRUE,FALSE,FALSE,FALSE,Disabled,-0.050000,0.833747,38.866253,TRUE,-0.954666,2.672379,0.000000,0.001556,0.000000,0.000000,-0.023000,-0.038000,0.052000,2.530000,4.940000,-0.050000,3.304756,Hold,0.945068,0.000000,ResetBack,-110.000000,-0.250000,Empty,0.000000,0.000000,Speed,0.000000,0.000000,Speed,Off,On,0.000000,FALSE,0,Read: /home/lvuser/scripts/auto_43.bee,File good!,DRIVE_STRAIGHT_NAVX_RAMPARTS 200 5000 10,DRIVE_STRAIGHT_NAVX_RAMPARTS,0.000000,0.000000
02:52:24.840 PM 04/09/2016,Teleop Enabled,11,FALSE,0,NO ERROR,-0.551181,1.065164,-0.551181,-1.841579,TRUE,FALSE,TRUE,FALSE,FALSE,FALSE,Disabled,-0.050000,0.833747,38.866253,TRUE,-0.954803,2.672089,0.000000,0.000000,0.000000,0.000000,-0.031000,-0.001000,0.050000,2.520000,5.130000,-0.100000,3.291137,Hold,0.945068,0.000000,ResetBack,-110.000000,-0.250000,Empty,0.000000,0.000000,Speed,0.000000,0.000000,Speed,Off,On,0.000000,FALSE,0,Read: /home/lvuser/scripts/auto_43.bee,File good!,DRIVE_STRAIGHT_NAVX_RAMPARTS 200 5000 10,DRIVE_STRAIGHT_NAVX_RAMPARTS,0.000000,0.000000
02:52:24.941 PM 04/09/2016,Teleop Enabled,9,FALSE,0,NO ERROR,-0.787402,1.148581,-0.787402,-2.021245,TRUE,FALSE,TRUE,FALSE,FALSE,FALSE,Disabled,-0.050000,0.833747,38.866253,TRUE,-0.954926,2.672119,0.000000,0.005600,0.003387,0.000000,0.107000,0.104000,0.067000,2.550000,5.550000,-0.010000,3.238208,Hold,0.945068,0.000000,ResetBack,-110.000000,-0.250000,Empty,0.000000,0.000000,Speed,0.000000,0.000000,Speed,Off,On,0.000000,FALSE,0,Read: /home/lvuser/scripts/auto_43.bee,File good!,DRIVE_STRAIGHT_NAVX_RAMPARTS 200 5000 10,DRIVE_STRAIGHT_NAVX_RAMPARTS,0.000000,0.000000
02:52:25.041 PM 04/09/2016,Teleop Enabled,9,FALSE,0,NO ERROR,-1.000000,1.899329,-1.000000,-2.900327,TRUE,FALSE,TRUE,FALSE,FALSE,FALSE,Disabled,-0.050000,0.833747,38.866253,TRUE,-0.951889,2.674545,0.000000,0.094284,0.078644,0.000000,0.272000,0.114000,0.000000,2.980000,8.410000,0.400000,5.382123,Hold,0.945068,0.000000,ResetBack,-110.000000,-0.250000,Empty,0.000000,0.000000,Speed,0.000000,0.000000,Speed,Off,On,0.000000,FALSE,0,Read: /home/lvuser/scripts/auto_43.bee,File good!,DRIVE_STRAIGHT_NAVX_RAMPARTS 200 5000 10,DRIVE_STRAIGHT_NAVX_RAMPARTS,0.000000,0.000000
02:52:25.144 PM 04/09/2016,Teleop Enabled,9,FALSE,0,NO ERROR,-1.000000,3.721658,-1.000000,-4.979322,FALSE,FALSE,TRUE,FALSE,FALSE,FALSE,Disabled,-0.050000,0.833747,38.866253,TRUE,-0.942184,2.679428,0.000000,0.254593,0.079590,0.000000,0.167000,0.020000,0.123000,3.550000,17.900000,0.930000,11.735625,Hold,0.945068,0.000000,ResetBack,-110.000000,-0.250000,Empty,0.000000,0.000000,Speed,0.000000,0.000000,Speed,Off,On,0.000000,FALSE,0,Read: /home/lvuser/scripts/auto_43.bee,File good!,DRIVE_STRAIGHT_NAVX_RAMPARTS 200 5000 10,DRIVE_STRAIGHT_NAVX_RAMPARTS,0.000000,0.000000
02:52:25.244 PM 04/09/2016,Teleop Enabled,9,FALSE,0,NO ERROR,-0.181102,6.634818,-0.181102,-8.168398,FALSE,FALSE,TRUE,FALSE,FALSE,FALSE,Disabled,-0.050000,0.833747,38.866253,TRUE,-0.921585,2.686020,0.000000,0.395065,0.114075,0.000000,0.066000,-0.155000,0.021000,3.920000,27.430000,1.040000,21.967986,Hold,0.945068,0.000000,ResetBack,-110.000000,-0.250000,Empty,0.000000,0.000000,Speed,0.000000,0.000000,Speed,Off,On,0.000000,FALSE,0,Read: /home/lvuser/scripts/auto_43.bee,File good!,DRIVE_STRAIGHT_NAVX_RAMPARTS 200 5000 10,DRIVE_STRAIGHT_NAVX_RAMPARTS,0.000000,0.000000
02:52:25.344 PM 04/09/2016,Teleop Enabled,9,FALSE,0,NO ERROR,-0.000000,9.778977,-0.000000,-11.530723,FALSE,FALSE,TRUE,FALSE,FALSE,FALSE,Disabled,-0.050000,0.833747,38.866253,TRUE,-0.904938,2.688232,0.000000,0.413193,0.024384,0.000000,-0.219000,0.007000,-0.148000,3.990000,41.890000,0.690000,35.164567,Hold,0.945068,0.000000,Reset,-110.000000,2.000000,Suck,0.000000,1818.181818,Speed,0.000000,1818.181818,Speed,Off,On,0.000000,FALSE,0,Read: /home/lvuser/scripts/auto_43.bee,File good!,DRIVE_STRAIGHT_NAVX_RAMPARTS 200 5000 10,DRIVE_STRAIGHT_NAVX_RAMPARTS,0.000000,0.000000
02:52:25.444 PM 04/09/2016,Teleop Enabled,10,FALSE,0,NO ERROR,-0.000000,11.318974,-0.000000,-13.359469,TRUE,FALSE,TRUE,FALSE,FALSE,FALSE,Disabled,-0.050000,0.833747,38.866253,TRUE,-0.893158,2.690033,0.000000,0.019531,0.012848,0.000000,-0.358000,-0.059000,0.188000,2.450000,50.460000,-0.100000,43.324762,Hold,0.945068,0.000000,Hold,-135.000000,2.000000,Hold,-15.000000,0.000000,Speed,-7.500000,0.000000,Speed,Off,Off,0.000000,FALSE,0,Read: /home/lvuser/scripts/auto_43.bee,File good!,DRIVE_STRAIGHT_NAVX_RAMPARTS 200 5000 10,DRIVE_STRAIGHT_NAVX_RAMPARTS,0.000000,0.000000
02:52:25.544 PM 04/09/2016,Teleop Enabled,9,FALSE,0,NO ERROR,-0.000000,11.395973,-0.000000,-13.487802,TRUE,FALSE,TRUE,FALSE,FALSE,FALSE,Disabled,-0.050000,0.833747,38.866253,TRUE,-0.896194,2.692154,0.000000,-0.088272,0.096603,0.000000,0.021000,0.154000,-0.131000,2.300000,50.800000,-0.910000,44.010028,Hold,0.945068,0.000000,Hold,-135.000000,2.000000,Hold,-412.500000,0.000000,Speed,-435.000000,0.000000,Speed,Off,Off,0.000000,FALSE,0,Read: /home/lvuser/scripts/auto_43.bee,File good!,DRIVE_STRAIGHT_NAVX_RAMPARTS 200 5000 10,DRIVE_STRAIGHT_NAVX_RAMPARTS,0.000000,0.000000
02:52:25.644 PM 04/09/2016,Teleop Enabled,9,FALSE,0,NO ERROR,-0.000000,11.306140,-0.000000,-13.372302,TRUE,FALSE,TRUE,FALSE,FALSE,FALSE,Disabled,-0.050000,0.833747,38.866253,TRUE,-0.901489,2.700287,0.000000,-0.091522,0.117767,0.000000,0.075000,0.077000,0.004000,2.020000,49.860000,-0.900000,42.557970,Hold,0.945068,0.000000,Hold,-135.000000,2.000000,Hold,-517.500000,0.000000,Speed,-495.000000,0.000000,Speed,Off,Off,0.000000,FALSE,0,Read: /home/lvuser/scripts/auto_43.bee,File good!,DRIVE_STRAIGHT_NAVX_RAMPARTS 200 5000 10,DRIVE_STRAIGHT_NAVX_RAMPARTS,0.000000,0.000000
02:52:25.744 PM 04/09/2016,Teleop Enabled,8,FALSE,0,NO ERROR,-0.000000,11.306140,-0.000000,-13.378719,TRUE,FALSE,TRUE,FALSE,FALSE,FALSE,Disabled,-0.050000,0.833747,38.866253,TRUE,-0.903748,2.707321,0.000000,-0.022690,0.157684,0.000000,-0.049000,-0.085000,0.074000,2.300000,50.070000,-0.650000,42.578891,Hold,0.945068,0.000000,Hold,-135.000000,2.000000,Hold,-457.500000,0.000000,Speed,-382.500000,0.000000,Speed,Off,Off,0.000000,FALSE,0,Read: /home/lvuser/scripts/auto_43.bee,File good!,DRIVE_STRAIGHT_NAVX_RAMPARTS 200 5000 10,DRIVE_STRAIGHT_NAVX_RAMPARTS,0.000000,0.000000
02:52:25.845 PM 04/09/2016,Teleop Enabled,12,FALSE,0,NO ERROR,-0.000000,11.306140,-0.000000,-13.365885,TRUE,FALSE,TRUE,FALSE,FALSE,FALSE,Disabled,-0.050000,0.833747,38.866253,TRUE,-0.905441,2.713486,0.000000,-0.029266,0.118469,0.000000,0.019000,0.034000,-0.036000,2.240000,49.970000,-0.610000,42.309091,Hold,0.945068,0.000000,Hold,-135.000000,2.000000,Hold,-390.000000,0.000000,Speed,-307.500000,0.000000,Speed,Off,Off,0.000000,FALSE,0,Read: /home/lvuser/scripts/auto_43.bee,File good!,DRIVE_STRAIGHT_NAVX_RAMPARTS 200 5000 10,DRIVE_STRAIGHT_NAVX_RAMPARTS,0.000000,0.000000
02:52:25.945 PM 04/09/2016,Teleop Enabled,9,FALSE,0,NO ERROR,-0.000000,11.306140,-0.000000,-13.365885,TRUE,FALSE,TRUE,FALSE,FALSE,FALSE,Disabled,-0.050000,0.833747,38.866253,TRUE,-0.905624,2.717453,0.000000,0.005585,0.000000,0.000000,0.035000,0.011000,0.027000,2.230000,49.960000,-0.620000,42.151869,Hold,0.945068,0.000000,Hold,-135.000000,2.000000,Hold,-330.000000,0.000000,Speed,-195.000000,0.000000,Speed,Off,Off,0.000000,FALSE,0,Read: /home/lvuser/scripts/auto_43.bee,File good!,DRIVE_STRAIGHT_NAVX_RAMPARTS 200 5000 10,DRIVE_STRAIGHT_NAVX_RAMPARTS,0.000000,0.000000
02:52:26.045 PM 04/09/2016,Teleop Disabled,9,FALSE,0,NO ERROR,-0.000000,11.306140,-0.000000,-13.365885,TRUE,FALSE,TRUE,TRUE,FALSE,FALSE,Disabled,-0.050000,0.833747,38.866253,TRUE,-0.904358,2.717453,0.000000,0.034012,0.000000,0.000000,0.012000,0.009000,0.024000,2.260000,49.960000,-0.530000,41.952972,Hold,0.945068,0.000000,Hold,-135.000000,2.000000,Hold,-277.500000,0.000000,Speed,-135.000000,0.000000,Speed,Off,Off,0.000000,FALSE,0,Read: /home/lvuser/scripts/auto_43.bee,File good!,DRIVE_STRAIGHT_NAVX_RAMPARTS 200 5000 10,DRIVE_STRAIGHT_NAVX_RAMPARTS,0.000000,0.000000
02:52:26.145 PM 04/09/2016,Teleop Disabled,9,FALSE,0,NO ERROR,-0.000000,11.306140,-0.000000,-13.365885,TRUE,FALSE,TRUE,TRUE,FALSE,FALSE,Disabled,-0.050000,0.833747,38.866253,TRUE,-0.903564,2.717667,0.000000,0.003220,0.010040,0.000000,0.021000,0.015000,0.019000,2.280000,49.960000,-0.500000,41.792772,Hold,0.945068,0.000000,Hold,-1176.000000,2.000000,Hold,-217.500000,0.000000,Speed,-67.500000,0.000000,Speed,Off,Off,0.000000,FALSE,0,Read: /home/lvuser/scripts/auto_43.bee,File good!,DRIVE_STRAIGHT_NAVX_RAMPARTS 200 5000 10,DRIVE_STRAIGHT_NAVX_RAMPARTS,0.000000,0.000000
02:52:26.245 PM 04/09/2016,Teleop Disabled,9,FALSE,0,NO ERROR,-0.000000,11.306140,-0.000000,-13.365885,TRUE,FALSE,TRUE,TRUE,FALSE,FALSE,Disabled,-0.050000,0.833747,38.866253,TRUE,-0.903397,2.717667,0.000000,0.000000,0.000000,0.000000,0.016000,0.018000,0.016000,2.280000,49.960000,-0.450000,41.627905,Hold,0.945068,0.000000,Hold,-1975.000000,2.000000,Hold,-172.500000,0.000000,Speed,-7.500000,0.000000,Speed,Off,Off,0.000000,FALSE,0,Read: /home/lvuser/scripts/auto_43.bee,File good!,DRIVE_STRAIGHT_NAVX_RAMPARTS 200 5000 10,DRIVE_STRAIGHT_NAVX_RAMPARTS,0.000000,0.000000
02:52:26.345 PM 04/09/2016,Teleop Disabled,9,FALSE,0,NO ERROR,-0.000000,11.306140,-0.000000,-13.365885,TRUE,FALSE,TRUE,TRUE,FALSE,FALSE,Disabled,-0.050000,0.833747,38.866253,TRUE,-0.903397,2.717667,0.000000,0.000000,0.000000,0.000000,0.009000,-0.002000,0.019000,2.290000,49.960000,-0.420000,41.465113,Hold,0.945068,0.000000,Hold,-1975.000000,2.000000,Hold,-120.000000,0.000000,Speed,0.000000,0.000000,Speed,Off,Off,0.000000,FALSE,0,Read: /home/lvuser/scripts/auto_43.bee,File good!,DRIVE_STRAIGHT_NAVX_RAMPARTS 200 5000 10,DRIVE_STRAIGHT_NAVX_RAMPARTS,0.000000,0.000000
02:52:26.445 PM 04/09/2016,Teleop Disabled,10,FALSE,0,NO ERROR,-0.000000,11.306140,-0.000000,-13.365885,TRUE,FALSE,TRUE,TRUE,FALSE,FALSE,Disabled,-0.050000,0.833747,38.866253,TRUE,-0.903397,2.717667,0.000000,0.000000,0.000000,0.000000,0.009000,-0.002000,0.019000,2.310000,49.960000,-0.390000,41.302156,Hold,0.945068,0.000000,Hold,-1975.000000,2.000000,Hold,-67.500000,0.000000,Speed,0.000000,0.000000,Speed,Off,Off,0.000000,FALSE,0,Read: /home/lvuser/scripts/auto_43.bee,File good!,DRIVE_STRAIGHT_NAVX_RAMPARTS 200 5000 10,DRIVE_STRAIGHT_NAVX_RAMPARTS,0.000000,0.000000
02:52:26.545 PM 04/09/2016,Teleop Disabled,9,FALSE,0,NO ERROR,-0.000000,11.306140,-0.000000,-13.365885,TRUE,FALSE,TRUE,TRUE,FALSE,FALSE,Disabled,-0.050000,0.833747,38.866253,TRUE,-0.903397,2.717667,0.000000,0.000000,0.000000,0.000000,0.004000,-0.004000,0.018000,2.330000,49.950000,-0.370000,41.130483,Hold,0.945068,0.000000,Hold,-1975.000000,2.000000,Hold,0.000000,0.000000,Speed,0.000000,0.000000,Speed,Off,Off,0.000000,FALSE,0,Read: /home/lvuser/scripts/auto_43.bee,File good!,DRIVE_STRAIGHT_NAVX_RAMPARTS 200 5000 10,DRIVE_STRAIGHT_NAVX_RAMPARTS,0.000000,0.000000
02:52:26.645 PM 04/09/2016,Teleop Disabled,9,FALSE,0,NO ERROR,-0.000000,11.383140,-0.000000,-13.365885,TRUE,FALSE,TRUE,TRUE,FALSE,FALSE,Disabled,0.000000,0.833747,38.866253,TRUE,-0.903214,2.717789,0.000000,0.000000,0.000000,0.000000,0.004000,-0.004000,0.018000,2.330000,49.950000,-0.310000,40.957883,Hold,0.945068,0.000000,Hold,-1975.000000,2.000000,LowGoal,0.000000,-2181.818182,Speed,0.000000,-2181.818182,Speed,Off,Off,0.000000,FALSE,0,Read: /home/lvuser/scripts/auto_43.bee,File good!,DRIVE_STRAIGHT_NAVX_RAMPARTS 200 5000 10,DRIVE_STRAIGHT_NAVX_RAMPARTS,0.000000,0.000000
02:52:26.746 PM 04/09/2016,Teleop Disabled,10,FALSE,0,NO ERROR,-0.000000,11.383140,-0.000000,-13.365885,TRUE,FALSE,TRUE,TRUE,FALSE,FALSE,Disabled,0.000000,0.833747,38.866253,TRUE,-0.903214,2.717789,0.000000,0.000000,0.000000,0.000000,0.011000,0.006000,0.020000,2.330000,49.950000,-0.310000,40.806170,Hold,0.945068,0.000000,Hold,-1975.000000,2.000000,LowGoal,0.000000,-2181.818182,Speed,0.000000,-2181.818182,Speed,Off,Off,0.000000,FALSE,0,Read: /home/lvuser/scripts/auto_43.bee,File good!,DRIVE_STRAIGHT_NAVX_RAMPARTS 200 5000 10,DRIVE_STRAIGHT_NAVX_RAMPARTS,0.000000,0.000000
02:52:26.846 PM 04/09/2016,Teleop Disabled,9,FALSE,0,NO ERROR,-0.000000,11.383140,-0.000000,-13.365885,TRUE,FALSE,TRUE,TRUE,FALSE,FALSE,Disabled,0.000000,0.833747,38.866253,TRUE,-0.903214,2.717789,0.000000,0.000000,0.000000,0.000000,0.005000,-0.002000,0.016000,2.340000,49.940000,-0.290000,40.642266,Hold,0.945068,0.000000,Hold,-1975.000000,2.000000,LowGoal,0.000000,-2181.818182,Speed,0.000000,-2181.818182,Speed,Off,Off,0.000000,FALSE,0,Read: /home/lvuser/scripts/auto_43.bee,File good!,DRIVE_STRAIGHT_NAVX_RAMPARTS 200 5000 10,DRIVE_STRAIGHT_NAVX_RAMPARTS,0.000000,0.000000
02:52:26.946 PM 04/09/2016,Teleop Disabled,7,FALSE,0,NO ERROR,-0.000000,11.383140,-0.000000,-13.365885,TRUE,FALSE,TRUE,TRUE,FALSE,FALSE,Disabled,0.000000,0.833747,38.866253,TRUE,-0.903214,2.717789,0.000000,0.000000,0.000000,0.000000,0.004000,0.001000,0.012000,2.350000,49.940000,-0.270000,40.460761,Hold,0.945068,0.000000,Hold,-1975.000000,2.000000,LowGoal,0.000000,-2181.818182,Speed,0.000000,-2181.818182,Speed,Off,Off,0.000000,FALSE,0,Read: /home/lvuser/scripts/auto_43.bee,File good!,DRIVE_STRAIGHT_NAVX_RAMPARTS 200 5000 10,DRIVE_STRAIGHT_NAVX_RAMPARTS,0.000000,0.000000
02:52:27.046 PM 04/09/2016,Teleop Disabled,10,FALSE,0,NO ERROR,-0.000000,11.383140,-0.000000,-13.365885,TRUE,FALSE,TRUE,TRUE,FALSE,FALSE,Disabled,0.000000,0.833747,38.866253,TRUE,-0.903214,2.717789,0.000000,0.000000,0.000000,0.000000,0.000000,-0.002000,0.020000,2.360000,49.940000,-0.260000,40.303191,Hold,0.945068,0.000000,Hold,-1975.000000,2.000000,LowGoal,0.000000,-2181.818182,Speed,0.000000,-2181.818182,Speed,Off,Off,0.000000,FALSE,0,Read: /home/lvuser/scripts/auto_43.bee,File good!,DRIVE_STRAIGHT_NAVX_RAMPARTS 200 5000 10,DRIVE_STRAIGHT_NAVX_RAMPARTS,0.000000,0.000000
02:52:27.146 PM 04/09/2016,Teleop Disabled,11,FALSE,0,NO ERROR,-0.000000,11.383140,-0.000000,-13.365885,TRUE,FALSE,TRUE,TRUE,FALSE,FALSE,Disabled,0.000000,0.833747,38.866253,TRUE,-0.903214,2.717789,0.000000,0.000000,0.000000,0.000000,0.000000,-0.001000,0.024000,2.380000,49.940000,-0.240000,40.143749,Hold,0.945068,0.000000,Hold,-1975.000000,2.000000,LowGoal,0.000000,-2181.818182,Speed,0.000000,-2181.818182,Speed,Off,Off,0.000000,FALSE,0,Read: /home/lvuser/scripts/auto_43.bee,File good!,DRIVE_STRAIGHT_NAVX_RAMPARTS 200 5000 10,DRIVE_STRAIGHT_NAVX_RAMPARTS,0.000000,0.000000
02:52:27.246 PM 04/09/2016,Teleop Disabled,9,FALSE,0,NO ERROR,-0.000000,11.383140,-0.000000,-13.365885,TRUE,FALSE,TRUE,TRUE,FALSE,FALSE,Disabled,0.000000,0.833747,38.866253,TRUE,-0.903214,2.717789,0.000000,0.000000,0.000000,0.000000,0.005000,-0.002000,0.020000,2.380000,49.940000,-0.230000,39.984300,Hold,0.945068,0.000000,Hold,-1975.000000,2.000000,LowGoal,0.000000,-2181.818182,Speed,0.000000,-2181.818182,Speed,Off,Off,0.000000,FALSE,0,Read: /home/lvuser/scripts/auto_43.bee,File good!,DRIVE_STRAIGHT_NAVX_RAMPARTS 200 5000 10,DRIVE_STRAIGHT_NAVX_RAMPARTS,0.000000,0.000000
02:52:27.346 PM 04/09/2016,Teleop Disabled,13,FALSE,0,NO ERROR,-0.000000,11.383140,-0.000000,-13.365885,TRUE,FALSE,TRUE,TRUE,FALSE,FALSE,Disabled,0.000000,0.833747,38.866253,TRUE,-0.903214,2.717789,0.000000,0.000000,0.000000,0.000000,0.001000,0.000000,0.022000,2.390000,49.930000,-0.220000,39.822170,Hold,0.945068,0.000000,Hold,-1975.000000,2.000000,LowGoal,0.000000,-2181.818182,Speed,0.000000,-2181.818182,Speed,Off,Off,0.000000,FALSE,0,Read: /home/lvuser/scripts/auto_43.bee,File good!,DRIVE_STRAIGHT_NAVX_RAMPARTS 200 5000 10,DRIVE_STRAIGHT_NAVX_RAMPARTS,0.000000,0.000000
02:52:27.447 PM 04/09/2016,Teleop Disabled,9,FALSE,0,NO ERROR,-0.000000,11.383140,-0.000000,-13.365885,TRUE,FALSE,TRUE,TRUE,FALSE,FALSE,Disabled,0.000000,0.833747,38.866253,TRUE,-0.903214,2.717789,0.000000,0.000000,0.000000,0.000000,0.002000,-0.002000,0.023000,2.400000,49.930000,-0.200000,39.653433,Hold,0.945068,0.000000,Hold,-1975.000000,2.000000,LowGoal,0.000000,-2181.818182,Speed,0.000000,-2181.818182,Speed,Off,Off,0.000000,FALSE,0,Read: /home/lvuser/scripts/auto_43.bee,File good!,DRIVE_STRAIGHT_NAVX_RAMPARTS 200 5000 10,DRIVE_STRAIGHT_NAVX_RAMPARTS,0.000000,0.000000
02:52:27.550 PM 04/09/2016,Teleop Disabled,10,FALSE,0,NO ERROR,-0.000000,11.383140,-0.000000,-13.365885,TRUE,FALSE,TRUE,TRUE,FALSE,FALSE,Disabled,0.000000,0.833747,38.866253,TRUE,-0.903214,2.717789,0.000000,0.000000,0.000000,0.000000,0.002000,-0.002000,0.023000,2.410000,49.930000,-0.190000,39.479397,Hold,0.945068,0.000000,Hold,-1975.000000,2.000000,LowGoal,0.000000,-2181.818182,Speed,0.000000,-2181.818182,Speed,Off,Off,0.000000,FALSE,0,Read: /home/lvuser/scripts/auto_43.bee,File good!,DRIVE_STRAIGHT_NAVX_RAMPARTS 200 5000 10,DRIVE_STRAIGHT_NAVX_RAMPARTS,0.000000,0.000000
02:52:27.651 PM 04/09/2016,Teleop Disabled,10,FALSE,0,NO ERROR,-0.000000,11.383140,-0.000000,-13.365885,TRUE,FALSE,TRUE,TRUE,FALSE,FALSE,Disabled,0.000000,0.833747,38.866253,TRUE,-0.903214,2.717789,0.000000,0.000000,0.000000,0.000000,0.001000,-0.002000,0.020000,2.410000,49.930000,-0.190000,39.312420,Hold,0.945068,0.000000,Hold,-1975.000000,2.000000,LowGoal,0.000000,-2181.818182,Speed,0.000000,-2181.818182,Speed,Off,Off,0.000000,FALSE,0,Read: /home/lvuser/scripts/auto_43.bee,File good!,DRIVE_STRAIGHT_NAVX_RAMPARTS 200 5000 10,DRIVE_STRAIGHT_NAVX_RAMPARTS,0.000000,0.000000
02:52:27.752 PM 04/09/2016,Teleop Disabled,10,FALSE,0,NO ERROR,-0.000000,11.383140,-0.000000,-13.365885,TRUE,FALSE,TRUE,TRUE,FALSE,FALSE,Disabled,0.000000,0.833747,38.866253,TRUE,-0.903214,2.717789,0.000000,0.000000,0.000000,0.000000,0.002000,-0.002000,0.023000,2.410000,49.920000,-0.180000,39.150778,Hold,0.945068,0.000000,Hold,-1975.000000,2.000000,LowGoal,0.000000,-2181.818182,Speed,0.000000,-2181.818182,Speed,Off,Off,0.000000,FALSE,0,Read: /home/lvuser/scripts/auto_43.bee,File good!,DRIVE_STRAIGHT_NAVX_RAMPARTS 200 5000 10,DRIVE_STRAIGHT_NAVX_RAMPARTS,0.000000,0.000000
02:52:27.852 PM 04/09/2016,Teleop Disabled,11,FALSE,0,NO ERROR,-0.000000,11.383140,-0.000000,-13.365885,TRUE,FALSE,TRUE,TRUE,FALSE,FALSE,Disabled,0.000000,0.833747,38.866253,TRUE,-0.903214,2.717789,0.000000,0.000000,0.000000,0.000000,0.000000,-0.002000,0.023000,2.410000,49.920000,-0.170000,38.990282,Hold,0.945068,0.000000,Hold,-1975.000000,2.000000,LowGoal,0.000000,-2181.818182,Speed,0.000000,-2181.818182,Speed,Off,Off,0.000000,FALSE,0,Read: /home/lvuser/scripts/auto_43.bee,File good!,DRIVE_STRAIGHT_NAVX_RAMPARTS 200 5000 10,DRIVE_STRAIGHT_NAVX_RAMPARTS,0.000000,0.000000
02:52:27.952 PM 04/09/2016,Teleop Disabled,10,FALSE,0,NO ERROR,-0.000000,11.383140,-0.000000,-13.365885,TRUE,FALSE,TRUE,TRUE,FALSE,FALSE,Disabled,0.000000,0.833747,38.866253,TRUE,-0.903214,2.717789,0.000000,0.000000,0.000000,0.000000,0.000000,0.000000,0.020000,2.420000,49.920000,-0.160000,38.808887,Hold,0.945068,0.000000,Hold,-1975.000000,2.000000,LowGoal,0.000000,-2181.818182,Speed,0.000000,-2181.818182,Speed,Off,Off,0.000000,FALSE,0,Read: /home/lvuser/scripts/auto_43.bee,File good!,DRIVE_STRAIGHT_NAVX_RAMPARTS 200 5000 10,DRIVE_STRAIGHT_NAVX_RAMPARTS,0.000000,0.000000
02:52:28.052 PM 04/09/2016,Teleop Disabled,11,FALSE,0,NO ERROR,-0.000000,11.383140,-0.000000,-13.365885,TRUE,FALSE,TRUE,TRUE,FALSE,FALSE,Disabled,0.000000,0.833747,38.866253,TRUE,-0.903214,2.717789,0.000000,0.000000,0.000000,0.000000,0.000000,0.001000,0.025000,2.420000,49.920000,-0.150000,38.606361,Hold,0.945068,0.000000,Hold,-1975.000000,2.000000,LowGoal,0.000000,-2181.818182,Speed,0.000000,-2181.818182,Speed,Off,Off,0.000000,FALSE,0,Read: /home/lvuser/scripts/auto_43.bee,File good!,DRIVE_STRAIGHT_NAVX_RAMPARTS 200 5000 10,DRIVE_STRAIGHT_NAVX_RAMPARTS,0.000000,0.000000
02:52:28.152 PM 04/09/2016,Teleop Disabled,11,FALSE,0,NO ERROR,-0.000000,11.383140,-0.000000,-13.365885,TRUE,FALSE,TRUE,TRUE,FALSE,FALSE,Disabled,0.000000,0.833747,38.866253,TRUE,-0.903214,2.717789,0.000000,0.000000,0.000000,0.000000,0.001000,-0.002000,0.022000,2.420000,49.920000,-0.140000,38.436075,Hold,0.945068,0.000000,Hold,-1975.000000,2.000000,LowGoal,0.000000,-2181.818182,Speed,0.000000,-2181.818182,Speed,Off,Off,0.000000,FALSE,0,Read: /home/lvuser/scripts/auto_43.bee,File good!,DRIVE_STRAIGHT_NAVX_RAMPARTS 200 5000 10,DRIVE_STRAIGHT_NAVX_RAMPARTS,0.000000,0.000000
02:52:28.253 PM 04/09/2016,Teleop Disabled,11,FALSE,0,NO ERROR,-0.000000,11.383140,-0.000000,-13.365885,TRUE,FALSE,TRUE,TRUE,FALSE,FALSE,Disabled,0.000000,0.833747,38.866253,TRUE,-0.903214,2.717789,0.000000,0.000000,0.000000,0.000000,0.004000,-0.001000,0.025000,2.420000,49.920000,-0.130000,38.436075,Hold,0.945068,0.000000,Hold,-1975.000000,2.000000,LowGoal,0.000000,-2181.818182,Speed,0.000000,-2181.818182,Speed,Off,Off,0.000000,FALSE,0,Read: /home/lvuser/scripts/auto_43.bee,File good!,DRIVE_STRAIGHT_NAVX_RAMPARTS 200 5000 10,DRIVE_STRAIGHT_NAVX_RAMPARTS,0.000000,0.000000
02:52:28.355 PM 04/09/2016,Teleop Disabled,13,FALSE,0,NO ERROR,-0.000000,11.383140,-0.000000,-13.365885,TRUE,FALSE,TRUE,TRUE,FALSE,FALSE,Disabled,0.000000,0.833747,38.866253,TRUE,-0.903214,2.717789,0.000000,0.000000,0.000000,0.000000,0.001000,0.000000,0.021000,2.430000,49.920000,-0.120000,38.279191,Hold,0.945068,0.000000,Hold,-1975.000000,2.000000,LowGoal,0.000000,-2181.818182,Speed,0.000000,-2181.818182,Speed,Off,Off,0.000000,FALSE,0,Read: /home/lvuser/scripts/auto_43.bee,File good!,DRIVE_STRAIGHT_NAVX_RAMPARTS 200 5000 10,DRIVE_STRAIGHT_NAVX_RAMPARTS,0.000000,0.000000
02:52:28.453 PM 04/09/2016,Teleop Disabled,11,FALSE,0,NO ERROR,-0.000000,11.383140,-0.000000,-13.365885,TRUE,FALSE,TRUE,TRUE,FALSE,FALSE,Disabled,0.000000,0.833747,38.866253,TRUE,-0.903214,2.717789,0.000000,0.000000,0.000000,0.000000,-0.002000,0.000000,0.025000,2.430000,49.910000,-0.110000,38.102667,Hold,0.945068,0.000000,Hold,-1975.000000,2.000000,LowGoal,0.000000,-2181.818182,Speed,0.000000,-2181.818182,Speed,Off,Off,0.000000,FALSE,0,Read: /home/lvuser/scripts/auto_43.bee,File good!,DRIVE_STRAIGHT_NAVX_RAMPARTS 200 5000 10,DRIVE_STRAIGHT_NAVX_RAMPARTS,0.000000,0.000000
02:52:28.553 PM 04/09/2016,Teleop Disabled,11,FALSE,0,NO ERROR,-0.000000,11.383140,-0.000000,-13.365885,TRUE,FALSE,TRUE,TRUE,FALSE,FALSE,Disabled,0.000000,0.833747,38.866253,TRUE,-0.903214,2.717789,0.000000,0.000000,0.000000,0.000000,0.002000,0.000000,0.021000,2.430000,49.910000,-0.110000,37.938016,Hold,0.945068,0.000000,Hold,-1975.000000,2.000000,LowGoal,0.000000,-2181.818182,Speed,0.000000,-2181.818182,Speed,Off,Off,0.000000,FALSE,0,Read: /home/lvuser/scripts/auto_43.bee,File good!,DRIVE_STRAIGHT_NAVX_RAMPARTS 200 5000 10,DRIVE_STRAIGHT_NAVX_RAMPARTS,0.000000,0.000000
02:52:28.653 PM 04/09/2016,Teleop Disabled,10,FALSE,0,NO ERROR,-0.000000,11.383140,-0.000000,-13.365885,TRUE,FALSE,TRUE,TRUE,FALSE,FALSE,Disabled,0.000000,0.833747,38.866253,TRUE,-0.903214,2.717789,0.000000,0.000000,0.000000,0.000000,0.002000,0.000000,0.022000,2.430000,49.910000,-0.100000,37.780078,Hold,0.945068,0.000000,Hold,-1975.000000,2.000000,LowGoal,0.000000,-2181.818182,Speed,0.000000,-2181.818182,Speed,Off,Off,0.000000,FALSE,0,Read: /home/lvuser/scripts/auto_43.bee,File good!,DRIVE_STRAIGHT_NAVX_RAMPARTS 200 5000 10,DRIVE_STRAIGHT_NAVX_RAMPARTS,0.000000,0.000000
02:52:28.753 PM 04/09/2016,Teleop Disabled,11,FALSE,0,NO ERROR,-0.000000,11.383140,-0.000000,-13.365885,TRUE,FALSE,TRUE,TRUE,FALSE,FALSE,Disabled,0.000000,0.833747,38.866253,TRUE,-0.903214,2.717789,0.000000,0.000000,0.000000,0.000000,-0.001000,-0.001000,0.022000,2.440000,49.910000,-0.100000,37.618268,Hold,0.945068,0.000000,Hold,-1975.000000,2.000000,LowGoal,0.000000,-2181.818182,Speed,0.000000,-2181.818182,Speed,Off,Off,0.000000,FALSE,0,Read: /home/lvuser/scripts/auto_43.bee,File good!,DRIVE_STRAIGHT_NAVX_RAMPARTS 200 5000 10,DRIVE_STRAIGHT_NAVX_RAMPARTS,0.000000,0.000000
02:52:28.853 PM 04/09/2016,Teleop Disabled,11,FALSE,0,NO ERROR,-0.000000,11.383140,-0.000000,-13.365885,TRUE,FALSE,TRUE,TRUE,FALSE,FALSE,Disabled,0.000000,0.833747,38.866253,TRUE,-0.903214,2.717789,0.000000,0.000000,0.000000,0.000000,0.000000,-0.001000,0.021000,2.430000,49.910000,-0.100000,37.453603,Hold,0.945068,0.000000,Hold,-1975.000000,2.000000,LowGoal,0.000000,-2181.818182,Speed,0.000000,-2181.818182,Speed,Off,Off,0.000000,FALSE,0,Read: /home/lvuser/scripts/auto_43.bee,File good!,DRIVE_STRAIGHT_NAVX_RAMPARTS 200 5000 10,DRIVE_STRAIGHT_NAVX_RAMPARTS,0.000000,0.000000
02:52:28.955 PM 04/09/2016,Teleop Disabled,11,FALSE,0,NO ERROR,-0.000000,11.383140,-0.000000,-13.365885,TRUE,TRUE,TRUE,TRUE,FALSE,FALSE,Disabled,0.000000,0.833747,38.866253,TRUE,-0.903214,2.717789,0.000000,0.000000,0.000000,0.000000,-0.002000,-0.001000,0.025000,2.430000,49.910000,-0.090000,37.287793,Hold,0.945068,0.000000,Hold,-1975.000000,2.000000,LowGoal,0.000000,-2181.818182,Speed,0.000000,-2181.818182,Speed,Off,Off,0.000000,FALSE,0,Read: /home/lvuser/scripts/auto_43.bee,File good!,DRIVE_STRAIGHT_NAVX_RAMPARTS 200 5000 10,DRIVE_STRAIGHT_NAVX_RAMPARTS,0.000000,0.000000
02:52:29.055 PM 04/09/2016,Teleop Disabled,11,FALSE,0,NO ERROR,-0.000000,11.383140,-0.000000,-13.365885,TRUE,TRUE,TRUE,TRUE,FALSE,FALSE,Disabled,0.000000,0.833747,38.866253,TRUE,-0.903214,2.717789,0.000000,0.000000,0.000000,0.000000,-0.001000,-0.001000,0.020000,2.430000,49.910000,-0.090000,37.121937,Hold,0.945068,0.000000,Hold,-1975.000000,2.000000,LowGoal,0.000000,0.000000,Speed,0.000000,0.000000,Speed,Off,Off,0.000000,FALSE,0,Read: /home/lvuser/scripts/auto_43.bee,File good!,DRIVE_STRAIGHT_NAVX_RAMPARTS 200 5000 10,DRIVE_STRAIGHT_NAVX_RAMPARTS,0.000000,0.000000
02:52:29.154 PM 04/09/2016,Teleop Disabled,10,FALSE,0,NO ERROR,-0.000000,11.383140,-0.000000,-13.365885,TRUE,FALSE,TRUE,TRUE,FALSE,FALSE,Disabled,0.000000,0.833747,38.866253,TRUE,-0.903214,2.717789,0.000000,0.000000,0.000000,0.000000,0.000000,-0.002000,0.021000,2.440000,49.910000,-0.080000,36.965056,Hold,0.945068,0.000000,Hold,-1975.000000,2.000000,LowGoal,0.000000,0.000000,Speed,0.000000,0.000000,Speed,Off,Off,0.000000,FALSE,0,Read: /home/lvuser/scripts/auto_43.bee,File good!,DRIVE_STRAIGHT_NAVX_RAMPARTS 200 5000 10,DRIVE_STRAIGHT_NAVX_RAMPARTS,0.000000,0.000000
02:52:29.254 PM 04/09/2016,Teleop Disabled,11,FALSE,0,NO ERROR,-0.000000,11.383140,-0.000000,-13.365885,TRUE,FALSE,TRUE,TRUE,FALSE,FALSE,Disabled,0.000000,0.833747,38.866253,TRUE,-0.903214,2.717789,0.000000,0.000000,0.000000,0.000000,0.000000,-0.001000,0.021000,2.440000,49.910000,-0.080000,36.794102,Hold,0.945068,0.000000,Hold,-1975.000000,2.000000,LowGoal,0.000000,-2181.818182,Speed,0.000000,-2181.818182,Speed,Off,Off,0.000000,FALSE,0,Read: /home/lvuser/scripts/auto_43.bee,File good!,DRIVE_STRAIGHT_NAVX_RAMPARTS 200 5000 10,DRIVE_STRAIGHT_NAVX_RAMPARTS,0.000000,0.000000
02:52:29.355 PM 04/09/2016,Teleop Disabled,10,FALSE,0,NO ERROR,-0.000000,11.383140,-0.000000,-13.365885,TRUE,FALSE,TRUE,TRUE,FALSE,FALSE,Disabled,0.000000,0.833747,38.866253,TRUE,-0.903214,2.717789,0.000000,0.000000,0.000000,0.000000,0.000000,0.000000,0.022000,2.430000,49.910000,-0.080000,36.600744,Hold,0.945068,0.000000,Hold,-1975.000000,2.000000,LowGoal,0.000000,-2181.818182,Speed,0.000000,-2181.818182,Speed,Off,Off,0.000000,FALSE,0,Read: /home/lvuser/scripts/auto_43.bee,File good!,DRIVE_STRAIGHT_NAVX_RAMPARTS 200 5000 10,DRIVE_STRAIGHT_NAVX_RAMPARTS,0.000000,0.000000
02:52:29.455 PM 04/09/2016,Teleop Disabled,11,FALSE,0,NO ERROR,-0.000000,11.383140,-0.000000,-13.365885,TRUE,FALSE,TRUE,TRUE,FALSE,FALSE,Disabled,0.000000,0.833747,38.866253,TRUE,-0.903214,2.717789,0.000000,0.000000,0.000000,0.000000,0.001000,0.000000,0.021000,2.430000,49.910000,-0.080000,36.438393,Hold,0.945068,0.000000,Hold,-1975.000000,2.000000,LowGoal,0.000000,-2181.818182,Speed,0.000000,-2181.818182,Speed,Off,Off,0.000000,FALSE,0,Read: /home/lvuser/scripts/auto_43.bee,File good!,DRIVE_STRAIGHT_NAVX_RAMPARTS 200 5000 10,DRIVE_STRAIGHT_NAVX_RAMPARTS,0.000000,0.000000
02:52:29.555 PM 04/09/2016,Teleop Disabled,12,FALSE,0,NO ERROR,-0.000000,11.383140,-0.000000,-13.365885,TRUE,FALSE,TRUE,TRUE,FALSE,FALSE,Disabled,0.000000,0.833747,38.866253,TRUE,-0.903214,2.717789,0.000000,0.000000,0.000000,0.000000,0.000000,0.000000,0.020000,2.430000,49.910000,-0.080000,36.268747,Hold,0.945068,0.000000,Hold,-1975.000000,2.000000,LowGoal,0.000000,-2181.818182,Speed,0.000000,-2181.818182,Speed,Off,Off,0.000000,FALSE,0,Read: /home/lvuser/scripts/auto_43.bee,File good!,DRIVE_STRAIGHT_NAVX_RAMPARTS 200 5000 10,DRIVE_STRAIGHT_NAVX_RAMPARTS,0.000000,0.000000
02:52:29.655 PM 04/09/2016,Teleop Disabled,11,FALSE,0,NO ERROR,-0.000000,11.383140,-0.000000,-13.365885,TRUE,FALSE,TRUE,TRUE,FALSE,FALSE,Disabled,0.000000,0.833747,38.866253,TRUE,-0.903214,2.717789,0.000000,0.000000,0.000000,0.000000,-0.003000,-0.001000,0.020000,2.430000,49.910000,-0.080000,36.099342,Hold,0.945068,0.000000,Hold,-1975.000000,2.000000,LowGoal,0.000000,-2181.818182,Speed,0.000000,-2181.818182,Speed,Off,Off,0.000000,FALSE,0,Read: /home/lvuser/scripts/auto_43.bee,File good!,DRIVE_STRAIGHT_NAVX_RAMPARTS 200 5000 10,DRIVE_STRAIGHT_NAVX_RAMPARTS,0.000000,0.000000
02:52:29.755 PM 04/09/2016,Teleop Disabled,10,FALSE,0,NO ERROR,-0.000000,11.383140,-0.000000,-13.365885,TRUE,FALSE,TRUE,TRUE,FALSE,FALSE,Disabled,0.000000,0.833747,38.866253,TRUE,-0.903214,2.717789,0.000000,0.000000,0.000000,0.000000,0.000000,-0.001000,0.020000,2.430000,49.910000,-0.080000,35.938489,Hold,0.945068,0.000000,Hold,-1975.000000,2.000000,LowGoal,0.000000,-2181.818182,Speed,0.000000,-2181.818182,Speed,Off,Off,0.000000,FALSE,0,Read: /home/lvuser/scripts/auto_43.bee,File good!,DRIVE_STRAIGHT_NAVX_RAMPARTS 200 5000 10,DRIVE_STRAIGHT_NAVX_RAMPARTS,0.000000,0.000000
02:52:29.855 PM 04/09/2016,Teleop Disabled,11,FALSE,0,NO ERROR,-0.000000,11.383140,-0.000000,-13.365885,TRUE,FALSE,TRUE,TRUE,FALSE,FALSE,Disabled,0.000000,0.833747,38.866253,TRUE,-0.903214,2.717789,0.000000,0.000000,0.000000,0.000000,0.002000,-0.001000,0.023000,2.430000,49.910000,-0.070000,35.761321,Hold,0.945068,0.000000,Hold,-1975.000000,2.000000,LowGoal,0.000000,-2181.818182,Speed,0.000000,-2181.818182,Speed,Off,Off,0.000000,FALSE,0,Read: /home/lvuser/scripts/auto_43.bee,File good!,DRIVE_STRAIGHT_NAVX_RAMPARTS 200 5000 10,DRIVE_STRAIGHT_NAVX_RAMPARTS,0.000000,0.000000
02:52:29.955 PM 04/09/2016,Teleop Disabled,11,FALSE,0,NO ERROR,-0.000000,11.383140,-0.000000,-13.365885,TRUE,FALSE,TRUE,TRUE,FALSE,FALSE,Disabled,0.000000,0.833747,38.866253,TRUE,-0.903214,2.717789,0.000000,0.000000,0.000000,0.000000,0.000000,0.000000,0.022000,2.440000,49.900000,-0.060000,35.575719,Hold,0.945068,0.000000,Hold,-1975.000000,2.000000,LowGoal,0.000000,-2181.818182,Speed,0.000000,-2181.818182,Speed,Off,Off,0.000000,FALSE,0,Read: /home/lvuser/scripts/auto_43.bee,File good!,DRIVE_STRAIGHT_NAVX_RAMPARTS 200 5000 10,DRIVE_STRAIGHT_NAVX_RAMPARTS,0.000000,0.000000
02:52:30.055 PM 04/09/2016,Teleop Disabled,13,FALSE,0,NO ERROR,-0.000000,11.383140,-0.000000,-13.365885,TRUE,FALSE,TRUE,TRUE,FALSE,FALSE,Disabled,0.000000,0.833747,38.866253,TRUE,-0.903214,2.717789,0.000000,0.000000,0.000000,0.000000,0.001000,0.001000,0.023000,2.440000,49.900000,-0.060000,35.408848,Hold,0.945068,0.000000,Hold,-1975.000000,2.000000,LowGoal,0.000000,-2181.818182,Speed,0.000000,-2181.818182,Speed,Off,Off,0.000000,FALSE,0,Read: /home/lvuser/scripts/auto_43.bee,File good!,DRIVE_STRAIGHT_NAVX_RAMPARTS 200 5000 10,DRIVE_STRAIGHT_NAVX_RAMPARTS,0.000000,0.000000
02:52:30.155 PM 04/09/2016,Teleop Disabled,11,FALSE,0,NO ERROR,-0.000000,11.383140,-0.000000,-13.365885,TRUE,FALSE,TRUE,TRUE,FALSE,FALSE,Disabled,0.000000,0.833747,38.866253,TRUE,-0.903214,2.717789,0.000000,0.000000,0.000000,0.000000,0.000000,0.001000,0.021000,2.440000,49.900000,-0.070000,35.247044,Hold,0.945068,0.000000,Hold,-1975.000000,2.000000,LowGoal,0.000000,-2181.818182,Speed,0.000000,-2181.818182,Speed,Off,Off,0.000000,FALSE,0,Read: /home/lvuser/scripts/auto_43.bee,File good!,DRIVE_STRAIGHT_NAVX_RAMPARTS 200 5000 10,DRIVE_STRAIGHT_NAVX_RAMPARTS,0.000000,0.000000
02:52:30.256 PM 04/09/2016,Teleop Disabled,11,FALSE,0,NO ERROR,-0.000000,11.383140,-0.000000,-13.365885,TRUE,FALSE,TRUE,TRUE,FALSE,FALSE,Disabled,0.000000,0.833747,38.866253,TRUE,-0.903214,2.717789,0.000000,0.000000,0.000000,0.000000,0.000000,-0.001000,0.019000,2.450000,49.900000,-0.060000,35.100219,Hold,0.945068,0.000000,Hold,-1975.000000,2.000000,LowGoal,0.000000,-2181.818182,Speed,0.000000,-2181.818182,Speed,Off,Off,0.000000,FALSE,0,Read: /home/lvuser/scripts/auto_43.bee,File good!,DRIVE_STRAIGHT_NAVX_RAMPARTS 200 5000 10,DRIVE_STRAIGHT_NAVX_RAMPARTS,0.000000,0.000000
02:52:30.356 PM 04/09/2016,Teleop Disabled,11,FALSE,0,NO ERROR,-0.000000,11.383140,-0.000000,-13.365885,TRUE,FALSE,TRUE,TRUE,FALSE,FALSE,Disabled,0.000000,0.833747,38.866253,TRUE,-0.903214,2.717789,0.000000,0.000000,0.000000,0.000000,0.000000,0.000000,0.020000,2.450000,49.900000,-0.060000,34.925964,Hold,0.945068,0.000000,Hold,-1975.000000,2.000000,LowGoal,0.000000,-2181.818182,Speed,0.000000,-2181.818182,Speed,Off,Off,0.000000,FALSE,0,Read: /home/lvuser/scripts/auto_43.bee,File good!,DRIVE_STRAIGHT_NAVX_RAMPARTS 200 5000 10,DRIVE_STRAIGHT_NAVX_RAMPARTS,0.000000,0.000000
02:52:30.456 PM 04/09/2016,Teleop Disabled,11,FALSE,0,NO ERROR,-0.000000,11.383140,-0.000000,-13.365885,TRUE,FALSE,TRUE,TRUE,FALSE,FALSE,Disabled,0.000000,0.833747,38.866253,TRUE,-0.903214,2.717789,0.000000,0.000000,0.000000,0.000000,0.004000,0.001000,0.021000,2.450000,49.900000,-0.060000,34.755054,Hold,0.945068,0.000000,Hold,-1975.000000,2.000000,LowGoal,0.000000,-2181.818182,Speed,0.000000,-2181.818182,Speed,Off,Off,0.000000,FALSE,0,Read: /home/lvuser/scripts/auto_43.bee,File good!,DRIVE_STRAIGHT_NAVX_RAMPARTS 200 5000 10,DRIVE_STRAIGHT_NAVX_RAMPARTS,0.000000,0.000000
02:52:30.556 PM 04/09/2016,Teleop Disabled,11,FALSE,0,NO ERROR,-0.000000,11.383140,-0.000000,-13.365885,TRUE,FALSE,TRUE,TRUE,FALSE,FALSE,Disabled,0.000000,0.833747,38.866253,TRUE,-0.903214,2.717789,0.000000,0.000000,0.000000,0.000000,0.001000,0.000000,0.025000,2.450000,49.910000,-0.060000,34.604439,Hold,0.945068,0.000000,Hold,-1975.000000,2.000000,LowGoal,0.000000,-2181.818182,Speed,0.000000,-2181.818182,Speed,Off,Off,0.000000,FALSE,0,Read: /home/lvuser/scripts/auto_43.bee,File good!,DRIVE_STRAIGHT_NAVX_RAMPARTS 200 5000 10,DRIVE_STRAIGHT_NAVX_RAMPARTS,0.000000,0.000000
02:52:30.657 PM 04/09/2016,Teleop Disabled,11,FALSE,0,NO ERROR,-0.000000,11.383140,-0.000000,-13.365885,TRUE,FALSE,TRUE,TRUE,FALSE,FALSE,Disabled,0.000000,0.833747,38.866253,TRUE,-0.903214,2.717789,0.000000,0.000000,0.000000,0.000000,0.001000,0.001000,0.022000,2.450000,49.900000,-0.060000,34.445985,Hold,0.945068,0.000000,Hold,-1975.000000,2.000000,LowGoal,0.000000,-2181.818182,Speed,0.000000,-2181.818182,Speed,Off,Off,0.000000,FALSE,0,Read: /home/lvuser/scripts/auto_43.bee,File good!,DRIVE_STRAIGHT_NAVX_RAMPARTS 200 5000 10,DRIVE_STRAIGHT_NAVX_RAMPARTS,0.000000,0.000000
02:52:30.757 PM 04/09/2016,Teleop Disabled,11,FALSE,0,NO ERROR,-0.000000,11.383140,-0.000000,-13.365885,TRUE,FALSE,TRUE,TRUE,FALSE,FALSE,Disabled,0.000000,0.833747,38.866253,TRUE,-0.903214,2.717789,0.000000,0.000000,0.000000,0.000000,0.000000,0.000000,0.024000,2.450000,49.910000,-0.060000,34.273713,Hold,0.945068,0.000000,Hold,-1975.000000,2.000000,LowGoal,0.000000,-2181.818182,Speed,0.000000,-2181.818182,Speed,Off,Off,0.000000,FALSE,0,Read: /home/lvuser/scripts/auto_43.bee,File good!,DRIVE_STRAIGHT_NAVX_RAMPARTS 200 5000 10,DRIVE_STRAIGHT_NAVX_RAMPARTS,0.000000,0.000000
02:52:30.857 PM 04/09/2016,Teleop Disabled,11,FALSE,0,NO ERROR,-0.000000,11.383140,-0.000000,-13.365885,TRUE,FALSE,TRUE,TRUE,FALSE,FALSE,Disabled,0.000000,0.833747,38.866253,TRUE,-0.903214,2.717789,0.000000,0.000000,0.000000,0.000000,0.000000,-0.001000,0.022000,2.450000,49.910000,-0.050000,34.112429,Hold,0.945068,0.000000,Hold,-1975.000000,2.000000,LowGoal,0.000000,-2181.818182,Speed,0.000000,-2181.818182,Speed,Off,Off,0.000000,FALSE,0,Read: /home/lvuser/scripts/auto_43.bee,File good!,DRIVE_STRAIGHT_NAVX_RAMPARTS 200 5000 10,DRIVE_STRAIGHT_NAVX_RAMPARTS,0.000000,0.000000
02:52:30.957 PM 04/09/2016,Teleop Disabled,11,FALSE,0,NO ERROR,-0.000000,11.383140,-0.000000,-13.365885,TRUE,FALSE,TRUE,TRUE,FALSE,FALSE,Disabled,0.000000,0.833747,38.866253,TRUE,-0.903214,2.717789,0.000000,0.000000,0.000000,0.000000,0.000000,0.000000,0.022000,2.450000,49.910000,-0.050000,33.943344,Hold,0.945068,0.000000,Hold,-1975.000000,2.000000,LowGoal,0.000000,-2181.818182,Speed,0.000000,-2181.818182,Speed,Off,Off,0.000000,FALSE,0,Read: /home/lvuser/scripts/auto_43.bee,File good!,DRIVE_STRAIGHT_NAVX_RAMPARTS 200 5000 10,DRIVE_STRAIGHT_NAVX_RAMPARTS,0.000000,0.000000
02:52:31.057 PM 04/09/2016,Teleop Disabled,11,FALSE,0,NO ERROR,-0.000000,11.383140,-0.000000,-13.365885,TRUE,FALSE,TRUE,TRUE,FALSE,FALSE,Disabled,0.000000,0.833747,38.866253,TRUE,-0.903214,2.717789,0.000000,0.000000,0.000000,0.000000,0.001000,0.000000,0.021000,2.450000,49.900000,-0.050000,33.769939,Hold,0.945068,0.000000,Hold,-1975.000000,2.000000,LowGoal,0.000000,-2181.818182,Speed,0.000000,-2181.818182,Speed,Off,Off,0.000000,FALSE,0,Read: /home/lvuser/scripts/auto_43.bee,File good!,DRIVE_STRAIGHT_NAVX_RAMPARTS 200 5000 10,DRIVE_STRAIGHT_NAVX_RAMPARTS,0.000000,0.000000
02:52:31.157 PM 04/09/2016,Teleop Disabled,11,FALSE,0,NO ERROR,-0.000000,11.383140,-0.000000,-13.365885,TRUE,FALSE,TRUE,TRUE,FALSE,FALSE,Disabled,0.000000,0.833747,38.866253,TRUE,-0.903214,2.717789,0.000000,0.000000,0.000000,0.000000,-0.001000,0.000000,0.024000,2.450000,49.900000,-0.050000,33.607746,Hold,0.945068,0.000000,Hold,-1975.000000,2.000000,LowGoal,0.000000,-2181.818182,Speed,0.000000,-2181.818182,Speed,Off,Off,0.000000,FALSE,0,Read: /home/lvuser/scripts/auto_43.bee,File good!,DRIVE_STRAIGHT_NAVX_RAMPARTS 200 5000 10,DRIVE_STRAIGHT_NAVX_RAMPARTS,0.000000,0.000000
02:52:31.257 PM 04/09/2016,Teleop Disabled,10,FALSE,0,NO ERROR,-0.000000,11.383140,-0.000000,-13.365885,TRUE,FALSE,TRUE,TRUE,FALSE,FALSE,Disabled,0.000000,0.833747,38.866253,TRUE,-0.903214,2.717789,0.000000,0.000000,0.000000,0.000000,0.002000,0.000000,0.025000,2.450000,49.910000,-0.050000,33.390844,Hold,0.945068,0.000000,Hold,-1975.000000,2.000000,LowGoal,0.000000,-2181.818182,Speed,0.000000,-2181.818182,Speed,Off,Off,0.000000,FALSE,0,Read: /home/lvuser/scripts/auto_43.bee,File good!,DRIVE_STRAIGHT_NAVX_RAMPARTS 200 5000 10,DRIVE_STRAIGHT_NAVX_RAMPARTS,0.000000,0.000000
02:52:31.357 PM 04/09/2016,Teleop Disabled,11,FALSE,0,NO ERROR,-0.000000,11.383140,-0.000000,-13.365885,TRUE,FALSE,TRUE,TRUE,FALSE,FALSE,Disabled,0.000000,0.833747,38.866253,TRUE,-0.903214,2.717789,0.000000,0.000000,0.000000,0.000000,-0.001000,-0.001000,0.020000,2.450000,49.910000,-0.050000,33.225302,Hold,0.945068,0.000000,Hold,-1975.000000,2.000000,LowGoal,0.000000,-2181.818182,Speed,0.000000,-2181.818182,Speed,Off,Off,0.000000,FALSE,0,Read: /home/lvuser/scripts/auto_43.bee,File good!,DRIVE_STRAIGHT_NAVX_RAMPARTS 200 5000 10,DRIVE_STRAIGHT_NAVX_RAMPARTS,0.000000,0.000000
02:52:31.457 PM 04/09/2016,Teleop Disabled,11,FALSE,0,NO ERROR,-0.000000,11.383140,-0.000000,-13.365885,TRUE,TRUE,TRUE,TRUE,FALSE,FALSE,Disabled,0.000000,0.833747,38.866253,TRUE,-0.903214,2.717789,0.000000,0.000000,0.000000,0.000000,-0.002000,-0.002000,0.019000,2.450000,49.910000,-0.050000,33.056431,Hold,0.945068,0.000000,Hold,-1975.000000,2.000000,LowGoal,0.000000,-2181.818182,Speed,0.000000,-2181.818182,Speed,Off,Off,0.000000,FALSE,0,Read: /home/lvuser/scripts/auto_43.bee,File good!,DRIVE_STRAIGHT_NAVX_RAMPARTS 200 5000 10,DRIVE_STRAIGHT_NAVX_RAMPARTS,0.000000,0.000000
02:52:31.558 PM 04/09/2016,Teleop Disabled,11,FALSE,0,NO ERROR,-0.000000,11.383140,-0.000000,-13.365885,TRUE,TRUE,TRUE,TRUE,FALSE,FALSE,Disabled,0.000000,0.833747,38.866253,TRUE,-0.903214,2.717789,0.000000,0.000000,0.000000,0.000000,-0.002000,-0.002000,0.019000,2.450000,49.910000,-0.040000,32.897901,Hold,0.945068,0.000000,Hold,-1975.000000,2.000000,LowGoal,0.000000,0.000000,Speed,0.000000,0.000000,Speed,Off,Off,0.000000,FALSE,0,Read: /home/lvuser/scripts/auto_43.bee,File good!,DRIVE_STRAIGHT_NAVX_RAMPARTS 200 5000 10,DRIVE_STRAIGHT_NAVX_RAMPARTS,0.000000,0.000000
02:52:31.658 PM 04/09/2016,Teleop Disabled,11,FALSE,0,NO ERROR,-0.000000,11.383140,-0.000000,-13.365885,TRUE,FALSE,TRUE,TRUE,FALSE,FALSE,Disabled,0.000000,0.833747,38.866253,TRUE,-0.903214,2.717789,0.000000,0.000000,0.000000,0.000000,0.000000,0.001000,0.023000,2.450000,49.910000,-0.050000,32.750484,Hold,0.945068,0.000000,Hold,-1975.000000,2.000000,LowGoal,0.000000,0.000000,Speed,0.000000,0.000000,Speed,Off,Off,0.000000,FALSE,0,Read: /home/lvuser/scripts/auto_43.bee,File good!,DRIVE_STRAIGHT_NAVX_RAMPARTS 200 5000 10,DRIVE_STRAIGHT_NAVX_RAMPARTS,0.000000,0.000000
02:52:31.758 PM 04/09/2016,Teleop Disabled,11,FALSE,0,NO ERROR,-0.000000,11.383140,-0.000000,-13.365885,TRUE,FALSE,TRUE,TRUE,FALSE,FALSE,Disabled,0.000000,0.833747,38.866253,TRUE,-0.903214,2.717789,0.000000,0.000000,0.000000,0.000000,0.000000,-0.003000,0.022000,2.450000,49.910000,-0.040000,32.577258,Hold,0.945068,0.000000,Hold,-1975.000000,2.000000,LowGoal,0.000000,-2181.818182,Speed,0.000000,-2181.818182,Speed,Off,Off,0.000000,FALSE,0,Read: /home/lvuser/scripts/auto_43.bee,File good!,DRIVE_STRAIGHT_NAVX_RAMPARTS 200 5000 10,DRIVE_STRAIGHT_NAVX_RAMPARTS,0.000000,0.000000
02:52:31.858 PM 04/09/2016,Teleop Disabled,11,FALSE,0,NO ERROR,-0.000000,11.383140,-0.000000,-13.365885,TRUE,FALSE,TRUE,TRUE,FALSE,FALSE,Disabled,0.000000,0.833747,38.866253,TRUE,-0.903214,2.717789,0.000000,0.000000,0.000000,0.000000,0.000000,-0.002000,0.021000,2.450000,49.910000,-0.040000,32.419334,Hold,0.945068,0.000000,Hold,-1975.000000,2.000000,LowGoal,0.000000,-2181.818182,Speed,0.000000,-2181.818182,Speed,Off,Off,0.000000,FALSE,0,Read: /home/lvuser/scripts/auto_43.bee,File good!,DRIVE_STRAIGHT_NAVX_RAMPARTS 200 5000 10,DRIVE_STRAIGHT_NAVX_RAMPARTS,0.000000,0.000000
02:52:31.958 PM 04/09/2016,Teleop Disabled,10,FALSE,0,NO ERROR,-0.000000,11.383140,-0.000000,-13.365885,TRUE,FALSE,TRUE,TRUE,FALSE,FALSE,Disabled,0.000000,0.833747,38.866253,TRUE,-0.903214,2.717789,0.000000,0.000000,0.000000,0.000000,0.000000,-0.002000,0.021000,2.450000,49.910000,-0.050000,32.256945,Hold,0.945068,0.000000,Hold,-1975.000000,2.000000,LowGoal,0.000000,-2181.818182,Speed,0.000000,-2181.818182,Speed,Off,Off,0.000000,FALSE,0,Read: /home/lvuser/scripts/auto_43.bee,File good!,DRIVE_STRAIGHT_NAVX_RAMPARTS 200 5000 10,DRIVE_STRAIGHT_NAVX_RAMPARTS,0.000000,0.000000
02:52:32.058 PM 04/09/2016,Teleop Disabled,11,FALSE,0,NO ERROR,-0.000000,11.383140,-0.000000,-13.365885,TRUE,FALSE,TRUE,TRUE,FALSE,FALSE,Disabled,0.000000,0.833747,38.866253,TRUE,-0.903214,2.717789,0.000000,0.000000,0.000000,0.000000,0.001000,0.000000,0.021000,2.450000,49.910000,-0.050000,32.092990,Hold,0.945068,0.000000,Hold,-1975.000000,2.000000,LowGoal,0.000000,-2181.818182,Speed,0.000000,-2181.818182,Speed,Off,Off,0.000000,FALSE,0,Read: /home/lvuser/scripts/auto_43.bee,File good!,DRIVE_STRAIGHT_NAVX_RAMPARTS 200 5000 10,DRIVE_STRAIGHT_NAVX_RAMPARTS,0.000000,0.000000
02:52:32.158 PM 04/09/2016,Teleop Disabled,10,FALSE,0,NO ERROR,-0.000000,11.383140,-0.000000,-13.365885,TRUE,FALSE,TRUE,TRUE,FALSE,FALSE,Disabled,0.000000,0.833747,38.866253,TRUE,-0.903214,2.717789,0.000000,0.000000,0.000000,0.000000,-0.002000,0.000000,0.023000,2.450000,49.910000,-0.050000,31.925303,Hold,0.945068,0.000000,Hold,-1975.000000,2.000000,LowGoal,0.000000,-2181.818182,Speed,0.000000,-2181.818182,Speed,Off,Off,0.000000,FALSE,0,Read: /home/lvuser/scripts/auto_43.bee,File good!,DRIVE_STRAIGHT_NAVX_RAMPARTS 200 5000 10,DRIVE_STRAIGHT_NAVX_RAMPARTS,0.000000,0.000000
02:52:32.258 PM 04/09/2016,Teleop Disabled,10,FALSE,0,NO ERROR,-0.000000,11.383140,-0.000000,-13.365885,TRUE,FALSE,TRUE,TRUE,FALSE,FALSE,Disabled,0.000000,0.833747,38.866253,TRUE,-0.903214,2.717789,0.000000,0.000000,0.000000,0.000000,-0.001000,-0.001000,0.023000,2.450000,49.910000,-0.050000,31.761857,Hold,0.945068,0.000000,Hold,-1975.000000,2.000000,LowGoal,0.000000,-2181.818182,Speed,0.000000,-2181.818182,Speed,Off,Off,0.000000,FALSE,0,Read: /home/lvuser/scripts/auto_43.bee,File good!,DRIVE_STRAIGHT_NAVX_RAMPARTS 200 5000 10,DRIVE_STRAIGHT_NAVX_RAMPARTS,0.000000,0.000000
02:52:32.360 PM 04/09/2016,Teleop Disabled,13,FALSE,0,NO ERROR,-0.000000,11.383140,-0.000000,-13.365885,TRUE,FALSE,TRUE,TRUE,FALSE,FALSE,Disabled,0.000000,0.833747,38.866253,TRUE,-0.903214,2.717789,0.000000,0.000000,0.000000,0.000000,0.001000,0.000000,0.022000,2.450000,49.910000,-0.050000,31.612026,Hold,0.945068,0.000000,Hold,-1975.000000,2.000000,LowGoal,0.000000,-2181.818182,Speed,0.000000,-2181.818182,Speed,Off,Off,0.000000,FALSE,0,Read: /home/lvuser/scripts/auto_43.bee,File good!,DRIVE_STRAIGHT_NAVX_RAMPARTS 200 5000 10,DRIVE_STRAIGHT_NAVX_RAMPARTS,0.000000,0.000000
02:52:32.461 PM 04/09/2016,Teleop Disabled,11,FALSE,0,NO ERROR,-0.000000,11.383140,-0.000000,-13.365885,TRUE,FALSE,TRUE,TRUE,FALSE,FALSE,Disabled,0.000000,0.833747,38.866253,TRUE,-0.903214,2.717789,0.000000,0.000000,0.000000,0.000000,-0.001000,0.001000,0.024000,2.450000,49.910000,-0.050000,31.437296,Hold,0.945068,0.000000,Hold,-1975.000000,2.000000,LowGoal,0.000000,-2181.818182,Speed,0.000000,-2181.818182,Speed,Off,Off,0.000000,FALSE,0,Read: /home/lvuser/scripts/auto_43.bee,File good!,DRIVE_STRAIGHT_NAVX_RAMPARTS 200 5000 10,DRIVE_STRAIGHT_NAVX_RAMPARTS,0.000000,0.000000
02:52:32.561 PM 04/09/2016,Teleop Disabled,6,FALSE,0,NO ERROR,-0.000000,11.383140,-0.000000,-13.365885,TRUE,FALSE,TRUE,TRUE,FALSE,FALSE,Disabled,0.000000,0.833747,38.866253,TRUE,-0.903214,2.717789,0.000000,0.000000,0.000000,0.000000,0.002000,0.000000,0.021000,2.450000,49.910000,-0.050000,31.268108,Hold,0.945068,0.000000,Hold,-1975.000000,2.000000,LowGoal,0.000000,-2181.818182,Speed,0.000000,-2181.818182,Speed,Off,Off,0.000000,FALSE,0,Read: /home/lvuser/scripts/auto_43.bee,File good!,DRIVE_STRAIGHT_NAVX_RAMPARTS 200 5000 10,DRIVE_STRAIGHT_NAVX_RAMPARTS,0.000000,0.000000
02:52:32.661 PM 04/09/2016,Teleop Disabled,9,FALSE,0,NO ERROR,-0.000000,11.383140,-0.000000,-13.365885,TRUE,FALSE,TRUE,TRUE,FALSE,FALSE,Disabled,0.000000,0.833747,38.866253,TRUE,-0.903214,2.717789,0.000000,0.000000,0.000000,0.000000,0.000000,0.000000,0.021000,2.450000,49.910000,-0.040000,31.109854,Hold,0.945068,0.000000,Hold,-1975.000000,2.000000,LowGoal,0.000000,-2181.818182,Speed,0.000000,-2181.818182,Speed,Off,Off,0.000000,FALSE,0,Read: /home/lvuser/scripts/auto_43.bee,File good!,DRIVE_STRAIGHT_NAVX_RAMPARTS 200 5000 10,DRIVE_STRAIGHT_NAVX_RAMPARTS,0.000000,0.000000
02:52:32.761 PM 04/09/2016,Teleop Disabled,9,FALSE,0,NO ERROR,-0.000000,11.383140,-0.000000,-13.365885,TRUE,FALSE,TRUE,TRUE,FALSE,FALSE,Disabled,0.000000,0.833747,38.866253,TRUE,-0.903214,2.717789,0.000000,0.000000,0.000000,0.000000,0.002000,0.000000,0.024000,2.450000,49.910000,-0.040000,30.938456,Hold,0.945068,0.000000,Hold,-1975.000000,2.000000,LowGoal,0.000000,-2181.818182,Speed,0.000000,-2181.818182,Speed,Off,Off,0.000000,FALSE,0,Read: /home/lvuser/scripts/auto_43.bee,File good!,DRIVE_STRAIGHT_NAVX_RAMPARTS 200 5000 10,DRIVE_STRAIGHT_NAVX_RAMPARTS,0.000000,0.000000
02:52:32.862 PM 04/09/2016,Teleop Disabled,10,FALSE,0,NO ERROR,-0.000000,11.383140,-0.000000,-13.365885,TRUE,FALSE,TRUE,TRUE,FALSE,FALSE,Disabled,0.000000,0.833747,38.866253,TRUE,-0.903214,2.717789,0.000000,0.000000,0.000000,0.000000,-0.001000,0.000000,0.023000,2.450000,49.910000,-0.040000,30.775309,Hold,0.945068,0.000000,Hold,-1975.000000,2.000000,LowGoal,0.000000,-2181.818182,Speed,0.000000,-2181.818182,Speed,Off,Off,0.000000,FALSE,0,Read: /home/lvuser/scripts/auto_43.bee,File good!,DRIVE_STRAIGHT_NAVX_RAMPARTS 200 5000 10,DRIVE_STRAIGHT_NAVX_RAMPARTS,0.000000,0.000000
02:52:32.962 PM 04/09/2016,Teleop Disabled,9,FALSE,0,NO ERROR,-0.000000,11.383140,-0.000000,-13.365885,TRUE,FALSE,TRUE,TRUE,FALSE,FALSE,Disabled,0.000000,0.833747,38.866253,TRUE,-0.903214,2.717789,0.000000,0.000000,0.000000,0.000000,-0.001000,-0.001000,0.023000,2.450000,49.910000,-0.040000,30.605247,Hold,0.945068,0.000000,Hold,-1975.000000,2.000000,LowGoal,0.000000,-2181.818182,Speed,0.000000,-2181.818182,Speed,Off,Off,0.000000,FALSE,0,Read: /home/lvuser/scripts/auto_43.bee,File good!,DRIVE_STRAIGHT_NAVX_RAMPARTS 200 5000 10,DRIVE_STRAIGHT_NAVX_RAMPARTS,0.000000,0.000000
02:52:33.062 PM 04/09/2016,Teleop Disabled,9,FALSE,0,NO ERROR,-0.000000,11.383140,-0.000000,-13.365885,TRUE,FALSE,TRUE,TRUE,FALSE,FALSE,Disabled,0.000000,0.833747,38.866253,TRUE,-0.903214,2.717789,0.000000,0.000000,0.000000,0.000000,0.000000,0.000000,0.022000,2.450000,49.910000,-0.040000,30.443202,Hold,0.945068,0.000000,Hold,-1975.000000,2.000000,LowGoal,0.000000,-2181.818182,Speed,0.000000,-2181.818182,Speed,Off,Off,0.000000,FALSE,0,Read: /home/lvuser/scripts/auto_43.bee,File good!,DRIVE_STRAIGHT_NAVX_RAMPARTS 200 5000 10,DRIVE_STRAIGHT_NAVX_RAMPARTS,0.000000,0.000000
02:52:33.163 PM 04/09/2016,Teleop Disabled,9,FALSE,0,NO ERROR,-0.000000,11.383140,-0.000000,-13.365885,TRUE,FALSE,TRUE,TRUE,FALSE,FALSE,Disabled,0.000000,0.833747,38.866253,TRUE,-0.903214,2.717789,0.000000,0.000000,0.000000,0.000000,-0.004000,0.000000,0.026000,2.450000,49.910000,-0.040000,30.273976,Hold,0.945068,0.000000,Hold,-1975.000000,2.000000,LowGoal,0.000000,-2181.818182,Speed,0.000000,-2181.818182,Speed,Off,Off,0.000000,FALSE,0,Read: /home/lvuser/scripts/auto_43.bee,File good!,DRIVE_STRAIGHT_NAVX_RAMPARTS 200 5000 10,DRIVE_STRAIGHT_NAVX_RAMPARTS,0.000000,0.000000
02:52:33.264 PM 04/09/2016,Teleop Disabled,9,FALSE,0,NO ERROR,-0.000000,11.383140,-0.000000,-13.365885,TRUE,FALSE,TRUE,TRUE,FALSE,FALSE,Disabled,0.000000,0.833747,38.866253,TRUE,-0.903214,2.717789,0.000000,0.000000,0.000000,0.000000,-0.001000,0.002000,0.022000,2.460000,49.900000,-0.040000,30.109908,Hold,0.945068,0.000000,Hold,-1975.000000,2.000000,LowGoal,0.000000,-2181.818182,Speed,0.000000,-2181.818182,Speed,Off,Off,0.000000,FALSE,0,Read: /home/lvuser/scripts/auto_43.bee,File good!,DRIVE_STRAIGHT_NAVX_RAMPARTS 200 5000 10,DRIVE_STRAIGHT_NAVX_RAMPARTS,0.000000,0.000000
02:52:33.365 PM 04/09/2016,Teleop Disabled,12,FALSE,0,NO ERROR,-0.000000,11.383140,-0.000000,-13.365885,TRUE,FALSE,TRUE,TRUE,FALSE,FALSE,Disabled,0.000000,0.833747,38.866253,TRUE,-0.903214,2.717789,0.000000,0.000000,0.000000,0.000000,0.000000,0.000000,0.023000,2.460000,49.900000,-0.040000,29.947433,Hold,0.945068,0.000000,Hold,-1975.000000,2.000000,LowGoal,0.000000,-2181.818182,Speed,0.000000,-2181.818182,Speed,Off,Off,0.000000,FALSE,0,Read: /home/lvuser/scripts/auto_43.bee,File good!,DRIVE_STRAIGHT_NAVX_RAMPARTS 200 5000 10,DRIVE_STRAIGHT_NAVX_RAMPARTS,0.000000,0.000000
02:52:33.467 PM 04/09/2016,Teleop Disabled,7,FALSE,0,NO ERROR,-0.000000,11.383140,-0.000000,-13.365885,TRUE,FALSE,TRUE,TRUE,FALSE,FALSE,Disabled,0.000000,0.833747,38.866253,TRUE,-0.903214,2.717789,0.000000,0.000000,0.000000,0.000000,0.000000,0.000000,0.024000,2.460000,49.900000,-0.040000,29.784813,Hold,0.945068,0.000000,Hold,-1975.000000,2.000000,LowGoal,0.000000,-2181.818182,Speed,0.000000,-2181.818182,Speed,Off,Off,0.000000,FALSE,0,Read: /home/lvuser/scripts/auto_43.bee,File good!,DRIVE_STRAIGHT_NAVX_RAMPARTS 200 5000 10,DRIVE_STRAIGHT_NAVX_RAMPARTS,0.000000,0.000000
02:52:33.568 PM 04/09/2016,Teleop Disabled,9,FALSE,0,NO ERROR,-0.000000,11.383140,-0.000000,-13.365885,TRUE,FALSE,TRUE,TRUE,FALSE,FALSE,Disabled,0.000000,0.833747,38.866253,TRUE,-0.903214,2.717789,0.000000,0.000000,0.000000,0.000000,-0.002000,0.000000,0.022000,2.460000,49.900000,-0.040000,29.575085,Hold,0.945068,0.000000,Hold,-1975.000000,2.000000,LowGoal,0.000000,-2181.818182,Speed,0.000000,-2181.818182,Speed,Off,Off,0.000000,FALSE,0,Read: /home/lvuser/scripts/auto_43.bee,File good!,DRIVE_STRAIGHT_NAVX_RAMPARTS 200 5000 10,DRIVE_STRAIGHT_NAVX_RAMPARTS,0.000000,0.000000
02:52:33.673 PM 04/09/2016,Teleop Disabled,9,FALSE,0,NO ERROR,-0.000000,11.383140,-0.000000,-13.365885,TRUE,FALSE,TRUE,TRUE,FALSE,FALSE,Disabled,0.000000,0.833747,38.866253,TRUE,-0.903214,2.717789,0.000000,0.000000,0.000000,0.000000,0.002000,0.000000,0.023000,2.460000,49.900000,-0.040000,29.402651,Hold,0.945068,0.000000,Hold,-1975.000000,2.000000,LowGoal,0.000000,-2181.818182,Speed,0.000000,-2181.818182,Speed,Off,Off,0.000000,FALSE,0,Read: /home/lvuser/scripts/auto_43.bee,File good!,DRIVE_STRAIGHT_NAVX_RAMPARTS 200 5000 10,DRIVE_STRAIGHT_NAVX_RAMPARTS,0.000000,0.000000
02:52:33.772 PM 04/09/2016,Teleop Disabled,12,FALSE,0,NO ERROR,-0.000000,11.383140,-0.000000,-13.365885,TRUE,FALSE,TRUE,TRUE,FALSE,FALSE,Disabled,0.000000,0.833747,38.866253,TRUE,-0.903214,2.717789,0.000000,0.000000,0.000000,0.000000,0.000000,0.000000,0.023000,2.460000,49.900000,-0.040000,29.402651,Hold,0.945068,0.000000,Hold,-1975.000000,2.000000,LowGoal,0.000000,-2181.818182,Speed,0.000000,-2181.818182,Speed,Off,Off,0.000000,FALSE,0,Read: /home/lvuser/scripts/auto_43.bee,File good!,DRIVE_STRAIGHT_NAVX_RAMPARTS 200 5000 10,DRIVE_STRAIGHT_NAVX_RAMPARTS,0.000000,0.000000
02:52:33.872 PM 04/09/2016,Teleop Disabled,11,FALSE,0,NO ERROR,-0.000000,11.383140,-0.000000,-13.365885,TRUE,FALSE,TRUE,TRUE,FALSE,FALSE,Disabled,0.000000,0.833747,38.866253,TRUE,-0.903214,2.717789,0.000000,0.000000,0.000000,0.000000,-0.002000,0.000000,0.021000,2.460000,49.900000,-0.040000,29.251819,Hold,0.945068,0.000000,Hold,-1975.000000,2.000000,LowGoal,0.000000,-2181.818182,Speed,0.000000,-2181.818182,Speed,Off,Off,0.000000,FALSE,0,Read: /home/lvuser/scripts/auto_43.bee,File good!,DRIVE_STRAIGHT_NAVX_RAMPARTS 200 5000 10,DRIVE_STRAIGHT_NAVX_RAMPARTS,0.000000,0.000000
02:52:33.973 PM 04/09/2016,Teleop Disabled,11,FALSE,0,NO ERROR,-0.000000,11.383140,-0.000000,-13.365885,TRUE,FALSE,TRUE,TRUE,FALSE,FALSE,Disabled,0.000000,0.833747,38.866253,TRUE,-0.903214,2.717789,0.000000,0.000000,0.000000,0.000000,-0.004000,0.000000,0.022000,2.460000,49.900000,-0.040000,29.084080,Hold,0.945068,0.000000,Hold,-1975.000000,2.000000,LowGoal,0.000000,-2181.818182,Speed,0.000000,-2181.818182,Speed,Off,Off,0.000000,FALSE,0,Read: /home/lvuser/scripts/auto_43.bee,File good!,DRIVE_STRAIGHT_NAVX_RAMPARTS 200 5000 10,DRIVE_STRAIGHT_NAVX_RAMPARTS,0.000000,0.000000
02:52:34.073 PM 04/09/2016,Teleop Disabled,11,FALSE,0,NO ERROR,-0.000000,11.383140,-0.000000,-13.365885,TRUE,TRUE,TRUE,TRUE,FALSE,FALSE,Disabled,0.000000,0.833747,38.866253,TRUE,-0.903214,2.717789,0.000000,0.000000,0.000000,0.000000,-0.001000,-0.001000,0.024000,2.460000,49.910000,-0.040000,28.928329,Hold,0.945068,0.000000,Hold,-1975.000000,2.000000,LowGoal,0.000000,-2181.818182,Speed,0.000000,-2181.818182,Speed,Off,Off,0.000000,FALSE,0,Read: /home/lvuser/scripts/auto_43.bee,File good!,DRIVE_STRAIGHT_NAVX_RAMPARTS 200 5000 10,DRIVE_STRAIGHT_NAVX_RAMPARTS,0.000000,0.000000
02:52:34.173 PM 04/09/2016,Teleop Disabled,11,FALSE,0,NO ERROR,-0.000000,11.383140,-0.000000,-13.365885,TRUE,TRUE,TRUE,TRUE,FALSE,FALSE,Disabled,0.000000,0.833747,38.866253,TRUE,-0.903214,2.717789,0.000000,0.000000,0.000000,0.000000,0.000000,0.000000,0.020000,2.460000,49.910000,-0.040000,28.755395,Hold,0.945068,0.000000,Hold,-1975.000000,2.000000,LowGoal,0.000000,0.000000,Speed,0.000000,0.000000,Speed,Off,Off,0.000000,FALSE,0,Read: /home/lvuser/scripts/auto_43.bee,File good!,DRIVE_STRAIGHT_NAVX_RAMPARTS 200 5000 10,DRIVE_STRAIGHT_NAVX_RAMPARTS,0.000000,0.000000
