Time,Robot Mode,Loop Time,Error Status,Error Code,Error Source,Left Motor Output,Left Motor Encoder,Right Motor Output,Right Motor Encoder,Is Level,Is Stalled,Ball Detector Photoeye,Vision Enabled,Vision Teleop Control,Vision Auto Control,Vision Current State,Vision X Output,Vision NavX Error,Vision NavX Target,NavX Connection Status,NavX Displacement X,NavX Displacement Y,NavX Displacement Z,NavX Velocity X,NavX Velocity Y,NavX Velocity Z,NavX Acceleration X,NavX Acceleration Y,NavX Acceleration Z,NavX Pitch,NavX Yaw,NavX Roll,Gyro Angle,Roller Arm State,Roller Arm Actual,Roller Arm Desired,Shooter Arm State,Shooter Arm Actual,Shooter Arm Desired,Shooter State,Actual RPM Left,Desired RPM Left,Control Mode Left,Actual RPM Right,Desired RPM Right,Control Mode Right,Ball Shooter Cylinder,Ball Halo Cylinder,Scaler Motor Output,Scaler Solenoid Fire,Auto To Run,Auto Current File,Auto File Status,Auto Current Command,Auto Trimmed Command,Shooter Amps Left,Shooter Amps Right
02:57:02.116 PM 04/09/2016,Teleop Enabled,10,FALSE,0,NO ERROR,-0.000000,0.000000,-0.000000,0.000000,FALSE,FALSE,TRUE,TRUE,FALSE,FALSE,Disabled,0.000000,0.833747,38.866253,TRUE,13.676102,-0.346634,0.000000,0.000000,0.000000,0.000000,0.000000,0.000000,0.019000,3.840000,0.350000,-6.370000,-0.035414,ResetBack,0.731934,-0.000049,ResetBack,-29744.000000,-0.250000,Hold,0.000000,0.000000,Speed,0.000000,0.000000,Speed,Off,Off,0.000000,FALSE,0,Read: /home/lvuser/scripts/auto_43.bee,File good!,DRIVE_STRAIGHT_NAVX_RAMPARTS 200 5000 10,DRIVE_STRAIGHT_NAVX_RAMPARTS,0.000000,0.000000
02:57:02.216 PM 04/09/2016,Teleop Enabled,10,FALSE,0,NO ERROR,-0.000000,-0.192500,-0.000000,-0.077000,FALSE,FALSE,TRUE,FALSE,FALSE,FALSE,Disabled,0.000000,0.833747,38.866253,TRUE,13.676208,-0.346710,0.000000,0.011856,-0.013474,0.000000,0.106000,-0.155000,-0.099000,3.860000,0.350000,-6.380000,-0.036732,ResetBack,-0.057373,-0.000049,ResetBack,-29744.000000,-0.250000,Hold,0.000000,0.000000,Speed,0.000000,0.000000,Speed,Off,Off,0.000000,FALSE,0,Read: /home/lvuser/scripts/auto_43.bee,File good!,DRIVE_STRAIGHT_NAVX_RAMPARTS 200 5000 10,DRIVE_STRAIGHT_NAVX_RAMPARTS,0.000000,0.000000
02:57:02.317 PM 04/09/2016,Teleop Enabled,11,FALSE,0,NO ERROR,-0.000000,-0.429916,-0.000000,-0.314416,FALSE,FALSE,TRUE,FALSE,FALSE,FALSE,Disabled,0.000000,0.833747,38.866253,TRUE,13.678665,-0.347839,0.000000,0.085846,-0.029831,0.000000,0.069000,0.046000,-0.002000,3.870000,0.240000,-5.940000,-0.097056,ResetBack,-0.059326,-0.000049,ResetBack,-27347.000000,-0.250000,Hold,0.000000,0.000000,Speed,0.000000,0.000000,Speed,Off,Off,0.000000,FALSE,0,Read: /home/lvuser/scripts/auto_43.bee,File good!,DRIVE_STRAIGHT_NAVX_RAMPARTS 200 5000 10,DRIVE_STRAIGHT_NAVX_RAMPARTS,0.000000,0.000000
02:57:02.417 PM 04/09/2016,Teleop Enabled,9,FALSE,0,NO ERROR,-0.000000,-0.712248,-0.000000,-1.020248,FALSE,FALSE,TRUE,FALSE,FALSE,FALSE,Disabled,0.000000,0.833747,38.866253,TRUE,13.682999,-0.348724,0.000000,0.000000,-0.018707,0.000000,0.055000,0.032000,0.005000,3.880000,0.400000,-5.810000,0.059725,ResetBack,-0.059326,-0.000049,ResetBack,-22746.000000,-0.250000,Hold,0.000000,0.000000,Speed,0.000000,0.000000,Speed,Off,Off,0.000000,FALSE,0,Read: /home/lvuser/scripts/auto_43.bee,File good!,DRIVE_STRAIGHT_NAVX_RAMPARTS 200 5000 10,DRIVE_STRAIGHT_NAVX_RAMPARTS,0.000000,0.000000
02:57:02.527 PM 04/09/2016,Teleop Enabled,15,FALSE,0,NO ERROR,-0.000000,-1.296164,-0.000000,-1.341080,FALSE,FALSE,TRUE,FALSE,FALSE,FALSE,Disabled,0.000000,0.833747,38.866253,TRUE,13.684494,-0.349991,0.000000,0.040131,-0.043304,0.000000,-0.067000,-0.068000,0.035000,3.860000,0.390000,-5.770000,0.094371,Reset,-0.059326,0.000000,ResetBack,-17235.000000,-0.250000,Hold,0.000000,0.000000,Speed,0.000000,0.000000,Speed,Off,Off,0.000000,FALSE,0,Read: /home/lvuser/scripts/auto_43.bee,File good!,DRIVE_STRAIGHT_NAVX_RAMPARTS 200 5000 10,DRIVE_STRAIGHT_NAVX_RAMPARTS,0.000000,0.000000
02:57:02.618 PM 04/09/2016,Teleop Enabled,11,FALSE,0,NO ERROR,-0.000000,-1.918579,-0.000000,-1.989162,FALSE,FALSE,TRUE,FALSE,FALSE,FALSE,Disabled,0.000000,0.833747,38.866253,TRUE,13.686401,-0.352051,0.000000,0.034882,0.000000,0.000000,-0.014000,0.023000,0.037000,3.900000,0.360000,-5.690000,0.016142,Hold,0.974121,0.000000,ResetBack,-11641.000000,-0.250000,Hold,0.000000,0.000000,Speed,0.000000,0.000000,Speed,Off,Off,0.000000,FALSE,0,Read: /home/lvuser/scripts/auto_43.bee,File good!,DRIVE_STRAIGHT_NAVX_RAMPARTS 200 5000 10,DRIVE_STRAIGHT_NAVX_RAMPARTS,0.000000,0.000000
02:57:02.719 PM 04/09/2016,Teleop Enabled,9,FALSE,0,NO ERROR,-0.000000,-2.496077,-0.000000,-2.573077,FALSE,FALSE,TRUE,FALSE,FALSE,FALSE,Disabled,0.000000,0.833747,38.866253,TRUE,13.685883,-0.352097,0.000000,-0.022018,-0.005875,0.000000,-0.036000,0.010000,0.036000,3.850000,0.380000,-5.770000,0.079027,Hold,0.973145,0.000000,ResetBack,-7923.000000,-0.250000,Hold,0.000000,0.000000,Speed,0.000000,0.000000,Speed,Off,Off,0.000000,FALSE,0,Read: /home/lvuser/scripts/auto_43.bee,File good!,DRIVE_STRAIGHT_NAVX_RAMPARTS 200 5000 10,DRIVE_STRAIGHT_NAVX_RAMPARTS,0.000000,0.000000
02:57:02.821 PM 04/09/2016,Teleop Enabled,10,FALSE,0,NO ERROR,-0.000000,-3.124909,-0.000000,-3.214742,FALSE,FALSE,TRUE,FALSE,FALSE,FALSE,Disabled,0.000000,0.833747,38.866253,TRUE,13.684479,-0.352280,0.000000,-0.024612,0.000610,0.000000,0.004000,-0.002000,0.021000,3.900000,0.370000,-5.700000,0.074852,Hold,0.938477,0.000000,ResetBack,-7923.000000,-0.250000,LowGoal,0.000000,-2181.818182,Speed,0.000000,-2181.818182,Speed,Off,Off,0.000000,FALSE,0,Read: /home/lvuser/scripts/auto_43.bee,File good!,DRIVE_STRAIGHT_NAVX_RAMPARTS 200 5000 10,DRIVE_STRAIGHT_NAVX_RAMPARTS,0.000000,0.000000
02:57:02.921 PM 04/09/2016,Teleop Enabled,11,FALSE,0,NO ERROR,-0.000000,-3.766575,-0.000000,-3.882074,FALSE,FALSE,TRUE,FALSE,FALSE,FALSE,Disabled,0.000000,0.833747,38.866253,TRUE,13.684418,-0.352341,0.000000,0.000000,-0.005219,0.000000,0.022000,-0.036000,0.037000,3.850000,0.410000,-5.740000,0.113098,Hold,0.938477,0.000000,ResetBack,-6656.000000,-0.250000,LowGoal,45.000000,-2181.818182,Speed,15.000000,-2181.818182,Speed,Off,Off,0.000000,FALSE,0,Read: /home/lvuser/scripts/auto_43.bee,File good!,DRIVE_STRAIGHT_NAVX_RAMPARTS 200 5000 10,DRIVE_STRAIGHT_NAVX_RAMPARTS,0.000000,0.000000
02:57:03.021 PM 04/09/2016,Teleop Enabled,10,FALSE,0,NO ERROR,-0.000000,-4.459573,-0.000000,-4.587906,FALSE,FALSE,TRUE,FALSE,FALSE,FALSE,Disabled,0.000000,0.833747,38.866253,TRUE,13.684891,-0.353729,0.000000,0.022278,-0.040146,0.000000,0.022000,-0.036000,0.037000,3.850000,0.410000,-5.710000,0.126462,Hold,0.938477,0.000000,ResetBack,-6456.000000,-0.250000,LowGoal,540.000000,-2181.818182,Speed,367.500000,-2181.818182,Speed,Off,Off,0.000000,FALSE,0,Read: /home/lvuser/scripts/auto_43.bee,File good!,DRIVE_STRAIGHT_NAVX_RAMPARTS 200 5000 10,DRIVE_STRAIGHT_NAVX_RAMPARTS,0.000000,0.000000
02:57:03.121 PM 04/09/2016,Teleop Enabled,9,FALSE,0,NO ERROR,-0.000000,-5.152571,-0.000000,-5.312988,FALSE,FALSE,TRUE,FALSE,FALSE,FALSE,Disabled,0.000000,0.833747,38.866253,TRUE,13.686386,-0.357819,0.000000,0.026062,-0.074066,0.000000,-0.030000,-0.053000,0.058000,3.850000,0.410000,-5.710000,0.146560,Hold,0.938477,0.000000,ResetBack,-6455.000000,-0.250000,LowGoal,1005.000000,-2181.818182,Speed,367.500000,-2181.818182,Speed,Off,Off,0.000000,FALSE,0,Read: /home/lvuser/scripts/auto_43.bee,File good!,DRIVE_STRAIGHT_NAVX_RAMPARTS 200 5000 10,DRIVE_STRAIGHT_NAVX_RAMPARTS,0.000000,0.000000
02:57:03.223 PM 04/09/2016,Teleop Enabled,9,FALSE,0,NO ERROR,-0.000000,-5.704403,-0.000000,-6.025236,FALSE,FALSE,TRUE,FALSE,FALSE,FALSE,Disabled,0.000000,0.833747,38.866253,TRUE,13.686966,-0.360260,0.000000,0.001114,-0.056641,0.000000,-0.005000,-0.047000,0.048000,3.720000,0.690000,-5.570000,0.450121,Hold,0.938477,0.000000,ResetBack,-6455.000000,-0.250000,LowGoal,1582.500000,-2181.818182,Speed,997.500000,-2181.818182,Speed,Off,Off,0.000000,FALSE,0,Read: /home/lvuser/scripts/auto_43.bee,File good!,DRIVE_STRAIGHT_NAVX_RAMPARTS 200 5000 10,DRIVE_STRAIGHT_NAVX_RAMPARTS,0.000000,0.000000
02:57:03.326 PM 04/09/2016,Teleop Enabled,11,FALSE,0,NO ERROR,-0.000000,-6.127902,-0.000000,-6.390985,FALSE,FALSE,TRUE,FALSE,FALSE,FALSE,Disabled,0.000000,0.833747,38.866253,TRUE,13.685196,-0.363129,0.000000,-0.059540,-0.049042,0.000000,-0.117000,-0.013000,-0.098000,3.670000,0.640000,-5.510000,0.429576,Hold,0.938477,0.000000,ResetBack,-6451.000000,-0.250000,LowGoal,1897.500000,-2181.818182,Speed,1717.500000,-2181.818182,Speed,Off,Off,0.000000,FALSE,0,Read: /home/lvuser/scripts/auto_43.bee,File good!,DRIVE_STRAIGHT_NAVX_RAMPARTS 200 5000 10,DRIVE_STRAIGHT_NAVX_RAMPARTS,0.000000,0.000000
02:57:03.425 PM 04/09/2016,Teleop Enabled,11,FALSE,0,NO ERROR,-0.000000,-6.320402,-0.000000,-6.570651,FALSE,FALSE,TRUE,FALSE,FALSE,FALSE,Disabled,0.000000,0.833747,38.866253,TRUE,13.678970,-0.363373,0.000000,-0.132385,0.067276,0.000000,-0.076000,0.204000,-0.036000,3.600000,0.620000,-5.470000,0.365696,Hold,0.938477,0.000000,Reset,27.000000,2.000000,LowGoal,2137.500000,-2181.818182,Speed,1980.000000,-2181.818182,Speed,Off,Off,0.000000,FALSE,0,Read: /home/lvuser/scripts/auto_43.bee,File good!,DRIVE_STRAIGHT_NAVX_RAMPARTS 200 5000 10,DRIVE_STRAIGHT_NAVX_RAMPARTS,0.000000,0.000000
02:57:03.525 PM 04/09/2016,Teleop Enabled,12,FALSE,0,NO ERROR,-0.000000,-6.358902,-0.000000,-6.621985,FALSE,FALSE,TRUE,FALSE,FALSE,FALSE,Disabled,0.000000,0.833747,38.866253,TRUE,13.670654,-0.357605,0.000000,-0.161011,0.104431,0.000000,0.074000,-0.161000,0.029000,3.600000,0.620000,-5.470000,0.409300,Hold,0.938477,0.000000,Hold,27.000000,2.000000,LowGoal,2167.500000,-2181.818182,Speed,2137.500000,-2181.818182,Speed,Off,Off,0.000000,FALSE,0,Read: /home/lvuser/scripts/auto_43.bee,File good!,DRIVE_STRAIGHT_NAVX_RAMPARTS 200 5000 10,DRIVE_STRAIGHT_NAVX_RAMPARTS,0.000000,0.000000
02:57:03.626 PM 04/09/2016,Teleop Enabled,11,FALSE,0,NO ERROR,-0.000000,-6.358902,-0.000000,-6.621985,FALSE,FALSE,TRUE,FALSE,FALSE,FALSE,Disabled,0.000000,0.833747,38.866253,TRUE,13.664337,-0.356995,0.000000,-0.110352,-0.054581,0.000000,-0.025000,-0.268000,0.064000,3.700000,0.640000,-5.490000,0.398359,Hold,0.938477,0.000000,Hold,27.000000,2.000000,LowGoal,2115.000000,-2181.818182,Speed,2115.000000,-2181.818182,Speed,Off,Off,0.000000,FALSE,0,Read: /home/lvuser/scripts/auto_43.bee,File good!,DRIVE_STRAIGHT_NAVX_RAMPARTS 200 5000 10,DRIVE_STRAIGHT_NAVX_RAMPARTS,0.000000,0.000000
02:57:03.726 PM 04/09/2016,Teleop Enabled,10,FALSE,0,NO ERROR,-0.000000,-6.358902,-0.000000,-6.621985,FALSE,FALSE,TRUE,FALSE,FALSE,FALSE,Disabled,0.000000,0.833747,38.866253,TRUE,13.660736,-0.366852,0.000000,-0.012360,-0.275604,0.000000,0.007000,-0.088000,0.112000,3.690000,0.640000,-5.530000,0.415765,Hold,0.938477,0.000000,Hold,-15.000000,2.000000,LowGoal,2092.500000,-2181.818182,Speed,2070.000000,-2181.818182,Speed,Off,Off,0.000000,FALSE,0,Read: /home/lvuser/scripts/auto_43.bee,File good!,DRIVE_STRAIGHT_NAVX_RAMPARTS 200 5000 10,DRIVE_STRAIGHT_NAVX_RAMPARTS,0.000000,0.000000
02:57:03.832 PM 04/09/2016,Teleop Enabled,13,FALSE,0,NO ERROR,-0.000000,-6.358902,-0.000000,-6.628401,FALSE,FALSE,TRUE,FALSE,FALSE,FALSE,Disabled,0.000000,0.833747,38.866253,TRUE,13.660156,-0.382187,0.000000,-0.024124,-0.299393,0.000000,0.158000,0.148000,0.039000,3.650000,0.650000,-5.500000,0.443815,Hold,0.938477,0.000000,Hold,-21.000000,2.000000,LowGoal,2115.000000,-2181.818182,Speed,2070.000000,-2181.818182,Speed,Off,Off,0.000000,FALSE,0,Read: /home/lvuser/scripts/auto_43.bee,File good!,DRIVE_STRAIGHT_NAVX_RAMPARTS 200 5000 10,DRIVE_STRAIGHT_NAVX_RAMPARTS,0.000000,0.000000
02:57:03.929 PM 04/09/2016,Teleop Enabled,10,FALSE,0,NO ERROR,-0.000000,-6.358902,-0.000000,-6.621985,FALSE,FALSE,TRUE,FALSE,FALSE,FALSE,Disabled,0.000000,0.833747,38.866253,TRUE,13.661423,-0.393799,0.000000,0.034424,-0.191605,0.000000,0.049000,0.016000,-0.149000,3.680000,0.650000,-5.490000,0.456418,Hold,0.938477,0.000000,Hold,-23.000000,2.000000,LowGoal,2130.000000,-2181.818182,Speed,2077.500000,-2181.818182,Speed,Off,Off,0.000000,FALSE,0,Read: /home/lvuser/scripts/auto_43.bee,File good!,DRIVE_STRAIGHT_NAVX_RAMPARTS 200 5000 10,DRIVE_STRAIGHT_NAVX_RAMPARTS,0.000000,0.000000
02:57:04.030 PM 04/09/2016,Teleop Enabled,10,FALSE,0,NO ERROR,-0.000000,-6.358902,-0.000000,-6.628401,FALSE,FALSE,TRUE,FALSE,FALSE,FALSE,Disabled,0.000000,0.833747,38.866253,TRUE,13.665543,-0.405121,0.000000,0.122040,-0.283188,0.000000,0.049000,0.016000,-0.149000,3.680000,0.640000,-5.500000,0.478433,Hold,0.938477,0.000000,Hold,-23.000000,2.000000,LowGoal,2130.000000,-2181.818182,Speed,2085.000000,-2181.818182,Speed,Off,Off,0.000000,FALSE,0,Read: /home/lvuser/scripts/auto_43.bee,File good!,DRIVE_STRAIGHT_NAVX_RAMPARTS 200 5000 10,DRIVE_STRAIGHT_NAVX_RAMPARTS,0.000000,0.000000
02:57:04.130 PM 04/09/2016,Teleop Enabled,10,FALSE,0,NO ERROR,-0.000000,-6.358902,-0.000000,-6.628401,FALSE,FALSE,TRUE,FALSE,FALSE,FALSE,Disabled,0.000000,0.833747,38.866253,TRUE,13.669800,-0.423035,0.000000,0.083282,-0.390823,0.000000,0.078000,-0.004000,-0.098000,3.740000,0.650000,-5.500000,0.487890,Hold,0.938477,0.000000,Hold,-26.000000,2.000000,LowGoal,2130.000000,-2181.818182,Speed,2077.500000,-2181.818182,Speed,Off,Off,0.000000,FALSE,0,Read: /home/lvuser/scripts/auto_43.bee,File good!,DRIVE_STRAIGHT_NAVX_RAMPARTS 200 5000 10,DRIVE_STRAIGHT_NAVX_RAMPARTS,0.000000,0.000000
02:57:04.232 PM 04/09/2016,Teleop Enabled,12,FALSE,0,NO ERROR,-0.000000,-6.358902,-0.000000,-6.628401,FALSE,FALSE,TRUE,FALSE,FALSE,FALSE,Disabled,0.000000,0.833747,38.866253,TRUE,13.674179,-0.441254,0.000000,0.022964,-0.172058,0.000000,0.078000,-0.004000,-0.098000,3.620000,0.650000,-5.510000,0.515633,Hold,0.938477,0.000000,Hold,-28.000000,2.000000,LowGoal,2137.500000,-2181.818182,Speed,2077.500000,-2181.818182,Speed,Off,Off,0.000000,FALSE,0,Read: /home/lvuser/scripts/auto_43.bee,File good!,DRIVE_STRAIGHT_NAVX_RAMPARTS 200 5000 10,DRIVE_STRAIGHT_NAVX_RAMPARTS,0.000000,0.000000
02:57:04.334 PM 04/09/2016,Teleop Enabled,10,FALSE,0,NO ERROR,-0.000000,-6.358902,-0.000000,-6.628401,FALSE,FALSE,TRUE,FALSE,FALSE,FALSE,Disabled,0.000000,0.833747,38.866253,TRUE,13.674133,-0.440506,0.000000,-0.028168,0.123856,0.000000,-0.191000,0.251000,0.066000,3.660000,0.640000,-5.450000,0.529269,Hold,0.938477,0.000000,Hold,-31.000000,2.000000,LowGoal,2122.500000,-2181.818182,Speed,2085.000000,-2181.818182,Speed,Off,Off,0.000000,FALSE,0,Read: /home/lvuser/scripts/auto_43.bee,File good!,DRIVE_STRAIGHT_NAVX_RAMPARTS 200 5000 10,DRIVE_STRAIGHT_NAVX_RAMPARTS,0.000000,0.000000
02:57:04.437 PM 04/09/2016,Teleop Enabled,10,FALSE,0,NO ERROR,-0.000000,-6.358902,-0.000000,-6.628401,FALSE,FALSE,TRUE,FALSE,FALSE,FALSE,Disabled,0.000000,0.833747,38.866253,TRUE,13.669083,-0.430161,0.000000,-0.100769,0.188690,0.000000,0.124000,-0.255000,0.061000,3.670000,0.650000,-5.470000,0.545804,Hold,0.938477,0.000000,Hold,-31.000000,2.000000,LowGoal,2107.500000,-2181.818182,Speed,2085.000000,-2181.818182,Speed,Off,Off,0.000000,FALSE,0,Read: /home/lvuser/scripts/auto_43.bee,File good!,DRIVE_STRAIGHT_NAVX_RAMPARTS 200 5000 10,DRIVE_STRAIGHT_NAVX_RAMPARTS,0.000000,0.000000
02:57:04.537 PM 04/09/2016,Teleop Enabled,10,FALSE,0,NO ERROR,-0.000000,-6.358902,-0.000000,-6.628401,FALSE,FALSE,TRUE,FALSE,FALSE,FALSE,Disabled,0.000000,0.833747,38.866253,TRUE,13.666275,-0.430008,0.000000,-0.033768,-0.117432,0.000000,0.124000,-0.255000,0.061000,3.700000,0.640000,-5.470000,0.577747,Hold,0.938477,0.000000,Hold,-34.000000,2.000000,LowGoal,2107.500000,-2181.818182,Speed,2085.000000,-2181.818182,Speed,Off,Off,0.000000,FALSE,0,Read: /home/lvuser/scripts/auto_43.bee,File good!,DRIVE_STRAIGHT_NAVX_RAMPARTS 200 5000 10,DRIVE_STRAIGHT_NAVX_RAMPARTS,0.000000,0.000000
02:57:04.639 PM 04/09/2016,Teleop Enabled,10,FALSE,0,NO ERROR,-0.275591,-6.358902,0.275591,-6.628401,FALSE,FALSE,TRUE,FALSE,FALSE,FALSE,Disabled,0.000000,0.833747,38.866253,TRUE,13.668579,-0.442230,0.000000,0.068100,-0.221771,0.000000,0.146000,-0.177000,0.051000,3.700000,0.640000,-5.470000,0.599370,Hold,0.938477,0.000000,Hold,-36.000000,2.000000,LowGoal,2107.500000,-2181.818182,Speed,2077.500000,-2181.818182,Speed,Off,Off,0.000000,FALSE,0,Read: /home/lvuser/scripts/auto_43.bee,File good!,DRIVE_STRAIGHT_NAVX_RAMPARTS 200 5000 10,DRIVE_STRAIGHT_NAVX_RAMPARTS,0.000000,0.000000
02:57:04.739 PM 04/09/2016,Teleop Enabled,11,FALSE,0,NO ERROR,-0.417323,-7.103233,0.417323,-7.314983,FALSE,FALSE,TRUE,FALSE,FALSE,FALSE,Disabled,0.000000,0.833747,38.866253,TRUE,13.676743,-0.449570,0.000000,0.260818,-0.081009,0.000000,0.027000,0.118000,-0.145000,3.650000,0.520000,-3.750000,0.583403,Hold,0.938477,0.000000,Hold,-39.000000,2.000000,LowGoal,2107.500000,-2181.818182,Speed,2085.000000,-2181.818182,Speed,Off,Off,0.000000,FALSE,0,Read: /home/lvuser/scripts/auto_43.bee,File good!,DRIVE_STRAIGHT_NAVX_RAMPARTS 200 5000 10,DRIVE_STRAIGHT_NAVX_RAMPARTS,0.000000,0.000000
02:57:04.841 PM 04/09/2016,Teleop Enabled,10,FALSE,0,NO ERROR,-0.409449,-8.502063,0.409449,-8.675313,FALSE,FALSE,TRUE,FALSE,FALSE,FALSE,Disabled,0.000000,0.833747,38.866253,TRUE,13.690521,-0.450714,0.000000,0.410995,0.001038,0.000000,0.325000,0.148000,-0.133000,3.650000,0.520000,-3.750000,0.428464,Hold,0.938477,0.000000,Hold,-42.000000,2.000000,LowGoal,2077.500000,-2181.818182,Speed,2070.000000,-2181.818182,Speed,Off,Off,0.000000,FALSE,0,Read: /home/lvuser/scripts/auto_43.bee,File good!,DRIVE_STRAIGHT_NAVX_RAMPARTS 200 5000 10,DRIVE_STRAIGHT_NAVX_RAMPARTS,0.000000,0.000000
02:57:04.941 PM 04/09/2016,Teleop Enabled,10,FALSE,0,NO ERROR,-0.377953,-10.985308,0.377953,-11.145724,FALSE,FALSE,TRUE,FALSE,FALSE,FALSE,Disabled,0.000000,0.833747,38.866253,TRUE,13.717407,-0.451752,0.000000,0.641724,-0.082916,0.000000,0.277000,-0.256000,0.006000,3.710000,0.250000,-1.680000,0.405048,Hold,0.938477,0.000000,Hold,-42.000000,2.000000,LowGoal,2077.500000,-2181.818182,Speed,2040.000000,-2181.818182,Speed,Off,Off,0.000000,FALSE,0,Read: /home/lvuser/scripts/auto_43.bee,File good!,DRIVE_STRAIGHT_NAVX_RAMPARTS 200 5000 10,DRIVE_STRAIGHT_NAVX_RAMPARTS,0.000000,0.000000
02:57:05.041 PM 04/09/2016,Teleop Enabled,10,FALSE,0,NO ERROR,-0.299213,-14.161550,0.299213,-14.257800,FALSE,FALSE,TRUE,FALSE,FALSE,FALSE,Disabled,0.000000,0.833747,38.866253,TRUE,13.753647,-0.457169,0.000000,0.763290,-0.060959,0.000000,0.277000,-0.256000,0.006000,4.130000,0.120000,-1.450000,0.341347,Hold,0.938477,0.000000,Hold,-42.000000,2.000000,LowGoal,2085.000000,-2181.818182,Speed,2032.500000,-2181.818182,Speed,Off,Off,0.000000,FALSE,0,Read: /home/lvuser/scripts/auto_43.bee,File good!,DRIVE_STRAIGHT_NAVX_RAMPARTS 200 5000 10,DRIVE_STRAIGHT_NAVX_RAMPARTS,0.000000,0.000000
02:57:05.144 PM 04/09/2016,Teleop Enabled,10,FALSE,0,NO ERROR,-0.275591,-17.575209,0.275591,-17.838292,FALSE,FALSE,TRUE,FALSE,FALSE,FALSE,Disabled,0.000000,0.833747,38.866253,TRUE,13.793655,-0.457962,0.000000,0.814911,-0.005966,0.000000,0.032000,0.095000,0.070000,4.130000,0.120000,-1.450000,0.598626,Hold,0.938477,0.000000,Hold,-43.000000,2.000000,LowGoal,2085.000000,-2181.818182,Speed,2040.000000,-2181.818182,Speed,Off,Off,0.000000,FALSE,0,Read: /home/lvuser/scripts/auto_43.bee,File good!,DRIVE_STRAIGHT_NAVX_RAMPARTS 200 5000 10,DRIVE_STRAIGHT_NAVX_RAMPARTS,0.000000,0.000000
02:57:05.244 PM 04/09/2016,Teleop Enabled,10,FALSE,0,NO ERROR,-0.275591,-21.367450,0.275591,-21.893615,TRUE,FALSE,TRUE,FALSE,FALSE,FALSE,Disabled,0.000000,0.833747,38.866253,TRUE,13.834702,-0.458176,0.000000,0.783478,-0.030106,0.000000,-0.264000,-0.135000,-0.020000,2.800000,1.330000,-2.340000,1.626209,Hold,0.938477,0.000000,Hold,-43.000000,2.000000,LowGoal,2122.500000,-2181.818182,Speed,2062.500000,-2181.818182,Speed,Off,Off,0.000000,FALSE,0,Read: /home/lvuser/scripts/auto_43.bee,File good!,DRIVE_STRAIGHT_NAVX_RAMPARTS 200 5000 10,DRIVE_STRAIGHT_NAVX_RAMPARTS,0.000000,0.000000
02:57:05.344 PM 04/09/2016,Teleop Enabled,11,FALSE,0,NO ERROR,-0.275591,-25.416357,0.275591,-25.974606,TRUE,FALSE,TRUE,FALSE,FALSE,FALSE,Disabled,0.000000,0.833747,38.866253,TRUE,13.877823,-0.469299,0.000000,0.723190,-0.205261,0.000000,-0.238000,0.769000,0.258000,2.800000,1.330000,-2.340000,0.865084,Hold,0.938477,0.000000,Hold,-43.000000,2.000000,LowGoal,2130.000000,-2181.818182,Speed,2077.500000,-2181.818182,Speed,Off,Off,0.000000,FALSE,0,Read: /home/lvuser/scripts/auto_43.bee,File good!,DRIVE_STRAIGHT_NAVX_RAMPARTS 200 5000 10,DRIVE_STRAIGHT_NAVX_RAMPARTS,0.000000,0.000000
02:57:05.446 PM 04/09/2016,Teleop Enabled,11,FALSE,0,NO ERROR,-0.275591,-28.753016,0.275591,-29.959347,FALSE,FALSE,TRUE,FALSE,FALSE,FALSE,Disabled,0.000000,0.833747,38.866253,TRUE,13.904480,-0.466705,0.000000,0.660461,0.111725,0.000000,-0.238000,0.769000,0.258000,3.100000,1.020000,0.270000,2.279645,Hold,0.938232,0.000000,Hold,-43.000000,2.000000,LowGoal,2107.500000,-2181.818182,Speed,2077.500000,-2181.818182,Speed,Off,Off,0.000000,FALSE,0,Read: /home/lvuser/scripts/auto_43.bee,File good!,DRIVE_STRAIGHT_NAVX_RAMPARTS 200 5000 10,DRIVE_STRAIGHT_NAVX_RAMPARTS,0.000000,0.000000
02:57:05.548 PM 04/09/2016,Teleop Enabled,10,FALSE,0,NO ERROR,-0.000000,-32.397674,-0.000000,-33.251089,TRUE,FALSE,TRUE,FALSE,FALSE,FALSE,Disabled,0.000000,0.833747,38.866253,TRUE,13.934586,-0.463074,0.000000,0.435181,0.017517,0.000000,-0.302000,-0.053000,0.023000,1.870000,2.330000,-0.950000,1.730416,Hold,0.938232,0.000000,Hold,-44.000000,2.000000,LowGoal,2107.500000,-2181.818182,Speed,2062.500000,-2181.818182,Speed,Off,Off,0.000000,FALSE,0,Read: /home/lvuser/scripts/auto_43.bee,File good!,DRIVE_STRAIGHT_NAVX_RAMPARTS 200 5000 10,DRIVE_STRAIGHT_NAVX_RAMPARTS,0.000000,0.000000
02:57:05.648 PM 04/09/2016,Teleop Enabled,9,FALSE,0,NO ERROR,-0.204724,-35.471250,0.204724,-36.465831,TRUE,FALSE,TRUE,FALSE,FALSE,FALSE,Disabled,0.000000,0.833747,38.866253,TRUE,13.955170,-0.471771,0.000000,0.384903,-0.162872,0.000000,0.226000,-0.580000,-0.075000,2.770000,1.770000,-1.680000,1.566946,Hold,0.938232,0.000000,Hold,-44.000000,2.000000,LowGoal,2115.000000,-2181.818182,Speed,2062.500000,-2181.818182,Speed,Off,Off,0.000000,FALSE,0,Read: /home/lvuser/scripts/auto_43.bee,File good!,DRIVE_STRAIGHT_NAVX_RAMPARTS 200 5000 10,DRIVE_STRAIGHT_NAVX_RAMPARTS,0.000000,0.000000
02:57:05.748 PM 04/09/2016,Teleop Enabled,11,FALSE,0,NO ERROR,-0.000000,-38.365160,-0.000000,-39.532991,FALSE,FALSE,TRUE,FALSE,FALSE,FALSE,Disabled,0.000000,0.833747,38.866253,TRUE,13.955170,-0.471771,0.000000,0.384903,-0.162872,0.000000,0.034000,-0.078000,0.171000,3.190000,1.470000,0.140000,2.024799,Hold,0.938232,0.000000,Hold,-44.000000,2.000000,LowGoal,2130.000000,-2181.818182,Speed,2070.000000,-2181.818182,Speed,Off,Off,0.000000,FALSE,0,Read: /home/lvuser/scripts/auto_43.bee,File good!,DRIVE_STRAIGHT_NAVX_RAMPARTS 200 5000 10,DRIVE_STRAIGHT_NAVX_RAMPARTS,0.000000,0.000000
02:57:05.848 PM 04/09/2016,Teleop Enabled,11,FALSE,0,NO ERROR,-0.000000,-40.084823,-0.000000,-41.246237,TRUE,FALSE,TRUE,FALSE,FALSE,FALSE,Disabled,0.000000,0.833747,38.866253,TRUE,13.980759,-0.489090,0.000000,0.084625,-0.116959,0.000000,-0.172000,0.042000,-0.288000,2.570000,1.880000,1.280000,1.936869,Hold,0.938232,0.000000,Hold,-45.000000,2.000000,LowGoal,2145.000000,-2181.818182,Speed,2077.500000,-2181.818182,Speed,Off,Off,0.000000,FALSE,0,Read: /home/lvuser/scripts/auto_43.bee,File good!,DRIVE_STRAIGHT_NAVX_RAMPARTS 200 5000 10,DRIVE_STRAIGHT_NAVX_RAMPARTS,0.000000,0.000000
02:57:05.948 PM 04/09/2016,Teleop Enabled,11,FALSE,0,NO ERROR,-0.000000,-41.759569,-0.000000,-42.856816,TRUE,FALSE,TRUE,FALSE,FALSE,FALSE,Disabled,0.000000,0.833747,38.866253,TRUE,13.983566,-0.490723,0.000000,0.013214,-0.026337,0.000000,0.068000,0.222000,0.693000,2.750000,1.850000,-0.450000,1.816211,Hold,0.938232,0.000000,Hold,-45.000000,2.000000,LowGoal,2130.000000,-2181.818182,Speed,2085.000000,-2181.818182,Speed,Off,Off,0.000000,FALSE,0,Read: /home/lvuser/scripts/auto_43.bee,File good!,DRIVE_STRAIGHT_NAVX_RAMPARTS 200 5000 10,DRIVE_STRAIGHT_NAVX_RAMPARTS,0.000000,0.000000
02:57:06.048 PM 04/09/2016,Teleop Enabled,10,FALSE,0,NO ERROR,-0.448819,-42.606567,-0.448819,-43.767981,TRUE,FALSE,TRUE,FALSE,FALSE,FALSE,Disabled,0.000000,0.833747,38.866253,TRUE,13.983566,-0.490723,0.000000,0.013214,-0.026337,0.000000,-0.098000,-0.181000,-0.098000,2.670000,1.720000,-0.080000,1.723992,Hold,0.938232,0.000000,Hold,-45.000000,2.000000,LowGoal,2115.000000,-2181.818182,Speed,2085.000000,-2181.818182,Speed,Off,Off,0.000000,FALSE,0,Read: /home/lvuser/scripts/auto_43.bee,File good!,DRIVE_STRAIGHT_NAVX_RAMPARTS 200 5000 10,DRIVE_STRAIGHT_NAVX_RAMPARTS,0.000000,0.000000
02:57:06.148 PM 04/09/2016,Teleop Enabled,11,FALSE,0,NO ERROR,-0.661417,-42.324234,-0.661417,-45.596727,TRUE,FALSE,TRUE,FALSE,FALSE,FALSE,Disabled,0.000000,0.833747,38.866253,TRUE,13.980103,-0.498596,0.000000,-0.095520,-0.202820,0.000000,0.433000,0.332000,-0.068000,2.900000,1.870000,-1.500000,3.937584,Hold,0.938232,0.000000,Hold,-45.000000,2.000000,LowGoal,2122.500000,-2181.818182,Speed,2085.000000,-2181.818182,Speed,Off,Off,0.000000,FALSE,0,Read: /home/lvuser/scripts/auto_43.bee,File good!,DRIVE_STRAIGHT_NAVX_RAMPARTS 200 5000 10,DRIVE_STRAIGHT_NAVX_RAMPARTS,0.000000,0.000000
02:57:06.249 PM 04/09/2016,Teleop Enabled,10,FALSE,0,NO ERROR,-0.661417,-40.899738,-0.661417,-47.547389,TRUE,FALSE,TRUE,FALSE,FALSE,FALSE,Disabled,0.000000,0.833747,38.866253,TRUE,13.975052,-0.506012,0.000000,-0.039627,-0.090057,0.000000,-0.004000,0.064000,0.112000,2.830000,6.360000,-0.400000,10.080612,Hold,0.938232,0.000000,Hold,-46.000000,2.000000,LowGoal,2100.000000,-2181.818182,Speed,2062.500000,-2181.818182,Speed,Off,Off,0.000000,FALSE,0,Read: /home/lvuser/scripts/auto_43.bee,File good!,DRIVE_STRAIGHT_NAVX_RAMPARTS 200 5000 10,DRIVE_STRAIGHT_NAVX_RAMPARTS,0.000000,0.000000
02:57:06.349 PM 04/09/2016,Teleop Enabled,10,FALSE,0,NO ERROR,-0.354331,-39.154408,-0.354331,-49.754717,FALSE,FALSE,TRUE,FALSE,FALSE,FALSE,Disabled,0.000000,0.833747,38.866253,TRUE,13.973068,-0.504944,0.000000,-0.005783,0.138458,0.000000,0.004000,-0.082000,-0.118000,3.690000,15.020000,-0.630000,17.689351,Hold,0.938232,0.000000,Hold,-46.000000,2.000000,LowGoal,2032.500000,-2181.818182,Speed,1995.000000,-2181.818182,Speed,Off,Off,0.000000,FALSE,0,Read: /home/lvuser/scripts/auto_43.bee,File good!,DRIVE_STRAIGHT_NAVX_RAMPARTS 200 5000 10,DRIVE_STRAIGHT_NAVX_RAMPARTS,0.000000,0.000000
02:57:06.450 PM 04/09/2016,Teleop Enabled,9,FALSE,0,NO ERROR,-0.354331,-39.154408,-0.354331,-51.602713,TRUE,FALSE,TRUE,FALSE,FALSE,FALSE,Disabled,0.000000,0.833747,38.866253,TRUE,13.972626,-0.502594,0.000000,-0.031967,-0.041977,0.000000,-0.060000,0.015000,0.025000,2.780000,21.720000,-0.710000,25.087542,Hold,0.938232,0.000000,Hold,-47.000000,2.000000,LowGoal,2010.000000,-2181.818182,Speed,1957.500000,-2181.818182,Speed,Off,Off,0.000000,FALSE,0,Read: /home/lvuser/scripts/auto_43.bee,File good!,DRIVE_STRAIGHT_NAVX_RAMPARTS 200 5000 10,DRIVE_STRAIGHT_NAVX_RAMPARTS,0.000000,0.000000
02:57:06.553 PM 04/09/2016,Teleop Enabled,10,FALSE,0,NO ERROR,-0.622047,-36.324665,-0.622047,-53.052876,TRUE,FALSE,TRUE,FALSE,FALSE,FALSE,Disabled,0.000000,0.833747,38.866253,TRUE,13.968323,-0.506210,0.000000,-0.092972,-0.004593,0.000000,-0.086000,0.030000,-0.181000,2.820000,28.040000,-0.730000,30.300808,Hold,0.938232,0.000000,Hold,-47.000000,2.000000,LowGoal,2055.000000,-2181.818182,Speed,1987.500000,-2181.818182,Speed,Off,Off,0.000000,FALSE,0,Read: /home/lvuser/scripts/auto_43.bee,File good!,DRIVE_STRAIGHT_NAVX_RAMPARTS 200 5000 10,DRIVE_STRAIGHT_NAVX_RAMPARTS,0.000000,0.000000
02:57:06.653 PM 04/09/2016,Teleop Enabled,10,FALSE,0,NO ERROR,-0.677165,-34.874502,-0.677165,-54.785372,TRUE,FALSE,TRUE,FALSE,FALSE,FALSE,Disabled,0.000000,0.833747,38.866253,TRUE,13.961319,-0.508026,0.000000,-0.146484,-0.106873,0.000000,0.025000,-0.176000,0.081000,2.520000,32.180000,-0.880000,35.849082,Hold,0.938232,0.000000,Hold,-48.000000,2.000000,LowGoal,2092.500000,-2181.818182,Speed,2040.000000,-2181.818182,Speed,Off,Off,0.000000,FALSE,0,Read: /home/lvuser/scripts/auto_43.bee,File good!,DRIVE_STRAIGHT_NAVX_RAMPARTS 200 5000 10,DRIVE_STRAIGHT_NAVX_RAMPARTS,0.000000,0.000000
02:57:06.754 PM 04/09/2016,Teleop Enabled,10,FALSE,0,NO ERROR,-0.708661,-32.949506,-0.708661,-56.902867,TRUE,FALSE,TRUE,FALSE,FALSE,FALSE,Disabled,0.000000,0.833747,38.866253,TRUE,13.956970,-0.515305,0.000000,-0.086395,-0.221130,0.000000,0.091000,-0.149000,0.081000,2.720000,38.240000,-0.410000,44.906294,Hold,0.938232,0.000000,Hold,-48.000000,2.000000,LowGoal,2055.000000,-2181.818182,Speed,2017.500000,-2181.818182,Speed,Off,Off,0.000000,FALSE,0,Read: /home/lvuser/scripts/auto_43.bee,File good!,DRIVE_STRAIGHT_NAVX_RAMPARTS 200 5000 10,DRIVE_STRAIGHT_NAVX_RAMPARTS,0.000000,0.000000
02:57:06.854 PM 04/09/2016,Teleop Enabled,9,FALSE,0,NO ERROR,-0.708661,-32.949506,-0.708661,-56.902867,TRUE,FALSE,TRUE,FALSE,FALSE,FALSE,Disabled,0.000000,0.833747,38.866253,TRUE,13.955307,-0.527863,0.000000,0.000671,-0.223450,0.000000,0.046000,-0.129000,-0.217000,2.950000,46.160000,-0.150000,44.906294,Hold,0.938232,0.000000,Hold,-49.000000,2.000000,LowGoal,2002.500000,-2181.818182,Speed,1965.000000,-2181.818182,Speed,Off,Off,0.000000,FALSE,0,Read: /home/lvuser/scripts/auto_43.bee,File good!,DRIVE_STRAIGHT_NAVX_RAMPARTS 200 5000 10,DRIVE_STRAIGHT_NAVX_RAMPARTS,0.000000,0.000000
02:57:06.955 PM 04/09/2016,Teleop Enabled,10,FALSE,0,NO ERROR,-0.622047,-30.402096,-0.622047,-59.610694,TRUE,FALSE,TRUE,FALSE,FALSE,FALSE,Disabled,0.000000,0.833747,38.866253,TRUE,13.957245,-0.544586,0.000000,0.028687,-0.344849,0.000000,0.174000,-0.017000,-0.011000,2.950000,58.640000,0.190000,54.804706,Hold,0.938232,0.000000,Hold,-49.000000,2.000000,LowGoal,1987.500000,-2181.818182,Speed,1935.000000,-2181.818182,Speed,Off,Off,0.000000,FALSE,0,Read: /home/lvuser/scripts/auto_43.bee,File good!,DRIVE_STRAIGHT_NAVX_RAMPARTS 200 5000 10,DRIVE_STRAIGHT_NAVX_RAMPARTS,0.000000,0.000000
02:57:07.056 PM 04/09/2016,Teleop Enabled,10,FALSE,0,NO ERROR,-0.000000,-27.251520,-0.000000,-62.870353,TRUE,FALSE,TRUE,FALSE,FALSE,FALSE,Disabled,0.000000,0.833747,38.866253,TRUE,13.961914,-0.565536,0.000000,0.116089,-0.464172,0.000000,-0.150000,-0.250000,0.143000,2.980000,73.950000,0.410000,66.705250,Hold,0.938232,0.000000,Hold,-50.000000,2.000000,LowGoal,2002.500000,-2181.818182,Speed,1942.500000,-2181.818182,Speed,Off,Off,0.000000,FALSE,0,Read: /home/lvuser/scripts/auto_43.bee,File good!,DRIVE_STRAIGHT_NAVX_RAMPARTS 200 5000 10,DRIVE_STRAIGHT_NAVX_RAMPARTS,0.000000,0.000000
02:57:07.156 PM 04/09/2016,Teleop Enabled,9,FALSE,0,NO ERROR,-0.000000,-24.890192,-0.000000,-65.360014,TRUE,FALSE,TRUE,FALSE,FALSE,FALSE,Disabled,0.000000,0.833747,38.866253,TRUE,13.963257,-0.592712,0.000000,-0.038315,-0.511200,0.000000,-0.151000,0.014000,0.190000,2.650000,80.850000,0.000000,78.581373,Hold,0.938232,0.000000,Hold,-50.000000,2.000000,LowGoal,2040.000000,-2181.818182,Speed,1972.500000,-2181.818182,Speed,Off,Off,0.000000,FALSE,0,Read: /home/lvuser/scripts/auto_43.bee,File good!,DRIVE_STRAIGHT_NAVX_RAMPARTS 200 5000 10,DRIVE_STRAIGHT_NAVX_RAMPARTS,0.000000,0.000000
02:57:07.257 PM 04/09/2016,Teleop Enabled,10,FALSE,0,NO ERROR,-0.000000,-23.940527,-0.000000,-66.181345,TRUE,FALSE,TRUE,FALSE,FALSE,FALSE,Disabled,0.000000,0.833747,38.866253,TRUE,13.956482,-0.614487,0.000000,-0.230652,-0.350418,0.000000,-0.270000,-0.059000,0.053000,1.430000,86.160000,-1.080000,83.860739,Hold,0.938232,0.000000,Hold,-50.000000,2.000000,LowGoal,2115.000000,-2181.818182,Speed,2062.500000,-2181.818182,Speed,Off,Off,0.000000,FALSE,0,Read: /home/lvuser/scripts/auto_43.bee,File good!,DRIVE_STRAIGHT_NAVX_RAMPARTS 200 5000 10,DRIVE_STRAIGHT_NAVX_RAMPARTS,0.000000,0.000000
02:57:07.357 PM 04/09/2016,Teleop Enabled,10,FALSE,0,NO ERROR,-0.000000,-24.049610,-0.000000,-66.027346,TRUE,FALSE,TRUE,FALSE,FALSE,FALSE,Disabled,0.000000,0.833747,38.866253,TRUE,13.938370,-0.632278,0.000000,-0.425278,-0.388916,0.000000,-0.153000,-0.164000,0.154000,1.640000,85.010000,-1.040000,83.044416,Hold,0.938232,0.000000,Hold,-50.000000,2.000000,LowGoal,2130.000000,-2181.818182,Speed,2100.000000,-2181.818182,Speed,Off,Off,0.000000,FALSE,0,Read: /home/lvuser/scripts/auto_43.bee,File good!,DRIVE_STRAIGHT_NAVX_RAMPARTS 200 5000 10,DRIVE_STRAIGHT_NAVX_RAMPARTS,0.000000,0.000000
02:57:07.459 PM 04/09/2016,Teleop Enabled,11,FALSE,0,NO ERROR,-0.000000,-24.062444,-0.000000,-65.976012,TRUE,FALSE,TRUE,FALSE,FALSE,FALSE,Disabled,0.000000,0.833747,38.866253,TRUE,13.912827,-0.655991,0.000000,-0.573624,-0.529846,0.000000,-0.064000,-0.129000,-0.008000,1.690000,84.850000,-0.790000,82.649159,Hold,0.938232,0.000000,Hold,-50.000000,2.000000,LowGoal,2122.500000,-2181.818182,Speed,2100.000000,-2181.818182,Speed,Off,Off,0.000000,FALSE,0,Read: /home/lvuser/scripts/auto_43.bee,File good!,DRIVE_STRAIGHT_NAVX_RAMPARTS 200 5000 10,DRIVE_STRAIGHT_NAVX_RAMPARTS,0.000000,0.000000
02:57:07.560 PM 04/09/2016,Teleop Enabled,10,FALSE,0,NO ERROR,-0.000000,-24.062444,-0.000000,-65.995262,TRUE,FALSE,TRUE,FALSE,FALSE,FALSE,Disabled,0.000000,0.833747,38.866253,TRUE,13.883575,-0.685272,0.000000,-0.561661,-0.580902,0.000000,0.187000,0.151000,-0.033000,1.750000,84.990000,-0.760000,82.847488,Hold,0.938232,0.000000,Hold,-50.000000,2.000000,LowGoal,2115.000000,-2181.818182,Speed,2085.000000,-2181.818182,Speed,Off,Off,0.000000,FALSE,0,Read: /home/lvuser/scripts/auto_43.bee,File good!,DRIVE_STRAIGHT_NAVX_RAMPARTS 200 5000 10,DRIVE_STRAIGHT_NAVX_RAMPARTS,0.000000,0.000000
02:57:07.660 PM 04/09/2016,Teleop Enabled,9,FALSE,0,NO ERROR,-0.000000,-24.062444,-0.000000,-65.995262,TRUE,FALSE,TRUE,FALSE,FALSE,FALSE,Disabled,0.000000,0.833747,38.866253,TRUE,13.860870,-0.710648,0.000000,-0.365540,-0.480865,0.000000,0.186000,-0.002000,-0.035000,1.830000,84.970000,-0.680000,82.799777,Hold,0.938232,0.000000,Hold,-50.000000,2.000000,LowGoal,2115.000000,-2181.818182,Speed,2085.000000,-2181.818182,Speed,Off,Off,0.000000,FALSE,0,Read: /home/lvuser/scripts/auto_43.bee,File good!,DRIVE_STRAIGHT_NAVX_RAMPARTS 200 5000 10,DRIVE_STRAIGHT_NAVX_RAMPARTS,0.000000,0.000000
02:57:07.760 PM 04/09/2016,Teleop Enabled,10,FALSE,0,NO ERROR,-0.000000,-24.062444,-0.000000,-65.995262,TRUE,FALSE,TRUE,FALSE,FALSE,FALSE,Disabled,0.000000,0.833747,38.866253,TRUE,13.847992,-0.733368,0.000000,-0.191238,-0.423233,0.000000,0.164000,0.057000,0.020000,1.830000,84.960000,-0.660000,82.802993,Hold,0.938232,0.000000,Hold,-50.000000,2.000000,LowGoal,2122.500000,-2181.818182,Speed,2085.000000,-2181.818182,Speed,Off,Off,0.000000,FALSE,0,Read: /home/lvuser/scripts/auto_43.bee,File good!,DRIVE_STRAIGHT_NAVX_RAMPARTS 200 5000 10,DRIVE_STRAIGHT_NAVX_RAMPARTS,0.000000,0.000000
02:57:07.860 PM 04/09/2016,Teleop Enabled,10,FALSE,0,NO ERROR,-0.000000,-24.062444,-0.000000,-65.995262,TRUE,FALSE,TRUE,FALSE,FALSE,FALSE,Disabled,0.000000,0.833747,38.866253,TRUE,13.839584,-0.753876,0.000000,-0.188858,-0.416077,0.000000,-0.220000,-0.033000,0.083000,1.980000,84.960000,-0.600000,82.809034,Hold,0.938232,0.000000,Hold,-50.000000,2.000000,LowGoal,2122.500000,-2181.818182,Speed,2092.500000,-2181.818182,Speed,Off,Off,0.000000,FALSE,0,Read: /home/lvuser/scripts/auto_43.bee,File good!,DRIVE_STRAIGHT_NAVX_RAMPARTS 200 5000 10,DRIVE_STRAIGHT_NAVX_RAMPARTS,0.000000,0.000000
02:57:07.960 PM 04/09/2016,Teleop Enabled,11,FALSE,0,NO ERROR,-0.000000,-24.062444,-0.000000,-65.995262,TRUE,FALSE,TRUE,FALSE,FALSE,FALSE,Disabled,0.000000,0.833747,38.866253,TRUE,13.825302,-0.777206,0.000000,-0.355148,-0.520187,0.000000,-0.108000,-0.212000,0.121000,2.100000,84.960000,-0.500000,82.824333,Hold,0.938232,0.000000,Hold,-51.000000,2.000000,LowGoal,2130.000000,-2181.818182,Speed,2092.500000,-2181.818182,Speed,Off,Off,0.000000,FALSE,0,Read: /home/lvuser/scripts/auto_43.bee,File good!,DRIVE_STRAIGHT_NAVX_RAMPARTS 200 5000 10,DRIVE_STRAIGHT_NAVX_RAMPARTS,0.000000,0.000000
02:57:08.061 PM 04/09/2016,Teleop Enabled,11,FALSE,0,NO ERROR,-0.000000,-24.062444,-0.000000,-65.995262,TRUE,FALSE,TRUE,FALSE,FALSE,FALSE,Disabled,0.000000,0.833747,38.866253,TRUE,13.801056,-0.812973,0.000000,-0.399872,-0.588196,0.000000,0.042000,0.097000,0.033000,2.090000,84.960000,-0.490000,82.837212,Hold,0.938232,0.000000,Hold,-51.000000,2.000000,LowGoal,2122.500000,-2181.818182,Speed,2092.500000,-2181.818182,Speed,Off,Off,0.000000,FALSE,0,Read: /home/lvuser/scripts/auto_43.bee,File good!,DRIVE_STRAIGHT_NAVX_RAMPARTS 200 5000 10,DRIVE_STRAIGHT_NAVX_RAMPARTS,0.000000,0.000000
02:57:08.161 PM 04/09/2016,Teleop Enabled,10,FALSE,0,NO ERROR,-0.000000,-24.062444,-0.000000,-65.995262,TRUE,FALSE,TRUE,FALSE,FALSE,FALSE,Disabled,0.000000,0.833747,38.866253,TRUE,13.783401,-0.841766,0.000000,-0.311737,-0.594177,0.000000,0.112000,0.004000,-0.017000,2.110000,84.960000,-0.440000,82.842424,Hold,0.938232,0.000000,Hold,-51.000000,2.000000,LowGoal,2122.500000,-2181.818182,Speed,2092.500000,-2181.818182,Speed,Off,Off,0.000000,FALSE,0,Read: /home/lvuser/scripts/auto_43.bee,File good!,DRIVE_STRAIGHT_NAVX_RAMPARTS 200 5000 10,DRIVE_STRAIGHT_NAVX_RAMPARTS,0.000000,0.000000
02:57:08.263 PM 04/09/2016,Teleop Enabled,10,FALSE,0,NO ERROR,-0.000000,-24.062444,-0.000000,-65.995262,TRUE,FALSE,TRUE,FALSE,FALSE,FALSE,Disabled,0.000000,0.833747,38.866253,TRUE,13.770599,-0.853683,0.000000,-0.235092,-0.006393,0.000000,-0.181000,-0.149000,-0.090000,2.180000,84.970000,-0.460000,82.871283,Hold,0.938232,0.000000,Hold,-51.000000,2.000000,LowGoal,2130.000000,-2181.818182,Speed,2092.500000,-2181.818182,Speed,Off,Off,0.000000,FALSE,0,Read: /home/lvuser/scripts/auto_43.bee,File good!,DRIVE_STRAIGHT_NAVX_RAMPARTS 200 5000 10,DRIVE_STRAIGHT_NAVX_RAMPARTS,0.000000,0.000000
02:57:08.364 PM 04/09/2016,Teleop Enabled,10,FALSE,0,NO ERROR,-0.000000,-24.062444,-0.000000,-65.995262,TRUE,FALSE,TRUE,FALSE,FALSE,FALSE,Disabled,0.000000,0.833747,38.866253,TRUE,13.755356,-0.857727,0.000000,-0.362366,-0.097229,0.000000,-0.124000,0.111000,-0.079000,2.230000,84.970000,-0.330000,82.886471,Hold,0.938232,0.000000,Hold,-51.000000,2.000000,LowGoal,2130.000000,-2181.818182,Speed,2092.500000,-2181.818182,Speed,Off,Off,0.000000,FALSE,0,Read: /home/lvuser/scripts/auto_43.bee,File good!,DRIVE_STRAIGHT_NAVX_RAMPARTS 200 5000 10,DRIVE_STRAIGHT_NAVX_RAMPARTS,0.000000,0.000000
02:57:08.464 PM 04/09/2016,Teleop Enabled,10,FALSE,0,NO ERROR,-0.000000,-24.062444,-0.000000,-65.995262,TRUE,FALSE,TRUE,FALSE,FALSE,FALSE,Disabled,0.000000,0.833747,38.866253,TRUE,13.734528,-0.861084,0.000000,-0.430038,-0.074371,0.000000,0.072000,-0.017000,0.010000,2.260000,84.970000,-0.300000,82.893043,Hold,0.938232,0.000000,Hold,-51.000000,2.000000,LowGoal,2130.000000,-2181.818182,Speed,2092.500000,-2181.818182,Speed,Off,Off,0.000000,FALSE,0,Read: /home/lvuser/scripts/auto_43.bee,File good!,DRIVE_STRAIGHT_NAVX_RAMPARTS 200 5000 10,DRIVE_STRAIGHT_NAVX_RAMPARTS,0.000000,0.000000
02:57:08.564 PM 04/09/2016,Teleop Enabled,10,FALSE,0,NO ERROR,-0.000000,-24.062444,-0.000000,-65.995262,TRUE,FALSE,TRUE,FALSE,FALSE,FALSE,Disabled,0.000000,0.833747,38.866253,TRUE,13.716522,-0.863373,0.000000,-0.282440,0.008499,0.000000,0.317000,0.037000,-0.060000,2.200000,84.960000,-0.260000,82.883538,Hold,0.938232,0.000000,Hold,-51.000000,2.000000,LowGoal,2137.500000,-2181.818182,Speed,2092.500000,-2181.818182,Speed,Off,Off,0.000000,FALSE,0,Read: /home/lvuser/scripts/auto_43.bee,File good!,DRIVE_STRAIGHT_NAVX_RAMPARTS 200 5000 10,DRIVE_STRAIGHT_NAVX_RAMPARTS,0.000000,0.000000
02:57:08.665 PM 04/09/2016,Teleop Enabled,9,FALSE,0,NO ERROR,-0.212598,-24.062444,-0.212598,-65.995262,TRUE,FALSE,TRUE,FALSE,FALSE,FALSE,Disabled,0.000000,0.833747,38.866253,TRUE,13.713257,-0.859528,0.000000,0.103607,0.135849,0.000000,0.126000,0.116000,-0.023000,2.270000,84.970000,-0.180000,82.893122,Hold,0.938232,0.000000,Hold,-51.000000,2.000000,LowGoal,2145.000000,-2181.818182,Speed,2092.500000,-2181.818182,Speed,Off,Off,0.000000,FALSE,0,Read: /home/lvuser/scripts/auto_43.bee,File good!,DRIVE_STRAIGHT_NAVX_RAMPARTS 200 5000 10,DRIVE_STRAIGHT_NAVX_RAMPARTS,0.000000,0.000000
02:57:08.766 PM 04/09/2016,Teleop Enabled,11,FALSE,0,NO ERROR,-0.338583,-23.754444,-0.338583,-66.168512,TRUE,FALSE,TRUE,FALSE,FALSE,FALSE,Disabled,0.000000,0.833747,38.866253,TRUE,13.725815,-0.846512,0.000000,0.165009,0.133545,0.000000,0.126000,0.116000,-0.023000,2.470000,85.370000,-0.030000,82.939525,Hold,0.938232,0.000000,Hold,-51.000000,2.000000,LowGoal,2130.000000,-2181.818182,Speed,2092.500000,-2181.818182,Speed,Off,Off,0.000000,FALSE,0,Read: /home/lvuser/scripts/auto_43.bee,File good!,DRIVE_STRAIGHT_NAVX_RAMPARTS 200 5000 10,DRIVE_STRAIGHT_NAVX_RAMPARTS,0.000000,0.000000
02:57:08.867 PM 04/09/2016,Teleop Enabled,10,FALSE,0,NO ERROR,-0.000000,-23.343779,-0.000000,-66.566344,TRUE,FALSE,TRUE,FALSE,FALSE,FALSE,Disabled,0.000000,0.833747,38.866253,TRUE,13.728790,-0.842316,0.000000,0.022156,0.103165,0.000000,-0.130000,-0.034000,-0.003000,2.470000,86.740000,-0.070000,84.462495,Hold,0.938232,0.000000,Hold,-51.000000,2.000000,LowGoal,2107.500000,-2181.818182,Speed,2077.500000,-2181.818182,Speed,Off,Off,0.000000,FALSE,0,Read: /home/lvuser/scripts/auto_43.bee,File good!,DRIVE_STRAIGHT_NAVX_RAMPARTS 200 5000 10,DRIVE_STRAIGHT_NAVX_RAMPARTS,0.000000,0.000000
02:57:08.967 PM 04/09/2016,Teleop Enabled,10,FALSE,0,NO ERROR,-0.000000,-23.221862,-0.000000,-66.579178,TRUE,FALSE,TRUE,FALSE,FALSE,FALSE,Disabled,0.000000,0.833747,38.866253,TRUE,13.728027,-0.838165,0.000000,-0.035889,0.116562,0.000000,0.104000,-0.103000,-0.006000,2.250000,87.060000,-0.390000,85.319458,Hold,0.938232,0.000000,Hold,-51.000000,2.000000,LowGoal,2085.000000,-2181.818182,Speed,2055.000000,-2181.818182,Speed,Off,Off,0.000000,FALSE,0,Read: /home/lvuser/scripts/auto_43.bee,File good!,DRIVE_STRAIGHT_NAVX_RAMPARTS 200 5000 10,DRIVE_STRAIGHT_NAVX_RAMPARTS,0.000000,0.000000
02:57:09.067 PM 04/09/2016,Teleop Enabled,10,FALSE,0,NO ERROR,-0.275591,-23.465695,0.275591,-66.264762,TRUE,FALSE,TRUE,FALSE,FALSE,FALSE,Disabled,0.000000,0.833747,38.866253,TRUE,13.725830,-0.830032,0.000000,0.032318,0.148087,0.000000,0.143000,0.049000,-0.110000,2.340000,86.230000,-0.370000,84.148809,Hold,0.938232,0.000000,Hold,-51.000000,2.000000,LowGoal,2107.500000,-2181.818182,Speed,2070.000000,-2181.818182,Speed,Off,Off,0.000000,FALSE,0,Read: /home/lvuser/scripts/auto_43.bee,File good!,DRIVE_STRAIGHT_NAVX_RAMPARTS 200 5000 10,DRIVE_STRAIGHT_NAVX_RAMPARTS,0.000000,0.000000
02:57:09.167 PM 04/09/2016,Teleop Enabled,10,FALSE,0,NO ERROR,-0.328774,-23.889194,0.238155,-66.463678,TRUE,FALSE,TRUE,FALSE,FALSE,FALSE,Disabled,0.000000,0.833747,38.866253,TRUE,13.729141,-0.823013,0.000000,0.088364,0.176178,0.000000,-0.190000,-0.109000,0.152000,2.440000,86.340000,0.520000,84.252027,Hold,0.938232,0.000000,Hold,-51.000000,2.000000,LowGoal,2152.500000,-2181.818182,Speed,2092.500000,-2181.818182,Speed,Off,Off,0.000000,FALSE,0,Read: /home/lvuser/scripts/auto_43.bee,File good!,DRIVE_STRAIGHT_NAVX_RAMPARTS 200 5000 10,DRIVE_STRAIGHT_NAVX_RAMPARTS,0.000000,0.000000
02:57:09.267 PM 04/09/2016,Teleop Enabled,4,FALSE,0,NO ERROR,-0.358460,-24.614276,0.208469,-67.143843,TRUE,FALSE,TRUE,FALSE,FALSE,FALSE,Disabled,0.000000,0.833747,38.866253,TRUE,13.729843,-0.819000,0.000000,-0.021362,0.066376,0.000000,-0.190000,-0.109000,0.152000,2.480000,86.150000,1.110000,84.138946,Hold,0.938232,0.000000,Hold,-51.000000,2.000000,LowGoal,2145.000000,-2181.818182,Speed,2092.500000,-2181.818182,Speed,Off,Off,0.000000,FALSE,0,Read: /home/lvuser/scripts/auto_43.bee,File good!,DRIVE_STRAIGHT_NAVX_RAMPARTS 200 5000 10,DRIVE_STRAIGHT_NAVX_RAMPARTS,0.000000,0.000000
02:57:09.367 PM 04/09/2016,Teleop Enabled,10,FALSE,0,NO ERROR,-0.358460,-25.628107,0.208469,-68.356590,TRUE,FALSE,TRUE,FALSE,FALSE,FALSE,Disabled,0.000000,0.833747,38.866253,TRUE,13.729889,-0.820709,0.000000,0.057999,-0.053223,0.000000,0.020000,-0.150000,0.106000,2.540000,86.370000,1.130000,84.316434,Hold,0.938232,0.000000,Hold,-51.000000,2.000000,LowGoal,2115.000000,-2181.818182,Speed,2070.000000,-2181.818182,Speed,Off,Off,0.000000,FALSE,0,Read: /home/lvuser/scripts/auto_43.bee,File good!,DRIVE_STRAIGHT_NAVX_RAMPARTS 200 5000 10,DRIVE_STRAIGHT_NAVX_RAMPARTS,0.000000,0.000000
02:57:09.467 PM 04/09/2016,Teleop Enabled,11,FALSE,0,NO ERROR,-0.363147,-27.059020,0.203782,-70.121169,TRUE,FALSE,TRUE,FALSE,FALSE,FALSE,Disabled,0.000000,0.833747,38.866253,TRUE,13.737045,-0.826141,0.000000,0.180862,-0.145020,0.000000,0.155000,-0.034000,-0.133000,2.540000,86.370000,1.130000,84.808438,Hold,0.938232,0.000000,Hold,-51.000000,2.000000,LowGoal,2100.000000,-2181.818182,Speed,2062.500000,-2181.818182,Speed,Off,Off,0.000000,FALSE,0,Read: /home/lvuser/scripts/auto_43.bee,File good!,DRIVE_STRAIGHT_NAVX_RAMPARTS 200 5000 10,DRIVE_STRAIGHT_NAVX_RAMPARTS,0.000000,0.000000
02:57:09.568 PM 04/09/2016,Teleop Enabled,11,FALSE,0,NO ERROR,-0.392833,-28.759433,0.174096,-72.148831,TRUE,FALSE,TRUE,FALSE,FALSE,FALSE,Disabled,0.000000,0.833747,38.866253,TRUE,13.743515,-0.832611,0.000000,0.139709,-0.173416,0.000000,-0.115000,-0.138000,0.014000,2.610000,87.570000,1.730000,85.471130,Hold,0.938232,0.000000,Hold,-51.000000,2.000000,LowGoal,2092.500000,-2181.818182,Speed,2070.000000,-2181.818182,Speed,Off,Off,0.000000,FALSE,0,Read: /home/lvuser/scripts/auto_43.bee,File good!,DRIVE_STRAIGHT_NAVX_RAMPARTS 200 5000 10,DRIVE_STRAIGHT_NAVX_RAMPARTS,0.000000,0.000000
02:57:09.668 PM 04/09/2016,Teleop Enabled,19,FALSE,0,NO ERROR,-0.399082,-30.652345,0.167847,-74.574326,TRUE,FALSE,TRUE,FALSE,FALSE,FALSE,Disabled,0.000000,0.833747,38.866253,TRUE,13.746246,-0.847137,0.000000,-0.023148,-0.294174,0.000000,-0.115000,-0.138000,0.014000,2.610000,87.570000,1.730000,86.372716,Hold,0.938232,0.000000,Hold,-51.000000,2.000000,LowGoal,2107.500000,-2181.818182,Speed,2070.000000,-2181.818182,Speed,Off,Off,0.000000,FALSE,0,Read: /home/lvuser/scripts/auto_43.bee,File good!,DRIVE_STRAIGHT_NAVX_RAMPARTS 200 5000 10,DRIVE_STRAIGHT_NAVX_RAMPARTS,0.000000,0.000000
02:57:09.768 PM 04/09/2016,Teleop Enabled,11,FALSE,0,NO ERROR,-0.685039,-32.628674,-0.685039,-77.275736,TRUE,FALSE,TRUE,FALSE,FALSE,FALSE,Disabled,0.000000,0.833747,38.866253,TRUE,13.743759,-0.861725,0.000000,-0.020767,-0.238358,0.000000,-0.180000,-0.219000,-0.007000,2.680000,89.770000,2.090000,87.567748,Hold,0.938232,0.000000,Hold,-51.000000,2.000000,LowGoal,2115.000000,-2181.818182,Speed,2070.000000,-2181.818182,Speed,Off,Off,0.000000,FALSE,0,Read: /home/lvuser/scripts/auto_43.bee,File good!,DRIVE_STRAIGHT_NAVX_RAMPARTS 200 5000 10,DRIVE_STRAIGHT_NAVX_RAMPARTS,0.000000,0.000000
02:57:09.869 PM 04/09/2016,Teleop Enabled,11,FALSE,0,NO ERROR,-0.582677,-32.609424,-0.582677,-80.471228,TRUE,FALSE,TRUE,FALSE,FALSE,FALSE,Disabled,0.000000,0.833747,38.866253,TRUE,13.753555,-0.869370,0.000000,0.368805,-0.125351,0.000000,0.581000,0.274000,0.141000,2.680000,89.770000,2.090000,91.583829,Hold,0.938232,0.000000,Hold,-51.000000,2.000000,LowGoal,2115.000000,-2181.818182,Speed,2055.000000,-2181.818182,Speed,Off,Off,0.000000,FALSE,0,Read: /home/lvuser/scripts/auto_43.bee,File good!,DRIVE_STRAIGHT_NAVX_RAMPARTS 200 5000 10,DRIVE_STRAIGHT_NAVX_RAMPARTS,0.000000,0.000000
02:57:09.969 PM 04/09/2016,Teleop Enabled,2,FALSE,0,NO ERROR,-0.000000,-31.961342,-0.000000,-84.000387,FALSE,FALSE,TRUE,FALSE,FALSE,FALSE,Disabled,0.000000,0.833747,38.866253,TRUE,13.766571,-0.874756,0.000000,0.240158,-0.128815,0.000000,-0.124000,-0.009000,-0.460000,3.390000,104.280000,1.220000,100.903877,Hold,0.938232,0.000000,Hold,-51.000000,2.000000,LowGoal,2047.500000,-2181.818182,Speed,1995.000000,-2181.818182,Speed,Off,Off,0.000000,FALSE,0,Read: /home/lvuser/scripts/auto_43.bee,File good!,DRIVE_STRAIGHT_NAVX_RAMPARTS 200 5000 10,DRIVE_STRAIGHT_NAVX_RAMPARTS,0.000000,0.000000
02:57:10.070 PM 04/09/2016,Teleop Enabled,10,FALSE,0,NO ERROR,-0.000000,-31.884342,-0.000000,-85.861216,TRUE,FALSE,TRUE,FALSE,FALSE,FALSE,Disabled,0.000000,0.833747,38.866253,TRUE,13.765274,-0.864868,0.000000,0.006622,0.280838,0.000000,-0.768000,0.910000,0.475000,2.480000,108.640000,0.020000,106.315554,Hold,0.938232,0.000000,Hold,-51.000000,2.000000,LowGoal,2062.500000,-2181.818182,Speed,2017.500000,-2181.818182,Speed,Off,Off,0.000000,FALSE,0,Read: /home/lvuser/scripts/auto_43.bee,File good!,DRIVE_STRAIGHT_NAVX_RAMPARTS 200 5000 10,DRIVE_STRAIGHT_NAVX_RAMPARTS,0.000000,0.000000
02:57:10.170 PM 04/09/2016,Teleop Enabled,6,FALSE,0,NO ERROR,-0.181102,-32.256508,-0.181102,-87.067546,TRUE,FALSE,TRUE,FALSE,FALSE,FALSE,Disabled,0.000000,0.833747,38.866253,TRUE,13.765274,-0.864868,0.000000,0.006622,0.280838,0.000000,0.185000,-0.100000,-0.066000,2.750000,110.040000,-0.860000,107.371841,Hold,0.938232,0.000000,Hold,-51.000000,2.000000,LowGoal,2152.500000,-2181.818182,Speed,2092.500000,-2181.818182,Speed,Off,Off,0.000000,FALSE,0,Read: /home/lvuser/scripts/auto_43.bee,File good!,DRIVE_STRAIGHT_NAVX_RAMPARTS 200 5000 10,DRIVE_STRAIGHT_NAVX_RAMPARTS,0.000000,0.000000
02:57:10.271 PM 04/09/2016,Teleop Enabled,10,FALSE,0,NO ERROR,-0.283465,-32.769840,0.283465,-87.683545,TRUE,FALSE,TRUE,FALSE,FALSE,FALSE,Disabled,0.000000,0.833747,38.866253,TRUE,13.769974,-0.848480,0.000000,0.039948,0.312286,0.000000,-0.251000,-0.077000,0.072000,2.750000,110.040000,-0.860000,108.593998,Hold,0.938232,0.000000,Hold,-51.000000,2.000000,LowGoal,2175.000000,-2181.818182,Speed,2107.500000,-2181.818182,Speed,Off,Off,0.000000,FALSE,0,Read: /home/lvuser/scripts/auto_43.bee,File good!,DRIVE_STRAIGHT_NAVX_RAMPARTS 200 5000 10,DRIVE_STRAIGHT_NAVX_RAMPARTS,0.000000,0.000000
02:57:10.372 PM 04/09/2016,Teleop Enabled,9,FALSE,0,NO ERROR,-0.346457,-33.719504,0.346457,-88.472793,TRUE,FALSE,TRUE,FALSE,FALSE,FALSE,Disabled,0.000000,0.833747,38.866253,TRUE,13.760880,-0.829956,0.000000,-0.285492,0.221848,0.000000,-0.080000,-0.197000,-0.116000,2.470000,111.430000,-0.370000,108.416203,Hold,0.938232,0.000000,Hold,-51.000000,2.000000,LowGoal,2160.000000,-2181.818182,Speed,2092.500000,-2181.818182,Speed,Off,Off,0.000000,FALSE,0,Read: /home/lvuser/scripts/auto_43.bee,File good!,DRIVE_STRAIGHT_NAVX_RAMPARTS 200 5000 10,DRIVE_STRAIGHT_NAVX_RAMPARTS,0.000000,0.000000
02:57:10.473 PM 04/09/2016,Teleop Enabled,3,FALSE,0,NO ERROR,-0.397297,-35.323667,0.311365,-89.659874,TRUE,FALSE,TRUE,FALSE,FALSE,FALSE,Disabled,0.000000,0.833747,38.866253,TRUE,13.718887,-0.823669,0.000000,-0.536026,-0.041306,0.000000,-0.228000,-0.151000,0.165000,2.540000,111.010000,0.790000,107.534922,Hold,0.938232,0.000000,Hold,-51.000000,2.000000,LowGoal,2130.000000,-2181.818182,Speed,2070.000000,-2181.818182,Speed,Off,Off,0.000000,FALSE,0,Read: /home/lvuser/scripts/auto_43.bee,File good!,DRIVE_STRAIGHT_NAVX_RAMPARTS 200 5000 10,DRIVE_STRAIGHT_NAVX_RAMPARTS,0.000000,0.000000
02:57:10.573 PM 04/09/2016,Teleop Enabled,8,FALSE,0,NO ERROR,-0.524242,-37.280746,0.184419,-91.918535,TRUE,FALSE,TRUE,FALSE,FALSE,FALSE,Disabled,0.000000,0.833747,38.866253,TRUE,13.718887,-0.823669,0.000000,-0.536026,-0.041306,0.000000,0.267000,-0.094000,0.007000,2.440000,109.990000,0.900000,107.552913,Hold,0.938232,0.000000,Hold,-51.000000,2.000000,LowGoal,2115.000000,-2181.818182,Speed,2055.000000,-2181.818182,Speed,Off,Off,0.000000,FALSE,0,Read: /home/lvuser/scripts/auto_43.bee,File good!,DRIVE_STRAIGHT_NAVX_RAMPARTS 200 5000 10,DRIVE_STRAIGHT_NAVX_RAMPARTS,0.000000,0.000000
02:57:10.673 PM 04/09/2016,Teleop Enabled,14,FALSE,0,NO ERROR,-0.522289,-39.340491,0.186372,-95.037028,TRUE,FALSE,TRUE,FALSE,FALSE,FALSE,Disabled,0.000000,0.833747,38.866253,TRUE,13.697433,-0.830658,0.000000,-0.357864,-0.247910,0.000000,0.176000,-0.139000,-0.115000,2.650000,110.190000,1.260000,109.267806,Hold,0.938232,0.000000,Hold,-51.000000,2.000000,LowGoal,2100.000000,-2181.818182,Speed,2055.000000,-2181.818182,Speed,Off,Off,0.000000,FALSE,0,Read: /home/lvuser/scripts/auto_43.bee,File good!,DRIVE_STRAIGHT_NAVX_RAMPARTS 200 5000 10,DRIVE_STRAIGHT_NAVX_RAMPARTS,0.000000,0.000000
02:57:10.774 PM 04/09/2016,Teleop Enabled,13,FALSE,0,NO ERROR,-0.354331,-41.868652,0.354331,-98.335187,TRUE,FALSE,TRUE,FALSE,FALSE,FALSE,Disabled,0.000000,0.833747,38.866253,TRUE,13.683334,-0.845673,0.000000,-0.261795,-0.318756,0.000000,0.017000,0.060000,-0.028000,2.750000,112.440000,1.970000,111.178581,Hold,0.938232,0.000000,Hold,-51.000000,2.000000,LowGoal,2092.500000,-2181.818182,Speed,2062.500000,-2181.818182,Speed,Off,Off,0.000000,FALSE,0,Read: /home/lvuser/scripts/auto_43.bee,File good!,DRIVE_STRAIGHT_NAVX_RAMPARTS 200 5000 10,DRIVE_STRAIGHT_NAVX_RAMPARTS,0.000000,0.000000
02:57:10.874 PM 04/09/2016,Teleop Enabled,10,FALSE,0,NO ERROR,-0.354331,-45.102645,0.354331,-101.639762,TRUE,FALSE,TRUE,FALSE,FALSE,FALSE,Disabled,0.000000,0.833747,38.866253,TRUE,13.670029,-0.873108,0.000000,-0.242142,-0.288071,0.000000,-0.294000,-0.136000,0.085000,2.700000,114.020000,1.530000,111.399438,Hold,0.938232,0.000000,Hold,-51.000000,2.000000,LowGoal,2100.000000,-2181.818182,Speed,2070.000000,-2181.818182,Speed,Off,Off,0.000000,FALSE,0,Read: /home/lvuser/scripts/auto_43.bee,File good!,DRIVE_STRAIGHT_NAVX_RAMPARTS 200 5000 10,DRIVE_STRAIGHT_NAVX_RAMPARTS,0.000000,0.000000
02:57:10.974 PM 04/09/2016,Teleop Enabled,10,FALSE,0,NO ERROR,-0.461281,-48.644636,0.294625,-105.233087,TRUE,FALSE,TRUE,FALSE,FALSE,FALSE,Disabled,0.000000,0.833747,38.866253,TRUE,13.670029,-0.873108,0.000000,-0.242142,-0.288071,0.000000,0.000000,-0.080000,0.008000,2.700000,114.020000,1.530000,111.209805,Hold,0.938232,0.000000,Hold,-51.000000,2.000000,LowGoal,2122.500000,-2181.818182,Speed,2077.500000,-2181.818182,Speed,Off,Off,0.000000,FALSE,0,Read: /home/lvuser/scripts/auto_43.bee,File good!,DRIVE_STRAIGHT_NAVX_RAMPARTS 200 5000 10,DRIVE_STRAIGHT_NAVX_RAMPARTS,0.000000,0.000000
02:57:11.076 PM 04/09/2016,Teleop Enabled,10,FALSE,0,NO ERROR,-0.573774,-52.039045,0.182132,-109.442411,TRUE,FALSE,TRUE,FALSE,FALSE,FALSE,Disabled,0.000000,0.833747,38.866253,TRUE,13.655624,-0.894577,0.000000,-0.216629,-0.423615,0.000000,0.062000,-0.179000,-0.026000,2.800000,113.870000,2.000000,111.890388,Hold,0.938232,0.000000,Hold,-51.000000,2.000000,LowGoal,2122.500000,-2181.818182,Speed,2077.500000,-2181.818182,Speed,Off,Off,0.000000,FALSE,0,Read: /home/lvuser/scripts/auto_43.bee,File good!,DRIVE_STRAIGHT_NAVX_RAMPARTS 200 5000 10,DRIVE_STRAIGHT_NAVX_RAMPARTS,0.000000,0.000000
02:57:11.176 PM 04/09/2016,Teleop Enabled,11,FALSE,0,NO ERROR,-0.571691,-55.471954,0.184215,-114.383233,TRUE,FALSE,TRUE,FALSE,FALSE,FALSE,Disabled,0.000000,0.833747,38.866253,TRUE,13.644928,-0.914383,0.000000,-0.338654,-0.529434,0.000000,-0.226000,-0.059000,0.201000,2.780000,114.880000,2.270000,114.265044,Hold,0.938232,0.000000,Hold,-51.000000,2.000000,LowGoal,2115.000000,-2181.818182,Speed,2070.000000,-2181.818182,Speed,Off,Off,0.000000,FALSE,0,Read: /home/lvuser/scripts/auto_43.bee,File good!,DRIVE_STRAIGHT_NAVX_RAMPARTS 200 5000 10,DRIVE_STRAIGHT_NAVX_RAMPARTS,0.000000,0.000000
02:57:11.276 PM 04/09/2016,Teleop Enabled,10,FALSE,0,NO ERROR,-0.569608,-59.142278,0.186298,-119.420304,TRUE,FALSE,TRUE,FALSE,FALSE,FALSE,Disabled,0.000000,0.833747,38.866253,TRUE,13.622101,-0.940918,0.000000,-0.515106,-0.520050,0.000000,-0.008000,0.030000,0.044000,2.850000,116.520000,2.640000,116.855404,Hold,0.938232,0.000000,Hold,-51.000000,2.000000,LowGoal,2115.000000,-2181.818182,Speed,2062.500000,-2181.818182,Speed,Off,Off,0.000000,FALSE,0,Read: /home/lvuser/scripts/auto_43.bee,File good!,DRIVE_STRAIGHT_NAVX_RAMPARTS 200 5000 10,DRIVE_STRAIGHT_NAVX_RAMPARTS,0.000000,0.000000
02:57:11.377 PM 04/09/2016,Teleop Enabled,9,FALSE,0,NO ERROR,-0.569608,-63.062853,0.186298,-124.720458,TRUE,FALSE,TRUE,FALSE,FALSE,FALSE,Disabled,0.000000,0.833747,38.866253,TRUE,13.596298,-0.967072,0.000000,-0.467422,-0.510635,0.000000,0.309000,-0.071000,0.047000,2.700000,119.140000,2.430000,119.319380,Hold,0.938232,0.000000,Hold,-51.000000,2.000000,LowGoal,2107.500000,-2181.818182,Speed,2062.500000,-2181.818182,Speed,Off,Off,0.000000,FALSE,0,Read: /home/lvuser/scripts/auto_43.bee,File good!,DRIVE_STRAIGHT_NAVX_RAMPARTS 200 5000 10,DRIVE_STRAIGHT_NAVX_RAMPARTS,0.000000,0.000000
02:57:11.478 PM 04/09/2016,Teleop Enabled,10,FALSE,0,NO ERROR,-0.595511,-67.131010,0.191890,-130.270862,TRUE,FALSE,TRUE,FALSE,FALSE,FALSE,Disabled,0.000000,0.833747,38.866253,TRUE,13.577469,-0.998718,0.000000,-0.239441,-0.503265,0.000000,-0.107000,0.001000,0.063000,2.570000,121.660000,2.650000,121.811466,Hold,0.938232,0.000000,Hold,-51.000000,2.000000,LowGoal,2100.000000,-2181.818182,Speed,2070.000000,-2181.818182,Speed,Off,Off,0.000000,FALSE,0,Read: /home/lvuser/scripts/auto_43.bee,File good!,DRIVE_STRAIGHT_NAVX_RAMPARTS 200 5000 10,DRIVE_STRAIGHT_NAVX_RAMPARTS,0.000000,0.000000
02:57:11.579 PM 04/09/2016,Teleop Enabled,9,FALSE,0,NO ERROR,-0.638409,-71.314667,0.164741,-135.943182,TRUE,FALSE,TRUE,FALSE,FALSE,FALSE,Disabled,0.000000,0.833747,38.866253,TRUE,13.562256,-1.022263,0.000000,-0.375870,-0.440170,0.000000,-0.238000,0.168000,0.145000,2.540000,125.190000,2.470000,124.433239,Hold,0.938232,0.000000,Hold,-51.000000,2.000000,LowGoal,2100.000000,-2181.818182,Speed,2070.000000,-2181.818182,Speed,Off,Off,0.000000,FALSE,0,Read: /home/lvuser/scripts/auto_43.bee,File good!,DRIVE_STRAIGHT_NAVX_RAMPARTS 200 5000 10,DRIVE_STRAIGHT_NAVX_RAMPARTS,0.000000,0.000000
02:57:11.680 PM 04/09/2016,Teleop Enabled,11,FALSE,0,NO ERROR,-0.656116,-75.479073,0.147033,-141.833668,TRUE,FALSE,TRUE,FALSE,FALSE,FALSE,Disabled,0.000000,0.833747,38.866253,TRUE,13.542892,-1.036957,0.000000,-0.560287,-0.327576,0.000000,-0.181000,-0.094000,0.031000,2.190000,127.860000,2.980000,127.278492,Hold,0.938232,0.000000,Hold,-51.000000,2.000000,LowGoal,2100.000000,-2181.818182,Speed,2062.500000,-2181.818182,Speed,Off,Off,0.000000,FALSE,0,Read: /home/lvuser/scripts/auto_43.bee,File good!,DRIVE_STRAIGHT_NAVX_RAMPARTS 200 5000 10,DRIVE_STRAIGHT_NAVX_RAMPARTS,0.000000,0.000000
02:57:11.781 PM 04/09/2016,Teleop Enabled,11,FALSE,0,NO ERROR,-0.660543,-79.791063,0.142606,-147.993654,TRUE,FALSE,TRUE,FALSE,FALSE,FALSE,Disabled,0.000000,0.833747,38.866253,TRUE,13.504532,-1.057312,0.000000,-0.635162,-0.366852,0.000000,0.073000,-0.082000,-0.020000,2.220000,129.600000,2.850000,130.520149,Hold,0.938232,0.000000,Hold,-51.000000,2.000000,LowGoal,2100.000000,-2181.818182,Speed,2062.500000,-2181.818182,Speed,Off,Off,0.000000,FALSE,0,Read: /home/lvuser/scripts/auto_43.bee,File good!,DRIVE_STRAIGHT_NAVX_RAMPARTS 200 5000 10,DRIVE_STRAIGHT_NAVX_RAMPARTS,0.000000,0.000000
02:57:11.881 PM 04/09/2016,Teleop Enabled,11,FALSE,0,NO ERROR,-0.631769,-83.981137,0.171381,-147.993654,TRUE,FALSE,TRUE,FALSE,FALSE,FALSE,Disabled,0.000000,0.833747,38.866253,TRUE,13.467773,-1.081573,0.000000,-0.621048,-0.412338,0.000000,-0.124000,0.093000,-0.114000,2.320000,133.510000,2.930000,130.520149,Hold,0.938232,0.000000,Hold,-51.000000,2.000000,LowGoal,2092.500000,-2181.818182,Speed,2062.500000,-2181.818182,Speed,Off,Off,0.000000,FALSE,0,Read: /home/lvuser/scripts/auto_43.bee,File good!,DRIVE_STRAIGHT_NAVX_RAMPARTS 200 5000 10,DRIVE_STRAIGHT_NAVX_RAMPARTS,0.000000,0.000000
02:57:11.987 PM 04/09/2016,Teleop Enabled,10,FALSE,0,NO ERROR,-0.481667,-83.981137,0.337231,-154.397472,TRUE,FALSE,TRUE,FALSE,FALSE,FALSE,Disabled,0.000000,0.833747,38.866253,TRUE,13.435501,-1.097626,0.000000,-0.679733,-0.251495,0.000000,-0.169000,0.066000,0.284000,2.210000,139.010000,2.590000,134.336501,Hold,0.938232,0.000000,Hold,-51.000000,2.000000,LowGoal,2107.500000,-2181.818182,Speed,2062.500000,-2181.818182,Speed,Off,Off,0.000000,FALSE,0,Read: /home/lvuser/scripts/auto_43.bee,File good!,DRIVE_STRAIGHT_NAVX_RAMPARTS 200 5000 10,DRIVE_STRAIGHT_NAVX_RAMPARTS,0.000000,0.000000
02:57:12.086 PM 04/09/2016,Teleop Enabled,11,FALSE,0,NO ERROR,-0.000000,-88.716626,-0.000000,-161.057957,TRUE,FALSE,TRUE,FALSE,FALSE,FALSE,Disabled,0.000000,0.833747,38.866253,TRUE,13.405380,-1.105408,0.000000,-0.785446,-0.152878,0.000000,0.082000,0.176000,0.070000,2.130000,142.100000,2.310000,138.260228,Hold,0.938232,0.000000,Hold,-51.000000,2.000000,LowGoal,2130.000000,-2181.818182,Speed,2070.000000,-2181.818182,Speed,Off,Off,0.000000,FALSE,0,Read: /home/lvuser/scripts/auto_43.bee,File good!,DRIVE_STRAIGHT_NAVX_RAMPARTS 200 5000 10,DRIVE_STRAIGHT_NAVX_RAMPARTS,0.000000,0.000000
