Time,Robot Mode,Loop Time,Error Status,Error Code,Error Source,Left Motor Output,Left Motor Encoder,Right Motor Output,Right Motor Encoder,Is Level,Is Stalled,Ball Detector Photoeye,Vision Enabled,Vision Teleop Control,Vision Auto Control,Vision Current State,Vision X Output,Vision NavX Error,Vision NavX Target,NavX Connection Status,NavX Displacement X,NavX Displacement Y,NavX Displacement Z,NavX Velocity X,NavX Velocity Y,NavX Velocity Z,NavX Acceleration X,NavX Acceleration Y,NavX Acceleration Z,NavX Pitch,NavX Yaw,NavX Roll,Gyro Angle,Roller Arm State,Roller Arm Actual,Roller Arm Desired,Shooter Arm State,Shooter Arm Actual,Shooter Arm Desired,Shooter State,Actual RPM Left,Desired RPM Left,Control Mode Left,Actual RPM Right,Desired RPM Right,Control Mode Right,Ball Shooter Cylinder,Ball Halo Cylinder,Scaler Motor Output,Scaler Solenoid Fire,Auto To Run,Auto Current File,Auto File Status,Auto Current Command,Auto Trimmed Command,Shooter Amps Left,Shooter Amps Right
04:47:34.328 PM 04/09/2016,Autonomous Enabled,11,FALSE,0,NO ERROR,-0.000000,0.000000,-0.000000,0.000000,TRUE,FALSE,TRUE,TRUE,FALSE,FALSE,Disabled,0.000000,-0.331427,-38.798573,TRUE,4.365372,-52.289703,0.000000,0.000000,0.000000,0.000000,0.003000,0.001000,0.016000,2.540000,-0.050000,-0.210000,0.525035,ResetBack,0.929932,-0.000049,ResetBack,-8249.000000,-0.250000,LowGoal,0.000000,-2181.818182,Speed,0.000000,-2181.818182,Speed,Off,Off,0.000000,FALSE,12,Read: /home/lvuser/scripts/auto_25.bee,File good!,STOP_ALL,STOP_ALL,0.000000,0.000000
04:47:34.428 PM 04/09/2016,Autonomous Enabled,11,FALSE,0,NO ERROR,0.000000,-0.006417,-0.000000,0.000000,TRUE,FALSE,TRUE,TRUE,FALSE,FALSE,Disabled,0.000000,-0.331427,-38.798573,TRUE,4.363480,-52.289261,0.000000,-0.061401,0.023026,0.000000,0.053000,0.070000,-0.041000,2.510000,-0.050000,-0.220000,0.003085,ResetBack,0.470703,-0.000049,ResetBack,-8249.000000,-0.250000,LowGoal,15.000000,-2181.818182,Speed,15.000000,-2181.818182,Speed,Off,Off,0.000000,FALSE,12,Read: /home/lvuser/scripts/auto_12.bee,File good!,NAVX_ZERO_YAW,NAVX_ZERO_YAW,0.000000,0.000000
04:47:34.528 PM 04/09/2016,Autonomous Enabled,11,FALSE,0,NO ERROR,0.000000,-0.006417,-0.000000,0.000000,TRUE,FALSE,TRUE,TRUE,FALSE,FALSE,Disabled,0.000000,-0.331427,-38.798573,TRUE,4.362274,-52.288483,0.000000,-0.062622,0.043411,0.000000,-0.015000,0.049000,0.100000,2.530000,0.000000,-0.210000,0.003085,ResetBack,0.066406,-0.000049,ResetBack,-5093.000000,-0.250000,LowGoal,427.500000,-2181.818182,Speed,435.000000,-2181.818182,Speed,Off,Off,0.000000,FALSE,12,Read: /home/lvuser/scripts/auto_12.bee,File good!,WAIT 1500,WAIT,0.000000,0.000000
04:47:34.629 PM 04/09/2016,Autonomous Enabled,11,FALSE,0,NO ERROR,0.000000,-0.006417,-0.000000,0.000000,TRUE,FALSE,TRUE,TRUE,FALSE,FALSE,Disabled,0.000000,-0.331427,-38.798573,TRUE,4.358109,-52.285172,0.000000,-0.098099,0.076904,0.000000,0.045000,-0.019000,0.017000,2.530000,0.000000,-0.160000,-0.001907,ResetBack,0.066406,-0.000049,ResetBack,-2282.000000,-0.250000,LowGoal,1072.500000,-2181.818182,Speed,1042.500000,-2181.818182,Speed,Off,Off,0.000000,FALSE,12,Read: /home/lvuser/scripts/auto_12.bee,File good!,WAIT 1500,WAIT,0.000000,0.000000
04:47:34.730 PM 04/09/2016,Autonomous Enabled,11,FALSE,0,NO ERROR,0.000000,-0.006417,-0.000000,0.000000,TRUE,FALSE,TRUE,TRUE,FALSE,FALSE,Disabled,0.000000,-0.331427,-38.798573,TRUE,4.353333,-52.281357,0.000000,-0.106277,0.074280,0.000000,-0.065000,0.020000,0.084000,2.570000,0.000000,-0.250000,-0.016614,Reset,0.066406,0.000000,ResetBack,-840.000000,-0.250000,LowGoal,1612.500000,-2181.818182,Speed,1552.500000,-2181.818182,Speed,Off,Off,0.000000,FALSE,12,Read: /home/lvuser/scripts/auto_12.bee,File good!,WAIT 1500,WAIT,0.000000,0.000000
04:47:34.829 PM 04/09/2016,Autonomous Enabled,9,FALSE,0,NO ERROR,0.000000,-0.006417,-0.000000,0.000000,TRUE,FALSE,TRUE,TRUE,FALSE,FALSE,Disabled,0.000000,-0.331427,-38.798573,TRUE,4.347595,-52.276154,0.000000,-0.134338,0.146271,0.000000,-0.062000,0.086000,0.000000,2.520000,0.000000,-0.220000,-0.021743,Hold,0.836914,0.000000,ResetBack,-840.000000,-0.250000,LowGoal,2055.000000,-2181.818182,Speed,1972.500000,-2181.818182,Speed,Off,Off,0.000000,FALSE,12,Read: /home/lvuser/scripts/auto_12.bee,File good!,WAIT 1500,WAIT,0.000000,0.000000
04:47:34.930 PM 04/09/2016,Autonomous Enabled,10,FALSE,0,NO ERROR,0.000000,-0.006417,-0.000000,0.000000,TRUE,FALSE,TRUE,TRUE,FALSE,FALSE,Disabled,0.000000,-0.331427,-38.798573,TRUE,4.339279,-52.266327,0.000000,-0.175522,0.218857,0.000000,-0.102000,0.041000,0.044000,2.530000,0.000000,-0.240000,-0.027750,Hold,0.974365,0.000000,ResetBack,245.000000,-0.250000,LowGoal,2242.500000,-2181.818182,Speed,2212.500000,-2181.818182,Speed,Off,Off,0.000000,FALSE,12,Read: /home/lvuser/scripts/auto_12.bee,File good!,WAIT 1500,WAIT,0.000000,0.000000
04:47:35.032 PM 04/09/2016,Autonomous Enabled,11,FALSE,0,NO ERROR,0.000000,-0.006417,-0.000000,0.000000,TRUE,FALSE,TRUE,TRUE,FALSE,FALSE,Disabled,0.000000,-0.331427,-38.798573,TRUE,4.327835,-52.261703,0.000000,-0.267609,0.000000,0.000000,-0.121000,0.009000,-0.089000,2.480000,0.000000,-0.170000,-0.031479,Hold,0.974365,0.000000,ResetBack,1051.000000,-0.250000,LowGoal,2212.500000,-2181.818182,Speed,2167.500000,-2181.818182,Speed,Off,Off,0.000000,FALSE,12,Read: /home/lvuser/scripts/auto_12.bee,File good!,WAIT 1500,WAIT,0.000000,0.000000
04:47:35.132 PM 04/09/2016,Autonomous Enabled,9,FALSE,0,NO ERROR,0.000000,-0.006417,-0.000000,0.000000,TRUE,FALSE,TRUE,TRUE,FALSE,FALSE,Disabled,0.000000,-0.331427,-38.798573,TRUE,4.311279,-52.260834,0.000000,-0.353409,0.021744,0.000000,-0.078000,-0.051000,-0.097000,2.480000,0.000000,-0.200000,-0.047115,Hold,0.974365,0.000000,ResetBack,1249.000000,-0.250000,LowGoal,2160.000000,-2181.818182,Speed,2130.000000,-2181.818182,Speed,Off,Off,0.000000,FALSE,12,Read: /home/lvuser/scripts/auto_12.bee,File good!,WAIT 1500,WAIT,0.000000,0.000000
04:47:35.232 PM 04/09/2016,Autonomous Enabled,7,FALSE,0,NO ERROR,0.000000,-0.006417,-0.000000,0.000000,TRUE,FALSE,TRUE,TRUE,FALSE,FALSE,Disabled,0.000000,-0.331427,-38.798573,TRUE,4.304138,-52.263550,0.000000,0.005157,-0.114334,0.000000,0.048000,-0.160000,0.113000,2.520000,0.000000,-0.300000,-0.070029,Hold,0.974365,0.000000,ResetBack,1618.000000,-0.250000,LowGoal,2145.000000,-2181.818182,Speed,2122.500000,-2181.818182,Speed,Off,Off,0.000000,FALSE,12,Read: /home/lvuser/scripts/auto_12.bee,File good!,WAIT 1500,WAIT,0.000000,0.000000
04:47:35.333 PM 04/09/2016,Autonomous Enabled,6,FALSE,0,NO ERROR,0.000000,-0.006417,-0.000000,0.000000,TRUE,FALSE,TRUE,TRUE,FALSE,FALSE,Disabled,0.000000,-0.331427,-38.798573,TRUE,4.305191,-52.274567,0.000000,0.000000,-0.293427,0.000000,-0.035000,-0.188000,0.024000,2.560000,0.000000,-0.190000,-0.074721,Hold,0.974365,0.000000,ResetBack,1713.000000,-0.250000,LowGoal,2152.500000,-2181.818182,Speed,2137.500000,-2181.818182,Speed,Off,Off,0.000000,FALSE,12,Read: /home/lvuser/scripts/auto_12.bee,File good!,WAIT 1500,WAIT,0.000000,0.000000
04:47:35.434 PM 04/09/2016,Autonomous Enabled,6,FALSE,0,NO ERROR,0.000000,-0.006417,-0.000000,0.000000,TRUE,FALSE,TRUE,TRUE,FALSE,FALSE,Disabled,0.000000,-0.331427,-38.798573,TRUE,4.303955,-52.293182,0.000000,-0.044022,-0.401062,0.000000,-0.067000,0.025000,0.096000,2.550000,0.000000,-0.230000,-0.051724,Hold,0.974365,0.000000,ResetBack,1721.000000,-0.250000,LowGoal,2152.500000,-2181.818182,Speed,2137.500000,-2181.818182,Speed,Off,Off,0.000000,FALSE,12,Read: /home/lvuser/scripts/auto_12.bee,File good!,WAIT 1500,WAIT,0.000000,0.000000
04:47:35.534 PM 04/09/2016,Autonomous Enabled,9,FALSE,0,NO ERROR,0.000000,-0.006417,-0.000000,0.000000,TRUE,FALSE,TRUE,TRUE,FALSE,FALSE,Disabled,0.000000,-0.331427,-38.798573,TRUE,4.300537,-52.312378,0.000000,-0.087540,-0.361847,0.000000,0.067000,0.062000,-0.003000,2.530000,0.000000,-0.200000,-0.049377,Hold,0.974365,0.000000,ResetBack,1721.000000,-0.250000,LowGoal,2152.500000,-2181.818182,Speed,2137.500000,-2181.818182,Speed,Off,Off,0.000000,FALSE,12,Read: /home/lvuser/scripts/auto_12.bee,File good!,WAIT 1500,WAIT,0.000000,0.000000
04:47:35.635 PM 04/09/2016,Autonomous Enabled,10,FALSE,0,NO ERROR,0.000000,-0.006417,-0.000000,0.000000,TRUE,FALSE,TRUE,TRUE,FALSE,FALSE,Disabled,0.000000,-0.331427,-38.798573,TRUE,4.294250,-52.329880,0.000000,-0.139252,-0.217697,0.000000,-0.055000,0.178000,0.022000,2.470000,0.000000,-0.190000,-0.049235,Hold,0.974365,0.000000,Reset,1731.000000,2.000000,LowGoal,2152.500000,-2181.818182,Speed,2137.500000,-2181.818182,Speed,Off,Off,0.000000,FALSE,12,Read: /home/lvuser/scripts/auto_12.bee,File good!,WAIT 1500,WAIT,0.000000,0.000000
04:47:35.735 PM 04/09/2016,Autonomous Enabled,10,FALSE,0,NO ERROR,0.000000,-0.006417,-0.000000,0.000000,TRUE,FALSE,TRUE,TRUE,FALSE,FALSE,Disabled,0.000000,-0.331427,-38.798573,TRUE,4.286758,-52.334930,0.000000,-0.211594,-0.069031,0.000000,-0.055000,0.168000,0.056000,2.440000,0.000000,-0.170000,-0.053064,Hold,0.974365,0.000000,Hold,-87.000000,2.000000,LowGoal,2152.500000,-2181.818182,Speed,2137.500000,-2181.818182,Speed,Off,Off,0.000000,FALSE,12,Read: /home/lvuser/scripts/auto_12.bee,File good!,WAIT 1500,WAIT,0.000000,0.000000
04:47:35.835 PM 04/09/2016,Autonomous Enabled,10,FALSE,0,NO ERROR,0.000000,-0.006417,-0.000000,0.000000,TRUE,FALSE,TRUE,TRUE,FALSE,FALSE,Disabled,0.000000,-0.331427,-38.798573,TRUE,4.274521,-52.332535,0.000000,-0.176270,0.108490,0.000000,0.003000,0.080000,0.098000,2.430000,0.000000,-0.110000,-0.073726,Hold,0.974365,0.000000,Hold,-87.000000,2.000000,LowGoal,2152.500000,-2181.818182,Speed,2137.500000,-2181.818182,Speed,Off,Off,0.000000,FALSE,12,Read: /home/lvuser/scripts/auto_12.bee,File good!,WAIT 1500,WAIT,0.000000,0.000000
04:47:35.935 PM 04/09/2016,Autonomous Enabled,5,FALSE,0,NO ERROR,0.000000,-0.006417,-0.000000,0.000000,TRUE,FALSE,TRUE,TRUE,FALSE,FALSE,Disabled,0.000000,-0.331427,-38.798573,TRUE,4.274063,-52.325302,0.000000,-0.032272,0.149979,0.000000,-0.129000,-0.051000,0.094000,2.470000,0.000000,-0.120000,-0.067264,Hold,0.974365,0.000000,Hold,-87.000000,2.000000,LowGoal,2152.500000,-2181.818182,Speed,2145.000000,-2181.818182,Speed,Off,Off,0.000000,FALSE,12,Read: /home/lvuser/scripts/auto_12.bee,File good!,WAIT 1500,WAIT,0.000000,0.000000
04:47:36.035 PM 04/09/2016,Autonomous Enabled,10,FALSE,0,NO ERROR,0.000000,-0.006417,-0.000000,0.000000,TRUE,FALSE,TRUE,TRUE,FALSE,FALSE,Disabled,0.000000,-0.331427,-38.798573,TRUE,4.270142,-52.321899,0.000000,-0.112183,-0.013458,0.000000,-0.043000,-0.235000,0.273000,2.470000,0.000000,-0.090000,-0.072480,Hold,0.974365,0.000000,Hold,-88.000000,2.000000,LowGoal,2152.500000,-2181.818182,Speed,2137.500000,-2181.818182,Speed,Off,Off,0.000000,FALSE,12,Read: /home/lvuser/scripts/auto_12.bee,File good!,WAIT 750,WAIT,0.000000,0.000000
04:47:36.136 PM 04/09/2016,Autonomous Enabled,9,FALSE,0,NO ERROR,0.000000,-0.006417,-0.000000,0.000000,TRUE,FALSE,TRUE,TRUE,FALSE,FALSE,Disabled,0.000000,-0.331427,-38.798573,TRUE,4.263916,-52.330490,0.000000,-0.101120,-0.291809,0.000000,0.157000,-0.317000,0.082000,2.500000,0.000000,-0.170000,-0.085912,Hold,0.974365,58.000000,Hold,-88.000000,139264.000000,LowGoal,2137.500000,-2181.818182,Speed,2145.000000,-2181.818182,Speed,Off,Off,0.000000,FALSE,12,Read: /home/lvuser/scripts/auto_12.bee,File good!,WAIT 750,WAIT,0.000000,0.000000
04:47:36.236 PM 04/09/2016,Autonomous Enabled,10,FALSE,0,NO ERROR,0.000000,-0.006417,-0.000000,0.000000,TRUE,FALSE,TRUE,TRUE,FALSE,FALSE,Disabled,0.000000,-0.331427,-38.798573,TRUE,4.264130,-52.353836,0.000000,0.077011,-0.571411,0.000000,0.074000,-0.193000,-0.173000,2.510000,-0.010000,-0.170000,-0.098209,Hold,3.824951,58.000000,Hold,-88.000000,139264.000000,LowGoal,2130.000000,-2181.818182,Speed,2145.000000,-2181.818182,Speed,Off,Off,0.000000,FALSE,12,Read: /home/lvuser/scripts/auto_12.bee,File good!,WAIT 750,WAIT,0.000000,0.000000
04:47:36.336 PM 04/09/2016,Autonomous Enabled,10,FALSE,0,NO ERROR,0.000000,-0.006417,-0.000000,0.000000,TRUE,FALSE,TRUE,TRUE,FALSE,FALSE,Disabled,0.000000,-0.331427,-38.798573,TRUE,4.270935,-52.390778,0.000000,0.092346,-0.589859,0.000000,-0.141000,0.210000,-0.134000,2.410000,-0.030000,-0.170000,-0.142274,Hold,8.082275,58.000000,Hold,-12181.000000,139264.000000,LowGoal,2130.000000,-2181.818182,Speed,2137.500000,-2181.818182,Speed,Off,Off,0.000000,FALSE,12,Read: /home/lvuser/scripts/auto_12.bee,File good!,WAIT 750,WAIT,0.000000,0.000000
04:47:36.437 PM 04/09/2016,Autonomous Enabled,11,FALSE,0,NO ERROR,0.000000,-0.006417,-0.000000,0.006417,TRUE,FALSE,TRUE,TRUE,FALSE,FALSE,Disabled,0.000000,-0.331427,-38.798573,TRUE,4.271896,-52.411407,0.000000,-0.008606,-0.478012,0.000000,-0.135000,0.163000,-0.028000,2.490000,-0.020000,-0.160000,-0.132738,Hold,8.082275,58.000000,Hold,-26695.000000,139264.000000,LowGoal,2130.000000,-2181.818182,Speed,2137.500000,-2181.818182,Speed,Off,Off,0.000000,FALSE,12,Read: /home/lvuser/scripts/auto_12.bee,File good!,WAIT 750,WAIT,0.000000,0.000000
04:47:36.537 PM 04/09/2016,Autonomous Enabled,11,FALSE,0,NO ERROR,0.000000,0.057750,-0.000000,0.077000,TRUE,FALSE,TRUE,TRUE,FALSE,FALSE,Disabled,0.000000,-0.331427,-38.798573,TRUE,4.269928,-52.429703,0.000000,-0.024490,-0.296936,0.000000,0.106000,0.136000,-0.005000,2.460000,-0.040000,-0.260000,-0.165470,Hold,20.541260,58.000000,Hold,-40097.000000,139264.000000,LowGoal,2130.000000,-2181.818182,Speed,2137.500000,-2181.818182,Speed,Off,Off,0.000000,FALSE,12,Read: /home/lvuser/scripts/auto_12.bee,File good!,WAIT 750,WAIT,0.000000,0.000000
04:47:36.638 PM 04/09/2016,Autonomous Enabled,11,FALSE,0,NO ERROR,0.000000,0.057750,-0.000000,0.070583,TRUE,FALSE,TRUE,TRUE,FALSE,FALSE,Disabled,0.000000,-0.331427,-38.798573,TRUE,4.269806,-52.444199,0.000000,-0.017105,-0.230377,0.000000,-0.160000,0.046000,0.341000,2.470000,-0.050000,-0.130000,-0.191561,Hold,28.419434,58.000000,Hold,-56055.000000,139264.000000,LowGoal,2145.000000,-2181.818182,Speed,2137.500000,-2181.818182,Speed,Off,Off,0.000000,FALSE,12,Read: /home/lvuser/scripts/auto_12.bee,File good!,WAIT 750,WAIT,0.000000,0.000000
04:47:36.739 PM 04/09/2016,Autonomous Enabled,11,FALSE,0,NO ERROR,0.000000,0.057750,-0.000000,0.064167,TRUE,FALSE,TRUE,TRUE,FALSE,FALSE,Disabled,0.000000,-0.331427,-38.798573,TRUE,4.267273,-52.458023,0.000000,-0.047180,-0.339584,0.000000,0.079000,-0.187000,0.191000,2.490000,-0.040000,-0.250000,-0.190707,Hold,35.280029,58.000000,Hold,-73065.000000,139264.000000,LowGoal,2152.500000,-2181.818182,Speed,2137.500000,-2181.818182,Speed,Off,Off,0.000000,FALSE,12,Read: /home/lvuser/scripts/auto_12.bee,File good!,WAIT 750,WAIT,0.000000,0.000000
04:47:36.840 PM 04/09/2016,Autonomous Enabled,9,FALSE,0,NO ERROR,0.000000,-0.038500,-0.000000,-0.019250,TRUE,FALSE,TRUE,TRUE,FALSE,FALSE,Disabled,0.000000,-0.331427,-38.798573,TRUE,4.269104,-52.479904,0.000000,0.081375,-0.509476,0.000000,-0.002000,-0.203000,0.055000,2.490000,-0.030000,-0.380000,-0.187182,Hold,35.280029,58.000000,Hold,-73065.000000,139264.000000,LowGoal,2152.500000,-2181.818182,Speed,2137.500000,-2181.818182,Speed,Off,Off,0.000000,FALSE,12,Read: /home/lvuser/scripts/auto_12.bee,File good!,DRIVE_STRAIGHT_TARGET 206 1000 10000 75,DRIVE_STRAIGHT_TARGET,0.000000,0.000000
04:47:36.940 PM 04/09/2016,Autonomous Enabled,9,FALSE,0,NO ERROR,-0.562500,-0.166833,0.562500,-0.166833,TRUE,FALSE,TRUE,TRUE,FALSE,FALSE,Disabled,0.000000,-0.331427,-38.798573,TRUE,4.270325,-52.513046,0.000000,-0.030579,-0.766617,0.000000,0.137000,-0.011000,0.043000,2.490000,-0.030000,-0.380000,-0.094426,Hold,48.441650,58.000000,Hold,-73065.000000,139264.000000,LowGoal,2062.500000,-2181.818182,Speed,2137.500000,-2181.818182,Speed,Off,Off,0.000000,FALSE,12,Read: /home/lvuser/scripts/auto_12.bee,File good!,DRIVE_STRAIGHT_TARGET 206 1000 10000 75,DRIVE_STRAIGHT_TARGET,0.000000,0.000000
04:47:37.044 PM 04/09/2016,Autonomous Enabled,9,FALSE,0,NO ERROR,-0.562500,-2.091828,0.562500,-2.014829,TRUE,FALSE,TRUE,TRUE,FALSE,FALSE,Disabled,0.000000,-0.331427,-38.798573,TRUE,4.285461,-52.553741,0.000000,0.501205,-0.834091,0.000000,0.368000,-0.196000,-0.320000,2.350000,-0.310000,2.620000,-0.304257,Hold,58.099365,58.000000,Hold,-111338.000000,139264.000000,LowGoal,2032.500000,-2181.818182,Speed,2137.500000,-2181.818182,Speed,Off,Off,0.000000,FALSE,12,Read: /home/lvuser/scripts/auto_12.bee,File good!,DRIVE_STRAIGHT_TARGET 206 1000 10000 75,DRIVE_STRAIGHT_TARGET,0.000000,0.000000
04:47:37.143 PM 04/09/2016,Autonomous Enabled,10,FALSE,0,NO ERROR,-0.562500,-5.043488,0.562500,-4.895905,TRUE,FALSE,TRUE,TRUE,FALSE,FALSE,Disabled,0.000000,-0.331427,-38.798573,TRUE,4.324127,-52.608185,0.000000,0.692383,-0.926270,0.000000,-0.085000,0.041000,0.408000,2.380000,-0.530000,2.880000,-0.461957,Hold,62.800781,58.000000,Hold,-111338.000000,139264.000000,LowGoal,2032.500000,-2181.818182,Speed,2107.500000,-2181.818182,Speed,Off,Off,0.000000,FALSE,12,Read: /home/lvuser/scripts/auto_12.bee,File good!,DRIVE_STRAIGHT_TARGET 206 1000 10000 75,DRIVE_STRAIGHT_TARGET,0.000000,0.000000
04:47:37.243 PM 04/09/2016,Autonomous Enabled,10,FALSE,0,NO ERROR,-0.562500,-8.739480,0.562500,-8.502063,TRUE,FALSE,TRUE,TRUE,FALSE,FALSE,Disabled,0.000000,-0.331427,-38.798573,TRUE,4.359268,-52.656082,0.000000,0.671783,-0.959061,0.000000,-0.085000,0.171000,0.367000,2.380000,-0.530000,2.880000,-0.642729,Hold,62.700684,58.000000,Hold,-128088.000000,139264.000000,LowGoal,2115.000000,-2181.818182,Speed,2092.500000,-2181.818182,Speed,Off,Off,0.000000,FALSE,12,Read: /home/lvuser/scripts/auto_12.bee,File good!,DRIVE_STRAIGHT_TARGET 206 1000 10000 75,DRIVE_STRAIGHT_TARGET,0.000000,0.000000
04:47:37.344 PM 04/09/2016,Autonomous Enabled,10,FALSE,0,NO ERROR,-0.562500,-12.672887,0.562500,-12.448304,TRUE,FALSE,TRUE,TRUE,FALSE,FALSE,Disabled,0.000000,-0.331427,-38.798573,TRUE,4.384186,-52.691269,0.000000,0.632050,-0.831238,0.000000,-0.118000,0.050000,-0.144000,2.350000,-0.680000,2.360000,-0.716327,Hold,62.069336,58.000000,Hold,-140974.000000,139264.000000,LowGoal,2145.000000,-2181.818182,Speed,2107.500000,-2181.818182,Speed,Off,Off,0.000000,FALSE,12,Read: /home/lvuser/scripts/auto_12.bee,File good!,DRIVE_STRAIGHT_TARGET 206 1000 10000 75,DRIVE_STRAIGHT_TARGET,0.000000,0.000000
04:47:37.444 PM 04/09/2016,Autonomous Enabled,11,FALSE,0,NO ERROR,-0.580979,-16.773127,0.544319,-16.567795,FALSE,FALSE,TRUE,TRUE,FALSE,FALSE,Disabled,0.000000,-0.331427,-38.798573,TRUE,4.419281,-52.740311,0.000000,0.593338,-0.836884,0.000000,0.119000,-0.076000,-0.059000,2.340000,-0.770000,3.010000,-0.839206,Hold,62.017578,58.000000,Hold,-139266.000000,139264.000000,LowGoal,2130.000000,-2181.818182,Speed,2115.000000,-2181.818182,Speed,Off,Off,0.000000,FALSE,12,Read: /home/lvuser/scripts/auto_12.bee,File good!,DRIVE_STRAIGHT_TARGET 206 1000 10000 75,DRIVE_STRAIGHT_TARGET,0.000000,0.000000
04:47:37.545 PM 04/09/2016,Autonomous Enabled,11,FALSE,0,NO ERROR,-0.580187,-21.354617,0.545087,-21.181367,TRUE,FALSE,TRUE,TRUE,FALSE,FALSE,Disabled,0.000000,-0.331427,-38.798573,TRUE,4.457077,-52.795258,0.000000,0.625885,-0.992935,0.000000,-0.047000,-0.142000,-0.038000,2.310000,-0.800000,2.720000,-0.796233,Hold,61.594238,58.000000,Hold,-139325.000000,139264.000000,LowGoal,2137.500000,-2181.818182,Speed,2122.500000,-2181.818182,Speed,Off,Off,0.000000,FALSE,12,Read: /home/lvuser/scripts/auto_12.bee,File good!,DRIVE_STRAIGHT_TARGET 206 1000 10000 75,DRIVE_STRAIGHT_TARGET,0.000000,0.000000
04:47:37.645 PM 04/09/2016,Autonomous Enabled,10,FALSE,0,NO ERROR,-0.577615,-25.730773,0.547585,-25.673023,TRUE,FALSE,TRUE,TRUE,FALSE,FALSE,Disabled,0.000000,-0.331427,-38.798573,TRUE,4.469833,-52.848251,0.000000,0.021683,-1.113708,0.000000,-0.047000,-0.142000,-0.038000,2.310000,-0.800000,2.720000,-0.693510,Hold,61.592285,58.000000,Hold,-139326.000000,139264.000000,LowGoal,2137.500000,-2181.818182,Speed,2137.500000,-2181.818182,Speed,Off,Off,0.000000,FALSE,12,Read: /home/lvuser/scripts/auto_12.bee,File good!,DRIVE_STRAIGHT_TARGET 206 1000 10000 75,DRIVE_STRAIGHT_TARGET,0.000000,0.000000
04:47:37.745 PM 04/09/2016,Autonomous Enabled,9,FALSE,0,NO ERROR,-0.575049,-29.914430,0.550089,-29.959347,TRUE,FALSE,TRUE,TRUE,FALSE,FALSE,Disabled,0.000000,-0.331427,-38.798573,TRUE,4.472641,-52.908615,0.000000,0.082626,-1.271210,0.000000,0.055000,-0.143000,-0.028000,2.330000,-0.650000,2.590000,-0.568604,Hold,61.449951,58.000000,Hold,-139326.000000,139264.000000,LowGoal,2145.000000,-2181.818182,Speed,2130.000000,-2181.818182,Speed,Off,Off,0.000000,FALSE,12,Read: /home/lvuser/scripts/auto_12.bee,File good!,DRIVE_STRAIGHT_TARGET 206 1000 10000 75,DRIVE_STRAIGHT_TARGET,0.000000,0.000000
04:47:37.845 PM 04/09/2016,Autonomous Enabled,10,FALSE,0,NO ERROR,-0.571899,-34.181503,0.553179,-34.335503,TRUE,FALSE,TRUE,TRUE,FALSE,FALSE,Disabled,0.000000,-0.331427,-38.798573,TRUE,4.476425,-52.976105,0.000000,0.070145,-1.392319,0.000000,0.087000,-0.170000,-0.231000,2.370000,-0.520000,2.340000,-0.410735,Hold,61.458740,58.000000,Hold,-139326.000000,139264.000000,LowGoal,2160.000000,-2181.818182,Speed,2130.000000,-2181.818182,Speed,Off,Off,0.000000,FALSE,12,Read: /home/lvuser/scripts/auto_12.bee,File good!,DRIVE_STRAIGHT_TARGET 206 1000 10000 75,DRIVE_STRAIGHT_TARGET,0.000000,0.000000
04:47:37.945 PM 04/09/2016,Autonomous Enabled,10,FALSE,0,NO ERROR,-0.571506,-38.422910,0.553566,-38.602576,TRUE,FALSE,TRUE,TRUE,FALSE,FALSE,Disabled,0.000000,-0.331427,-38.798573,TRUE,4.477310,-53.045380,0.000000,-0.017059,-1.390747,0.000000,-0.057000,0.112000,0.205000,2.260000,-0.360000,2.650000,-0.444727,Hold,61.458740,58.000000,Hold,-139326.000000,139264.000000,LowGoal,2152.500000,-2181.818182,Speed,2130.000000,-2181.818182,Speed,Off,Off,0.000000,FALSE,12,Read: /home/lvuser/scripts/auto_12.bee,File good!,DRIVE_STRAIGHT_TARGET 206 1000 10000 75,DRIVE_STRAIGHT_TARGET,0.000000,0.000000
04:47:38.046 PM 04/09/2016,Autonomous Enabled,11,FALSE,0,NO ERROR,-0.574852,-42.638650,0.550282,-42.773400,TRUE,FALSE,TRUE,TRUE,FALSE,FALSE,Disabled,0.000000,-0.331427,-38.798573,TRUE,4.473068,-53.113647,0.000000,-0.128281,-1.356277,0.000000,-0.074000,0.048000,-0.080000,2.210000,-0.440000,2.970000,-0.661384,Hold,61.385742,58.000000,Hold,-139325.000000,139264.000000,LowGoal,2145.000000,-2181.818182,Speed,2130.000000,-2181.818182,Speed,Off,Off,0.000000,FALSE,12,Read: /home/lvuser/scripts/auto_12.bee,File good!,DRIVE_STRAIGHT_TARGET 206 1000 10000 75,DRIVE_STRAIGHT_TARGET,0.000000,0.000000
04:47:38.145 PM 04/09/2016,Autonomous Enabled,11,FALSE,0,NO ERROR,-0.578604,-46.649058,0.546624,-46.751724,FALSE,FALSE,TRUE,TRUE,FALSE,FALSE,Disabled,0.000000,-0.331427,-38.798573,TRUE,4.473068,-53.113647,0.000000,-0.128281,-1.356277,0.000000,-0.173000,-0.001000,0.105000,2.080000,-0.630000,5.140000,-0.874110,Hold,61.389404,58.000000,Hold,-139322.000000,139264.000000,LowGoal,2152.500000,-2181.818182,Speed,2137.500000,-2181.818182,Speed,Off,Off,0.000000,FALSE,12,Read: /home/lvuser/scripts/auto_12.bee,File good!,DRIVE_STRAIGHT_TARGET 206 1000 10000 75,DRIVE_STRAIGHT_TARGET,0.000000,0.000000
04:47:38.246 PM 04/09/2016,Autonomous Enabled,11,FALSE,0,NO ERROR,-0.583360,-50.659465,0.542020,-50.762131,FALSE,FALSE,TRUE,TRUE,FALSE,FALSE,Disabled,0.000000,-0.331427,-38.798573,TRUE,4.463852,-53.177368,0.000000,-0.215973,-1.190552,0.000000,-0.089000,0.257000,0.085000,2.060000,-0.900000,7.110000,-1.050232,Hold,61.395264,58.000000,Hold,-139402.000000,139264.000000,LowGoal,2152.500000,-2181.818182,Speed,2130.000000,-2181.818182,Speed,Off,Off,0.000000,FALSE,12,Read: /home/lvuser/scripts/auto_12.bee,File good!,DRIVE_STRAIGHT_TARGET 206 1000 10000 75,DRIVE_STRAIGHT_TARGET,0.000000,0.000000
04:47:38.348 PM 04/09/2016,Autonomous Enabled,11,FALSE,0,NO ERROR,-0.586741,-54.393956,0.538771,-54.490206,FALSE,FALSE,TRUE,TRUE,FALSE,FALSE,Disabled,0.000000,-0.331427,-38.798573,TRUE,4.450180,-53.228729,0.000000,-0.322891,-0.921158,0.000000,-0.115000,0.097000,-0.061000,2.170000,-1.020000,9.320000,-1.308785,Hold,61.414795,58.000000,Hold,-139400.000000,139264.000000,LowGoal,2137.500000,-2181.818182,Speed,2122.500000,-2181.818182,Speed,Off,Off,0.000000,FALSE,12,Read: /home/lvuser/scripts/auto_12.bee,File good!,DRIVE_STRAIGHT_TARGET 206 1000 10000 75,DRIVE_STRAIGHT_TARGET,0.000000,0.000000
04:47:38.448 PM 04/09/2016,Autonomous Enabled,11,FALSE,0,NO ERROR,-0.589133,-58.025781,0.536483,-58.077114,FALSE,FALSE,TRUE,TRUE,FALSE,FALSE,Disabled,0.000000,-0.331427,-38.798573,TRUE,4.427612,-53.280914,0.000000,-0.401611,-0.882935,0.000000,-0.042000,-0.138000,0.623000,2.210000,-1.300000,9.200000,-1.341217,Hold,60.813721,58.000000,Hold,-139400.000000,139264.000000,LowGoal,2137.500000,-2181.818182,Speed,2130.000000,-2181.818182,Speed,Off,Off,0.000000,FALSE,12,Read: /home/lvuser/scripts/auto_12.bee,File good!,DRIVE_STRAIGHT_TARGET 206 1000 10000 75,DRIVE_STRAIGHT_TARGET,0.000000,0.000000
04:47:38.548 PM 04/09/2016,Autonomous Enabled,10,FALSE,0,NO ERROR,-0.587538,-61.375273,0.538008,-61.522856,FALSE,FALSE,TRUE,TRUE,FALSE,FALSE,Disabled,0.000000,-0.331427,-38.798573,TRUE,4.403061,-53.328583,0.000000,-0.541260,-1.023285,0.000000,-0.179000,-0.063000,0.321000,2.290000,-1.070000,5.010000,-1.341217,Hold,60.984131,58.000000,Hold,-139395.000000,139264.000000,LowGoal,2137.500000,-2181.818182,Speed,2130.000000,-2181.818182,Speed,Off,Off,0.000000,FALSE,12,Read: /home/lvuser/scripts/auto_12.bee,File good!,DRIVE_STRAIGHT_TARGET 206 1000 10000 75,DRIVE_STRAIGHT_TARGET,0.000000,0.000000
04:47:38.648 PM 04/09/2016,Autonomous Enabled,11,FALSE,0,NO ERROR,-0.580583,-61.375273,0.544703,-61.522856,FALSE,FALSE,TRUE,TRUE,FALSE,FALSE,Disabled,0.000000,-0.331427,-38.798573,TRUE,4.372635,-53.382843,0.000000,-0.606735,-1.159286,0.000000,0.132000,-0.208000,-0.371000,2.270000,-0.950000,4.140000,-1.120573,Hold,61.150391,58.000000,Hold,-139408.000000,139264.000000,LowGoal,2130.000000,-2181.818182,Speed,2122.500000,-2181.818182,Speed,Off,Off,0.000000,FALSE,12,Read: /home/lvuser/scripts/auto_12.bee,File good!,DRIVE_STRAIGHT_TARGET 206 1000 10000 75,DRIVE_STRAIGHT_TARGET,0.000000,0.000000
04:47:38.748 PM 04/09/2016,Autonomous Enabled,10,FALSE,0,NO ERROR,-0.576430,-64.975015,0.548740,-65.231681,FALSE,FALSE,TRUE,TRUE,FALSE,FALSE,Disabled,0.000000,-0.331427,-38.798573,TRUE,4.348267,-53.446884,0.000000,-0.375763,-1.374878,0.000000,0.169000,-0.224000,-0.189000,2.270000,-0.770000,3.350000,-0.940917,Hold,60.892822,58.000000,Hold,-139406.000000,139264.000000,LowGoal,2122.500000,-2181.818182,Speed,2122.500000,-2181.818182,Speed,Off,Off,0.000000,FALSE,12,Read: /home/lvuser/scripts/auto_12.bee,File good!,DRIVE_STRAIGHT_TARGET 206 1000 10000 75,DRIVE_STRAIGHT_TARGET,0.000000,0.000000
04:47:38.856 PM 04/09/2016,Autonomous Enabled,12,FALSE,0,NO ERROR,-0.571899,-69.017505,0.553179,-69.434588,TRUE,FALSE,TRUE,TRUE,FALSE,FALSE,Disabled,0.000000,-0.331427,-38.798573,TRUE,4.331757,-53.519791,0.000000,-0.363251,-1.509796,0.000000,0.122000,-0.244000,-0.344000,2.040000,-0.480000,1.550000,-0.712451,Hold,61.265625,58.000000,Hold,-139406.000000,139264.000000,LowGoal,2115.000000,-2181.818182,Speed,2130.000000,-2181.818182,Speed,Off,Off,0.000000,FALSE,12,Read: /home/lvuser/scripts/auto_12.bee,File good!,DRIVE_STRAIGHT_TARGET 206 1000 10000 75,DRIVE_STRAIGHT_TARGET,0.000000,0.000000
04:47:38.957 PM 04/09/2016,Autonomous Enabled,10,FALSE,0,NO ERROR,-0.572489,-73.419328,0.552599,-73.862077,TRUE,FALSE,TRUE,TRUE,FALSE,FALSE,Disabled,0.000000,-0.331427,-38.798573,TRUE,4.313644,-53.615524,0.000000,-0.284637,-1.569122,0.000000,0.030000,0.237000,-0.090000,2.110000,-0.430000,0.320000,-0.538774,Hold,61.294922,58.000000,Hold,-139405.000000,139264.000000,LowGoal,2122.500000,-2181.818182,Speed,2130.000000,-2181.818182,Speed,Off,Off,0.000000,FALSE,12,Read: /home/lvuser/scripts/auto_12.bee,File good!,DRIVE_STRAIGHT_TARGET 206 1000 10000 75,DRIVE_STRAIGHT_TARGET,0.000000,0.000000
04:47:39.057 PM 04/09/2016,Autonomous Enabled,9,FALSE,0,NO ERROR,-0.571506,-77.776235,0.553566,-78.276734,TRUE,FALSE,TRUE,TRUE,FALSE,FALSE,Disabled,0.000000,-0.331427,-38.798573,TRUE,4.299362,-53.688675,0.000000,-0.302078,-1.396698,0.000000,-0.229000,0.216000,-0.037000,2.210000,-0.460000,1.180000,-0.595886,Hold,61.358643,58.000000,Hold,-139406.000000,139264.000000,LowGoal,2137.500000,-2181.818182,Speed,2137.500000,-2181.818182,Speed,Off,Off,0.000000,FALSE,12,Read: /home/lvuser/scripts/auto_12.bee,File good!,DRIVE_STRAIGHT_TARGET 206 1000 10000 75,DRIVE_STRAIGHT_TARGET,0.000000,0.000000
04:47:39.158 PM 04/09/2016,Autonomous Enabled,10,FALSE,0,NO ERROR,-0.572292,-82.107475,0.552792,-82.633640,TRUE,FALSE,TRUE,TRUE,FALSE,FALSE,Disabled,0.000000,-0.331427,-38.798573,TRUE,4.280502,-53.752563,0.000000,-0.428650,-1.204819,0.000000,-0.265000,0.129000,0.193000,2.180000,-0.400000,0.420000,-0.532082,Hold,61.021973,58.000000,Hold,-139406.000000,139264.000000,LowGoal,2130.000000,-2181.818182,Speed,2137.500000,-2181.818182,Speed,Off,Off,0.000000,FALSE,12,Read: /home/lvuser/scripts/auto_12.bee,File good!,DRIVE_STRAIGHT_TARGET 206 1000 10000 75,DRIVE_STRAIGHT_TARGET,0.000000,0.000000
04:47:39.259 PM 04/09/2016,Autonomous Enabled,11,FALSE,0,NO ERROR,-0.574261,-86.406631,0.550861,-86.926380,TRUE,FALSE,TRUE,TRUE,FALSE,FALSE,Disabled,0.000000,-0.331427,-38.798573,TRUE,4.255920,-53.810181,0.000000,-0.523010,-1.120453,0.000000,-0.097000,0.086000,0.570000,2.290000,-0.490000,-0.660000,-0.603522,Hold,60.987549,58.000000,Hold,-139398.000000,139264.000000,LowGoal,2130.000000,-2181.818182,Speed,2137.500000,-2181.818182,Speed,Off,Off,0.000000,FALSE,12,Read: /home/lvuser/scripts/auto_12.bee,File good!,DRIVE_STRAIGHT_TARGET 206 1000 10000 75,DRIVE_STRAIGHT_TARGET,0.000000,0.000000
04:47:39.361 PM 04/09/2016,Autonomous Enabled,14,FALSE,0,NO ERROR,-0.578604,-90.757121,0.546624,-91.219120,FALSE,FALSE,TRUE,TRUE,FALSE,FALSE,Disabled,0.000000,-0.331427,-38.798573,TRUE,4.234467,-53.852585,0.000000,-0.512131,-1.027512,0.000000,0.287000,0.018000,-0.497000,2.180000,-0.690000,-3.970000,-0.783571,Hold,60.894287,58.000000,Hold,-139398.000000,139264.000000,LowGoal,2130.000000,-2181.818182,Speed,2130.000000,-2181.818182,Speed,Off,Off,0.000000,FALSE,12,Read: /home/lvuser/scripts/auto_12.bee,File good!,DRIVE_STRAIGHT_TARGET 206 1000 10000 75,DRIVE_STRAIGHT_TARGET,0.000000,0.000000
04:47:39.462 PM 04/09/2016,Autonomous Enabled,9,FALSE,0,NO ERROR,-0.577418,-95.396360,0.547778,-95.755693,FALSE,FALSE,TRUE,TRUE,FALSE,FALSE,Disabled,0.000000,-0.331427,-38.798573,TRUE,4.211807,-53.915955,0.000000,-0.270157,-1.109085,0.000000,0.404000,-0.199000,0.580000,3.140000,-0.770000,-7.040000,-0.992903,Hold,61.000977,58.000000,Hold,-139361.000000,139264.000000,LowGoal,2130.000000,-2181.818182,Speed,2137.500000,-2181.818182,Speed,Off,Off,0.000000,FALSE,12,Read: /home/lvuser/scripts/auto_12.bee,File good!,DRIVE_STRAIGHT_TARGET 206 1000 10000 75,DRIVE_STRAIGHT_TARGET,0.000000,0.000000
04:47:39.562 PM 04/09/2016,Autonomous Enabled,11,FALSE,0,NO ERROR,-0.570131,-100.138266,0.554921,-100.735014,FALSE,FALSE,TRUE,TRUE,FALSE,FALSE,Disabled,0.000000,-0.331427,-38.798573,TRUE,4.208740,-53.974472,0.000000,-0.057404,-1.234589,0.000000,0.152000,-0.145000,-0.898000,2.580000,-0.440000,-6.980000,-0.661532,Hold,61.351807,58.000000,Hold,-139319.000000,139264.000000,LowGoal,2122.500000,-2181.818182,Speed,2122.500000,-2181.818182,Speed,Off,Off,0.000000,FALSE,12,Read: /home/lvuser/scripts/auto_12.bee,File good!,DRIVE_STRAIGHT_TARGET 206 1000 10000 75,DRIVE_STRAIGHT_TARGET,0.000000,0.000000
04:47:39.664 PM 04/09/2016,Autonomous Enabled,10,FALSE,0,NO ERROR,-0.566407,-105.534670,0.558607,-106.291835,FALSE,FALSE,TRUE,TRUE,FALSE,FALSE,Disabled,0.909375,-0.331427,-38.798573,TRUE,4.204758,-54.051529,0.000000,-0.078735,-1.267593,0.000000,0.129000,-0.413000,-0.080000,2.850000,-0.070000,-3.180000,-0.344648,Hold,61.274658,58.000000,Hold,-139318.000000,139264.000000,LowGoal,2130.000000,-2181.818182,Speed,2130.000000,-2181.818182,Speed,Off,Off,0.000000,FALSE,12,Read: /home/lvuser/scripts/auto_12.bee,File good!,DRIVE_STRAIGHT_TARGET 206 1000 10000 75,DRIVE_STRAIGHT_TARGET,0.000000,0.000000
04:47:39.764 PM 04/09/2016,Autonomous Enabled,11,FALSE,0,NO ERROR,-0.573276,-110.494742,0.551826,-111.129990,TRUE,FALSE,TRUE,TRUE,FALSE,FALSE,Disabled,0.909375,-0.331427,-38.798573,TRUE,4.203171,-54.121216,0.000000,-0.031784,-1.416153,0.000000,-0.123000,0.151000,0.544000,2.650000,-0.400000,-0.510000,-0.522663,Hold,61.211426,58.000000,Hold,-139318.000000,139264.000000,LowGoal,2130.000000,-2181.818182,Speed,2137.500000,-2181.818182,Speed,Off,Off,0.000000,FALSE,12,Read: /home/lvuser/scripts/auto_12.bee,File good!,DRIVE_STRAIGHT_TARGET 206 1000 10000 75,DRIVE_STRAIGHT_TARGET,0.000000,0.000000
04:47:39.864 PM 04/09/2016,Autonomous Enabled,10,FALSE,0,NO ERROR,-0.574458,-115.255897,0.550668,-115.859062,TRUE,FALSE,TRUE,TRUE,FALSE,FALSE,Disabled,0.909375,-0.331427,-38.798573,TRUE,4.196915,-54.189194,0.000000,-0.189835,-1.299728,0.000000,-0.055000,0.213000,-0.026000,2.520000,-0.570000,-0.370000,-0.772765,Hold,60.854248,58.000000,Hold,-139319.000000,139264.000000,LowGoal,2137.500000,-2181.818182,Speed,2137.500000,-2181.818182,Speed,Off,Off,0.000000,FALSE,12,Read: /home/lvuser/scripts/auto_12.bee,File good!,DRIVE_STRAIGHT_TARGET 206 1000 10000 75,DRIVE_STRAIGHT_TARGET,0.000000,0.000000
04:47:39.964 PM 04/09/2016,Autonomous Enabled,10,FALSE,0,NO ERROR,-0.577220,-119.747553,0.547970,-120.331469,TRUE,FALSE,TRUE,TRUE,FALSE,FALSE,Disabled,0.909375,-0.331427,-38.798573,TRUE,4.187866,-54.248825,0.000000,-0.175964,-1.106827,0.000000,-0.151000,0.204000,0.322000,2.700000,-0.680000,-0.110000,-0.912646,Hold,60.895752,58.000000,Hold,-139322.000000,139264.000000,LowGoal,2145.000000,-2181.818182,Speed,2137.500000,-2181.818182,Speed,Off,Off,0.000000,FALSE,12,Read: /home/lvuser/scripts/auto_12.bee,File good!,DRIVE_STRAIGHT_TARGET 206 1000 10000 75,DRIVE_STRAIGHT_TARGET,0.000000,0.000000
04:47:40.064 PM 04/09/2016,Autonomous Enabled,11,FALSE,0,NO ERROR,-0.576430,-124.085210,0.548740,-124.707625,TRUE,FALSE,TRUE,TRUE,FALSE,FALSE,Disabled,0.909375,-0.331427,-38.798573,TRUE,4.176331,-54.298553,0.000000,-0.273041,-0.931046,0.000000,-0.103000,0.253000,-0.004000,2.650000,-0.670000,-0.400000,-0.937009,Hold,60.857910,58.000000,Hold,-139348.000000,139264.000000,LowGoal,2137.500000,-2181.818182,Speed,2137.500000,-2181.818182,Speed,Off,Off,0.000000,FALSE,12,Read: /home/lvuser/scripts/auto_12.bee,File good!,DRIVE_STRAIGHT_TARGET 206 1000 10000 75,DRIVE_STRAIGHT_TARGET,0.000000,0.000000
04:47:40.165 PM 04/09/2016,Autonomous Enabled,11,FALSE,0,NO ERROR,-0.574261,-128.679532,0.550861,-129.334031,TRUE,FALSE,TRUE,TRUE,FALSE,FALSE,Disabled,0.909375,-0.331427,-38.798573,TRUE,4.157318,-54.339066,0.000000,-0.453995,-0.739044,0.000000,-0.068000,0.176000,0.421000,2.590000,-0.540000,0.050000,-0.812743,Hold,60.889648,58.000000,Hold,-139349.000000,139264.000000,LowGoal,2130.000000,-2181.818182,Speed,2137.500000,-2181.818182,Speed,Off,Off,0.000000,FALSE,12,Read: /home/lvuser/scripts/auto_12.bee,File good!,DRIVE_STRAIGHT_TARGET 206 1000 10000 75,DRIVE_STRAIGHT_TARGET,0.000000,0.000000
04:47:40.266 PM 04/09/2016,Autonomous Enabled,11,FALSE,0,NO ERROR,-0.573867,-132.914523,0.551247,-133.658854,TRUE,FALSE,TRUE,TRUE,FALSE,FALSE,Disabled,0.909375,-0.331427,-38.798573,TRUE,4.134079,-54.371628,0.000000,-0.442886,-0.612228,0.000000,0.024000,0.025000,0.117000,2.600000,-0.520000,-0.550000,-0.776999,Hold,60.840088,58.000000,Hold,-139349.000000,139264.000000,LowGoal,2137.500000,-2181.818182,Speed,2137.500000,-2181.818182,Speed,Off,Off,0.000000,FALSE,12,Read: /home/lvuser/scripts/auto_12.bee,File good!,DRIVE_STRAIGHT_TARGET 206 1000 10000 75,DRIVE_STRAIGHT_TARGET,0.000000,0.000000
04:47:40.367 PM 04/09/2016,Autonomous Enabled,9,FALSE,0,NO ERROR,-0.573867,-137.483179,0.551247,-138.298093,TRUE,FALSE,TRUE,TRUE,FALSE,FALSE,Disabled,0.909375,-0.331427,-38.798573,TRUE,4.116959,-54.402115,0.000000,0.000000,-0.615356,0.000000,0.005000,-0.058000,0.141000,2.630000,-0.500000,-0.310000,-0.775137,Hold,60.978271,58.000000,Hold,-139349.000000,139264.000000,LowGoal,2145.000000,-2181.818182,Speed,2137.500000,-2181.818182,Speed,Off,Off,0.000000,FALSE,12,Read: /home/lvuser/scripts/auto_12.bee,File good!,DRIVE_STRAIGHT_TARGET 206 1000 10000 75,DRIVE_STRAIGHT_TARGET,0.000000,0.000000
04:47:40.467 PM 04/09/2016,Autonomous Enabled,11,FALSE,0,NO ERROR,-0.573276,-141.910668,0.551826,-142.712750,TRUE,FALSE,TRUE,TRUE,FALSE,FALSE,Disabled,0.909375,-0.331427,-38.798573,TRUE,4.116180,-54.441986,0.000000,-0.018661,-0.728500,0.000000,0.126000,-0.180000,0.138000,2.700000,-0.490000,-0.400000,-0.780431,Hold,60.978271,58.000000,Hold,-139349.000000,139264.000000,LowGoal,2145.000000,-2181.818182,Speed,2137.500000,-2181.818182,Speed,Off,Off,0.000000,FALSE,12,Read: /home/lvuser/scripts/auto_12.bee,File good!,DRIVE_STRAIGHT_TARGET 206 1000 10000 75,DRIVE_STRAIGHT_TARGET,0.000000,0.000000
04:47:40.567 PM 04/09/2016,Autonomous Enabled,9,FALSE,0,NO ERROR,-0.572686,-146.318908,0.552406,-147.172323,TRUE,FALSE,TRUE,TRUE,FALSE,FALSE,Disabled,0.909375,-0.331427,-38.798573,TRUE,4.118805,-54.485443,0.000000,0.113037,-0.954987,0.000000,0.140000,-0.168000,-0.143000,2.720000,-0.420000,-0.490000,-0.734194,Hold,60.978271,58.000000,Hold,-139349.000000,139264.000000,LowGoal,2122.500000,-2181.818182,Speed,2137.500000,-2181.818182,Speed,Off,Off,0.000000,FALSE,12,Read: /home/lvuser/scripts/auto_12.bee,File good!,DRIVE_STRAIGHT_TARGET 206 1000 10000 75,DRIVE_STRAIGHT_TARGET,0.000000,0.000000
04:47:40.667 PM 04/09/2016,Autonomous Enabled,10,FALSE,0,NO ERROR,-0.570327,-150.804147,0.554727,-151.728145,TRUE,FALSE,TRUE,TRUE,FALSE,FALSE,Disabled,0.000000,-0.331427,-38.798573,TRUE,4.131973,-54.549271,0.000000,0.284485,-1.120560,0.000000,0.054000,-0.061000,-0.167000,2.650000,-0.320000,-0.200000,-0.640216,Hold,60.978271,58.000000,Hold,-139349.000000,139264.000000,LowGoal,2115.000000,-2181.818182,Speed,2137.500000,-2181.818182,Speed,Off,Off,0.000000,FALSE,12,Read: /home/lvuser/scripts/auto_12.bee,File good!,DRIVE_STRAIGHT_TARGET 206 1000 10000 75,DRIVE_STRAIGHT_TARGET,0.000000,0.000000
04:47:40.770 PM 04/09/2016,Autonomous Enabled,12,FALSE,0,NO ERROR,-0.569346,-155.154637,0.555696,-156.136385,TRUE,FALSE,TRUE,TRUE,FALSE,FALSE,Disabled,0.000000,-0.331427,-38.798573,TRUE,4.140732,-54.596008,0.000000,0.000000,-1.190048,0.000000,-0.137000,-0.054000,-0.166000,2.620000,-0.270000,-0.280000,-0.581097,Hold,60.978271,58.000000,Hold,-139349.000000,139264.000000,LowGoal,2122.500000,-2181.818182,Speed,2137.500000,-2181.818182,Speed,Off,Off,0.000000,FALSE,12,Read: /home/lvuser/scripts/auto_12.bee,File good!,DRIVE_STRAIGHT_TARGET 206 1000 10000 75,DRIVE_STRAIGHT_TARGET,0.000000,0.000000
04:47:40.869 PM 04/09/2016,Autonomous Enabled,11,FALSE,0,NO ERROR,-0.570327,-159.582127,0.554727,-160.583124,TRUE,FALSE,TRUE,TRUE,FALSE,FALSE,Disabled,0.000000,-0.331427,-38.798573,TRUE,4.137665,-54.655563,0.000000,-0.089355,-1.171448,0.000000,-0.075000,0.094000,-0.103000,2.670000,-0.360000,-0.310000,-0.644815,Hold,60.978516,58.000000,Hold,-139349.000000,139264.000000,LowGoal,2130.000000,-2181.818182,Speed,2137.500000,-2181.818182,Speed,Off,Off,0.000000,FALSE,12,Read: /home/lvuser/scripts/auto_12.bee,File good!,DRIVE_STRAIGHT_TARGET 206 1000 10000 75,DRIVE_STRAIGHT_TARGET,0.000000,0.000000
04:47:40.970 PM 04/09/2016,Autonomous Enabled,11,FALSE,0,NO ERROR,-0.572489,-163.945450,0.552599,-164.869448,TRUE,FALSE,TRUE,TRUE,FALSE,FALSE,Disabled,0.000000,-0.331427,-38.798573,TRUE,4.130417,-54.710785,0.000000,-0.200592,-1.042496,0.000000,-0.124000,0.126000,0.062000,2.710000,-0.440000,-0.560000,-0.737654,Hold,60.978516,58.000000,Hold,-139349.000000,139264.000000,LowGoal,2130.000000,-2181.818182,Speed,2137.500000,-2181.818182,Speed,Off,Off,0.000000,FALSE,12,Read: /home/lvuser/scripts/auto_12.bee,File good!,DRIVE_STRAIGHT_TARGET 206 1000 10000 75,DRIVE_STRAIGHT_TARGET,0.000000,0.000000
04:47:41.070 PM 04/09/2016,Autonomous Enabled,10,FALSE,0,NO ERROR,-0.572686,-168.424273,0.552406,-169.335437,TRUE,FALSE,TRUE,TRUE,FALSE,FALSE,Disabled,0.000000,-0.331427,-38.798573,TRUE,4.114746,-54.766754,0.000000,-0.309433,-0.844574,0.000000,-0.134000,0.107000,0.191000,2.730000,-0.480000,-0.770000,-0.783791,Hold,60.978516,58.000000,Hold,-139349.000000,139264.000000,LowGoal,2137.500000,-2181.818182,Speed,2137.500000,-2181.818182,Speed,Off,Off,0.000000,FALSE,12,Read: /home/lvuser/scripts/auto_12.bee,File good!,DRIVE_STRAIGHT_TARGET 206 1000 10000 75,DRIVE_STRAIGHT_TARGET,0.000000,0.000000
04:47:41.170 PM 04/09/2016,Autonomous Enabled,11,FALSE,0,NO ERROR,-0.572882,-172.826096,0.552212,-173.795010,TRUE,FALSE,TRUE,TRUE,FALSE,FALSE,Disabled,0.000000,-0.331427,-38.798573,TRUE,4.093506,-54.811966,0.000000,-0.350021,-0.695328,0.000000,-0.011000,0.062000,0.234000,2.730000,-0.480000,-0.770000,-0.795510,Hold,60.978516,58.000000,Hold,-139349.000000,139264.000000,LowGoal,2145.000000,-2181.818182,Speed,2137.500000,-2181.818182,Speed,Off,Off,0.000000,FALSE,12,Read: /home/lvuser/scripts/auto_12.bee,File good!,DRIVE_STRAIGHT_TARGET 206 1000 10000 75,DRIVE_STRAIGHT_TARGET,0.000000,0.000000
04:47:41.270 PM 04/09/2016,Autonomous Enabled,10,FALSE,0,NO ERROR,-0.570720,-177.272835,0.554340,-178.479166,TRUE,FALSE,TRUE,TRUE,FALSE,FALSE,Disabled,0.000000,-0.331427,-38.798573,TRUE,4.076324,-54.846481,0.000000,-0.339615,-0.718124,0.000000,0.001000,-0.162000,0.152000,2.720000,-0.330000,-0.700000,-0.665760,Hold,60.978516,58.000000,Hold,-139349.000000,139264.000000,LowGoal,2137.500000,-2181.818182,Speed,2137.500000,-2181.818182,Speed,Off,Off,0.000000,FALSE,12,Read: /home/lvuser/scripts/auto_12.bee,File good!,DRIVE_STRAIGHT_TARGET 206 1000 10000 75,DRIVE_STRAIGHT_TARGET,0.000000,0.000000
04:47:41.370 PM 04/09/2016,Autonomous Enabled,10,FALSE,0,NO ERROR,-0.570131,-181.924908,0.554921,-182.990072,TRUE,FALSE,TRUE,TRUE,FALSE,FALSE,Disabled,0.000000,-0.331427,-38.798573,TRUE,4.066772,-54.887695,0.000000,0.007736,-0.893890,0.000000,0.001000,-0.162000,0.152000,2.720000,-0.330000,-0.700000,-0.676060,Hold,60.978516,58.000000,Hold,-139349.000000,139264.000000,LowGoal,2137.500000,-2181.818182,Speed,2137.500000,-2181.818182,Speed,Off,Off,0.000000,FALSE,12,Read: /home/lvuser/scripts/auto_12.bee,File good!,DRIVE_STRAIGHT_TARGET 206 1000 10000 75,DRIVE_STRAIGHT_TARGET,0.000000,0.000000
04:47:41.470 PM 04/09/2016,Autonomous Enabled,16,FALSE,0,NO ERROR,-0.572292,-186.378064,0.552792,-187.456062,TRUE,FALSE,TRUE,TRUE,FALSE,FALSE,Disabled,0.000000,-0.331427,-38.798573,TRUE,4.070526,-54.937988,0.000000,0.124649,-1.083344,0.000000,0.057000,-0.171000,-0.165000,2.640000,-0.340000,-0.760000,-0.800085,Hold,60.979492,58.000000,Hold,-139349.000000,139264.000000,LowGoal,2145.000000,-2181.818182,Speed,2137.500000,-2181.818182,Speed,Off,Off,0.000000,FALSE,12,Read: /home/lvuser/scripts/auto_12.bee,File good!,DRIVE_STRAIGHT_TARGET 206 1000 10000 75,DRIVE_STRAIGHT_TARGET,0.000000,0.000000
04:47:41.575 PM 04/09/2016,Autonomous Enabled,7,FALSE,0,NO ERROR,-0.575444,-190.818387,0.549704,-191.787302,TRUE,FALSE,TRUE,TRUE,FALSE,FALSE,Disabled,0.000000,-0.331427,-38.798573,TRUE,4.079697,-54.995865,0.000000,0.242386,-1.202316,0.000000,0.066000,-0.112000,-0.172000,2.650000,-0.510000,-0.490000,-0.930916,Hold,60.979492,58.000000,Hold,-139349.000000,139264.000000,LowGoal,2137.500000,-2181.818182,Speed,2145.000000,-2181.818182,Speed,Off,Off,0.000000,FALSE,12,Read: /home/lvuser/scripts/auto_12.bee,File good!,DRIVE_STRAIGHT_TARGET 206 1000 10000 75,DRIVE_STRAIGHT_TARGET,0.000000,0.000000
04:47:41.676 PM 04/09/2016,Autonomous Enabled,12,FALSE,0,NO ERROR,-0.575049,-195.091877,0.550089,-196.112125,TRUE,FALSE,TRUE,TRUE,FALSE,FALSE,Disabled,0.000000,-0.331427,-38.798573,TRUE,4.094452,-55.058044,0.000000,0.318115,-1.257263,0.000000,0.051000,-0.047000,-0.172000,2.680000,-0.600000,-0.370000,-0.915779,Hold,60.979492,58.000000,Hold,-139349.000000,139264.000000,LowGoal,2122.500000,-2181.818182,Speed,2137.500000,-2181.818182,Speed,Off,Off,0.000000,FALSE,12,Read: /home/lvuser/scripts/auto_12.bee,File good!,DRIVE_STRAIGHT_TARGET 206 1000 10000 75,DRIVE_STRAIGHT_TARGET,0.000000,0.000000
04:47:41.777 PM 04/09/2016,Autonomous Enabled,9,FALSE,0,NO ERROR,-0.572686,-199.397450,0.552406,-200.475448,TRUE,FALSE,TRUE,TRUE,FALSE,FALSE,Disabled,0.000000,-0.331427,-38.798573,TRUE,4.110809,-55.120316,0.000000,0.309341,-1.246887,0.000000,0.065000,0.052000,-0.249000,2.690000,-0.530000,-0.500000,-0.791220,Hold,60.979492,58.000000,Hold,-139349.000000,139264.000000,LowGoal,2130.000000,-2181.818182,Speed,2137.500000,-2181.818182,Speed,Off,Off,0.000000,FALSE,12,Read: /home/lvuser/scripts/auto_12.bee,File good!,DRIVE_STRAIGHT_TARGET 206 1000 10000 75,DRIVE_STRAIGHT_TARGET,0.000000,0.000000
04:47:41.878 PM 04/09/2016,Autonomous Enabled,10,FALSE,0,NO ERROR,-0.570916,-203.741524,0.554146,-204.883688,TRUE,FALSE,TRUE,TRUE,FALSE,FALSE,Disabled,0.000000,-0.331427,-38.798573,TRUE,4.124741,-55.119751,0.000000,0.251343,0.029633,0.000000,-0.028000,0.018000,-0.131000,2.670000,-0.400000,-0.390000,-0.718648,Hold,60.979492,58.000000,Hold,-139349.000000,139264.000000,LowGoal,2152.500000,-2181.818182,Speed,2137.500000,-2181.818182,Speed,Off,Off,0.000000,FALSE,12,Read: /home/lvuser/scripts/auto_12.bee,File good!,DRIVE_STRAIGHT_TARGET 206 1000 10000 75,DRIVE_STRAIGHT_TARGET,0.000000,0.000000
04:47:41.979 PM 04/09/2016,Autonomous Enabled,10,FALSE,0,NO ERROR,-0.250000,-207.533765,-0.250000,-209.080178,TRUE,FALSE,TRUE,TRUE,FALSE,FALSE,Disabled,0.000000,-0.331427,-38.798573,TRUE,4.134338,-55.115646,0.000000,0.143204,0.131287,0.000000,-0.075000,0.062000,0.042000,2.690000,-0.400000,-0.580000,-0.775873,Hold,60.979492,0.000000,Hold,-139349.000000,102400.000000,LowGoal,2152.500000,-2181.818182,Speed,2137.500000,-2181.818182,Speed,Off,Off,0.000000,FALSE,12,Read: /home/lvuser/scripts/auto_12.bee,File good!,SET_HEADING 59 50,SET_HEADING,0.000000,0.000000
04:47:42.080 PM 04/09/2016,Autonomous Enabled,11,FALSE,0,NO ERROR,-0.250000,-208.335846,-0.250000,-211.929171,FALSE,FALSE,TRUE,TRUE,FALSE,FALSE,Disabled,0.000000,-0.331427,-38.798573,TRUE,4.122726,-55.097885,0.000000,-0.467636,0.535873,0.000000,-0.575000,0.344000,0.323000,4.010000,3.510000,-5.920000,1.609830,Hold,56.082764,0.000000,Hold,-137706.000000,102400.000000,LowGoal,2137.500000,-2181.818182,Speed,2137.500000,-2181.818182,Speed,Off,Off,0.000000,FALSE,12,Read: /home/lvuser/scripts/auto_12.bee,File good!,SET_HEADING 59 50,SET_HEADING,0.000000,0.000000
04:47:42.180 PM 04/09/2016,Autonomous Enabled,13,FALSE,0,NO ERROR,-0.250000,-208.284513,-0.250000,-214.021000,FALSE,FALSE,TRUE,TRUE,FALSE,FALSE,Disabled,0.000000,-0.331427,-38.798573,TRUE,4.095444,-55.061081,0.000000,-0.568512,0.799194,0.000000,-0.278000,0.451000,-0.124000,3.860000,7.020000,-6.230000,5.940454,Hold,44.850586,0.000000,Hold,-131579.000000,102400.000000,LowGoal,2092.500000,-2181.818182,Speed,2122.500000,-2181.818182,Speed,Off,Off,0.000000,FALSE,12,Read: /home/lvuser/scripts/auto_12.bee,File good!,SET_HEADING 59 50,SET_HEADING,0.000000,0.000000
04:47:42.280 PM 04/09/2016,Autonomous Enabled,10,FALSE,0,NO ERROR,-0.250000,-207.630014,-0.250000,-215.734246,FALSE,FALSE,TRUE,TRUE,FALSE,FALSE,Disabled,0.000000,-0.331427,-38.798573,TRUE,4.055267,-55.035980,0.000000,-0.776657,0.141342,0.000000,-0.033000,-0.346000,0.215000,1.590000,11.730000,-3.290000,10.572444,Hold,29.830811,0.000000,Hold,-123884.000000,102400.000000,LowGoal,2092.500000,-2181.818182,Speed,2107.500000,-2181.818182,Speed,Off,Off,0.000000,FALSE,12,Read: /home/lvuser/scripts/auto_12.bee,File good!,SET_HEADING 59 50,SET_HEADING,0.000000,0.000000
04:47:42.381 PM 04/09/2016,Autonomous Enabled,12,FALSE,0,NO ERROR,-0.250000,-206.661100,-0.250000,-216.902076,FALSE,FALSE,TRUE,TRUE,FALSE,FALSE,Disabled,0.000000,-0.331427,-38.798573,TRUE,4.028381,-55.028412,0.000000,-0.625092,0.225845,0.000000,0.071000,0.023000,0.060000,2.660000,16.550000,-3.590000,15.263005,Hold,12.760742,0.000000,Hold,-112618.000000,102400.000000,LowGoal,2130.000000,-2181.818182,Speed,2115.000000,-2181.818182,Speed,Off,Off,0.000000,FALSE,12,Read: /home/lvuser/scripts/auto_12.bee,File good!,SET_HEADING 59 50,SET_HEADING,0.000000,0.000000
04:47:42.482 PM 04/09/2016,Autonomous Enabled,11,FALSE,0,NO ERROR,-0.250000,-205.679352,-0.250000,-217.864574,FALSE,FALSE,TRUE,TRUE,FALSE,FALSE,Disabled,0.000000,-0.331427,-38.798573,TRUE,3.999283,-55.016266,0.000000,-0.596619,0.150467,0.000000,0.093000,0.180000,-0.263000,1.930000,19.750000,-3.180000,19.178102,Hold,12.760742,0.000000,Hold,-112618.000000,102400.000000,LowGoal,2152.500000,-2181.818182,Speed,2137.500000,-2181.818182,Speed,Off,Off,0.000000,FALSE,12,Read: /home/lvuser/scripts/auto_12.bee,File good!,SET_HEADING 59 50,SET_HEADING,0.000000,0.000000
04:47:42.583 PM 04/09/2016,Autonomous Enabled,9,FALSE,0,NO ERROR,-0.250000,-204.614188,-0.250000,-218.531906,FALSE,FALSE,TRUE,TRUE,FALSE,FALSE,Disabled,0.000000,-0.331427,-38.798573,TRUE,3.961456,-55.024536,0.000000,-0.549179,-0.099457,0.000000,-0.543000,-1.042000,-1.449000,1.930000,23.230000,-3.230000,22.590256,Hold,1.299805,0.000000,Hold,-103404.000000,102400.000000,LowGoal,2152.500000,-2181.818182,Speed,2137.500000,-2181.818182,Speed,Off,Off,0.000000,FALSE,12,Read: /home/lvuser/scripts/auto_12.bee,File good!,SET_HEADING 59 50,SET_HEADING,0.000000,0.000000
04:47:42.683 PM 04/09/2016,Autonomous Enabled,14,FALSE,0,NO ERROR,-0.250000,-203.638857,-0.250000,-219.333987,TRUE,FALSE,TRUE,TRUE,FALSE,FALSE,Disabled,0.000000,-0.331427,-38.798573,TRUE,3.935410,-55.026825,0.000000,-0.529465,-0.060364,0.000000,0.135000,0.303000,-0.345000,1.680000,26.870000,-2.460000,26.125336,Hold,0.915527,0.000000,Hold,-102612.000000,102400.000000,LowGoal,2115.000000,-2181.818182,Speed,2137.500000,-2181.818182,Speed,Off,Off,0.000000,FALSE,12,Read: /home/lvuser/scripts/auto_12.bee,File good!,SET_HEADING 59 50,SET_HEADING,0.000000,0.000000
04:47:42.783 PM 04/09/2016,Autonomous Enabled,9,FALSE,0,NO ERROR,-0.250000,-202.843192,-0.250000,-220.103985,TRUE,FALSE,TRUE,TRUE,FALSE,FALSE,Disabled,0.000000,-0.331427,-38.798573,TRUE,3.935410,-55.026825,0.000000,-0.529465,-0.060364,0.000000,0.077000,0.094000,0.053000,2.120000,30.160000,-2.990000,29.304029,Hold,0.914795,0.000000,Hold,-102479.000000,102400.000000,LowGoal,2115.000000,-2181.818182,Speed,2137.500000,-2181.818182,Speed,Off,Off,0.000000,FALSE,12,Read: /home/lvuser/scripts/auto_12.bee,File good!,SET_HEADING 59 50,SET_HEADING,0.000000,0.000000
04:47:42.883 PM 04/09/2016,Autonomous Enabled,10,FALSE,0,NO ERROR,-0.250000,-201.944861,-0.250000,-220.989483,TRUE,FALSE,TRUE,TRUE,FALSE,FALSE,Disabled,0.000000,-0.331427,-38.798573,TRUE,3.889099,-55.019684,0.000000,-0.474503,0.128357,0.000000,0.050000,0.069000,-0.060000,2.120000,30.160000,-2.990000,32.823332,Hold,0.914795,0.000000,Hold,-102479.000000,102400.000000,LowGoal,2145.000000,-2181.818182,Speed,2145.000000,-2181.818182,Speed,Off,Off,0.000000,FALSE,12,Read: /home/lvuser/scripts/auto_12.bee,File good!,SET_HEADING 59 50,SET_HEADING,0.000000,0.000000
04:47:42.983 PM 04/09/2016,Autonomous Enabled,10,FALSE,0,NO ERROR,-0.250000,-201.020863,-0.250000,-221.836481,TRUE,FALSE,TRUE,TRUE,FALSE,FALSE,Disabled,0.000000,-0.331427,-38.798573,TRUE,3.871628,-55.004059,0.000000,-0.265518,0.421524,0.000000,0.099000,0.210000,0.049000,1.130000,34.390000,-2.160000,36.368695,Hold,0.914795,0.000000,Hold,-102479.000000,102400.000000,LowGoal,2152.500000,-2181.818182,Speed,2145.000000,-2181.818182,Speed,Off,Off,0.000000,FALSE,12,Read: /home/lvuser/scripts/auto_12.bee,File good!,SET_HEADING 59 50,SET_HEADING,0.000000,0.000000
04:47:43.084 PM 04/09/2016,Autonomous Enabled,9,FALSE,0,NO ERROR,-0.250000,-200.186699,-0.250000,-222.632146,TRUE,FALSE,TRUE,TRUE,FALSE,FALSE,Disabled,0.000000,-0.331427,-38.798573,TRUE,3.871628,-55.004059,0.000000,-0.265518,0.421524,0.000000,0.117000,0.133000,0.010000,2.170000,37.970000,-2.210000,39.606156,Hold,0.914795,0.000000,Hold,-102479.000000,102400.000000,LowGoal,2145.000000,-2181.818182,Speed,2137.500000,-2181.818182,Speed,Off,Off,0.000000,FALSE,12,Read: /home/lvuser/scripts/auto_12.bee,File good!,SET_HEADING 59 50,SET_HEADING,0.000000,0.000000
04:47:43.184 PM 04/09/2016,Autonomous Enabled,10,FALSE,0,NO ERROR,-0.250000,-199.326867,-0.250000,-223.402144,TRUE,FALSE,TRUE,TRUE,FALSE,FALSE,Disabled,0.000000,-0.331427,-38.798573,TRUE,3.844452,-54.959656,0.000000,0.000000,0.475754,0.000000,-0.060000,0.131000,0.246000,1.500000,41.290000,-2.000000,42.806898,Hold,0.914795,0.000000,Hold,-102479.000000,102400.000000,LowGoal,2122.500000,-2181.818182,Speed,2137.500000,-2181.818182,Speed,Off,Off,0.000000,FALSE,12,Read: /home/lvuser/scripts/auto_12.bee,File good!,SET_HEADING 59 50,SET_HEADING,0.000000,0.000000
04:47:43.284 PM 04/09/2016,Autonomous Enabled,9,FALSE,0,NO ERROR,-0.250000,-198.499119,-0.250000,-224.095143,TRUE,FALSE,TRUE,TRUE,FALSE,FALSE,Disabled,0.000000,-0.331427,-38.798573,TRUE,3.843903,-54.938034,0.000000,-0.031998,0.370789,0.000000,0.000000,-0.004000,0.226000,1.920000,47.550000,-1.720000,45.812024,Hold,0.914795,0.000000,Hold,-102479.000000,102400.000000,LowGoal,2115.000000,-2181.818182,Speed,2137.500000,-2181.818182,Speed,Off,Off,0.000000,FALSE,12,Read: /home/lvuser/scripts/auto_12.bee,File good!,SET_HEADING 59 50,SET_HEADING,0.000000,0.000000
04:47:43.384 PM 04/09/2016,Autonomous Enabled,10,FALSE,0,NO ERROR,-0.250000,-197.677788,-0.250000,-224.768891,TRUE,FALSE,TRUE,TRUE,FALSE,FALSE,Disabled,0.000000,-0.331427,-38.798573,TRUE,3.839859,-54.927139,0.000000,-0.093811,0.153534,0.000000,-0.133000,-0.242000,0.075000,1.920000,47.550000,-1.720000,48.724762,Hold,0.914795,0.000000,Hold,-102479.000000,102400.000000,LowGoal,2130.000000,-2181.818182,Speed,2137.500000,-2181.818182,Speed,Off,Off,0.000000,FALSE,12,Read: /home/lvuser/scripts/auto_12.bee,File good!,SET_HEADING 59 50,SET_HEADING,0.000000,0.000000
04:47:43.485 PM 04/09/2016,Autonomous Enabled,10,FALSE,0,NO ERROR,-0.250000,-196.805123,-0.250000,-225.461889,TRUE,FALSE,TRUE,TRUE,FALSE,FALSE,Disabled,0.000000,-0.331427,-38.798573,TRUE,3.839859,-54.927139,0.000000,-0.093811,0.153534,0.000000,0.239000,-0.015000,-0.011000,1.450000,50.520000,-1.490000,51.779090,Hold,0.914795,0.000000,Hold,-102479.000000,102400.000000,LowGoal,2145.000000,-2181.818182,Speed,2145.000000,-2181.818182,Speed,Off,Off,0.000000,FALSE,12,Read: /home/lvuser/scripts/auto_12.bee,File good!,SET_HEADING 59 50,SET_HEADING,0.000000,0.000000
04:47:43.585 PM 04/09/2016,Autonomous Enabled,11,FALSE,0,NO ERROR,-0.250000,-195.919625,-0.250000,-226.167721,TRUE,FALSE,TRUE,TRUE,FALSE,FALSE,Disabled,0.140625,-0.331427,-38.798573,TRUE,3.840988,-54.915176,0.000000,0.000000,0.184860,0.000000,-0.016000,-0.031000,-0.176000,1.960000,54.890000,-1.380000,54.871932,Hold,0.914795,0.000000,Hold,-102479.000000,102400.000000,LowGoal,2145.000000,-2181.818182,Speed,2137.500000,-2181.818182,Speed,Off,Off,0.000000,FALSE,12,Read: /home/lvuser/scripts/auto_12.bee,File good!,SET_HEADING 59 50,SET_HEADING,0.000000,0.000000
04:47:43.686 PM 04/09/2016,Autonomous Enabled,11,FALSE,0,NO ERROR,-0.250000,-195.027711,-0.250000,-226.873553,TRUE,FALSE,TRUE,TRUE,FALSE,FALSE,Disabled,0.140625,-0.331427,-38.798573,TRUE,3.840164,-54.910675,0.000000,-0.047195,0.130615,0.000000,0.139000,0.004000,-0.112000,1.670000,56.770000,-1.350000,58.010695,Hold,0.914795,0.000000,Hold,-102479.000000,102400.000000,LowGoal,2145.000000,-2181.818182,Speed,2137.500000,-2181.818182,Speed,Off,Off,0.000000,FALSE,12,Read: /home/lvuser/scripts/auto_12.bee,File good!,SET_HEADING 59 50,SET_HEADING,0.000000,0.000000
04:47:43.786 PM 04/09/2016,Autonomous Enabled,11,FALSE,0,NO ERROR,0.250000,-195.027711,0.250000,-226.873553,TRUE,FALSE,TRUE,TRUE,FALSE,FALSE,Disabled,0.140625,-0.331427,-38.798573,TRUE,3.839645,-54.909821,0.000000,0.035751,-0.010986,0.000000,0.041000,0.031000,-0.189000,2.050000,61.240000,-1.150000,58.010695,Hold,0.914795,0.000000,Hold,-102479.000000,102400.000000,LowGoal,2130.000000,-2181.818182,Speed,2145.000000,-2181.818182,Speed,Off,Off,0.000000,FALSE,12,Read: /home/lvuser/scripts/auto_12.bee,File good!,SET_HEADING 59 50,SET_HEADING,0.000000,0.000000
04:47:43.889 PM 04/09/2016,Autonomous Enabled,11,FALSE,0,NO ERROR,0.250000,-194.790294,0.250000,-227.008302,TRUE,FALSE,TRUE,TRUE,FALSE,FALSE,Disabled,0.140625,-0.331427,-38.798573,TRUE,3.843719,-54.908279,0.000000,0.012039,0.066101,0.000000,-0.482000,0.167000,0.129000,1.540000,63.750000,-1.350000,61.544938,Hold,0.914795,0.000000,Hold,-102479.000000,102400.000000,LowGoal,2137.500000,-2181.818182,Speed,2145.000000,-2181.818182,Speed,Off,Off,0.000000,FALSE,12,Read: /home/lvuser/scripts/auto_12.bee,File good!,SET_HEADING 59 50,SET_HEADING,0.000000,0.000000
04:47:43.989 PM 04/09/2016,Autonomous Enabled,10,FALSE,0,NO ERROR,0.250000,-195.425543,0.250000,-226.257554,TRUE,FALSE,TRUE,TRUE,FALSE,FALSE,Disabled,0.140625,-0.331427,-38.798573,TRUE,3.838516,-54.899063,0.000000,-0.065262,0.257187,0.000000,0.251000,0.158000,0.087000,1.400000,61.460000,-1.660000,59.523547,Hold,0.914795,0.000000,Hold,-102479.000000,102400.000000,LowGoal,2145.000000,-2181.818182,Speed,2137.500000,-2181.818182,Speed,Off,Off,0.000000,FALSE,12,Read: /home/lvuser/scripts/auto_12.bee,File good!,SET_HEADING 59 50,SET_HEADING,0.000000,0.000000
04:47:44.092 PM 04/09/2016,Autonomous Enabled,10,FALSE,0,NO ERROR,-0.250000,-196.182708,-0.250000,-225.513223,TRUE,FALSE,TRUE,TRUE,FALSE,FALSE,Disabled,0.140625,-0.331427,-38.798573,TRUE,3.840347,-54.883911,0.000000,0.090118,0.319412,0.000000,0.041000,0.051000,0.213000,1.530000,57.820000,-1.250000,56.542784,Hold,0.914795,0.000000,Hold,-102479.000000,102400.000000,LowGoal,2145.000000,-2181.818182,Speed,2137.500000,-2181.818182,Speed,Off,Off,0.000000,FALSE,12,Read: /home/lvuser/scripts/auto_12.bee,File good!,SET_HEADING 59 50,SET_HEADING,0.000000,0.000000
04:47:44.193 PM 04/09/2016,Autonomous Enabled,9,FALSE,0,NO ERROR,-0.250000,-195.964542,-0.250000,-225.654389,TRUE,FALSE,TRUE,TRUE,FALSE,FALSE,Disabled,0.140625,-0.331427,-38.798573,TRUE,3.848312,-54.868073,0.000000,0.226288,0.290405,0.000000,0.518000,-0.079000,0.044000,1.970000,56.210000,-0.760000,54.401183,Hold,0.914795,0.000000,Hold,-102479.000000,102400.000000,LowGoal,2122.500000,-2181.818182,Speed,2145.000000,-2181.818182,Speed,Off,Off,0.000000,FALSE,12,Read: /home/lvuser/scripts/auto_12.bee,File good!,SET_HEADING 59 50,SET_HEADING,0.000000,0.000000
04:47:44.294 PM 04/09/2016,Autonomous Enabled,10,FALSE,0,NO ERROR,-0.562500,-195.104710,0.562500,-226.398721,TRUE,FALSE,TRUE,TRUE,FALSE,FALSE,Disabled,0.140625,-0.331427,-38.798573,TRUE,3.864990,-54.863052,0.000000,0.329651,-0.020111,0.000000,-0.009000,0.043000,0.109000,2.510000,59.690000,-0.670000,57.251827,Hold,0.914795,0.000000,Hold,-102479.000000,102400.000000,LowGoal,2115.000000,-2181.818182,Speed,2152.500000,-2181.818182,Speed,Off,Off,0.000000,FALSE,12,Read: /home/lvuser/scripts/auto_12.bee,File good!,DRIVE_STRAIGHT_TARGET 102 1000 10000 75,DRIVE_STRAIGHT_TARGET,0.000000,0.000000
04:47:44.395 PM 04/09/2016,Autonomous Enabled,9,FALSE,0,NO ERROR,-0.562500,-0.320833,0.562500,0.000000,TRUE,FALSE,TRUE,TRUE,FALSE,FALSE,Disabled,0.140625,-0.331427,-38.798573,TRUE,3.880402,-54.863968,0.000000,0.250092,-0.008255,0.000000,0.443000,-0.906000,-0.463000,2.040000,62.070000,-1.000000,60.109250,Hold,0.914795,0.000000,Hold,-102479.000000,102400.000000,LowGoal,2130.000000,-2181.818182,Speed,2145.000000,-2181.818182,Speed,Off,Off,0.000000,FALSE,12,Read: /home/lvuser/scripts/auto_12.bee,File good!,DRIVE_STRAIGHT_TARGET 102 1000 10000 75,DRIVE_STRAIGHT_TARGET,0.000000,0.000000
04:47:44.498 PM 04/09/2016,Autonomous Enabled,7,FALSE,0,NO ERROR,-0.562500,-2.226578,0.562500,-1.783829,FALSE,FALSE,TRUE,TRUE,FALSE,FALSE,Disabled,0.140625,-0.331427,-38.798573,TRUE,3.905151,-54.881927,0.000000,0.597290,-0.514938,0.000000,0.032000,-0.346000,-0.205000,1.870000,60.990000,3.730000,59.244046,Hold,0.914795,0.000000,Hold,-102479.000000,102400.000000,LowGoal,2137.500000,-2181.818182,Speed,2130.000000,-2181.818182,Speed,Off,Off,0.000000,FALSE,12,Read: /home/lvuser/scripts/auto_12.bee,File good!,DRIVE_STRAIGHT_TARGET 102 1000 10000 75,DRIVE_STRAIGHT_TARGET,0.000000,0.000000
