Time,Robot Mode,Loop Time,Error Status,Error Code,Error Source,Left Motor Output,Left Motor Encoder,Right Motor Output,Right Motor Encoder,Is Level,Is Stalled,Ball Detector Photoeye,Vision Enabled,Vision Teleop Control,Vision Auto Control,Vision Current State,Vision X Output,Vision NavX Error,Vision NavX Target,NavX Connection Status,NavX Displacement X,NavX Displacement Y,NavX Displacement Z,NavX Velocity X,NavX Velocity Y,NavX Velocity Z,NavX Acceleration X,NavX Acceleration Y,NavX Acceleration Z,NavX Pitch,NavX Yaw,NavX Roll,Gyro Angle,Roller Arm State,Roller Arm Actual,Roller Arm Desired,Shooter Arm State,Shooter Arm Actual,Shooter Arm Desired,Shooter State,Actual RPM Left,Desired RPM Left,Control Mode Left,Actual RPM Right,Desired RPM Right,Control Mode Right,Ball Shooter Cylinder,Ball Halo Cylinder,Scaler Motor Output,Scaler Solenoid Fire,Auto To Run,Auto Current File,Auto File Status,Auto Current Command,Auto Trimmed Command,Shooter Amps Left,Shooter Amps Right
01:47:31.292 PM 04/09/2016,Teleop Enabled,10,FALSE,0,NO ERROR,-0.000000,0.000000,-0.000000,0.000000,TRUE,FALSE,TRUE,FALSE,FALSE,FALSE,Disabled,0.000000,0.000000,0.000000,FALSE,0.000000,0.000000,0.000000,0.000000,0.000000,0.000000,0.000000,0.000000,0.000000,0.000000,0.000000,0.000000,-0.012834,ResetBack,0.948242,-0.000049,ResetBack,-8232.000000,-0.250000,Empty,0.000000,0.000000,Speed,0.000000,0.000000,Speed,Off,On,0.000000,FALSE,0,,,,,0.000000,0.000000
01:47:31.393 PM 04/09/2016,Teleop Enabled,9,FALSE,0,NO ERROR,-0.000000,0.000000,-0.000000,0.000000,TRUE,FALSE,TRUE,FALSE,FALSE,FALSE,Disabled,0.000000,0.000000,0.000000,FALSE,0.000000,0.000000,0.000000,0.000000,0.000000,0.000000,0.000000,0.000000,0.000000,0.000000,0.000000,0.000000,-0.017192,ResetBack,0.600586,-0.000049,ResetBack,-7659.000000,-0.250000,Empty,0.000000,0.000000,Speed,0.000000,0.000000,Speed,Off,On,0.000000,FALSE,0,,,,,0.000000,0.000000
01:47:31.492 PM 04/09/2016,Teleop Enabled,10,FALSE,0,NO ERROR,-0.000000,-0.006417,-0.000000,0.000000,TRUE,FALSE,TRUE,FALSE,FALSE,FALSE,Disabled,0.000000,0.000000,0.000000,FALSE,0.000000,0.000000,0.000000,0.000000,0.000000,0.000000,0.000000,0.000000,0.000000,0.000000,0.000000,0.000000,0.042629,ResetBack,-0.197021,-0.000049,ResetBack,-7659.000000,-0.250000,Empty,0.000000,0.000000,Speed,0.000000,0.000000,Speed,Off,On,0.000000,FALSE,0,,,,,0.000000,0.000000
01:47:31.593 PM 04/09/2016,Teleop Enabled,11,FALSE,0,NO ERROR,-0.000000,-0.006417,-0.000000,0.000000,TRUE,FALSE,TRUE,FALSE,FALSE,FALSE,Disabled,0.000000,0.000000,0.000000,FALSE,0.000000,0.000000,0.000000,0.000000,0.000000,0.000000,0.000000,0.000000,0.000000,0.000000,0.000000,0.000000,0.052279,ResetBack,-0.197021,-0.000049,ResetBack,-2745.000000,-0.250000,Empty,0.000000,0.000000,Speed,0.000000,0.000000,Speed,Off,On,0.000000,FALSE,0,,,,,0.000000,0.000000
01:47:31.694 PM 04/09/2016,Teleop Enabled,10,FALSE,0,NO ERROR,-0.000000,-0.006417,-0.000000,0.000000,TRUE,FALSE,TRUE,FALSE,FALSE,FALSE,Disabled,0.000000,0.000000,0.000000,FALSE,0.000000,0.000000,0.000000,0.000000,0.000000,0.000000,0.000000,0.000000,0.000000,0.000000,0.000000,0.000000,0.056678,Reset,-0.197021,0.000000,ResetBack,-586.000000,-0.250000,Empty,0.000000,0.000000,Speed,0.000000,0.000000,Speed,Off,On,0.000000,FALSE,0,,,,,0.000000,0.000000
01:47:31.795 PM 04/09/2016,Teleop Enabled,10,FALSE,0,NO ERROR,-0.000000,-0.006417,-0.000000,0.000000,TRUE,FALSE,TRUE,FALSE,FALSE,FALSE,Disabled,0.000000,0.000000,0.000000,FALSE,0.000000,0.000000,0.000000,0.000000,0.000000,0.000000,0.000000,0.000000,0.000000,0.000000,0.000000,0.000000,0.061897,Hold,1.177734,0.000000,ResetBack,-433.000000,-0.250000,Empty,0.000000,0.000000,Speed,0.000000,0.000000,Speed,Off,On,0.000000,FALSE,0,,,,,0.000000,0.000000
01:47:31.896 PM 04/09/2016,Teleop Enabled,9,FALSE,0,NO ERROR,-0.000000,-0.006417,-0.000000,0.000000,TRUE,FALSE,TRUE,FALSE,FALSE,FALSE,Disabled,0.000000,0.000000,0.000000,FALSE,0.000000,0.000000,0.000000,0.000000,0.000000,0.000000,0.000000,0.000000,0.000000,0.000000,0.000000,0.000000,0.063377,Hold,0.924805,0.000000,ResetBack,-428.000000,-0.250000,Empty,0.000000,0.000000,Speed,0.000000,0.000000,Speed,Off,On,0.000000,FALSE,0,,,,,0.000000,0.000000
01:47:31.996 PM 04/09/2016,Teleop Enabled,9,FALSE,0,NO ERROR,-0.000000,-0.006417,-0.000000,0.000000,TRUE,FALSE,TRUE,FALSE,FALSE,FALSE,Disabled,0.000000,0.000000,0.000000,FALSE,0.000000,0.000000,0.000000,0.000000,0.000000,0.000000,0.000000,0.000000,0.000000,0.000000,0.000000,0.000000,0.074438,Hold,0.924805,0.000000,ResetBack,-423.000000,-0.250000,Empty,0.000000,0.000000,Speed,0.000000,0.000000,Speed,Off,On,0.000000,FALSE,0,,,,,0.000000,0.000000
01:47:32.095 PM 04/09/2016,Teleop Enabled,11,FALSE,0,NO ERROR,-0.000000,-0.006417,-0.000000,0.000000,TRUE,FALSE,TRUE,FALSE,FALSE,FALSE,Disabled,0.000000,0.000000,0.000000,FALSE,0.000000,0.000000,0.000000,0.000000,0.000000,0.000000,0.000000,0.000000,0.000000,0.000000,0.000000,0.000000,0.074590,Hold,0.924805,0.000000,ResetBack,-423.000000,-0.250000,Empty,0.000000,0.000000,Speed,0.000000,0.000000,Speed,Off,On,0.000000,FALSE,0,,,,,0.000000,0.000000
01:47:32.196 PM 04/09/2016,Teleop Enabled,9,FALSE,0,NO ERROR,-0.000000,-0.006417,-0.000000,0.000000,TRUE,FALSE,TRUE,FALSE,FALSE,FALSE,Disabled,0.000000,0.000000,0.000000,FALSE,0.000000,0.000000,0.000000,0.000000,0.000000,0.000000,0.000000,0.000000,0.000000,0.000000,0.000000,0.000000,0.073048,Hold,0.924805,0.000000,ResetBack,-423.000000,-0.250000,Suck,0.000000,1818.181818,Speed,0.000000,1818.181818,Speed,Off,On,0.000000,FALSE,0,,,,,0.000000,0.000000
01:47:32.296 PM 04/09/2016,Teleop Enabled,9,FALSE,0,NO ERROR,-0.000000,-0.006417,-0.000000,0.000000,TRUE,FALSE,TRUE,FALSE,FALSE,FALSE,Disabled,0.000000,0.000000,0.000000,FALSE,0.000000,0.000000,0.000000,0.000000,0.000000,0.000000,0.000000,0.000000,0.000000,0.000000,0.000000,0.000000,0.076693,Hold,0.924805,0.000000,ResetBack,-422.000000,-0.250000,Hold,-105.000000,0.000000,Speed,-45.000000,0.000000,Speed,Off,Off,0.000000,FALSE,0,,,,,0.000000,0.000000
01:47:32.396 PM 04/09/2016,Teleop Enabled,9,FALSE,0,NO ERROR,-0.000000,-0.006417,-0.000000,0.000000,TRUE,FALSE,TRUE,FALSE,FALSE,FALSE,Disabled,0.000000,0.000000,0.000000,FALSE,0.000000,0.000000,0.000000,0.000000,0.000000,0.000000,0.000000,0.000000,0.000000,0.000000,0.000000,0.000000,0.072521,Hold,0.924805,0.000000,ResetBack,-422.000000,-0.250000,Hold,-517.500000,0.000000,Speed,-480.000000,0.000000,Speed,Off,Off,0.000000,FALSE,0,,,,,0.000000,0.000000
01:47:32.497 PM 04/09/2016,Teleop Enabled,10,FALSE,0,NO ERROR,-0.000000,-0.006417,-0.000000,0.000000,TRUE,FALSE,TRUE,FALSE,FALSE,FALSE,Disabled,0.000000,0.000000,0.000000,FALSE,0.000000,0.000000,0.000000,0.000000,0.000000,0.000000,0.000000,0.000000,0.000000,0.000000,0.000000,0.000000,0.075392,Hold,0.924805,0.000000,ResetBack,-418.000000,-0.250000,Hold,-645.000000,0.000000,Speed,-555.000000,0.000000,Speed,Off,Off,0.000000,FALSE,0,,,,,0.000000,0.000000
01:47:32.597 PM 04/09/2016,Teleop Enabled,9,FALSE,0,NO ERROR,-0.000000,-0.006417,-0.000000,0.000000,TRUE,FALSE,TRUE,FALSE,FALSE,FALSE,Disabled,0.000000,0.000000,0.000000,FALSE,0.000000,0.000000,0.000000,0.000000,0.000000,0.000000,0.000000,0.000000,0.000000,0.000000,0.000000,0.000000,0.090639,Hold,0.924805,0.000000,Reset,-414.000000,2.000000,Hold,-585.000000,0.000000,Speed,-435.000000,0.000000,Speed,Off,Off,0.000000,FALSE,0,,,,,0.000000,0.000000
01:47:32.698 PM 04/09/2016,Teleop Enabled,8,FALSE,0,NO ERROR,-0.000000,-0.006417,-0.000000,0.000000,TRUE,FALSE,TRUE,FALSE,FALSE,FALSE,Disabled,0.000000,0.000000,0.000000,TRUE,0.000000,0.000000,0.000000,0.000000,0.000000,0.000000,-0.022000,-0.049000,0.014000,2.570000,0.000000,-0.060000,0.095183,Hold,0.924805,0.000000,Hold,-65.000000,2.000000,Hold,-517.500000,0.000000,Speed,-337.500000,0.000000,Speed,Off,Off,0.000000,FALSE,0,,,,,0.000000,0.000000
01:47:32.799 PM 04/09/2016,Teleop Enabled,9,FALSE,0,NO ERROR,-0.000000,-0.006417,-0.000000,0.000000,TRUE,FALSE,TRUE,FALSE,FALSE,FALSE,Disabled,0.000000,0.000000,0.000000,TRUE,0.796295,-33.069565,0.000000,0.031174,-0.220215,0.000000,-0.004000,0.047000,0.026000,2.550000,0.010000,-0.090000,0.093421,Hold,0.924805,0.000000,Hold,-65.000000,2.000000,Hold,-450.000000,0.000000,Speed,-240.000000,0.000000,Speed,Off,Off,0.000000,FALSE,0,,,,,0.000000,0.000000
01:47:32.898 PM 04/09/2016,Teleop Enabled,10,FALSE,0,NO ERROR,-0.000000,-0.006417,-0.000000,0.000000,TRUE,FALSE,TRUE,FALSE,FALSE,FALSE,Disabled,0.000000,0.000000,0.000000,TRUE,0.796188,-33.080124,0.000000,-0.001755,-0.213043,0.000000,0.009000,-0.021000,0.054000,2.550000,0.000000,-0.070000,0.090023,Hold,0.924805,0.000000,Hold,-65.000000,2.000000,Hold,-390.000000,0.000000,Speed,-157.500000,0.000000,Speed,Off,Off,0.000000,FALSE,0,,,,,0.000000,0.000000
01:47:32.998 PM 04/09/2016,Teleop Enabled,9,FALSE,0,NO ERROR,-0.000000,-0.006417,-0.000000,0.000000,TRUE,FALSE,TRUE,FALSE,FALSE,FALSE,Disabled,0.000000,0.000000,0.000000,TRUE,0.796158,-33.093933,0.000000,0.000000,-0.245255,0.000000,0.012000,-0.017000,0.049000,2.570000,0.000000,-0.090000,0.092536,Hold,0.924805,0.000000,Hold,-65.000000,2.000000,Hold,-337.500000,0.000000,Speed,-82.500000,0.000000,Speed,Off,Off,0.000000,FALSE,0,,,,,0.000000,0.000000
01:47:33.098 PM 04/09/2016,Teleop Enabled,9,FALSE,0,NO ERROR,-0.000000,-0.006417,-0.000000,0.000000,TRUE,FALSE,TRUE,FALSE,FALSE,FALSE,Disabled,0.000000,0.000000,0.000000,TRUE,0.796265,-33.104111,0.000000,0.006851,-0.258545,0.000000,-0.005000,-0.013000,0.055000,2.560000,0.000000,-0.080000,0.088608,Hold,0.924805,0.000000,Hold,-65.000000,2.000000,Hold,-262.500000,0.000000,Speed,-22.500000,0.000000,Speed,Off,Off,0.000000,FALSE,0,,,,,0.000000,0.000000
01:47:33.199 PM 04/09/2016,Teleop Enabled,10,FALSE,0,NO ERROR,-0.000000,-0.006417,-0.000000,0.000000,TRUE,FALSE,TRUE,FALSE,FALSE,FALSE,Disabled,0.000000,0.000000,0.000000,TRUE,0.796341,-33.106735,0.000000,0.000000,0.000000,0.000000,-0.006000,-0.007000,0.032000,2.570000,0.000000,-0.080000,0.072614,Hold,0.924805,0.000000,Hold,-65.000000,2.000000,Hold,-210.000000,0.000000,Speed,0.000000,0.000000,Speed,Off,Off,0.000000,FALSE,0,,,,,0.000000,0.000000
01:47:33.300 PM 04/09/2016,Teleop Enabled,10,FALSE,0,NO ERROR,-0.000000,-0.006417,-0.000000,0.000000,TRUE,FALSE,TRUE,FALSE,FALSE,FALSE,Disabled,0.000000,0.000000,0.000000,TRUE,0.796341,-33.106873,0.000000,0.000000,0.000000,0.000000,0.010000,-0.006000,0.032000,2.570000,0.000000,-0.090000,0.070600,Hold,0.924805,0.000000,Hold,-65.000000,2.000000,Hold,-157.500000,0.000000,Speed,0.000000,0.000000,Speed,Off,Off,0.000000,FALSE,0,,,,,0.000000,0.000000
01:47:33.400 PM 04/09/2016,Teleop Enabled,10,FALSE,0,NO ERROR,-0.000000,-0.006417,-0.000000,0.000000,TRUE,FALSE,TRUE,FALSE,FALSE,FALSE,Disabled,0.000000,0.000000,0.000000,TRUE,0.796341,-33.107056,0.000000,0.000000,0.000000,0.000000,0.007000,-0.006000,0.012000,2.570000,0.000000,-0.090000,0.071357,Hold,0.924805,0.000000,Hold,-65.000000,2.000000,Hold,-112.500000,0.000000,Speed,0.000000,0.000000,Speed,Off,Off,0.000000,FALSE,0,,,,,0.000000,0.000000
01:47:33.500 PM 04/09/2016,Teleop Enabled,10,FALSE,0,NO ERROR,-0.000000,-0.006417,-0.000000,0.000000,TRUE,FALSE,TRUE,FALSE,FALSE,FALSE,Disabled,0.000000,0.000000,0.000000,TRUE,0.796341,-33.107056,0.000000,0.000000,0.000000,0.000000,-0.002000,0.000000,0.022000,2.570000,0.000000,-0.090000,0.076673,Hold,0.924805,0.000000,Hold,-65.000000,2.000000,LowGoal,-67.500000,-2181.818182,Speed,0.000000,-2181.818182,Speed,Off,Off,0.000000,FALSE,0,,,,,0.000000,0.000000
01:47:33.599 PM 04/09/2016,Teleop Enabled,9,FALSE,0,NO ERROR,-0.000000,-0.006417,-0.000000,0.000000,TRUE,FALSE,TRUE,FALSE,FALSE,FALSE,Disabled,0.000000,0.000000,0.000000,TRUE,0.796341,-33.107132,0.000000,0.000000,-0.006393,0.000000,-0.009000,-0.055000,0.015000,2.590000,0.000000,-0.160000,0.081657,Hold,0.924805,0.000000,Hold,-65.000000,2.000000,LowGoal,22.500000,-2181.818182,Speed,45.000000,-2181.818182,Speed,Off,Off,0.000000,FALSE,0,,,,,0.000000,0.000000
01:47:33.700 PM 04/09/2016,Teleop Enabled,8,FALSE,0,NO ERROR,-0.000000,-0.006417,-0.000000,0.000000,TRUE,FALSE,TRUE,FALSE,FALSE,FALSE,Disabled,0.000000,0.000000,0.000000,TRUE,0.796387,-33.107635,0.000000,0.004028,-0.011871,0.000000,0.060000,-0.015000,0.046000,2.590000,0.000000,-0.130000,0.059140,Hold,0.924805,0.000000,Hold,-65.000000,2.000000,LowGoal,585.000000,-2181.818182,Speed,585.000000,-2181.818182,Speed,Off,Off,0.000000,FALSE,0,,,,,0.000000,0.000000
01:47:33.799 PM 04/09/2016,Teleop Enabled,9,FALSE,0,NO ERROR,-0.000000,-0.006417,-0.000000,0.000000,TRUE,FALSE,TRUE,FALSE,FALSE,FALSE,Disabled,0.000000,0.000000,0.000000,TRUE,0.796738,-33.108841,0.000000,0.000000,-0.025116,0.000000,0.000000,-0.002000,0.000000,2.570000,0.000000,-0.070000,0.065908,Hold,0.924805,0.000000,Hold,-65.000000,2.000000,LowGoal,1207.500000,-2181.818182,Speed,1050.000000,-2181.818182,Speed,Off,Off,0.000000,FALSE,0,,,,,0.000000,0.000000
01:47:33.900 PM 04/09/2016,Teleop Enabled,9,FALSE,0,NO ERROR,-0.000000,-0.006417,-0.000000,0.000000,TRUE,FALSE,TRUE,FALSE,FALSE,FALSE,Disabled,0.000000,0.000000,0.000000,TRUE,0.796844,-33.108795,0.000000,-0.002029,0.020370,0.000000,-0.018000,-0.008000,-0.022000,2.620000,0.000000,-0.090000,0.073220,Hold,0.924805,0.000000,Hold,-65.000000,2.000000,LowGoal,1732.500000,-2181.818182,Speed,1537.500000,-2181.818182,Speed,Off,Off,0.000000,FALSE,0,,,,,0.000000,0.000000
01:47:33.999 PM 04/09/2016,Teleop Enabled,10,FALSE,0,NO ERROR,-0.000000,-0.006417,-0.000000,0.000000,TRUE,FALSE,TRUE,FALSE,FALSE,FALSE,Disabled,0.000000,0.000000,0.000000,TRUE,0.795959,-33.107437,0.000000,-0.022919,0.033615,0.000000,-0.093000,-0.004000,-0.014000,2.600000,0.000000,-0.060000,0.061147,Hold,0.924805,0.000000,Hold,-65.000000,2.000000,LowGoal,2062.500000,-2181.818182,Speed,1927.500000,-2181.818182,Speed,Off,Off,0.000000,FALSE,0,,,,,0.000000,0.000000
01:47:34.100 PM 04/09/2016,Teleop Enabled,9,FALSE,0,NO ERROR,-0.000000,-0.006417,-0.000000,0.000000,TRUE,FALSE,TRUE,FALSE,FALSE,FALSE,Disabled,0.000000,0.000000,0.000000,TRUE,0.792267,-33.103455,0.000000,-0.112106,0.137497,0.000000,-0.087000,0.174000,-0.017000,2.490000,0.000000,-0.010000,0.052902,Hold,0.924805,0.000000,Hold,-65.000000,2.000000,LowGoal,2227.500000,-2181.818182,Speed,2160.000000,-2181.818182,Speed,Off,Off,0.000000,FALSE,0,,,,,0.000000,0.000000
01:47:34.200 PM 04/09/2016,Teleop Enabled,10,FALSE,0,NO ERROR,-0.000000,-0.006417,-0.000000,0.000000,TRUE,FALSE,TRUE,FALSE,FALSE,FALSE,Disabled,0.000000,0.000000,0.000000,TRUE,0.784271,-33.091324,0.000000,-0.185577,0.317108,0.000000,-0.079000,0.232000,0.049000,2.510000,0.000000,-0.010000,0.055577,Hold,0.924805,0.000000,Hold,-65.000000,2.000000,LowGoal,2167.500000,-2181.818182,Speed,2145.000000,-2181.818182,Speed,Off,Off,0.000000,FALSE,0,,,,,0.000000,0.000000
01:47:34.300 PM 04/09/2016,Teleop Enabled,10,FALSE,0,NO ERROR,-0.000000,-0.006417,-0.000000,0.000000,TRUE,FALSE,TRUE,FALSE,FALSE,FALSE,Disabled,0.000000,0.000000,0.000000,TRUE,0.771149,-33.064255,0.000000,-0.236877,0.506943,0.000000,-0.088000,0.036000,0.050000,2.550000,0.000000,0.000000,0.051339,Hold,0.924805,0.000000,Hold,-65.000000,2.000000,LowGoal,2122.500000,-2181.818182,Speed,2085.000000,-2181.818182,Speed,Off,Off,0.000000,FALSE,0,,,,,0.000000,0.000000
01:47:34.401 PM 04/09/2016,Teleop Enabled,9,FALSE,0,NO ERROR,-0.000000,-0.006417,-0.000000,0.000000,TRUE,FALSE,TRUE,FALSE,FALSE,FALSE,Disabled,0.000000,0.000000,0.000000,TRUE,0.766510,-33.040894,0.000000,0.020004,0.389587,0.000000,0.006000,-0.289000,0.221000,2.620000,0.000000,-0.050000,0.057911,Hold,0.924805,0.000000,Hold,-66.000000,2.000000,LowGoal,2137.500000,-2181.818182,Speed,2085.000000,-2181.818182,Speed,Off,Off,0.000000,FALSE,0,,,,,0.000000,0.000000
01:47:34.503 PM 04/09/2016,Teleop Enabled,9,FALSE,0,NO ERROR,-0.000000,-0.006417,-0.000000,0.000000,TRUE,FALSE,TRUE,FALSE,FALSE,FALSE,Disabled,0.000000,0.000000,0.000000,TRUE,0.766937,-33.029449,0.000000,0.015640,0.138901,0.000000,0.093000,-0.143000,0.291000,2.600000,0.000000,-0.100000,0.076649,Hold,0.924805,0.000000,Hold,-66.000000,2.000000,LowGoal,2145.000000,-2181.818182,Speed,2100.000000,-2181.818182,Speed,Off,Off,0.000000,FALSE,0,,,,,0.000000,0.000000
01:47:34.604 PM 04/09/2016,Teleop Enabled,9,FALSE,0,NO ERROR,-0.000000,-0.006417,-0.000000,0.000000,TRUE,FALSE,TRUE,FALSE,FALSE,FALSE,Disabled,0.000000,0.000000,0.000000,TRUE,0.770676,-33.027054,0.000000,0.099075,0.004990,0.000000,-0.052000,0.012000,0.129000,2.560000,0.000000,-0.040000,0.072218,Hold,0.924805,0.000000,Hold,-66.000000,2.000000,LowGoal,2130.000000,-2181.818182,Speed,2107.500000,-2181.818182,Speed,Off,Off,0.000000,FALSE,0,,,,,0.000000,0.000000
01:47:34.704 PM 04/09/2016,Teleop Enabled,10,FALSE,0,NO ERROR,-0.000000,-0.006417,-0.000000,0.000000,TRUE,FALSE,TRUE,FALSE,FALSE,FALSE,Disabled,0.000000,0.000000,0.000000,TRUE,0.774811,-33.025986,0.000000,0.084015,0.043365,0.000000,0.044000,0.141000,0.037000,2.520000,0.000000,-0.040000,0.071244,Hold,0.924805,0.000000,Hold,-66.000000,2.000000,LowGoal,2137.500000,-2181.818182,Speed,2100.000000,-2181.818182,Speed,Off,Off,0.000000,FALSE,0,,,,,0.000000,0.000000
01:47:34.804 PM 04/09/2016,Teleop Enabled,9,FALSE,0,NO ERROR,-0.000000,-0.006417,-0.000000,0.000000,TRUE,FALSE,TRUE,FALSE,FALSE,FALSE,Disabled,0.000000,0.000000,0.000000,TRUE,0.782349,-33.018417,0.000000,0.143753,0.176575,0.000000,0.044000,0.141000,0.037000,2.470000,0.000000,-0.040000,0.070449,Hold,0.924805,0.000000,Hold,-66.000000,2.000000,LowGoal,2152.500000,-2181.818182,Speed,2100.000000,-2181.818182,Speed,Off,Off,0.000000,FALSE,0,,,,,0.000000,0.000000
01:47:34.906 PM 04/09/2016,Teleop Enabled,11,FALSE,0,NO ERROR,-0.000000,-0.006417,-0.000000,0.000000,TRUE,FALSE,TRUE,FALSE,FALSE,FALSE,Disabled,0.000000,0.000000,0.000000,TRUE,0.787735,-33.009811,0.000000,0.138504,0.218109,0.000000,0.026000,-0.106000,-0.080000,2.540000,0.000000,-0.020000,0.073110,Hold,0.924805,0.000000,Hold,-66.000000,2.000000,LowGoal,2167.500000,-2181.818182,Speed,2100.000000,-2181.818182,Speed,Off,Off,0.000000,FALSE,0,,,,,0.000000,0.000000
01:47:35.007 PM 04/09/2016,Teleop Enabled,12,FALSE,0,NO ERROR,-0.000000,-0.006417,-0.000000,0.000000,TRUE,FALSE,TRUE,FALSE,FALSE,FALSE,Disabled,0.000000,0.000000,0.000000,TRUE,0.792282,-33.001236,0.000000,-0.012222,0.080307,0.000000,-0.033000,-0.110000,-0.085000,2.540000,0.000000,-0.020000,0.072927,Hold,0.924805,0.000000,Hold,-66.000000,2.000000,LowGoal,2167.500000,-2181.818182,Speed,2100.000000,-2181.818182,Speed,Off,Off,0.000000,FALSE,0,,,,,0.000000,0.000000
01:47:35.108 PM 04/09/2016,Teleop Enabled,11,FALSE,0,NO ERROR,-0.000000,-0.006417,-0.000000,0.000000,TRUE,FALSE,TRUE,FALSE,FALSE,FALSE,Disabled,0.000000,0.000000,0.000000,TRUE,0.791168,-32.999023,0.000000,-0.022614,0.050522,0.000000,0.069000,0.003000,-0.112000,2.570000,0.000000,0.030000,0.068445,Hold,0.924805,0.000000,Hold,-66.000000,2.000000,LowGoal,2160.000000,-2181.818182,Speed,2100.000000,-2181.818182,Speed,Off,Off,0.000000,FALSE,0,,,,,0.000000,0.000000
01:47:35.207 PM 04/09/2016,Teleop Enabled,12,FALSE,0,NO ERROR,-0.000000,-0.006417,-0.000000,0.000000,TRUE,FALSE,TRUE,FALSE,FALSE,FALSE,Disabled,0.000000,0.000000,0.000000,TRUE,0.790192,-32.995773,0.000000,-0.058411,0.131104,0.000000,0.069000,0.003000,-0.112000,2.550000,0.000000,0.000000,0.084763,Hold,0.924805,0.000000,Hold,-66.000000,2.000000,LowGoal,2152.500000,-2181.818182,Speed,2107.500000,-2181.818182,Speed,Off,Off,0.000000,FALSE,0,,,,,0.000000,0.000000
01:47:35.307 PM 04/09/2016,Teleop Enabled,12,FALSE,0,NO ERROR,-0.000000,-0.006417,-0.000000,0.000000,TRUE,FALSE,TRUE,FALSE,FALSE,FALSE,Disabled,0.000000,0.000000,0.000000,TRUE,0.784866,-32.982651,0.000000,-0.130646,0.364548,0.000000,-0.115000,0.201000,-0.158000,2.500000,0.000000,-0.010000,0.089520,Hold,0.924805,0.000000,Hold,-66.000000,2.000000,LowGoal,2145.000000,-2181.818182,Speed,2107.500000,-2181.818182,Speed,Off,Off,0.000000,FALSE,0,,,,,0.000000,0.000000
01:47:35.407 PM 04/09/2016,Teleop Enabled,10,FALSE,0,NO ERROR,-0.000000,-0.006417,-0.000000,0.000000,TRUE,FALSE,TRUE,FALSE,FALSE,FALSE,Disabled,0.000000,0.000000,0.000000,TRUE,0.776779,-32.958755,0.000000,-0.198380,0.542343,0.000000,0.003000,0.220000,-0.121000,2.490000,0.000000,-0.060000,0.079926,Hold,0.924805,0.000000,Hold,-66.000000,2.000000,LowGoal,2130.000000,-2181.818182,Speed,2107.500000,-2181.818182,Speed,Off,Off,0.000000,FALSE,0,,,,,0.000000,0.000000
01:47:35.507 PM 04/09/2016,Teleop Enabled,11,FALSE,0,NO ERROR,-0.000000,-0.006417,-0.000000,0.000000,TRUE,FALSE,TRUE,FALSE,FALSE,FALSE,Disabled,0.000000,0.000000,0.000000,TRUE,0.764053,-32.930832,0.000000,-0.273056,0.521210,0.000000,-0.151000,0.096000,0.039000,2.500000,0.000000,-0.050000,0.075967,Hold,0.924805,0.000000,Hold,-66.000000,2.000000,LowGoal,2145.000000,-2181.818182,Speed,2107.500000,-2181.818182,Speed,Off,Off,0.000000,FALSE,0,,,,,0.000000,0.000000
01:47:35.607 PM 04/09/2016,Teleop Enabled,11,FALSE,0,NO ERROR,-0.000000,-0.006417,-0.000000,0.000000,TRUE,FALSE,TRUE,FALSE,FALSE,FALSE,Disabled,0.000000,0.000000,0.000000,TRUE,0.751266,-32.911255,0.000000,-0.247833,0.300751,0.000000,0.062000,-0.208000,0.129000,2.550000,0.000000,-0.050000,0.074015,Hold,0.924805,0.000000,Hold,-66.000000,2.000000,LowGoal,2160.000000,-2181.818182,Speed,2107.500000,-2181.818182,Speed,Off,Off,0.000000,FALSE,0,,,,,0.000000,0.000000
01:47:35.707 PM 04/09/2016,Teleop Enabled,12,FALSE,0,NO ERROR,-0.000000,-0.006417,-0.000000,0.000000,TRUE,FALSE,TRUE,FALSE,FALSE,FALSE,Disabled,0.000000,0.000000,0.000000,TRUE,0.739471,-32.901352,0.000000,-0.214294,0.152618,0.000000,-0.020000,-0.215000,0.031000,2.570000,-0.010000,0.030000,0.070693,Hold,0.924805,0.000000,Hold,-66.000000,2.000000,LowGoal,2160.000000,-2181.818182,Speed,2115.000000,-2181.818182,Speed,Off,Off,0.000000,FALSE,0,,,,,0.000000,0.000000
01:47:35.807 PM 04/09/2016,Teleop Enabled,11,FALSE,0,NO ERROR,-0.000000,-0.006417,-0.000000,0.000000,TRUE,FALSE,TRUE,FALSE,FALSE,FALSE,Disabled,0.000000,0.000000,0.000000,TRUE,0.731247,-32.895294,0.000000,-0.148163,0.124649,0.000000,0.120000,-0.116000,0.134000,2.510000,-0.010000,-0.010000,0.080635,Hold,0.924805,0.000000,Hold,-66.000000,2.000000,LowGoal,2145.000000,-2181.818182,Speed,2115.000000,-2181.818182,Speed,Off,Off,0.000000,FALSE,0,,,,,0.000000,0.000000
01:47:35.907 PM 04/09/2016,Teleop Enabled,12,FALSE,0,NO ERROR,-0.000000,-0.006417,-0.000000,0.000000,TRUE,FALSE,TRUE,FALSE,FALSE,FALSE,Disabled,0.000000,0.000000,0.000000,TRUE,0.726074,-32.886871,0.000000,-0.007111,0.205338,0.000000,-0.059000,0.091000,0.115000,2.540000,-0.010000,-0.030000,0.083809,Hold,0.924805,0.000000,Hold,-66.000000,2.000000,LowGoal,2137.500000,-2181.818182,Speed,2115.000000,-2181.818182,Speed,Off,Off,0.000000,FALSE,0,,,,,0.000000,0.000000
01:47:36.008 PM 04/09/2016,Teleop Enabled,10,FALSE,0,NO ERROR,-0.000000,-0.006417,-0.000000,0.000000,TRUE,FALSE,TRUE,FALSE,FALSE,FALSE,Disabled,0.000000,0.000000,0.000000,TRUE,0.725739,-32.872604,0.000000,0.000000,0.324860,0.000000,-0.007000,0.146000,0.148000,2.520000,-0.010000,-0.050000,0.084229,Hold,0.924805,0.000000,Hold,-66.000000,2.000000,LowGoal,2145.000000,-2181.818182,Speed,2115.000000,-2181.818182,Speed,Off,Off,0.000000,FALSE,0,,,,,0.000000,0.000000
01:47:36.108 PM 04/09/2016,Teleop Enabled,10,FALSE,0,NO ERROR,-0.000000,-0.006417,-0.000000,0.000000,TRUE,FALSE,TRUE,FALSE,FALSE,FALSE,Disabled,0.000000,0.000000,0.000000,TRUE,0.725739,-32.872604,0.000000,0.000000,0.324860,0.000000,-0.076000,0.047000,0.015000,2.480000,-0.010000,0.030000,0.072906,Hold,0.924805,0.000000,Hold,-66.000000,2.000000,LowGoal,2137.500000,-2181.818182,Speed,2115.000000,-2181.818182,Speed,Off,Off,0.000000,FALSE,0,,,,,0.000000,0.000000
01:47:36.208 PM 04/09/2016,Teleop Enabled,12,FALSE,0,NO ERROR,-0.000000,-0.006417,-0.000000,0.000000,TRUE,FALSE,TRUE,FALSE,FALSE,FALSE,Disabled,0.000000,0.000000,0.000000,TRUE,0.724411,-32.850510,0.000000,-0.024826,0.391983,0.000000,0.076000,-0.046000,0.003000,2.550000,-0.020000,-0.070000,0.071165,Hold,0.924805,0.000000,Hold,-66.000000,2.000000,LowGoal,2130.000000,-2181.818182,Speed,2115.000000,-2181.818182,Speed,Off,Off,0.000000,FALSE,0,,,,,0.000000,0.000000
01:47:36.307 PM 04/09/2016,Teleop Enabled,11,FALSE,0,NO ERROR,-0.000000,-0.006417,-0.000000,0.000000,TRUE,FALSE,TRUE,FALSE,FALSE,FALSE,Disabled,0.000000,0.000000,0.000000,TRUE,0.726868,-32.835327,0.000000,0.104858,0.225479,0.000000,0.045000,-0.185000,-0.023000,2.510000,-0.020000,0.000000,0.071165,Hold,0.924805,0.000000,Hold,-66.000000,2.000000,LowGoal,2145.000000,-2181.818182,Speed,2115.000000,-2181.818182,Speed,Off,Off,0.000000,FALSE,0,,,,,0.000000,0.000000
01:47:36.411 PM 04/09/2016,Teleop Enabled,11,FALSE,0,NO ERROR,-0.000000,-0.006417,-0.000000,0.000000,TRUE,FALSE,TRUE,FALSE,FALSE,FALSE,Disabled,0.000000,0.000000,0.000000,TRUE,0.732056,-32.828934,0.000000,0.081512,0.080627,0.000000,-0.063000,-0.047000,-0.086000,2.530000,-0.020000,0.020000,0.072786,Hold,0.924805,0.000000,Hold,-66.000000,2.000000,LowGoal,2152.500000,-2181.818182,Speed,2115.000000,-2181.818182,Speed,Off,Off,0.000000,FALSE,0,,,,,0.000000,0.000000
01:47:36.512 PM 04/09/2016,Teleop Enabled,11,FALSE,0,NO ERROR,-0.000000,-0.006417,-0.000000,0.000000,TRUE,FALSE,TRUE,FALSE,FALSE,FALSE,Disabled,0.000000,0.000000,0.000000,TRUE,0.735291,-32.824554,0.000000,0.076065,0.094788,0.000000,-0.005000,0.067000,-0.202000,2.540000,-0.020000,-0.030000,0.072838,Hold,0.924805,0.000000,Hold,-66.000000,2.000000,LowGoal,2145.000000,-2181.818182,Speed,2122.500000,-2181.818182,Speed,Off,Off,0.000000,FALSE,0,,,,,0.000000,0.000000
01:47:36.611 PM 04/09/2016,Teleop Enabled,11,FALSE,0,NO ERROR,-0.000000,-0.006417,-0.000000,0.000000,TRUE,FALSE,TRUE,FALSE,FALSE,FALSE,Disabled,0.000000,0.000000,0.000000,TRUE,0.735275,-32.816040,0.000000,-0.049362,0.256561,0.000000,-0.120000,0.264000,-0.122000,2.500000,-0.020000,-0.060000,0.072159,Hold,0.924805,0.000000,Hold,-66.000000,2.000000,LowGoal,2130.000000,-2181.818182,Speed,2122.500000,-2181.818182,Speed,Off,Off,0.000000,FALSE,0,,,,,0.000000,0.000000
01:47:36.712 PM 04/09/2016,Teleop Enabled,11,FALSE,0,NO ERROR,-0.000000,-0.006417,-0.000000,0.000000,TRUE,FALSE,TRUE,FALSE,FALSE,FALSE,Disabled,0.000000,0.000000,0.000000,TRUE,0.730438,-32.795670,0.000000,-0.113647,0.511765,0.000000,-0.059000,0.296000,0.042000,2.510000,-0.020000,-0.060000,0.081551,Hold,0.924805,0.000000,Hold,-66.000000,2.000000,LowGoal,2145.000000,-2181.818182,Speed,2115.000000,-2181.818182,Speed,Off,Off,0.000000,FALSE,0,,,,,0.000000,0.000000
01:47:36.812 PM 04/09/2016,Teleop Enabled,11,FALSE,0,NO ERROR,-0.000000,-0.006417,-0.000000,0.000000,TRUE,FALSE,TRUE,FALSE,FALSE,FALSE,Disabled,0.000000,0.000000,0.000000,TRUE,0.723068,-32.762466,0.000000,-0.179382,0.736435,0.000000,-0.065000,0.052000,0.051000,2.510000,-0.020000,-0.010000,0.073726,Hold,0.924805,0.000000,Hold,-66.000000,2.000000,LowGoal,2160.000000,-2181.818182,Speed,2115.000000,-2181.818182,Speed,Off,Off,0.000000,FALSE,0,,,,,0.000000,0.000000
01:47:36.912 PM 04/09/2016,Teleop Enabled,11,FALSE,0,NO ERROR,-0.000000,-0.006417,-0.000000,0.000000,TRUE,FALSE,TRUE,FALSE,FALSE,FALSE,Disabled,0.000000,0.000000,0.000000,TRUE,0.711792,-32.723984,0.000000,-0.245956,0.775681,0.000000,-0.011000,-0.121000,-0.023000,2.570000,-0.030000,0.030000,0.074779,Hold,0.924805,0.000000,Hold,-66.000000,2.000000,LowGoal,2152.500000,-2181.818182,Speed,2122.500000,-2181.818182,Speed,Off,Off,0.000000,FALSE,0,,,,,0.000000,0.000000
01:47:37.012 PM 04/09/2016,Teleop Enabled,11,FALSE,0,NO ERROR,-0.000000,-0.006417,-0.000000,0.000000,TRUE,FALSE,TRUE,FALSE,FALSE,FALSE,Disabled,0.000000,0.000000,0.000000,TRUE,0.712631,-32.689560,0.000000,0.038315,0.607590,0.000000,0.091000,-0.196000,0.222000,2.560000,-0.020000,0.000000,0.083055,Hold,0.924805,0.000000,Hold,-66.000000,2.000000,LowGoal,2137.500000,-2181.818182,Speed,2122.500000,-2181.818182,Speed,Off,Off,0.000000,FALSE,0,,,,,0.000000,0.000000
01:47:37.112 PM 04/09/2016,Teleop Enabled,12,FALSE,0,NO ERROR,-0.000000,-0.006417,-0.000000,0.000000,TRUE,FALSE,TRUE,FALSE,FALSE,FALSE,Disabled,0.000000,0.000000,0.000000,TRUE,0.714462,-32.661804,0.000000,-0.002808,0.362549,0.000000,-0.031000,-0.125000,0.166000,2.640000,-0.020000,-0.060000,0.072132,Hold,0.924805,0.000000,Hold,-66.000000,2.000000,LowGoal,2137.500000,-2181.818182,Speed,2122.500000,-2181.818182,Speed,Off,Off,0.000000,FALSE,0,,,,,0.000000,0.000000
01:47:37.212 PM 04/09/2016,Teleop Enabled,11,FALSE,0,NO ERROR,-0.000000,-0.006417,-0.000000,0.000000,TRUE,FALSE,TRUE,FALSE,FALSE,FALSE,Disabled,0.000000,0.000000,0.000000,TRUE,0.716232,-32.647125,0.000000,0.076233,0.262512,0.000000,0.082000,-0.044000,0.107000,2.610000,-0.020000,-0.020000,0.075867,Hold,0.924805,0.000000,Hold,-66.000000,2.000000,LowGoal,2145.000000,-2181.818182,Speed,2122.500000,-2181.818182,Speed,Off,Off,0.000000,FALSE,0,,,,,0.000000,0.000000
01:47:37.312 PM 04/09/2016,Teleop Enabled,11,FALSE,0,NO ERROR,-0.000000,-0.006417,-0.000000,0.000000,TRUE,FALSE,TRUE,FALSE,FALSE,FALSE,Disabled,0.000000,0.000000,0.000000,TRUE,0.720856,-32.632645,0.000000,0.082413,0.346008,0.000000,-0.139000,0.166000,-0.081000,2.590000,-0.020000,-0.060000,0.072442,Hold,0.924805,0.000000,Hold,-66.000000,2.000000,LowGoal,2145.000000,-2181.818182,Speed,2122.500000,-2181.818182,Speed,Off,Off,0.000000,FALSE,0,,,,,0.000000,0.000000
01:47:37.412 PM 04/09/2016,Teleop Enabled,10,FALSE,0,NO ERROR,-0.000000,-0.006417,-0.000000,0.000000,TRUE,FALSE,TRUE,FALSE,FALSE,FALSE,Disabled,0.000000,0.000000,0.000000,TRUE,0.723114,-32.609909,0.000000,0.037292,0.542236,0.000000,0.056000,0.258000,-0.058000,2.580000,-0.020000,-0.060000,0.067942,Hold,0.924805,0.000000,Hold,-66.000000,2.000000,LowGoal,2137.500000,-2181.818182,Speed,2122.500000,-2181.818182,Speed,Off,Off,0.000000,FALSE,0,,,,,0.000000,0.000000
01:47:37.513 PM 04/09/2016,Teleop Enabled,11,FALSE,0,NO ERROR,-0.000000,-0.006417,-0.000000,0.000000,TRUE,FALSE,TRUE,FALSE,FALSE,FALSE,Disabled,0.000000,0.000000,0.000000,TRUE,0.726593,-32.576859,0.000000,0.096252,0.712006,0.000000,-0.034000,0.066000,-0.144000,2.540000,-0.020000,-0.030000,0.057432,Hold,0.924805,0.000000,Hold,-66.000000,2.000000,LowGoal,2145.000000,-2181.818182,Speed,2122.500000,-2181.818182,Speed,Off,Off,0.000000,FALSE,0,,,,,0.000000,0.000000
01:47:37.613 PM 04/09/2016,Teleop Enabled,11,FALSE,0,NO ERROR,-0.000000,-0.006417,-0.000000,0.000000,TRUE,FALSE,TRUE,FALSE,FALSE,FALSE,Disabled,0.000000,0.000000,0.000000,TRUE,0.729828,-32.538544,0.000000,0.025986,0.804184,0.000000,-0.041000,-0.002000,-0.132000,2.550000,-0.020000,-0.060000,0.053921,Hold,0.924805,0.000000,Hold,-66.000000,2.000000,LowGoal,2160.000000,-2181.818182,Speed,2122.500000,-2181.818182,Speed,Off,Off,0.000000,FALSE,0,,,,,0.000000,0.000000
01:47:37.713 PM 04/09/2016,Teleop Enabled,12,FALSE,0,NO ERROR,-0.000000,-0.006417,-0.000000,0.000000,TRUE,FALSE,TRUE,FALSE,FALSE,FALSE,Disabled,0.000000,0.000000,0.000000,TRUE,0.729980,-32.499878,0.000000,0.002563,0.722504,0.000000,-0.018000,-0.176000,-0.059000,2.640000,-0.020000,-0.140000,0.062527,Hold,0.924805,0.000000,Hold,-66.000000,2.000000,LowGoal,2167.500000,-2181.818182,Speed,2122.500000,-2181.818182,Speed,Off,Off,0.000000,FALSE,0,,,,,0.000000,0.000000
01:47:37.813 PM 04/09/2016,Teleop Enabled,10,FALSE,0,NO ERROR,-0.000000,-0.006417,-0.000000,0.000000,TRUE,FALSE,TRUE,FALSE,FALSE,FALSE,Disabled,0.000000,0.000000,0.000000,TRUE,0.729721,-32.468445,0.000000,-0.020096,0.567642,0.000000,-0.076000,-0.083000,-0.143000,2.650000,-0.020000,-0.190000,0.078494,Hold,0.924805,0.000000,Hold,-66.000000,2.000000,LowGoal,2167.500000,-2181.818182,Speed,2122.500000,-2181.818182,Speed,Off,Off,0.000000,FALSE,0,,,,,0.000000,0.000000
01:47:37.914 PM 04/09/2016,Teleop Enabled,11,FALSE,0,NO ERROR,-0.000000,-0.006417,-0.000000,0.000000,TRUE,FALSE,TRUE,FALSE,FALSE,FALSE,Disabled,0.000000,0.000000,0.000000,TRUE,0.727463,-32.441315,0.000000,-0.040497,0.559814,0.000000,0.113000,0.130000,-0.112000,2.640000,-0.010000,-0.230000,0.050888,Hold,0.924805,0.000000,Hold,-66.000000,2.000000,LowGoal,2167.500000,-2181.818182,Speed,2122.500000,-2181.818182,Speed,Off,Off,0.000000,FALSE,0,,,,,0.000000,0.000000
01:47:38.014 PM 04/09/2016,Teleop Enabled,11,FALSE,0,NO ERROR,-0.000000,-0.006417,-0.000000,0.000000,TRUE,FALSE,TRUE,FALSE,FALSE,FALSE,Disabled,0.000000,0.000000,0.000000,TRUE,0.728882,-32.400726,0.000000,0.058014,0.793945,0.000000,-0.057000,0.352000,-0.206000,2.610000,-0.020000,-0.110000,0.053311,Hold,0.924805,0.000000,Hold,-66.000000,2.000000,LowGoal,2167.500000,-2181.818182,Speed,2130.000000,-2181.818182,Speed,Off,Off,0.000000,FALSE,0,,,,,0.000000,0.000000
01:47:38.114 PM 04/09/2016,Teleop Enabled,11,FALSE,0,NO ERROR,-0.000000,-0.006417,-0.000000,0.000000,TRUE,FALSE,TRUE,FALSE,FALSE,FALSE,Disabled,0.000000,0.000000,0.000000,TRUE,0.729584,-32.350876,0.000000,-0.018188,1.130585,0.000000,0.013000,0.330000,-0.117000,2.540000,-0.020000,-0.050000,0.058513,Hold,0.924805,0.000000,Hold,-66.000000,2.000000,LowGoal,2167.500000,-2181.818182,Speed,2130.000000,-2181.818182,Speed,Off,Off,0.000000,FALSE,0,,,,,0.000000,0.000000
01:47:38.213 PM 04/09/2016,Teleop Enabled,10,FALSE,0,NO ERROR,-0.000000,-0.006417,-0.000000,0.000000,TRUE,FALSE,TRUE,FALSE,FALSE,FALSE,Disabled,0.000000,0.000000,0.000000,TRUE,0.729889,-32.284836,0.000000,0.015839,1.444290,0.000000,0.057000,0.222000,-0.051000,2.570000,-0.030000,0.020000,0.087878,Hold,0.924805,0.000000,Hold,-66.000000,2.000000,LowGoal,2160.000000,-2181.818182,Speed,2122.500000,-2181.818182,Speed,Off,Off,0.000000,FALSE,0,,,,,0.000000,0.000000
01:47:38.314 PM 04/09/2016,Teleop Enabled,10,FALSE,0,NO ERROR,-0.000000,-0.006417,-0.000000,0.000000,TRUE,FALSE,TRUE,FALSE,FALSE,FALSE,Disabled,0.000000,0.000000,0.000000,TRUE,0.731094,-32.190384,0.000000,0.002609,1.633438,0.000000,-0.025000,0.061000,-0.018000,2.520000,-0.030000,0.070000,0.078666,Hold,0.924805,0.000000,Hold,-66.000000,2.000000,LowGoal,2152.500000,-2181.818182,Speed,2122.500000,-2181.818182,Speed,Off,Off,0.000000,FALSE,0,,,,,0.000000,0.000000
01:47:38.414 PM 04/09/2016,Teleop Enabled,11,FALSE,0,NO ERROR,-0.000000,-0.006417,-0.000000,0.000000,TRUE,FALSE,TRUE,FALSE,FALSE,FALSE,Disabled,0.000000,0.000000,0.000000,TRUE,0.730804,-32.174042,0.000000,-0.014252,-0.006622,0.000000,-0.028000,-0.091000,-0.015000,2.600000,-0.030000,0.050000,0.072924,Hold,0.924805,0.000000,Hold,-66.000000,2.000000,LowGoal,2145.000000,-2181.818182,Speed,2122.500000,-2181.818182,Speed,Off,Off,0.000000,FALSE,0,,,,,0.000000,0.000000
01:47:38.513 PM 04/09/2016,Teleop Enabled,10,FALSE,0,NO ERROR,-0.000000,-0.006417,-0.000000,0.000000,TRUE,FALSE,TRUE,FALSE,FALSE,FALSE,Disabled,0.000000,0.000000,0.000000,TRUE,0.729599,-32.177628,0.000000,-0.027664,-0.130234,0.000000,0.025000,-0.196000,0.110000,2.580000,-0.030000,-0.010000,0.059329,Hold,0.924805,0.000000,Hold,-66.000000,2.000000,LowGoal,2152.500000,-2181.818182,Speed,2130.000000,-2181.818182,Speed,Off,Off,0.000000,FALSE,0,,,,,0.000000,0.000000
01:47:38.614 PM 04/09/2016,Teleop Enabled,11,FALSE,0,NO ERROR,-0.000000,-0.006417,-0.000000,0.000000,TRUE,FALSE,TRUE,FALSE,FALSE,FALSE,Disabled,0.000000,0.000000,0.000000,TRUE,0.727936,-32.189026,0.000000,-0.047119,-0.289902,0.000000,-0.046000,-0.155000,0.048000,2.640000,-0.030000,0.060000,0.067536,Hold,0.924805,0.000000,Hold,-66.000000,2.000000,LowGoal,2167.500000,-2181.818182,Speed,2130.000000,-2181.818182,Speed,Off,Off,0.000000,FALSE,0,,,,,0.000000,0.000000
01:47:38.713 PM 04/09/2016,Teleop Enabled,10,FALSE,0,NO ERROR,-0.000000,-0.006417,-0.000000,0.000000,TRUE,FALSE,TRUE,FALSE,FALSE,FALSE,Disabled,0.000000,0.000000,0.000000,TRUE,0.725342,-32.207153,0.000000,-0.036270,-0.392944,0.000000,0.083000,-0.065000,0.123000,2.570000,-0.030000,0.020000,0.053511,Hold,0.924805,58.000000,Hold,-66.000000,2.000000,LowGoal,2160.000000,-2181.818182,Speed,2122.500000,-2181.818182,Speed,Off,Off,0.000000,FALSE,0,,,,,0.000000,0.000000
01:47:38.814 PM 04/09/2016,Teleop Enabled,9,FALSE,0,NO ERROR,-0.000000,-0.006417,-0.000000,0.000000,TRUE,FALSE,TRUE,FALSE,FALSE,FALSE,Disabled,0.000000,0.000000,0.000000,TRUE,0.725891,-32.227921,0.000000,0.038284,-0.419067,0.000000,0.040000,0.082000,0.111000,2.550000,-0.030000,0.080000,0.029899,Hold,4.219238,58.000000,Hold,-66.000000,2.000000,LowGoal,2145.000000,-2181.818182,Speed,2130.000000,-2181.818182,Speed,Off,Off,0.000000,FALSE,0,,,,,0.000000,0.000000
01:47:38.915 PM 04/09/2016,Teleop Enabled,10,FALSE,0,NO ERROR,-0.000000,0.019250,-0.000000,0.000000,TRUE,FALSE,TRUE,FALSE,FALSE,FALSE,Disabled,0.000000,0.000000,0.000000,TRUE,0.726593,-32.248505,0.000000,-0.032043,-0.290817,0.000000,-0.060000,0.106000,-0.035000,2.530000,-0.050000,0.000000,-0.011140,Hold,7.997803,58.000000,Hold,-66.000000,2.000000,LowGoal,2137.500000,-2181.818182,Speed,2122.500000,-2181.818182,Speed,Off,Off,0.000000,FALSE,0,,,,,0.000000,0.000000
01:47:39.015 PM 04/09/2016,Teleop Enabled,9,FALSE,0,NO ERROR,-0.000000,0.019250,-0.000000,0.000000,TRUE,FALSE,TRUE,FALSE,FALSE,FALSE,Disabled,0.000000,0.000000,0.000000,TRUE,0.726379,-32.260345,0.000000,0.011566,-0.171738,0.000000,0.035000,0.005000,0.065000,2.510000,-0.020000,0.050000,0.050038,Hold,13.256836,58.000000,Hold,-66.000000,2.000000,LowGoal,2145.000000,-2181.818182,Speed,2122.500000,-2181.818182,Speed,Off,Off,0.000000,FALSE,0,,,,,0.000000,0.000000
01:47:39.116 PM 04/09/2016,Teleop Enabled,9,FALSE,0,NO ERROR,-0.000000,0.019250,-0.000000,0.000000,TRUE,FALSE,TRUE,FALSE,FALSE,FALSE,Disabled,0.000000,0.000000,0.000000,TRUE,0.726547,-32.266632,0.000000,-0.008713,-0.143051,0.000000,-0.032000,0.009000,0.084000,2.540000,-0.020000,0.000000,0.042474,Hold,19.791504,58.000000,Hold,-66.000000,2.000000,LowGoal,2145.000000,-2181.818182,Speed,2122.500000,-2181.818182,Speed,Off,Off,0.000000,FALSE,0,,,,,0.000000,0.000000
01:47:39.215 PM 04/09/2016,Teleop Enabled,9,FALSE,0,NO ERROR,-0.000000,0.019250,-0.000000,0.000000,TRUE,FALSE,TRUE,FALSE,FALSE,FALSE,Disabled,0.000000,0.000000,0.000000,TRUE,0.726746,-32.267532,0.000000,0.046997,-0.055710,0.000000,0.146000,-0.199000,-0.094000,2.610000,-0.020000,-0.020000,0.044292,Hold,27.476318,58.000000,Hold,-67.000000,2.000000,LowGoal,2130.000000,-2181.818182,Speed,2122.500000,-2181.818182,Speed,Off,Off,0.000000,FALSE,0,,,,,0.000000,0.000000
01:47:39.316 PM 04/09/2016,Teleop Enabled,10,FALSE,0,NO ERROR,-0.000000,0.019250,-0.000000,0.000000,TRUE,FALSE,TRUE,FALSE,FALSE,FALSE,Disabled,0.000000,0.000000,0.000000,TRUE,0.731110,-32.274368,0.000000,0.138214,-0.243118,0.000000,0.009000,-0.152000,0.097000,2.500000,-0.040000,0.020000,0.032587,Hold,34.112793,58.000000,Hold,-67.000000,2.000000,LowGoal,2137.500000,-2181.818182,Speed,2130.000000,-2181.818182,Speed,Off,Off,0.000000,FALSE,0,,,,,0.000000,0.000000
01:47:39.417 PM 04/09/2016,Teleop Enabled,10,FALSE,0,NO ERROR,-0.000000,0.019250,-0.000000,0.000000,TRUE,FALSE,TRUE,FALSE,FALSE,FALSE,Disabled,0.000000,0.000000,0.000000,TRUE,0.731903,-32.290695,0.000000,-0.040192,-0.361496,0.000000,-0.048000,-0.034000,-0.107000,2.560000,-0.030000,0.000000,0.034167,Hold,44.497314,58.000000,Hold,-67.000000,2.000000,LowGoal,2145.000000,-2181.818182,Speed,2130.000000,-2181.818182,Speed,Off,Off,0.000000,FALSE,0,,,,,0.000000,0.000000
01:47:39.518 PM 04/09/2016,Teleop Enabled,9,FALSE,0,NO ERROR,-0.000000,0.019250,-0.000000,-0.012833,TRUE,FALSE,TRUE,FALSE,FALSE,FALSE,Disabled,0.000000,0.000000,0.000000,TRUE,0.728348,-32.309036,0.000000,-0.072815,-0.358398,0.000000,0.041000,0.013000,-0.001000,2.560000,-0.030000,-0.140000,0.030398,Hold,55.022461,58.000000,Hold,-67.000000,2.000000,LowGoal,2145.000000,-2181.818182,Speed,2130.000000,-2181.818182,Speed,Off,Off,0.000000,FALSE,0,,,,,0.000000,0.000000
01:47:39.619 PM 04/09/2016,Teleop Enabled,9,FALSE,0,NO ERROR,-0.000000,0.000000,-0.000000,-0.032083,TRUE,FALSE,TRUE,FALSE,FALSE,FALSE,Disabled,0.000000,0.000000,0.000000,TRUE,0.726700,-32.315292,0.000000,-0.024460,0.049500,0.000000,-0.226000,0.141000,-0.015000,2.550000,-0.020000,-0.350000,0.031778,Hold,63.385498,58.000000,Hold,-67.000000,2.000000,LowGoal,2152.500000,-2181.818182,Speed,2130.000000,-2181.818182,Speed,Off,Off,0.000000,FALSE,0,,,,,0.000000,0.000000
01:47:39.719 PM 04/09/2016,Teleop Enabled,10,FALSE,0,NO ERROR,-0.000000,0.019250,-0.000000,0.000000,TRUE,FALSE,TRUE,FALSE,FALSE,FALSE,Disabled,0.000000,0.000000,0.000000,TRUE,0.723083,-32.309784,0.000000,-0.085175,0.149506,0.000000,-0.090000,0.124000,0.553000,2.560000,-0.150000,0.170000,-0.026026,Hold,62.367188,58.000000,Hold,-67.000000,2.000000,LowGoal,2145.000000,-2181.818182,Speed,2130.000000,-2181.818182,Speed,Off,Off,0.000000,FALSE,0,,,,,0.000000,0.000000
01:47:39.820 PM 04/09/2016,Teleop Enabled,9,FALSE,0,NO ERROR,-0.000000,0.025667,-0.000000,0.038500,TRUE,FALSE,TRUE,FALSE,FALSE,FALSE,Disabled,0.000000,0.000000,0.000000,TRUE,0.716644,-32.298004,0.000000,-0.116135,0.275299,0.000000,-0.001000,-0.114000,-0.181000,2.490000,-0.200000,-0.320000,-0.139141,Hold,58.883545,58.000000,Hold,-67.000000,2.000000,LowGoal,2145.000000,-2181.818182,Speed,2130.000000,-2181.818182,Speed,Off,Off,0.000000,FALSE,0,,,,,0.000000,0.000000
01:47:39.920 PM 04/09/2016,Teleop Enabled,11,FALSE,0,NO ERROR,-0.000000,0.032083,-0.000000,0.032083,TRUE,FALSE,TRUE,FALSE,FALSE,FALSE,Disabled,0.000000,0.000000,0.000000,TRUE,0.711609,-32.285400,0.000000,-0.096832,0.258301,0.000000,0.144000,-0.131000,-0.175000,2.530000,-0.150000,-0.200000,-0.090925,Hold,53.384033,58.000000,Hold,-67.000000,2.000000,LowGoal,2130.000000,-2181.818182,Speed,2122.500000,-2181.818182,Speed,Off,Off,0.000000,FALSE,0,,,,,0.000000,0.000000
01:47:40.021 PM 04/09/2016,Teleop Enabled,10,FALSE,0,NO ERROR,-0.000000,-0.147583,-0.000000,-0.333666,TRUE,FALSE,TRUE,FALSE,FALSE,FALSE,Disabled,0.000000,0.000000,0.000000,TRUE,0.710022,-32.277145,0.000000,-0.033173,0.076279,0.000000,0.003000,-0.180000,-0.101000,2.630000,-0.240000,1.430000,-0.204450,Hold,53.290527,58.000000,Hold,-67.000000,2.000000,LowGoal,2122.500000,-2181.818182,Speed,2107.500000,-2181.818182,Speed,Off,Off,0.000000,FALSE,0,,,,,0.000000,0.000000
01:47:40.121 PM 04/09/2016,Teleop Enabled,10,FALSE,0,NO ERROR,-0.000000,-0.070583,-0.000000,-0.218166,TRUE,FALSE,TRUE,FALSE,FALSE,FALSE,Disabled,0.000000,0.000000,0.000000,TRUE,0.707291,-32.277252,0.000000,-0.023346,-0.049973,0.000000,0.003000,-0.180000,-0.101000,2.620000,-0.080000,-0.450000,-0.060537,Hold,58.897217,58.000000,Hold,-67.000000,2.000000,LowGoal,2137.500000,-2181.818182,Speed,2122.500000,-2181.818182,Speed,Off,Off,0.000000,FALSE,0,,,,,0.000000,0.000000
01:47:40.221 PM 04/09/2016,Teleop Enabled,10,FALSE,0,NO ERROR,-0.000000,-0.121916,-0.000000,-0.320833,TRUE,FALSE,TRUE,FALSE,FALSE,FALSE,Disabled,0.000000,0.000000,0.000000,TRUE,0.707489,-32.281601,0.000000,-0.050903,-0.074677,0.000000,0.547000,-0.219000,-0.406000,2.930000,-0.150000,-0.880000,-0.126841,Hold,63.455811,58.000000,Hold,-67.000000,2.000000,LowGoal,2152.500000,-2181.818182,Speed,2130.000000,-2181.818182,Speed,Off,Off,0.000000,FALSE,0,,,,,0.000000,0.000000
01:47:40.321 PM 04/09/2016,Teleop Enabled,10,FALSE,0,NO ERROR,-0.000000,-0.160416,-0.000000,-0.506915,TRUE,FALSE,TRUE,FALSE,FALSE,FALSE,Disabled,0.000000,0.000000,0.000000,TRUE,0.712006,-32.288498,0.000000,0.098465,-0.128632,0.000000,0.547000,-0.219000,-0.406000,2.730000,0.060000,0.260000,0.106733,Hold,61.780762,58.000000,Hold,-67.000000,2.000000,LowGoal,2145.000000,-2181.818182,Speed,2130.000000,-2181.818182,Speed,Off,Off,0.000000,FALSE,0,,,,,0.000000,0.000000
01:47:40.421 PM 04/09/2016,Teleop Enabled,11,FALSE,0,NO ERROR,-0.000000,-0.115500,-0.000000,-0.359332,TRUE,FALSE,TRUE,FALSE,FALSE,FALSE,Disabled,0.000000,0.000000,0.000000,TRUE,0.715927,-32.293213,0.000000,0.050354,-0.062134,0.000000,-0.035000,-0.025000,0.558000,2.580000,-0.010000,-0.780000,0.010004,Hold,56.363525,58.000000,Hold,-67.000000,2.000000,LowGoal,2145.000000,-2181.818182,Speed,2122.500000,-2181.818182,Speed,Off,Off,0.000000,FALSE,0,,,,,0.000000,0.000000
01:47:40.522 PM 04/09/2016,Teleop Enabled,9,FALSE,0,NO ERROR,-0.000000,-0.320833,-0.000000,-0.513332,TRUE,FALSE,TRUE,FALSE,FALSE,FALSE,Disabled,0.000000,0.000000,0.000000,TRUE,0.718735,-32.291595,0.000000,0.050110,0.090515,0.000000,0.025000,0.196000,0.049000,2.660000,-0.180000,0.770000,-0.115570,Hold,56.363525,58.000000,Hold,-67.000000,2.000000,LowGoal,2122.500000,-2181.818182,Speed,2107.500000,-2181.818182,Speed,Off,Off,0.000000,FALSE,0,,,,,0.000000,0.000000
01:47:40.622 PM 04/09/2016,Teleop Enabled,8,FALSE,0,NO ERROR,-0.000000,-0.224583,-0.000000,-0.320833,TRUE,FALSE,TRUE,FALSE,FALSE,FALSE,Disabled,0.000000,0.000000,0.000000,TRUE,0.718735,-32.291595,0.000000,0.050110,0.090515,0.000000,-0.198000,-0.016000,0.400000,2.610000,-0.210000,0.230000,-0.191485,Hold,55.263428,58.000000,Hold,-67.000000,2.000000,LowGoal,2145.000000,-2181.818182,Speed,2115.000000,-2181.818182,Speed,Off,Off,0.000000,FALSE,0,,,,,0.000000,0.000000
01:47:40.723 PM 04/09/2016,Teleop Enabled,10,FALSE,0,NO ERROR,-0.000000,-0.218166,-0.000000,-0.269499,TRUE,FALSE,TRUE,FALSE,FALSE,FALSE,Disabled,0.000000,0.000000,0.000000,TRUE,0.719910,-32.293503,0.000000,0.085297,-0.124466,0.000000,0.328000,-0.178000,0.206000,2.610000,-0.210000,0.230000,-0.311989,Hold,55.263428,58.000000,Hold,-67.000000,2.000000,LowGoal,2167.500000,-2181.818182,Speed,2130.000000,-2181.818182,Speed,Off,Off,0.000000,FALSE,0,,,,,0.000000,0.000000
01:47:40.824 PM 04/09/2016,Teleop Enabled,10,FALSE,0,NO ERROR,-0.000000,-0.224583,-0.000000,-0.307999,TRUE,FALSE,TRUE,FALSE,FALSE,FALSE,Disabled,0.000000,0.000000,0.000000,TRUE,0.724228,-32.300491,0.000000,0.142242,-0.153976,0.000000,-0.387000,-0.020000,0.162000,2.490000,-0.350000,0.000000,-0.259858,Hold,63.413818,58.000000,Hold,-67.000000,2.000000,LowGoal,2160.000000,-2181.818182,Speed,2130.000000,-2181.818182,Speed,Off,Off,0.000000,FALSE,0,,,,,0.000000,0.000000
01:47:40.924 PM 04/09/2016,Teleop Enabled,10,FALSE,0,NO ERROR,-0.000000,-0.205333,-0.000000,-0.192500,TRUE,FALSE,TRUE,FALSE,FALSE,FALSE,Disabled,0.000000,0.000000,0.000000,TRUE,0.724228,-32.300491,0.000000,0.142242,-0.153976,0.000000,-0.028000,0.047000,-0.255000,2.750000,-0.300000,-0.330000,-0.285729,Hold,62.676270,58.000000,Hold,-67.000000,2.000000,LowGoal,2145.000000,-2181.818182,Speed,2130.000000,-2181.818182,Speed,Off,Off,0.000000,FALSE,0,,,,,0.000000,0.000000
01:47:41.024 PM 04/09/2016,Teleop Enabled,9,FALSE,0,NO ERROR,-0.000000,-0.218166,-0.000000,-0.269499,TRUE,FALSE,TRUE,FALSE,FALSE,FALSE,Disabled,0.000000,0.000000,0.000000,TRUE,0.732407,-32.316513,0.000000,0.075272,-0.159363,0.000000,-0.152000,-0.073000,-0.400000,2.750000,-0.300000,-0.330000,-0.296817,Hold,58.815918,58.000000,Hold,-67.000000,8192.000000,LowGoal,2137.500000,-2181.818182,Speed,2122.500000,-2181.818182,Speed,Off,Off,0.000000,FALSE,0,,,,,0.000000,0.000000
01:47:41.124 PM 04/09/2016,Teleop Enabled,10,FALSE,0,NO ERROR,-0.000000,-0.256666,-0.000000,-0.166833,TRUE,FALSE,TRUE,FALSE,FALSE,FALSE,Disabled,0.000000,0.000000,0.000000,TRUE,0.732407,-32.316513,0.000000,0.075272,-0.159363,0.000000,0.006000,0.010000,-0.012000,2.620000,-0.360000,-0.020000,-0.524264,Hold,53.564453,0.000000,Hold,-68.000000,8192.000000,LowGoal,2137.500000,-2181.818182,Speed,2107.500000,-2181.818182,Speed,Off,Off,0.000000,FALSE,0,,,,,0.000000,0.000000
01:47:41.224 PM 04/09/2016,Teleop Enabled,9,FALSE,0,NO ERROR,-0.000000,-0.230999,-0.000000,-0.186083,TRUE,FALSE,TRUE,FALSE,FALSE,FALSE,Disabled,0.000000,0.000000,0.000000,TRUE,0.735229,-32.315079,0.000000,-0.016129,0.041565,0.000000,-0.369000,0.166000,0.325000,2.680000,-0.400000,1.080000,-0.429507,Hold,44.058594,0.000000,Hold,-267.000000,8192.000000,LowGoal,2137.500000,-2181.818182,Speed,2107.500000,-2181.818182,Speed,Off,Off,0.000000,FALSE,0,,,,,0.000000,0.000000
01:47:41.324 PM 04/09/2016,Teleop Enabled,9,FALSE,0,NO ERROR,-0.000000,-0.474832,-0.000000,-0.449166,TRUE,FALSE,TRUE,FALSE,FALSE,FALSE,Disabled,0.000000,0.000000,0.000000,TRUE,0.735779,-32.312668,0.000000,0.073547,0.043823,0.000000,0.147000,-0.073000,-0.565000,2.490000,-0.490000,-0.220000,-0.317190,Hold,34.904785,0.000000,Hold,-8028.000000,8192.000000,LowGoal,2122.500000,-2181.818182,Speed,2107.500000,-2181.818182,Speed,Off,Off,0.000000,FALSE,0,,,,,0.000000,0.000000
01:47:41.428 PM 04/09/2016,Teleop Enabled,12,FALSE,0,NO ERROR,-0.000000,-0.532582,-0.000000,-0.352916,TRUE,FALSE,TRUE,FALSE,FALSE,FALSE,Disabled,0.000000,0.000000,0.000000,TRUE,0.741287,-32.313278,0.000000,0.059052,-0.061844,0.000000,-0.127000,0.000000,-0.812000,2.480000,-0.340000,0.070000,-0.545480,Hold,18.038330,0.000000,Hold,-8131.000000,8192.000000,LowGoal,2130.000000,-2181.818182,Speed,2115.000000,-2181.818182,Speed,Off,Off,0.000000,FALSE,0,,,,,0.000000,0.000000
01:47:41.528 PM 04/09/2016,Teleop Enabled,11,FALSE,0,NO ERROR,-0.000000,-0.192500,-0.000000,-0.109083,TRUE,FALSE,TRUE,FALSE,FALSE,FALSE,Disabled,0.000000,0.000000,0.000000,TRUE,0.742310,-32.314026,0.000000,0.025208,-0.018570,0.000000,0.006000,0.028000,-0.346000,2.590000,-0.570000,-0.100000,-0.464590,Hold,5.142578,0.000000,Hold,-8131.000000,8192.000000,LowGoal,2145.000000,-2181.818182,Speed,2137.500000,-2181.818182,Speed,Off,Off,0.000000,FALSE,0,,,,,0.000000,0.000000
01:47:41.629 PM 04/09/2016,Teleop Enabled,11,FALSE,0,NO ERROR,-0.000000,-0.096250,-0.000000,-0.012833,TRUE,FALSE,TRUE,FALSE,FALSE,FALSE,Disabled,0.000000,0.000000,0.000000,TRUE,0.741806,-32.310181,0.000000,-0.048386,0.222168,0.000000,-0.032000,-0.117000,-0.784000,2.830000,-0.520000,-0.570000,-0.498668,Hold,1.187256,0.000000,Hold,-8134.000000,8192.000000,LowGoal,2145.000000,-2181.818182,Speed,2137.500000,-2181.818182,Speed,Off,Off,0.000000,FALSE,0,,,,,0.000000,0.000000
01:47:41.728 PM 04/09/2016,Teleop Enabled,10,FALSE,0,NO ERROR,0.267717,0.012833,0.267717,0.410666,TRUE,FALSE,TRUE,FALSE,FALSE,FALSE,Disabled,0.000000,0.000000,0.000000,TRUE,0.739655,-32.295120,0.000000,-0.077927,0.316940,0.000000,-0.133000,0.257000,0.186000,2.800000,-0.540000,0.060000,-0.606217,Hold,0.979004,0.000000,Hold,-8134.000000,8192.000000,LowGoal,2145.000000,-2181.818182,Speed,2130.000000,-2181.818182,Speed,Off,Off,0.000000,FALSE,0,,,,,0.000000,0.000000
01:47:41.828 PM 04/09/2016,Teleop Enabled,11,FALSE,0,NO ERROR,0.582677,0.012833,0.582677,0.410666,TRUE,FALSE,TRUE,FALSE,FALSE,FALSE,Disabled,0.000000,0.000000,0.000000,TRUE,0.736664,-32.274033,0.000000,-0.053864,0.461761,0.000000,-0.083000,0.315000,0.268000,2.850000,-0.750000,-0.480000,-0.606217,Hold,0.944824,0.000000,Hold,-8135.000000,8192.000000,LowGoal,2167.500000,-2181.818182,Speed,2130.000000,-2181.818182,Speed,Off,Off,0.000000,FALSE,0,,,,,0.000000,0.000000
01:47:41.928 PM 04/09/2016,Teleop Enabled,11,FALSE,0,NO ERROR,0.874016,-0.750748,0.874016,0.962498,TRUE,FALSE,TRUE,FALSE,FALSE,FALSE,Disabled,0.000000,0.000000,0.000000,TRUE,0.732025,-32.244675,0.000000,-0.109955,0.652695,0.000000,-0.168000,-0.048000,0.232000,2.770000,-2.590000,-0.330000,-2.173418,Hold,0.944824,0.000000,Hold,-8136.000000,8192.000000,LowGoal,2167.500000,-2181.818182,Speed,2130.000000,-2181.818182,Speed,Off,Off,0.000000,FALSE,0,,,,,0.000000,0.000000
01:47:42.028 PM 04/09/2016,Teleop Enabled,11,FALSE,0,NO ERROR,1.000000,-2.014829,1.000000,2.277911,TRUE,FALSE,TRUE,FALSE,FALSE,FALSE,Disabled,0.000000,0.000000,0.000000,TRUE,0.721542,-32.214294,0.000000,-0.292679,0.536255,0.000000,-0.106000,-0.039000,0.095000,1.870000,-5.740000,-0.820000,-6.046130,Hold,0.945068,0.000000,Hold,-8137.000000,8192.000000,LowGoal,2122.500000,-2181.818182,Speed,2085.000000,-2181.818182,Speed,Off,Off,0.000000,FALSE,0,,,,,0.000000,0.000000
01:47:42.131 PM 04/09/2016,Teleop Enabled,11,FALSE,0,NO ERROR,1.000000,-4.690572,1.000000,5.056322,TRUE,FALSE,TRUE,FALSE,FALSE,FALSE,Disabled,0.000000,0.000000,0.000000,TRUE,0.705750,-32.190384,0.000000,-0.281464,0.392334,0.000000,0.103000,-0.190000,0.197000,1.160000,-17.030000,-1.540000,-15.042265,Hold,0.945312,0.000000,Hold,-8137.000000,8192.000000,LowGoal,2040.000000,-2181.818182,Speed,2010.000000,-2181.818182,Speed,Off,Off,0.000000,FALSE,0,,,,,0.000000,0.000000
01:47:42.231 PM 04/09/2016,Teleop Enabled,11,FALSE,0,NO ERROR,1.000000,-8.771563,1.000000,9.451728,TRUE,FALSE,TRUE,FALSE,FALSE,FALSE,Disabled,0.000000,0.000000,0.000000,TRUE,0.693741,-32.177124,0.000000,-0.204407,0.193100,0.000000,0.175000,-0.333000,-0.169000,0.340000,-33.080000,-2.070000,-29.975982,Hold,0.945557,0.000000,Hold,-8137.000000,8192.000000,LowGoal,1987.500000,-2181.818182,Speed,1957.500000,-2181.818182,Speed,Off,Off,0.000000,FALSE,0,,,,,0.000000,0.000000
01:47:42.331 PM 04/09/2016,Teleop Enabled,11,FALSE,0,NO ERROR,-0.275591,-13.994717,0.275591,15.079131,TRUE,FALSE,TRUE,FALSE,FALSE,FALSE,Disabled,0.000000,0.000000,0.000000,TRUE,0.689178,-32.172424,0.000000,-0.019974,0.041687,0.000000,0.445000,-0.167000,0.113000,-0.090000,-53.850000,-2.100000,-49.695581,Hold,0.945557,0.000000,Hold,-8138.000000,8192.000000,LowGoal,1980.000000,-2181.818182,Speed,1935.000000,-2181.818182,Speed,Off,Off,0.000000,FALSE,0,,,,,0.000000,0.000000
01:47:42.432 PM 04/09/2016,Teleop Enabled,10,FALSE,0,NO ERROR,-0.377953,-19.538704,0.377953,20.327952,TRUE,FALSE,TRUE,FALSE,FALSE,FALSE,Disabled,0.000000,0.000000,0.000000,TRUE,0.700165,-32.171982,0.000000,0.371658,0.039703,0.000000,-0.261000,0.570000,0.028000,-0.740000,-78.100000,-2.180000,-73.031336,Hold,0.945801,0.000000,Hold,-8138.000000,8192.000000,LowGoal,2017.500000,-2181.818182,Speed,1957.500000,-2181.818182,Speed,Off,Off,0.000000,FALSE,0,,,,,0.000000,0.000000
01:47:42.533 PM 04/09/2016,Teleop Enabled,11,FALSE,0,NO ERROR,-0.464567,-24.107360,0.464567,22.560947,TRUE,FALSE,TRUE,FALSE,FALSE,FALSE,Disabled,0.000000,0.000000,0.000000,TRUE,0.709793,-32.149933,0.000000,-0.012512,0.742493,0.000000,-0.465000,0.335000,-0.226000,0.920000,-95.330000,2.290000,-91.234131,Hold,0.945801,0.000000,Hold,-8140.000000,8192.000000,LowGoal,2077.500000,-2181.818182,Speed,2047.500000,-2181.818182,Speed,Off,Off,0.000000,FALSE,0,,,,,0.000000,0.000000
01:47:42.633 PM 04/09/2016,Teleop Enabled,9,FALSE,0,NO ERROR,-0.480315,-26.449438,0.480315,21.232700,FALSE,FALSE,TRUE,FALSE,FALSE,FALSE,Disabled,0.000000,0.000000,0.000000,TRUE,0.691193,-32.087402,0.000000,-0.386642,1.175232,0.000000,0.262000,0.273000,0.111000,1.720000,-98.830000,3.900000,-95.914292,Hold,0.946045,0.000000,Hold,-8141.000000,8192.000000,LowGoal,2122.500000,-2181.818182,Speed,2130.000000,-2181.818182,Speed,Off,Off,0.000000,FALSE,0,,,,,0.000000,0.000000
01:47:42.733 PM 04/09/2016,Teleop Enabled,11,FALSE,0,NO ERROR,-0.574803,-28.984016,0.574803,18.248957,FALSE,FALSE,TRUE,FALSE,FALSE,FALSE,Disabled,0.000000,0.000000,0.000000,TRUE,0.675766,-32.021896,0.000000,-0.331436,1.370071,0.000000,-0.167000,0.065000,-0.184000,1.650000,-98.100000,3.770000,-95.055577,Hold,0.946045,0.000000,Hold,-8142.000000,8192.000000,LowGoal,2122.500000,-2181.818182,Speed,2122.500000,-2181.818182,Speed,Off,Off,0.000000,FALSE,0,,,,,0.000000,0.000000
01:47:42.833 PM 04/09/2016,Teleop Enabled,11,FALSE,0,NO ERROR,-0.736041,-32.641507,0.492306,14.155134,FALSE,FALSE,TRUE,FALSE,FALSE,FALSE,Disabled,0.000000,0.000000,0.000000,TRUE,0.654160,-31.949921,0.000000,-0.442383,1.481018,0.000000,0.058000,0.140000,0.324000,1.690000,-96.930000,5.710000,-94.149220,Hold,0.946045,0.000000,Hold,-8142.000000,8192.000000,LowGoal,2107.500000,-2181.818182,Speed,2092.500000,-2181.818182,Speed,Off,Off,0.000000,FALSE,0,,,,,0.000000,0.000000
01:47:42.932 PM 04/09/2016,Teleop Enabled,11,FALSE,0,NO ERROR,-0.796974,-36.979164,0.431372,9.573644,FALSE,FALSE,TRUE,FALSE,FALSE,FALSE,Disabled,0.000000,0.000000,0.000000,TRUE,0.630997,-31.919281,0.000000,-0.499252,0.040588,0.000000,-0.153000,0.021000,0.210000,1.950000,-96.760000,5.600000,-94.007184,Hold,0.946045,0.000000,Hold,-8143.000000,8192.000000,LowGoal,2100.000000,-2181.818182,Speed,2077.500000,-2181.818182,Speed,Off,Off,0.000000,FALSE,0,,,,,0.000000,0.000000
01:47:43.033 PM 04/09/2016,Teleop Enabled,10,FALSE,0,NO ERROR,-0.800360,-41.855819,0.427987,3.477825,FALSE,FALSE,TRUE,FALSE,FALSE,FALSE,Disabled,0.000000,0.000000,0.000000,TRUE,0.597717,-31.910873,0.000000,-0.572083,0.234039,0.000000,-0.027000,0.292000,-0.036000,2.200000,-95.140000,5.670000,-92.554194,Hold,0.946045,0.000000,Hold,-8143.000000,8192.000000,LowGoal,2092.500000,-2181.818182,Speed,2077.500000,-2181.818182,Speed,Off,Off,0.000000,FALSE,0,,,,,0.000000,0.000000
01:47:43.133 PM 04/09/2016,Teleop Enabled,10,FALSE,0,NO ERROR,-0.637932,-47.232973,0.275454,-3.317409,FALSE,FALSE,TRUE,FALSE,FALSE,FALSE,Disabled,0.000000,0.000000,0.000000,TRUE,0.577789,-31.899063,0.000000,-0.444962,0.296799,0.000000,0.129000,0.058000,-0.039000,2.150000,-92.450000,6.610000,-89.968123,Hold,0.946045,0.000000,Hold,-8143.000000,8192.000000,LowGoal,2092.500000,-2181.818182,Speed,2077.500000,-2181.818182,Speed,Off,Off,0.000000,FALSE,0,,,,,0.000000,0.000000
01:47:43.233 PM 04/09/2016,Teleop Enabled,10,FALSE,0,NO ERROR,-0.574803,-52.886043,-0.574803,-10.901891,FALSE,FALSE,TRUE,FALSE,FALSE,FALSE,Disabled,0.000000,0.000000,0.000000,TRUE,0.556458,-31.884689,0.000000,-0.465332,0.275391,0.000000,-0.089000,-0.036000,-0.117000,2.230000,-89.560000,5.490000,-87.136499,Hold,0.946045,0.000000,Hold,-8143.000000,8192.000000,LowGoal,2115.000000,-2181.818182,Speed,2085.000000,-2181.818182,Speed,Off,Off,0.000000,FALSE,0,,,,,0.000000,0.000000
01:47:43.333 PM 04/09/2016,Teleop Enabled,11,FALSE,0,NO ERROR,-0.566929,-57.473949,-0.566929,-17.863958,FALSE,FALSE,TRUE,FALSE,FALSE,FALSE,Disabled,0.000000,0.000000,0.000000,TRUE,0.525711,-31.873810,0.000000,-0.520538,0.047684,0.000000,0.119000,-0.481000,0.006000,2.410000,-87.180000,4.360000,-84.182811,Hold,0.946045,0.000000,Hold,-8144.000000,8192.000000,LowGoal,2145.000000,-2181.818182,Speed,2107.500000,-2181.818182,Speed,Off,Off,0.000000,FALSE,0,,,,,0.000000,0.000000
01:47:43.434 PM 04/09/2016,Teleop Enabled,11,FALSE,0,NO ERROR,-0.716535,-59.636361,-0.716535,-24.575776,FALSE,FALSE,TRUE,FALSE,FALSE,FALSE,Disabled,0.000000,0.000000,0.000000,TRUE,0.503006,-31.882431,0.000000,-0.617340,-0.337891,0.000000,0.159000,-0.248000,-0.555000,3.720000,-79.380000,2.130000,-77.616345,Hold,0.946045,0.000000,Hold,-8146.000000,8192.000000,LowGoal,2152.500000,-2181.818182,Speed,2115.000000,-2181.818182,Speed,Off,Off,0.000000,FALSE,0,,,,,0.000000,0.000000
01:47:43.535 PM 04/09/2016,Teleop Enabled,10,FALSE,0,NO ERROR,-0.803150,-59.463111,-0.803150,-30.844845,FALSE,FALSE,TRUE,FALSE,FALSE,FALSE,Disabled,0.000000,0.000000,0.000000,TRUE,0.477615,-31.905304,0.000000,-0.367737,-0.545990,0.000000,0.777000,-0.411000,0.101000,3.200000,-67.730000,1.670000,-66.507882,Hold,0.946289,0.000000,Hold,-8159.000000,8192.000000,LowGoal,2100.000000,-2181.818182,Speed,2077.500000,-2181.818182,Speed,Off,Off,0.000000,FALSE,0,,,,,0.000000,0.000000
01:47:43.635 PM 04/09/2016,Teleop Enabled,10,FALSE,0,NO ERROR,-0.826772,-57.769115,-0.826772,-36.767414,TRUE,FALSE,TRUE,FALSE,FALSE,FALSE,Disabled,0.000000,0.000000,0.000000,TRUE,0.477036,-31.952560,0.000000,0.096024,-0.861252,0.000000,-0.073000,0.154000,-0.294000,2.200000,-56.600000,1.270000,-52.757964,Hold,0.946289,0.000000,Hold,-8159.000000,8192.000000,LowGoal,2055.000000,-2181.818182,Speed,2032.500000,-2181.818182,Speed,Off,Off,0.000000,FALSE,0,,,,,0.000000,0.000000
01:47:43.736 PM 04/09/2016,Teleop Enabled,9,FALSE,0,NO ERROR,-0.173228,-55.170371,-0.173228,-42.568067,TRUE,FALSE,TRUE,FALSE,FALSE,FALSE,Disabled,0.000000,0.000000,0.000000,TRUE,0.479858,-31.994675,0.000000,0.088104,-0.898300,0.000000,0.350000,-0.301000,0.386000,2.230000,-37.120000,1.420000,-36.942067,Hold,0.946289,0.000000,Hold,-8159.000000,8192.000000,LowGoal,2032.500000,-2181.818182,Speed,2010.000000,-2181.818182,Speed,Off,Off,0.000000,FALSE,0,,,,,0.000000,0.000000
01:47:43.836 PM 04/09/2016,Teleop Enabled,9,FALSE,0,NO ERROR,-0.000000,-52.205878,-0.000000,-48.002971,TRUE,FALSE,TRUE,FALSE,FALSE,FALSE,Disabled,0.000000,0.000000,0.000000,TRUE,0.490524,-32.048721,0.000000,0.286331,-1.180130,0.000000,0.084000,-0.354000,-0.125000,2.070000,-16.400000,1.180000,-16.748758,Hold,0.946289,0.000000,Hold,-8160.000000,8192.000000,LowGoal,2032.500000,-2181.818182,Speed,2002.500000,-2181.818182,Speed,Off,Off,0.000000,FALSE,0,,,,,0.000000,0.000000
01:47:43.936 PM 04/09/2016,Teleop Enabled,9,FALSE,0,NO ERROR,-0.000000,-50.678715,-0.000000,-51.423046,TRUE,FALSE,TRUE,FALSE,FALSE,FALSE,Disabled,0.000000,0.000000,0.000000,TRUE,0.504440,-32.120239,0.000000,0.229279,-1.597656,0.000000,-0.131000,-0.140000,0.051000,0.460000,-4.480000,0.610000,-4.748172,Hold,0.946289,0.000000,Hold,-8160.000000,8192.000000,LowGoal,2100.000000,-2181.818182,Speed,2047.500000,-2181.818182,Speed,Off,Off,0.000000,FALSE,0,,,,,0.000000,0.000000
