Time,Robot Mode,Loop Time,Error Status,Error Code,Error Source,Left Motor Output,Left Motor Encoder,Right Motor Output,Right Motor Encoder,Is Level,Is Stalled,Ball Detector Photoeye,Vision Enabled,Vision Teleop Control,Vision Auto Control,Vision Current State,Vision X Output,Vision NavX Error,Vision NavX Target,NavX Connection Status,NavX Displacement X,NavX Displacement Y,NavX Displacement Z,NavX Velocity X,NavX Velocity Y,NavX Velocity Z,NavX Acceleration X,NavX Acceleration Y,NavX Acceleration Z,NavX Pitch,NavX Yaw,NavX Roll,Gyro Angle,Roller Arm State,Roller Arm Actual,Roller Arm Desired,Shooter Arm State,Shooter Arm Actual,Shooter Arm Desired,Shooter State,Actual RPM Left,Desired RPM Left,Control Mode Left,Actual RPM Right,Desired RPM Right,Control Mode Right,Ball Shooter Cylinder,Ball Halo Cylinder,Scaler Motor Output,Scaler Solenoid Fire,Auto To Run,Auto Current File,Auto File Status,Auto Current Command,Auto Trimmed Command,Shooter Amps Left,Shooter Amps Right
03:15:34.281 PM 04/09/2016,Teleop Enabled,10,FALSE,0,NO ERROR,-0.000000,0.000000,-0.000000,0.474832,FALSE,FALSE,TRUE,FALSE,FALSE,FALSE,Disabled,0.000000,0.833747,38.866253,TRUE,13.169128,-5.267776,0.000000,0.000000,0.000000,0.000000,0.150000,0.001000,0.019000,3.270000,-1.370000,-6.600000,7.739814,ResetBack,1.074951,-0.000049,ResetBack,-22977.000000,-0.250000,LowGoal,0.000000,-2181.818182,Speed,30.000000,-2181.818182,Speed,Off,Off,0.000000,FALSE,0,,,,,0.000000,0.000000
03:15:34.382 PM 04/09/2016,Teleop Enabled,14,FALSE,0,NO ERROR,-0.000000,0.012833,-0.000000,0.436332,FALSE,FALSE,TRUE,FALSE,FALSE,FALSE,Disabled,0.000000,0.833747,38.866253,TRUE,13.170181,-5.267487,0.000000,0.018478,0.005066,0.000000,0.045000,-0.003000,0.003000,3.300000,-1.380000,-6.560000,7.732065,ResetBack,1.074951,-0.000049,ResetBack,-22385.000000,-0.250000,LowGoal,195.000000,-2181.818182,Speed,487.500000,-2181.818182,Speed,Off,Off,0.000000,FALSE,0,,,,,0.000000,0.000000
03:15:34.482 PM 04/09/2016,Teleop Enabled,9,FALSE,0,NO ERROR,-0.000000,0.012833,-0.000000,0.436332,FALSE,FALSE,TRUE,FALSE,FALSE,FALSE,Disabled,0.000000,0.833747,38.866253,TRUE,13.171341,-5.268051,0.000000,0.017944,-0.015594,0.000000,0.007000,0.027000,-0.037000,3.280000,-1.360000,-6.550000,7.751883,ResetBack,-0.049805,-0.000049,ResetBack,-21062.000000,-0.250000,LowGoal,780.000000,-2181.818182,Speed,967.500000,-2181.818182,Speed,Off,Off,0.000000,FALSE,0,,,,,0.000000,0.000000
03:15:34.582 PM 04/09/2016,Teleop Enabled,11,FALSE,0,NO ERROR,-0.000000,0.012833,-0.000000,0.423499,FALSE,FALSE,TRUE,FALSE,FALSE,FALSE,Disabled,0.000000,0.833747,38.866253,TRUE,13.173569,-5.268005,0.000000,0.068726,0.008942,0.000000,-0.041000,0.027000,-0.019000,3.270000,-1.380000,-6.570000,7.715206,Reset,-0.101074,-0.000049,ResetBack,-21062.000000,-0.250000,LowGoal,1282.500000,-2181.818182,Speed,967.500000,-2181.818182,Speed,Off,Off,0.000000,FALSE,0,,,,,0.000000,0.000000
03:15:34.683 PM 04/09/2016,Teleop Enabled,11,FALSE,0,NO ERROR,-0.000000,0.012833,-0.000000,0.423499,FALSE,FALSE,TRUE,FALSE,FALSE,FALSE,Disabled,0.000000,0.833747,38.866253,TRUE,13.175125,-5.266235,0.000000,-0.018463,0.039917,0.000000,-0.033000,-0.046000,0.041000,3.280000,-1.370000,-6.550000,7.734468,Hold,-0.101562,0.000000,ResetBack,-18912.000000,-0.250000,LowGoal,1687.500000,-2181.818182,Speed,1620.000000,-2181.818182,Speed,Off,Off,0.000000,FALSE,0,,,,,0.000000,0.000000
03:15:34.784 PM 04/09/2016,Teleop Enabled,8,FALSE,0,NO ERROR,-0.000000,0.012833,-0.000000,0.417082,FALSE,FALSE,TRUE,FALSE,FALSE,FALSE,Disabled,0.000000,0.833747,38.866253,TRUE,13.174255,-5.263199,0.000000,-0.003815,0.068542,0.000000,0.018000,-0.040000,-0.088000,3.280000,-1.380000,-6.530000,7.743986,Hold,0.528564,0.000000,ResetBack,-16212.000000,-0.250000,LowGoal,2002.500000,-2181.818182,Speed,1942.500000,-2181.818182,Speed,Off,Off,0.000000,FALSE,0,,,,,0.000000,0.000000
03:15:34.884 PM 04/09/2016,Teleop Enabled,10,FALSE,0,NO ERROR,-0.000000,0.012833,-0.000000,0.404249,FALSE,FALSE,TRUE,FALSE,FALSE,FALSE,Disabled,0.000000,0.833747,38.866253,TRUE,13.175186,-5.263245,0.000000,0.037735,-0.048294,0.000000,0.166000,-0.137000,0.206000,3.360000,-1.380000,-6.570000,7.740230,Hold,1.097168,0.000000,ResetBack,-16212.000000,-0.250000,LowGoal,2130.000000,-2181.818182,Speed,2055.000000,-2181.818182,Speed,Off,Off,0.000000,FALSE,0,,,,,0.000000,0.000000
03:15:34.985 PM 04/09/2016,Teleop Enabled,11,FALSE,0,NO ERROR,-0.000000,0.012833,-0.000000,0.404249,FALSE,FALSE,TRUE,FALSE,FALSE,FALSE,Disabled,0.000000,0.833747,38.866253,TRUE,13.181656,-5.268692,0.000000,0.178741,-0.129791,0.000000,0.166000,-0.137000,0.206000,3.330000,-1.400000,-6.430000,7.743518,Hold,0.973633,0.000000,ResetBack,-12880.000000,-0.250000,LowGoal,2130.000000,-2181.818182,Speed,2055.000000,-2181.818182,Speed,Off,Off,0.000000,FALSE,0,,,,,0.000000,0.000000
03:15:35.085 PM 04/09/2016,Teleop Enabled,11,FALSE,0,NO ERROR,-0.000000,0.012833,-0.000000,0.404249,FALSE,FALSE,TRUE,FALSE,FALSE,FALSE,Disabled,0.000000,0.833747,38.866253,TRUE,13.190414,-5.276871,0.000000,0.171600,-0.181015,0.000000,-0.007000,0.028000,0.044000,3.310000,-1.390000,-6.390000,7.738915,Hold,0.966797,0.000000,ResetBack,-9213.000000,-0.250000,LowGoal,2085.000000,-2181.818182,Speed,2062.500000,-2181.818182,Speed,Off,Off,0.000000,FALSE,0,,,,,0.000000,0.000000
03:15:35.186 PM 04/09/2016,Teleop Enabled,13,FALSE,0,NO ERROR,-0.000000,0.012833,-0.000000,0.391416,FALSE,FALSE,TRUE,FALSE,FALSE,FALSE,Disabled,0.000000,0.833747,38.866253,TRUE,13.200058,-5.286850,0.000000,0.230026,-0.231354,0.000000,-0.152000,-0.064000,-0.074000,3.310000,-1.390000,-6.420000,7.729813,Hold,0.964600,0.000000,ResetBack,-5778.000000,-0.250000,LowGoal,2085.000000,-2181.818182,Speed,2032.500000,-2181.818182,Speed,Off,Off,0.000000,FALSE,0,,,,,0.000000,0.000000
03:15:35.286 PM 04/09/2016,Teleop Enabled,11,FALSE,0,NO ERROR,-0.000000,0.006417,-0.000000,0.384999,FALSE,FALSE,TRUE,FALSE,FALSE,FALSE,Disabled,0.000000,0.833747,38.866253,TRUE,13.209488,-5.299728,0.000000,0.194473,-0.261795,0.000000,-0.016000,0.115000,0.064000,3.300000,-1.380000,-6.450000,7.731201,Hold,0.964355,0.000000,ResetBack,-3848.000000,-0.250000,LowGoal,2107.500000,-2181.818182,Speed,2032.500000,-2181.818182,Speed,Off,Off,0.000000,FALSE,0,,,,,0.000000,0.000000
03:15:35.386 PM 04/09/2016,Teleop Enabled,13,FALSE,0,NO ERROR,-0.000000,0.006417,-0.000000,0.384999,FALSE,FALSE,TRUE,FALSE,FALSE,FALSE,Disabled,0.000000,0.833747,38.866253,TRUE,13.219879,-5.308472,0.000000,0.123901,-0.045853,0.000000,-0.087000,0.033000,-0.072000,3.300000,-1.380000,-6.450000,7.744286,Hold,0.964111,0.000000,ResetBack,-3039.000000,-0.250000,LowGoal,2107.500000,-2181.818182,Speed,2032.500000,-2181.818182,Speed,Off,Off,0.000000,FALSE,0,,,,,0.000000,0.000000
03:15:35.486 PM 04/09/2016,Teleop Enabled,11,FALSE,0,NO ERROR,-0.000000,0.006417,-0.000000,0.384999,FALSE,FALSE,TRUE,FALSE,FALSE,FALSE,Disabled,0.000000,0.833747,38.866253,TRUE,13.224716,-5.310776,0.000000,0.114761,-0.074799,0.000000,0.151000,-0.070000,0.111000,3.260000,-1.380000,-6.380000,7.725995,Hold,0.963623,0.000000,Reset,-2654.000000,-0.250000,LowGoal,2115.000000,-2181.818182,Speed,2032.500000,-2181.818182,Speed,Off,Off,0.000000,FALSE,0,,,,,0.000000,0.000000
03:15:35.586 PM 04/09/2016,Teleop Enabled,10,FALSE,0,NO ERROR,-0.000000,0.006417,-0.000000,0.384999,FALSE,FALSE,TRUE,FALSE,FALSE,FALSE,Disabled,0.000000,0.833747,38.866253,TRUE,13.235931,-5.319153,0.000000,0.200409,-0.184219,0.000000,0.151000,-0.070000,0.111000,3.310000,-1.390000,-6.400000,7.726484,Hold,0.963135,0.000000,Hold,-2654.000000,2.000000,LowGoal,2115.000000,-2181.818182,Speed,2040.000000,-2181.818182,Speed,Off,Off,0.000000,FALSE,0,,,,,0.000000,0.000000
03:15:35.687 PM 04/09/2016,Teleop Enabled,9,FALSE,0,NO ERROR,-0.000000,0.006417,-0.000000,0.384999,FALSE,FALSE,TRUE,FALSE,FALSE,FALSE,Disabled,0.000000,0.833747,38.866253,TRUE,13.245026,-5.322983,0.000000,0.245331,0.000000,0.000000,-0.011000,-0.019000,-0.162000,3.330000,-1.390000,-6.360000,7.714497,Hold,0.962402,0.000000,Hold,-13.000000,2.000000,LowGoal,2107.500000,-2181.818182,Speed,2040.000000,-2181.818182,Speed,Off,Off,0.000000,FALSE,0,,,,,0.000000,0.000000
03:15:35.787 PM 04/09/2016,Teleop Enabled,9,FALSE,0,NO ERROR,-0.000000,0.006417,-0.000000,0.384999,FALSE,FALSE,TRUE,FALSE,FALSE,FALSE,Disabled,0.000000,0.833747,38.866253,TRUE,13.258224,-5.323181,0.000000,0.265701,-0.027664,0.000000,-0.011000,-0.019000,-0.162000,3.330000,-1.390000,-6.360000,7.700469,Hold,0.961914,0.000000,Hold,-40.000000,2.000000,LowGoal,2100.000000,-2181.818182,Speed,2047.500000,-2181.818182,Speed,Off,Off,0.000000,FALSE,0,,,,,0.000000,0.000000
03:15:35.887 PM 04/09/2016,Teleop Enabled,11,FALSE,0,NO ERROR,-0.000000,0.006417,-0.000000,0.384999,FALSE,FALSE,TRUE,FALSE,FALSE,FALSE,Disabled,0.000000,0.833747,38.866253,TRUE,13.269348,-5.326797,0.000000,0.241943,-0.085297,0.000000,-0.045000,0.128000,0.153000,3.370000,-1.380000,-6.370000,7.703695,Hold,0.961914,0.000000,Hold,-44.000000,2.000000,LowGoal,2107.500000,-2181.818182,Speed,2047.500000,-2181.818182,Speed,Off,Off,0.000000,FALSE,0,,,,,0.000000,0.000000
03:15:35.988 PM 04/09/2016,Teleop Enabled,8,FALSE,0,NO ERROR,-0.000000,0.006417,-0.000000,0.384999,FALSE,FALSE,TRUE,FALSE,FALSE,FALSE,Disabled,0.000000,0.833747,38.866253,TRUE,13.279861,-5.327087,0.000000,0.000000,0.053513,0.000000,-0.045000,0.128000,0.153000,3.310000,-1.390000,-6.390000,7.700376,Hold,0.961670,0.000000,Hold,-46.000000,2.000000,LowGoal,2107.500000,-2181.818182,Speed,2047.500000,-2181.818182,Speed,Off,Off,0.000000,FALSE,0,,,,,0.000000,0.000000
03:15:36.089 PM 04/09/2016,Teleop Enabled,10,FALSE,0,NO ERROR,-0.000000,0.006417,-0.000000,0.384999,FALSE,FALSE,TRUE,FALSE,FALSE,FALSE,Disabled,0.000000,0.833747,38.866253,TRUE,13.280396,-5.322647,0.000000,0.041077,0.070831,0.000000,-0.006000,0.099000,0.030000,3.250000,-1.380000,-6.440000,7.718067,Hold,0.961426,0.000000,Hold,-48.000000,2.000000,LowGoal,2092.500000,-2181.818182,Speed,2055.000000,-2181.818182,Speed,Off,Off,0.000000,FALSE,0,,,,,0.000000,0.000000
03:15:36.190 PM 04/09/2016,Teleop Enabled,10,FALSE,0,NO ERROR,-0.000000,0.006417,-0.000000,0.384999,FALSE,FALSE,TRUE,FALSE,FALSE,FALSE,Disabled,0.000000,0.833747,38.866253,TRUE,13.281830,-5.322861,0.000000,0.047058,-0.046646,0.000000,0.069000,-0.122000,0.081000,3.270000,-1.390000,-6.430000,7.735160,Hold,0.960938,0.000000,Hold,-48.000000,2.000000,LowGoal,2092.500000,-2181.818182,Speed,2047.500000,-2181.818182,Speed,Off,Off,0.000000,FALSE,0,,,,,0.000000,0.000000
03:15:36.290 PM 04/09/2016,Teleop Enabled,10,FALSE,0,NO ERROR,-0.000000,0.006417,-0.000000,0.384999,FALSE,FALSE,TRUE,FALSE,FALSE,FALSE,Disabled,0.000000,0.833747,38.866253,TRUE,13.288681,-5.328705,0.000000,0.132172,-0.093445,0.000000,0.210000,-0.130000,0.084000,3.300000,-1.380000,-6.530000,7.730519,Hold,0.960449,0.000000,Hold,-49.000000,2.000000,LowGoal,2100.000000,-2181.818182,Speed,2040.000000,-2181.818182,Speed,Off,Off,0.000000,FALSE,0,,,,,0.000000,0.000000
03:15:36.391 PM 04/09/2016,Teleop Enabled,9,FALSE,0,NO ERROR,-0.000000,0.006417,-0.000000,0.384999,FALSE,FALSE,TRUE,FALSE,FALSE,FALSE,Disabled,0.000000,0.833747,38.866253,TRUE,13.288681,-5.328705,0.000000,0.132172,-0.093445,0.000000,-0.121000,0.083000,-0.108000,3.240000,-1.380000,-6.480000,7.738602,Hold,0.959961,0.000000,Hold,-50.000000,2.000000,LowGoal,2100.000000,-2181.818182,Speed,2040.000000,-2181.818182,Speed,Off,Off,0.000000,FALSE,0,,,,,0.000000,0.000000
03:15:36.491 PM 04/09/2016,Teleop Enabled,7,FALSE,0,NO ERROR,-0.000000,0.006417,-0.000000,0.384999,FALSE,FALSE,TRUE,FALSE,FALSE,FALSE,Disabled,0.000000,0.833747,38.866253,TRUE,13.292511,-5.331482,0.000000,0.048965,-0.038513,0.000000,0.141000,-0.117000,-0.023000,3.180000,-1.380000,-6.540000,7.743015,Hold,0.958984,0.000000,Hold,-51.000000,2.000000,LowGoal,2107.500000,-2181.818182,Speed,2047.500000,-2181.818182,Speed,Off,Off,0.000000,FALSE,0,,,,,0.000000,0.000000
03:15:36.591 PM 04/09/2016,Teleop Enabled,8,FALSE,0,NO ERROR,-0.000000,0.006417,-0.000000,0.384999,FALSE,FALSE,TRUE,FALSE,FALSE,FALSE,Disabled,0.000000,0.833747,38.866253,TRUE,13.295776,-5.334503,0.000000,0.086533,-0.085480,0.000000,0.020000,-0.041000,0.110000,3.170000,-1.390000,-6.480000,7.743015,Hold,0.958740,0.000000,Hold,-52.000000,2.000000,LowGoal,2107.500000,-2181.818182,Speed,2047.500000,-2181.818182,Speed,Off,Off,0.000000,FALSE,0,,,,,0.000000,0.000000
03:15:36.692 PM 04/09/2016,Teleop Enabled,11,FALSE,0,NO ERROR,-0.000000,0.006417,-0.000000,0.384999,FALSE,FALSE,TRUE,FALSE,FALSE,FALSE,Disabled,0.000000,0.833747,38.866253,TRUE,13.299652,-5.338516,0.000000,0.064362,-0.030045,0.000000,0.129000,0.071000,-0.024000,3.150000,-1.390000,-6.510000,7.744675,Hold,0.958740,0.000000,Hold,-52.000000,2.000000,LowGoal,2122.500000,-2181.818182,Speed,2055.000000,-2181.818182,Speed,Off,Off,0.000000,FALSE,0,,,,,0.000000,0.000000
03:15:36.793 PM 04/09/2016,Teleop Enabled,8,FALSE,0,NO ERROR,-0.000000,0.006417,-0.000000,0.384999,FALSE,FALSE,TRUE,FALSE,FALSE,FALSE,Disabled,0.000000,0.833747,38.866253,TRUE,13.304260,-5.338928,0.000000,0.083633,-0.020279,0.000000,0.059000,-0.170000,-0.021000,3.130000,-1.390000,-6.530000,7.731362,Hold,0.958496,0.000000,Hold,-53.000000,2.000000,LowGoal,2130.000000,-2181.818182,Speed,2055.000000,-2181.818182,Speed,Off,Off,0.000000,FALSE,0,,,,,0.000000,0.000000
03:15:36.893 PM 04/09/2016,Teleop Enabled,8,FALSE,0,NO ERROR,-0.000000,0.006417,-0.000000,0.384999,FALSE,FALSE,TRUE,FALSE,FALSE,FALSE,Disabled,0.000000,0.833747,38.866253,TRUE,13.308167,-5.343109,0.000000,0.103043,-0.160919,0.000000,0.226000,-0.196000,0.178000,3.230000,-1.390000,-6.550000,7.724994,Hold,0.958252,0.000000,Hold,-53.000000,2.000000,LowGoal,2122.500000,-2181.818182,Speed,2055.000000,-2181.818182,Speed,Off,Off,0.000000,FALSE,0,,,,,0.000000,0.000000
03:15:36.993 PM 04/09/2016,Teleop Enabled,9,FALSE,0,NO ERROR,-0.000000,0.006417,-0.000000,0.384999,FALSE,FALSE,TRUE,FALSE,FALSE,FALSE,Disabled,0.000000,0.833747,38.866253,TRUE,13.320236,-5.361008,0.000000,0.245071,-0.373505,0.000000,-0.009000,-0.041000,-0.095000,3.250000,-1.390000,-6.500000,7.728033,Hold,0.958008,0.000000,Hold,-54.000000,2.000000,LowGoal,2115.000000,-2181.818182,Speed,2055.000000,-2181.818182,Speed,Off,Off,0.000000,FALSE,0,,,,,0.000000,0.000000
03:15:37.093 PM 04/09/2016,Teleop Enabled,8,FALSE,0,NO ERROR,-0.000000,0.006417,-0.000000,0.384999,FALSE,FALSE,TRUE,FALSE,FALSE,FALSE,Disabled,0.000000,0.833747,38.866253,TRUE,13.333054,-5.381729,0.000000,0.161407,-0.289658,0.000000,-0.046000,-0.016000,-0.191000,3.260000,-1.390000,-6.450000,7.717685,Hold,0.958008,0.000000,Hold,-54.000000,2.000000,LowGoal,2122.500000,-2181.818182,Speed,2047.500000,-2181.818182,Speed,Off,Off,0.000000,FALSE,0,,,,,0.000000,0.000000
03:15:37.193 PM 04/09/2016,Teleop Enabled,9,FALSE,0,NO ERROR,-0.000000,0.006417,-0.000000,0.384999,FALSE,FALSE,TRUE,FALSE,FALSE,FALSE,Disabled,0.000000,0.833747,38.866253,TRUE,13.340561,-5.396576,0.000000,0.155365,-0.316162,0.000000,-0.027000,-0.050000,-0.082000,3.220000,-1.400000,-6.490000,7.715960,Hold,0.958008,0.000000,Hold,-54.000000,2.000000,LowGoal,2122.500000,-2181.818182,Speed,2047.500000,-2181.818182,Speed,Off,Off,0.000000,FALSE,0,,,,,0.000000,0.000000
03:15:37.295 PM 04/09/2016,Teleop Enabled,10,FALSE,0,NO ERROR,-0.000000,0.006417,-0.000000,0.384999,FALSE,FALSE,TRUE,FALSE,FALSE,FALSE,Disabled,0.000000,0.833747,38.866253,TRUE,13.350723,-5.416855,0.000000,0.095306,-0.255051,0.000000,0.002000,0.073000,0.185000,3.180000,-1.400000,-6.540000,7.715175,Hold,0.957764,0.000000,Hold,-55.000000,2.000000,LowGoal,2107.500000,-2181.818182,Speed,2047.500000,-2181.818182,Speed,Off,Off,0.000000,FALSE,0,,,,,0.000000,0.000000
03:15:37.395 PM 04/09/2016,Teleop Enabled,10,FALSE,0,NO ERROR,-0.000000,0.006417,-0.000000,0.384999,FALSE,FALSE,TRUE,FALSE,FALSE,FALSE,Disabled,0.000000,0.833747,38.866253,TRUE,13.353165,-5.421310,0.000000,0.134888,-0.211700,0.000000,0.004000,0.121000,0.001000,3.150000,-1.400000,-6.530000,7.726818,Hold,0.957520,0.000000,Hold,-56.000000,2.000000,LowGoal,2092.500000,-2181.818182,Speed,2055.000000,-2181.818182,Speed,Off,Off,0.000000,FALSE,0,,,,,0.000000,0.000000
03:15:37.499 PM 04/09/2016,Teleop Enabled,12,FALSE,0,NO ERROR,-0.000000,0.006417,-0.000000,0.384999,FALSE,FALSE,TRUE,FALSE,FALSE,FALSE,Disabled,0.000000,0.833747,38.866253,TRUE,13.360458,-5.432144,0.000000,0.124084,-0.212616,0.000000,0.083000,-0.173000,-0.017000,3.240000,-1.400000,-6.570000,7.723259,Hold,0.957520,0.000000,Hold,-56.000000,2.000000,LowGoal,2092.500000,-2181.818182,Speed,2055.000000,-2181.818182,Speed,Off,Off,0.000000,FALSE,0,,,,,0.000000,0.000000
03:15:37.600 PM 04/09/2016,Teleop Enabled,11,FALSE,0,NO ERROR,-0.000000,0.006417,-0.000000,0.384999,FALSE,FALSE,TRUE,FALSE,FALSE,FALSE,Disabled,0.000000,0.833747,38.866253,TRUE,13.369598,-5.446716,0.000000,0.221359,-0.343582,0.000000,0.003000,-0.085000,0.001000,3.250000,-1.400000,-6.530000,7.730929,Hold,0.957275,0.000000,Hold,-56.000000,2.000000,LowGoal,2107.500000,-2181.818182,Speed,2055.000000,-2181.818182,Speed,Off,Off,0.000000,FALSE,0,,,,,0.000000,0.000000
03:15:37.701 PM 04/09/2016,Teleop Enabled,12,FALSE,0,NO ERROR,-0.000000,0.006417,-0.000000,0.384999,FALSE,FALSE,TRUE,FALSE,FALSE,FALSE,Disabled,0.000000,0.833747,38.866253,TRUE,13.379013,-5.464005,0.000000,0.141266,-0.315643,0.000000,-0.015000,0.198000,-0.007000,3.250000,-1.410000,-6.530000,7.735084,Hold,0.957031,0.000000,Hold,-56.000000,2.000000,LowGoal,2115.000000,-2181.818182,Speed,2055.000000,-2181.818182,Speed,Off,Off,0.000000,FALSE,0,,,,,0.000000,0.000000
03:15:37.802 PM 04/09/2016,Teleop Enabled,9,FALSE,0,NO ERROR,-0.000000,0.006417,-0.000000,0.384999,FALSE,FALSE,TRUE,FALSE,FALSE,FALSE,Disabled,0.000000,0.833747,38.866253,TRUE,13.379898,-5.473434,0.000000,-0.022171,-0.110397,0.000000,0.038000,0.064000,-0.080000,3.230000,-1.400000,-6.530000,7.748000,Hold,0.956787,0.000000,Hold,-56.000000,2.000000,LowGoal,2122.500000,-2181.818182,Speed,2047.500000,-2181.818182,Speed,Off,Off,0.000000,FALSE,0,,,,,0.000000,0.000000
03:15:37.903 PM 04/09/2016,Teleop Enabled,10,FALSE,0,NO ERROR,0.251969,0.006417,-0.251969,0.384999,FALSE,FALSE,TRUE,FALSE,FALSE,FALSE,Disabled,0.000000,0.833747,38.866253,TRUE,13.378204,-5.476852,0.000000,-0.066116,-0.060699,0.000000,-0.017000,-0.030000,0.073000,3.280000,-1.410000,-6.530000,7.755326,Hold,0.956787,0.000000,Hold,-57.000000,2.000000,LowGoal,2122.500000,-2181.818182,Speed,2055.000000,-2181.818182,Speed,Off,Off,0.000000,FALSE,0,,,,,0.000000,0.000000
03:15:38.003 PM 04/09/2016,Teleop Enabled,11,FALSE,0,NO ERROR,0.338583,0.019250,-0.338583,0.384999,FALSE,FALSE,TRUE,FALSE,FALSE,FALSE,Disabled,0.000000,0.833747,38.866253,TRUE,13.378067,-5.481262,0.000000,0.025269,-0.061218,0.000000,0.082000,-0.034000,0.219000,3.260000,-1.410000,-6.570000,7.753577,Hold,0.956543,0.000000,Hold,-57.000000,2.000000,LowGoal,2115.000000,-2181.818182,Speed,2055.000000,-2181.818182,Speed,Off,Off,0.000000,FALSE,0,,,,,0.000000,0.000000
03:15:38.103 PM 04/09/2016,Teleop Enabled,10,FALSE,0,NO ERROR,0.338583,0.577499,-0.338583,1.129331,FALSE,FALSE,TRUE,FALSE,FALSE,FALSE,Disabled,0.000000,0.833747,38.866253,TRUE,13.379196,-5.481247,0.000000,-0.003174,0.007065,0.000000,-0.146000,0.072000,0.094000,3.130000,-1.590000,-7.830000,7.555933,Hold,0.956299,0.000000,Hold,-58.000000,2.000000,LowGoal,2107.500000,-2181.818182,Speed,2055.000000,-2181.818182,Speed,Off,Off,0.000000,FALSE,0,,,,,0.000000,0.000000
03:15:38.203 PM 04/09/2016,Teleop Enabled,9,FALSE,0,NO ERROR,0.330709,1.244830,-0.330709,1.841579,FALSE,FALSE,TRUE,FALSE,FALSE,FALSE,Disabled,0.000000,0.833747,38.866253,TRUE,13.377029,-5.481155,0.000000,-0.030930,-0.038666,0.000000,-0.002000,-0.132000,0.028000,3.210000,-1.660000,-8.180000,7.489932,Hold,0.956299,0.000000,Hold,-58.000000,2.000000,LowGoal,2092.500000,-2181.818182,Speed,2032.500000,-2181.818182,Speed,Off,Off,0.000000,FALSE,0,,,,,0.000000,0.000000
03:15:38.304 PM 04/09/2016,Teleop Enabled,11,FALSE,0,NO ERROR,0.314961,2.252245,-0.314961,2.778410,FALSE,FALSE,TRUE,FALSE,FALSE,FALSE,Disabled,0.000000,0.833747,38.866253,TRUE,13.377136,-5.489624,0.000000,-0.020157,-0.178101,0.000000,0.002000,0.171000,-0.006000,3.310000,-1.430000,-8.100000,7.660411,Hold,0.956055,0.000000,Hold,-58.000000,2.000000,LowGoal,2085.000000,-2181.818182,Speed,2025.000000,-2181.818182,Speed,Off,Off,0.000000,FALSE,0,,,,,0.000000,0.000000
03:15:38.404 PM 04/09/2016,Teleop Enabled,10,FALSE,0,NO ERROR,0.322835,3.503492,-0.322835,3.894908,FALSE,FALSE,TRUE,FALSE,FALSE,FALSE,Disabled,0.000000,0.833747,38.866253,TRUE,13.374146,-5.496140,0.000000,-0.069077,-0.041977,0.000000,0.012000,-0.037000,-0.109000,3.180000,-1.160000,-8.220000,7.942643,Hold,0.955322,0.000000,Hold,-59.000000,2.000000,LowGoal,2077.500000,-2181.818182,Speed,2025.000000,-2181.818182,Speed,Off,Off,0.000000,FALSE,0,,,,,0.000000,0.000000
03:15:38.503 PM 04/09/2016,Teleop Enabled,11,FALSE,0,NO ERROR,0.330709,4.542989,-0.330709,4.908739,FALSE,FALSE,TRUE,FALSE,FALSE,FALSE,Disabled,0.000000,0.833747,38.866253,TRUE,13.371140,-5.501587,0.000000,-0.037231,-0.130463,0.000000,-0.019000,0.017000,0.214000,3.350000,-1.030000,-7.290000,7.931334,Hold,0.955566,0.000000,Hold,-59.000000,2.000000,LowGoal,2070.000000,-2181.818182,Speed,2032.500000,-2181.818182,Speed,Off,Off,0.000000,FALSE,0,,,,,0.000000,0.000000
03:15:38.604 PM 04/09/2016,Teleop Enabled,10,FALSE,0,NO ERROR,0.338583,5.787820,-0.338583,6.127902,FALSE,FALSE,TRUE,FALSE,FALSE,FALSE,Disabled,0.000000,0.833747,38.866253,TRUE,13.370773,-5.507111,0.000000,0.007874,-0.133530,0.000000,0.069000,0.127000,-0.146000,3.110000,-1.110000,-6.390000,8.112884,Hold,1.021729,0.000000,Hold,-59.000000,2.000000,LowGoal,2085.000000,-2181.818182,Speed,2032.500000,-2181.818182,Speed,Off,Off,0.000000,FALSE,0,,,,,0.000000,0.000000
03:15:38.704 PM 04/09/2016,Teleop Enabled,7,FALSE,0,NO ERROR,0.338583,6.859401,-0.338583,7.302150,FALSE,FALSE,TRUE,FALSE,FALSE,FALSE,Disabled,0.000000,0.833747,38.866253,TRUE,13.369766,-5.511002,0.000000,-0.058350,-0.055252,0.000000,0.002000,-0.110000,-0.047000,3.120000,-1.290000,-5.810000,7.823520,Hold,0.953857,0.000000,Hold,-60.000000,2.000000,LowGoal,2092.500000,-2181.818182,Speed,2017.500000,-2181.818182,Speed,Off,Off,0.000000,FALSE,0,,,,,0.000000,0.000000
03:15:38.804 PM 04/09/2016,Teleop Enabled,7,FALSE,0,NO ERROR,0.346457,8.097814,-0.346457,8.546980,FALSE,FALSE,TRUE,FALSE,FALSE,FALSE,Disabled,0.000000,0.833747,38.866253,TRUE,13.366394,-5.515320,0.000000,-0.083374,-0.082428,0.000000,-0.243000,0.002000,0.218000,3.120000,-1.250000,-5.470000,7.885940,Hold,0.971924,0.000000,Hold,-60.000000,2.000000,LowGoal,2077.500000,-2181.818182,Speed,2017.500000,-2181.818182,Speed,Off,Off,0.000000,FALSE,0,,,,,0.000000,0.000000
03:15:38.904 PM 04/09/2016,Teleop Enabled,9,FALSE,0,NO ERROR,0.346457,9.663477,-0.346457,10.099810,FALSE,FALSE,TRUE,FALSE,FALSE,FALSE,Disabled,0.000000,0.833747,38.866253,TRUE,13.362106,-5.517288,0.000000,-0.151001,-0.051071,0.000000,-0.171000,0.102000,0.140000,3.140000,-1.130000,-6.440000,7.982556,Hold,0.970215,0.000000,Hold,-60.000000,2.000000,LowGoal,2070.000000,-2181.818182,Speed,2025.000000,-2181.818182,Speed,Off,Off,0.000000,FALSE,0,,,,,0.000000,0.000000
03:15:39.004 PM 04/09/2016,Teleop Enabled,11,FALSE,0,NO ERROR,0.346457,11.575640,-0.346457,12.069722,FALSE,FALSE,TRUE,FALSE,FALSE,FALSE,Disabled,0.000000,0.833747,38.866253,TRUE,13.351639,-5.518875,0.000000,-0.201935,-0.056473,0.000000,0.124000,-0.104000,-0.010000,3.240000,-1.100000,-8.180000,8.015632,Hold,0.952881,0.000000,Hold,-60.000000,2.000000,LowGoal,2070.000000,-2181.818182,Speed,2025.000000,-2181.818182,Speed,Off,Off,0.000000,FALSE,0,,,,,0.000000,0.000000
03:15:39.105 PM 04/09/2016,Teleop Enabled,11,FALSE,0,NO ERROR,0.330709,13.481385,-0.330709,14.039634,FALSE,FALSE,TRUE,FALSE,FALSE,FALSE,Disabled,0.000000,0.833747,38.866253,TRUE,13.344299,-5.524200,0.000000,-0.155319,-0.131927,0.000000,0.029000,0.041000,0.362000,3.240000,-1.100000,-8.180000,7.870029,Hold,0.952393,0.000000,Hold,-61.000000,2.000000,LowGoal,2077.500000,-2181.818182,Speed,2025.000000,-2181.818182,Speed,Off,Off,0.000000,FALSE,0,,,,,0.000000,0.000000
03:15:39.206 PM 04/09/2016,Teleop Enabled,8,FALSE,0,NO ERROR,0.299213,15.605297,-0.299213,16.080129,FALSE,FALSE,TRUE,FALSE,FALSE,FALSE,Disabled,0.000000,0.833747,38.866253,TRUE,13.332901,-5.529007,0.000000,-0.229431,-0.007843,0.000000,0.029000,0.041000,0.362000,3.290000,-1.220000,-7.680000,7.950681,Hold,0.999023,0.000000,Hold,-61.000000,2.000000,LowGoal,2077.500000,-2181.818182,Speed,2025.000000,-2181.818182,Speed,Off,Off,0.000000,FALSE,0,,,,,0.000000,0.000000
03:15:39.307 PM 04/09/2016,Teleop Enabled,10,FALSE,0,NO ERROR,-0.000000,17.369876,-0.000000,17.902458,FALSE,FALSE,TRUE,FALSE,FALSE,FALSE,Disabled,0.000000,0.833747,38.866253,TRUE,13.324158,-5.527817,0.000000,-0.130524,-0.019211,0.000000,0.127000,-0.076000,0.063000,3.180000,-1.160000,-7.220000,7.982841,Hold,0.944092,0.000000,Hold,-62.000000,2.000000,LowGoal,2077.500000,-2181.818182,Speed,2032.500000,-2181.818182,Speed,Off,Off,0.000000,FALSE,0,,,,,0.000000,0.000000
03:15:39.407 PM 04/09/2016,Teleop Enabled,10,FALSE,0,NO ERROR,-0.000000,18.358040,-0.000000,18.903456,FALSE,FALSE,TRUE,FALSE,FALSE,FALSE,Disabled,0.000000,0.833747,38.866253,TRUE,13.323547,-5.530975,0.000000,0.069870,-0.064987,0.000000,0.173000,0.079000,0.432000,3.110000,-1.240000,-5.810000,7.952258,Hold,0.958740,0.000000,Hold,-62.000000,2.000000,LowGoal,2092.500000,-2181.818182,Speed,2047.500000,-2181.818182,Speed,Off,Off,0.000000,FALSE,0,,,,,0.000000,0.000000
03:15:39.508 PM 04/09/2016,Teleop Enabled,10,FALSE,0,NO ERROR,-0.000000,18.890622,-0.000000,19.442455,FALSE,FALSE,TRUE,FALSE,FALSE,FALSE,Disabled,0.000000,0.833747,38.866253,TRUE,13.333878,-5.532181,0.000000,0.305023,0.006683,0.000000,0.173000,0.079000,0.432000,3.010000,-1.310000,-5.450000,7.926487,Hold,0.961182,0.000000,Hold,-62.000000,2.000000,LowGoal,2115.000000,-2181.818182,Speed,2062.500000,-2181.818182,Speed,Off,Off,0.000000,FALSE,0,,,,,0.000000,0.000000
03:15:39.608 PM 04/09/2016,Teleop Enabled,10,FALSE,0,NO ERROR,-0.000000,18.800789,-0.000000,19.301288,FALSE,FALSE,TRUE,FALSE,FALSE,FALSE,Disabled,0.000000,0.833747,38.866253,TRUE,13.354156,-5.528641,0.000000,0.342072,0.057968,0.000000,0.030000,0.096000,-0.074000,3.130000,-1.300000,-4.810000,7.950554,Hold,0.961182,0.000000,Hold,-62.000000,2.000000,LowGoal,2122.500000,-2181.818182,Speed,2070.000000,-2181.818182,Speed,Off,Off,0.000000,FALSE,0,,,,,0.000000,0.000000
03:15:39.708 PM 04/09/2016,Teleop Enabled,9,FALSE,0,NO ERROR,-0.000000,18.473540,-0.000000,18.993289,FALSE,FALSE,TRUE,FALSE,FALSE,FALSE,Disabled,0.000000,0.833747,38.866253,TRUE,13.370422,-5.529099,0.000000,0.325439,-0.030334,0.000000,-0.016000,-0.145000,-0.049000,3.100000,-1.390000,-4.950000,7.868603,Hold,0.961182,0.000000,Hold,-62.000000,2.000000,LowGoal,2130.000000,-2181.818182,Speed,2070.000000,-2181.818182,Speed,Off,Off,0.000000,FALSE,0,,,,,0.000000,0.000000
03:15:39.808 PM 04/09/2016,Teleop Enabled,9,FALSE,0,NO ERROR,0.267717,17.940958,-0.267717,18.441457,FALSE,FALSE,TRUE,FALSE,FALSE,FALSE,Disabled,0.000000,0.833747,38.866253,TRUE,13.370422,-5.529099,0.000000,0.325439,-0.030334,0.000000,0.211000,0.032000,0.034000,3.100000,-1.390000,-4.950000,7.896898,Hold,0.961670,0.000000,Hold,-62.000000,2.000000,LowGoal,2130.000000,-2181.818182,Speed,2062.500000,-2181.818182,Speed,Off,Off,0.000000,FALSE,0,,,,,0.000000,0.000000
03:15:39.910 PM 04/09/2016,Teleop Enabled,9,FALSE,0,NO ERROR,0.377953,17.973041,-0.377953,18.428624,FALSE,FALSE,TRUE,FALSE,FALSE,FALSE,Disabled,0.000000,0.833747,38.866253,TRUE,13.391342,-5.515488,0.000000,-0.017410,0.283783,0.000000,-0.231000,0.132000,-0.054000,3.240000,-1.220000,-5.840000,8.063566,Hold,0.961670,0.000000,Hold,-62.000000,2.000000,LowGoal,2130.000000,-2181.818182,Speed,2055.000000,-2181.818182,Speed,Off,Off,0.000000,FALSE,0,,,,,0.000000,0.000000
03:15:40.010 PM 04/09/2016,Teleop Enabled,11,FALSE,0,NO ERROR,0.377953,18.544123,-0.377953,19.006122,FALSE,FALSE,TRUE,FALSE,FALSE,FALSE,Disabled,0.000000,0.833747,38.866253,TRUE,13.387787,-5.503036,0.000000,-0.113190,0.294434,0.000000,-0.056000,-0.177000,0.370000,3.270000,-1.160000,-6.680000,8.001710,Hold,0.978760,0.000000,Hold,-63.000000,2.000000,LowGoal,2070.000000,-2181.818182,Speed,2055.000000,-2181.818182,Speed,Off,Off,0.000000,FALSE,0,,,,,0.000000,0.000000
03:15:40.114 PM 04/09/2016,Teleop Enabled,11,FALSE,0,NO ERROR,0.370079,19.692704,-0.370079,20.148286,FALSE,FALSE,TRUE,FALSE,FALSE,FALSE,Disabled,0.000000,0.833747,38.866253,TRUE,13.381683,-5.491730,0.000000,-0.008087,0.135025,0.000000,-0.056000,-0.177000,0.370000,3.270000,-1.160000,-6.680000,8.102274,Hold,0.958008,0.000000,Hold,-63.000000,2.000000,LowGoal,2047.500000,-2181.818182,Speed,2010.000000,-2181.818182,Speed,Off,Off,0.000000,FALSE,0,,,,,0.000000,0.000000
03:15:40.214 PM 04/09/2016,Teleop Enabled,10,FALSE,0,NO ERROR,0.370079,21.200617,-0.370079,21.636949,FALSE,FALSE,TRUE,FALSE,FALSE,FALSE,Disabled,0.000000,0.833747,38.866253,TRUE,13.378586,-5.485565,0.000000,-0.121765,0.173477,0.000000,-0.152000,0.039000,-0.072000,3.200000,-1.070000,-7.340000,8.095602,Hold,0.957764,0.000000,Hold,-63.000000,2.000000,LowGoal,2062.500000,-2181.818182,Speed,2010.000000,-2181.818182,Speed,Off,Off,0.000000,FALSE,0,,,,,0.000000,0.000000
03:15:40.317 PM 04/09/2016,Teleop Enabled,9,FALSE,0,NO ERROR,0.346457,23.074279,-0.346457,23.472112,FALSE,FALSE,TRUE,FALSE,FALSE,FALSE,Disabled,0.000000,0.833747,38.866253,TRUE,13.371414,-5.476334,0.000000,-0.195267,0.176392,0.000000,0.207000,-0.075000,0.222000,3.190000,-0.920000,-7.840000,8.200741,Hold,0.956787,0.000000,Hold,-63.000000,2.000000,LowGoal,2077.500000,-2181.818182,Speed,2010.000000,-2181.818182,Speed,Off,Off,0.000000,FALSE,0,,,,,0.000000,0.000000
03:15:40.417 PM 04/09/2016,Teleop Enabled,9,FALSE,0,NO ERROR,0.283465,25.037775,-0.283465,25.448440,FALSE,FALSE,TRUE,FALSE,FALSE,FALSE,Disabled,0.000000,0.833747,38.866253,TRUE,13.360565,-5.468002,0.000000,-0.113953,0.000000,0.000000,0.207000,-0.075000,0.222000,3.070000,-0.880000,-7.810000,8.236465,Hold,0.956299,0.000000,Hold,-63.000000,2.000000,LowGoal,2077.500000,-2181.818182,Speed,2017.500000,-2181.818182,Speed,Off,Off,0.000000,FALSE,0,,,,,0.000000,0.000000
03:15:40.517 PM 04/09/2016,Teleop Enabled,10,FALSE,0,NO ERROR,0.283465,26.122189,-0.283465,26.667604,FALSE,FALSE,TRUE,FALSE,FALSE,FALSE,Disabled,0.000000,0.833747,38.866253,TRUE,13.365417,-5.466751,0.000000,0.463165,-0.003067,0.000000,-0.104000,0.133000,0.012000,3.070000,-0.880000,-7.810000,7.946144,Hold,0.955566,0.000000,Hold,-63.000000,2.000000,LowGoal,2085.000000,-2181.818182,Speed,2032.500000,-2181.818182,Speed,Off,Off,0.000000,FALSE,0,,,,,0.000000,0.000000
03:15:40.620 PM 04/09/2016,Teleop Enabled,12,FALSE,0,NO ERROR,0.283465,25.660190,-0.283465,26.032356,FALSE,FALSE,TRUE,FALSE,FALSE,FALSE,Disabled,0.000000,0.833747,38.866253,TRUE,13.365417,-5.466751,0.000000,0.463165,-0.003067,0.000000,0.115000,-0.171000,-0.115000,2.800000,-1.390000,-5.300000,8.192004,Hold,0.951660,0.000000,Hold,-64.000000,2.000000,LowGoal,2100.000000,-2181.818182,Speed,2040.000000,-2181.818182,Speed,Off,Off,0.000000,FALSE,0,,,,,0.000000,0.000000
03:15:40.719 PM 04/09/2016,Teleop Enabled,11,FALSE,0,NO ERROR,0.283465,25.750023,-0.283465,26.224855,FALSE,FALSE,TRUE,FALSE,FALSE,FALSE,Disabled,0.000000,0.833747,38.866253,TRUE,13.401398,-5.475098,0.000000,0.240494,-0.008942,0.000000,-0.146000,0.151000,0.065000,3.350000,-0.970000,-6.690000,8.072706,Hold,1.085938,0.000000,Hold,-64.000000,2.000000,LowGoal,2100.000000,-2181.818182,Speed,2040.000000,-2181.818182,Speed,Off,Off,0.000000,FALSE,0,,,,,0.000000,0.000000
03:15:40.820 PM 04/09/2016,Teleop Enabled,10,FALSE,0,NO ERROR,0.291339,25.820606,-0.291339,26.308272,FALSE,FALSE,TRUE,FALSE,FALSE,FALSE,Disabled,0.000000,0.833747,38.866253,TRUE,13.416519,-5.466049,0.000000,0.220840,0.142319,0.000000,0.098000,0.011000,-0.122000,3.070000,-1.250000,-6.220000,8.030283,Hold,1.067383,0.000000,Hold,-65.000000,2.000000,LowGoal,2100.000000,-2181.818182,Speed,2032.500000,-2181.818182,Speed,Off,Off,0.000000,FALSE,0,,,,,0.000000,0.000000
03:15:40.920 PM 04/09/2016,Teleop Enabled,11,FALSE,0,NO ERROR,0.291339,25.820606,-0.291339,26.308272,FALSE,FALSE,TRUE,FALSE,FALSE,FALSE,Disabled,0.000000,0.833747,38.866253,TRUE,13.425903,-5.463379,0.000000,0.249847,0.016647,0.000000,0.074000,-0.184000,0.119000,3.240000,-1.190000,-6.290000,8.030514,Hold,0.966797,0.000000,Hold,-65.000000,2.000000,LowGoal,2092.500000,-2181.818182,Speed,2032.500000,-2181.818182,Speed,Off,Off,0.000000,FALSE,0,,,,,0.000000,0.000000
03:15:41.021 PM 04/09/2016,Teleop Enabled,11,FALSE,0,NO ERROR,0.291339,25.820606,-0.291339,26.308272,FALSE,FALSE,TRUE,FALSE,FALSE,FALSE,Disabled,0.000000,0.833747,38.866253,TRUE,13.438614,-5.464142,0.000000,0.254898,0.000000,0.000000,0.064000,-0.060000,0.170000,3.250000,-1.210000,-6.320000,8.040050,Hold,0.956299,50.000000,Hold,-65.000000,143360.000000,LowGoal,2092.500000,-2181.818182,Speed,2032.500000,-2181.818182,Speed,Off,Off,0.000000,FALSE,0,,,,,0.000000,0.000000
03:15:41.121 PM 04/09/2016,Teleop Enabled,11,FALSE,0,NO ERROR,0.291339,25.820606,-0.291339,26.308272,FALSE,FALSE,TRUE,FALSE,FALSE,FALSE,Disabled,0.000000,0.833747,38.866253,TRUE,13.438614,-5.464142,0.000000,0.254898,0.000000,0.000000,0.086000,0.002000,0.065000,3.180000,-1.200000,-6.320000,8.018971,Hold,3.663086,50.000000,Hold,-65.000000,143360.000000,LowGoal,2092.500000,-2181.818182,Speed,2032.500000,-2181.818182,Speed,Off,Off,0.000000,FALSE,0,,,,,0.000000,0.000000
03:15:41.222 PM 04/09/2016,Teleop Enabled,10,FALSE,0,NO ERROR,0.322835,25.820606,-0.322835,26.314688,FALSE,FALSE,TRUE,FALSE,FALSE,FALSE,Disabled,0.000000,0.833747,38.866253,TRUE,13.453323,-5.463257,0.000000,-0.032623,0.033585,0.000000,0.005000,0.081000,-0.009000,3.130000,-1.200000,-6.470000,8.017081,Hold,6.851074,50.000000,Hold,-7488.000000,143360.000000,LowGoal,2077.500000,-2181.818182,Speed,2025.000000,-2181.818182,Speed,Off,Off,0.000000,FALSE,0,,,,,0.000000,0.000000
03:15:41.322 PM 04/09/2016,Teleop Enabled,11,FALSE,0,NO ERROR,0.330709,25.820606,-0.330709,26.314688,FALSE,FALSE,TRUE,FALSE,FALSE,FALSE,Disabled,0.000000,0.833747,38.866253,TRUE,13.453323,-5.463257,0.000000,-0.032623,0.033585,0.000000,-0.139000,0.060000,0.042000,3.160000,-1.220000,-6.470000,8.017081,Hold,11.207031,50.000000,Hold,-19560.000000,143360.000000,LowGoal,2062.500000,-2181.818182,Speed,2025.000000,-2181.818182,Speed,Off,Off,0.000000,FALSE,0,,,,,0.000000,0.000000
03:15:41.422 PM 04/09/2016,Teleop Enabled,10,FALSE,0,NO ERROR,0.330709,25.827023,-0.330709,26.321105,FALSE,FALSE,TRUE,FALSE,FALSE,FALSE,Disabled,0.000000,0.833747,38.866253,TRUE,13.452194,-5.462982,0.000000,-0.013962,-0.036392,0.000000,0.183000,-0.086000,0.158000,3.210000,-1.200000,-6.550000,8.008254,Hold,16.145752,50.000000,Hold,-29579.000000,143360.000000,LowGoal,2062.500000,-2181.818182,Speed,2017.500000,-2181.818182,Speed,Off,Off,0.000000,FALSE,0,,,,,0.000000,0.000000
03:15:41.522 PM 04/09/2016,Teleop Enabled,11,FALSE,0,NO ERROR,0.330709,25.827023,-0.330709,26.321105,FALSE,FALSE,TRUE,FALSE,FALSE,FALSE,Disabled,0.000000,0.833747,38.866253,TRUE,13.452789,-5.465149,0.000000,0.025681,-0.055176,0.000000,-0.062000,0.128000,-0.102000,3.180000,-1.200000,-6.590000,8.008254,Hold,20.702393,50.000000,Hold,-40675.000000,143360.000000,LowGoal,2055.000000,-2181.818182,Speed,2010.000000,-2181.818182,Speed,Off,Off,0.000000,FALSE,0,,,,,0.000000,0.000000
03:15:41.624 PM 04/09/2016,Teleop Enabled,10,FALSE,0,NO ERROR,0.330709,25.827023,-0.330709,26.321105,FALSE,FALSE,TRUE,FALSE,FALSE,FALSE,Disabled,0.000000,0.833747,38.866253,TRUE,13.450882,-5.462601,0.000000,-0.053192,0.133331,0.000000,-0.182000,0.000000,-0.114000,3.130000,-1.190000,-6.870000,8.006767,Hold,27.030273,50.000000,Hold,-53473.000000,143360.000000,LowGoal,2055.000000,-2181.818182,Speed,2010.000000,-2181.818182,Speed,Off,Off,0.000000,FALSE,0,,,,,0.000000,0.000000
03:15:41.724 PM 04/09/2016,Teleop Enabled,10,FALSE,0,NO ERROR,0.330709,25.827023,-0.330709,26.321105,FALSE,FALSE,TRUE,FALSE,FALSE,FALSE,Disabled,0.000000,0.833747,38.866253,TRUE,13.446198,-5.455307,0.000000,-0.074280,0.089203,0.000000,0.023000,-0.295000,0.111000,3.190000,-1.210000,-6.810000,7.994432,Hold,34.751953,50.000000,Hold,-67379.000000,143360.000000,LowGoal,2062.500000,-2181.818182,Speed,2010.000000,-2181.818182,Speed,Off,Off,0.000000,FALSE,0,,,,,0.000000,0.000000
03:15:41.824 PM 04/09/2016,Teleop Enabled,9,FALSE,0,NO ERROR,0.330709,25.833440,-0.330709,26.321105,FALSE,FALSE,TRUE,FALSE,FALSE,FALSE,Disabled,0.000000,0.833747,38.866253,TRUE,13.444672,-5.457748,0.000000,0.018921,-0.102142,0.000000,-0.071000,0.154000,-0.003000,3.200000,-1.200000,-6.910000,7.997207,Hold,44.120605,50.000000,Hold,-67379.000000,143360.000000,LowGoal,2077.500000,-2181.818182,Speed,2010.000000,-2181.818182,Speed,Off,Off,0.000000,FALSE,0,,,,,0.000000,0.000000
03:15:41.924 PM 04/09/2016,Teleop Enabled,11,FALSE,0,NO ERROR,0.330709,25.839856,-0.330709,26.321105,FALSE,FALSE,TRUE,FALSE,FALSE,FALSE,Disabled,0.000000,0.833747,38.866253,TRUE,13.444901,-5.460999,0.000000,-0.028427,-0.018555,0.000000,-0.027000,0.092000,-0.126000,3.170000,-1.180000,-7.020000,8.020524,Hold,53.043457,50.000000,Hold,-81270.000000,143360.000000,LowGoal,2002.500000,-2181.818182,Speed,2010.000000,-2181.818182,Speed,Off,Off,0.000000,FALSE,0,,,,,0.000000,0.000000
03:15:42.024 PM 04/09/2016,Teleop Enabled,10,FALSE,0,NO ERROR,0.362205,25.865523,-0.362205,26.346772,FALSE,FALSE,TRUE,FALSE,FALSE,FALSE,Disabled,0.000000,0.833747,38.866253,TRUE,13.442032,-5.459137,0.000000,-0.061691,0.045197,0.000000,-0.029000,-0.134000,0.023000,3.260000,-1.190000,-7.110000,8.030514,Hold,55.336182,50.000000,Hold,-97285.000000,143360.000000,LowGoal,1845.000000,-2181.818182,Speed,2010.000000,-2181.818182,Speed,Off,Off,0.000000,FALSE,0,,,,,0.000000,0.000000
03:15:42.124 PM 04/09/2016,Teleop Enabled,11,FALSE,0,NO ERROR,0.362205,25.871940,-0.362205,26.346772,FALSE,FALSE,TRUE,FALSE,FALSE,FALSE,Disabled,0.000000,0.833747,38.866253,TRUE,13.438644,-5.456757,0.000000,-0.094101,0.059982,0.000000,0.017000,0.014000,0.005000,3.200000,-1.180000,-7.140000,8.029732,Hold,55.274170,50.000000,Hold,-113064.000000,143360.000000,LowGoal,1957.500000,-2181.818182,Speed,1995.000000,-2181.818182,Speed,Off,Off,0.000000,FALSE,0,,,,,0.000000,0.000000
03:15:42.225 PM 04/09/2016,Teleop Enabled,11,FALSE,0,NO ERROR,0.362205,25.878356,-0.362205,26.372438,FALSE,FALSE,TRUE,FALSE,FALSE,FALSE,Disabled,0.000000,0.833747,38.866253,TRUE,13.436905,-5.454651,0.000000,0.016876,0.012543,0.000000,0.061000,-0.172000,-0.031000,3.230000,-1.200000,-7.160000,8.026421,Hold,55.218018,50.000000,Hold,-129201.000000,143360.000000,LowGoal,2077.500000,-2181.818182,Speed,1995.000000,-2181.818182,Speed,Off,Off,0.000000,FALSE,0,,,,,0.000000,0.000000
03:15:42.326 PM 04/09/2016,Teleop Enabled,9,FALSE,0,NO ERROR,0.362205,25.884773,-0.362205,26.372438,FALSE,FALSE,TRUE,FALSE,FALSE,FALSE,Disabled,0.000000,0.833747,38.866253,TRUE,13.441345,-5.458557,0.000000,0.072189,-0.085922,0.000000,0.040000,-0.063000,-0.197000,3.240000,-1.200000,-7.170000,8.016124,Hold,55.216064,50.000000,Hold,-144774.000000,143360.000000,LowGoal,2070.000000,-2181.818182,Speed,1995.000000,-2181.818182,Speed,Off,Off,0.000000,FALSE,0,,,,,0.000000,0.000000
03:15:42.426 PM 04/09/2016,Teleop Enabled,11,FALSE,0,NO ERROR,0.307087,25.897606,-0.307087,26.385272,FALSE,FALSE,TRUE,FALSE,FALSE,FALSE,Disabled,0.000000,0.833747,38.866253,TRUE,13.445053,-5.464874,0.000000,0.074738,-0.120682,0.000000,-0.069000,-0.014000,-0.007000,3.140000,-1.220000,-7.140000,8.001548,Hold,55.113037,50.000000,Hold,-143418.000000,143360.000000,LowGoal,2040.000000,-2181.818182,Speed,1995.000000,-2181.818182,Speed,Off,Off,0.000000,FALSE,0,,,,,0.000000,0.000000
03:15:42.528 PM 04/09/2016,Teleop Enabled,9,FALSE,0,NO ERROR,-0.000000,25.897606,-0.000000,26.385272,FALSE,FALSE,TRUE,FALSE,FALSE,FALSE,Disabled,0.000000,0.833747,38.866253,TRUE,13.448715,-5.467072,0.000000,0.101868,-0.004089,0.000000,0.036000,-0.011000,0.095000,3.170000,-1.210000,-7.150000,7.995944,Hold,55.109375,50.000000,Hold,-143418.000000,143360.000000,LowGoal,2055.000000,-2181.818182,Speed,1995.000000,-2181.818182,Speed,Off,Off,0.000000,FALSE,0,,,,,0.000000,0.000000
03:15:42.628 PM 04/09/2016,Teleop Enabled,9,FALSE,0,NO ERROR,-0.000000,25.705107,-0.000000,26.192772,FALSE,FALSE,TRUE,FALSE,FALSE,FALSE,Disabled,0.000000,0.833747,38.866253,TRUE,13.455444,-5.467392,0.000000,0.171600,-0.000809,0.000000,-0.004000,0.046000,-0.186000,3.100000,-1.240000,-6.520000,7.997971,Hold,55.073730,50.000000,Hold,-143418.000000,143360.000000,LowGoal,2077.500000,-2181.818182,Speed,2010.000000,-2181.818182,Speed,Off,Off,0.000000,FALSE,0,,,,,0.000000,0.000000
03:15:42.728 PM 04/09/2016,Teleop Enabled,11,FALSE,0,NO ERROR,-0.000000,25.320107,-0.000000,25.737190,FALSE,FALSE,TRUE,FALSE,FALSE,FALSE,Disabled,0.000000,0.833747,38.866253,TRUE,13.462173,-5.467224,0.000000,0.168427,-0.003922,0.000000,-0.058000,-0.006000,0.055000,3.100000,-1.130000,-6.260000,8.100952,Hold,54.852783,50.000000,Hold,-143418.000000,143360.000000,LowGoal,2100.000000,-2181.818182,Speed,2055.000000,-2181.818182,Speed,Off,Off,0.000000,FALSE,0,,,,,0.000000,0.000000
03:15:42.828 PM 04/09/2016,Teleop Enabled,10,FALSE,0,NO ERROR,-0.000000,24.858109,-0.000000,25.281608,FALSE,FALSE,TRUE,FALSE,FALSE,FALSE,Disabled,0.000000,0.833747,38.866253,TRUE,13.470718,-5.467545,0.000000,0.192200,-0.009521,0.000000,-0.049000,-0.032000,0.079000,3.100000,-1.160000,-6.210000,8.093316,Hold,54.820801,50.000000,Hold,-143418.000000,143360.000000,LowGoal,2115.000000,-2181.818182,Speed,2077.500000,-2181.818182,Speed,Off,Off,0.000000,FALSE,0,,,,,0.000000,0.000000
03:15:42.928 PM 04/09/2016,Teleop Enabled,8,FALSE,0,NO ERROR,-0.000000,24.357610,-0.000000,24.768275,FALSE,FALSE,TRUE,FALSE,FALSE,FALSE,Disabled,0.000000,0.833747,38.866253,TRUE,13.481567,-5.467453,0.000000,0.179626,0.007950,0.000000,0.063000,0.053000,0.108000,3.100000,-1.130000,-6.240000,8.068940,Hold,54.815186,50.000000,Hold,-143418.000000,143360.000000,LowGoal,2122.500000,-2181.818182,Speed,2077.500000,-2181.818182,Speed,Off,Off,0.000000,FALSE,0,,,,,0.000000,0.000000
03:15:43.029 PM 04/09/2016,Teleop Enabled,9,FALSE,0,NO ERROR,-0.000000,23.812194,-0.000000,24.203610,FALSE,FALSE,TRUE,FALSE,FALSE,FALSE,Disabled,0.000000,0.833747,38.866253,TRUE,13.493347,-5.466537,0.000000,0.182755,0.002090,0.000000,0.054000,0.015000,0.073000,3.070000,-1.100000,-6.240000,8.120148,Hold,54.815186,50.000000,Hold,-143418.000000,143360.000000,LowGoal,2115.000000,-2181.818182,Speed,2070.000000,-2181.818182,Speed,Off,Off,0.000000,FALSE,0,,,,,0.000000,0.000000
03:15:43.129 PM 04/09/2016,Teleop Enabled,9,FALSE,0,NO ERROR,-0.000000,23.228279,-0.000000,23.613278,FALSE,FALSE,TRUE,FALSE,FALSE,FALSE,Disabled,0.000000,0.833747,38.866253,TRUE,13.504715,-5.467529,0.000000,0.243378,-0.047180,0.000000,-0.082000,-0.022000,-0.028000,3.100000,-1.080000,-6.170000,8.132235,Hold,54.815186,50.000000,Hold,-143418.000000,143360.000000,LowGoal,2100.000000,-2181.818182,Speed,2077.500000,-2181.818182,Speed,Off,Off,0.000000,FALSE,0,,,,,0.000000,0.000000
03:15:43.229 PM 04/09/2016,Teleop Enabled,10,FALSE,0,NO ERROR,-0.000000,22.670030,-0.000000,23.003696,FALSE,FALSE,TRUE,FALSE,FALSE,FALSE,Disabled,0.000000,0.833747,38.866253,TRUE,13.513580,-5.469818,0.000000,0.232254,-0.054382,0.000000,-0.040000,-0.041000,-0.095000,3.140000,-1.020000,-6.230000,8.171407,Hold,54.815186,50.000000,Hold,-143418.000000,143360.000000,LowGoal,2107.500000,-2181.818182,Speed,2077.500000,-2181.818182,Speed,Off,Off,0.000000,FALSE,0,,,,,0.000000,0.000000
03:15:43.330 PM 04/09/2016,Teleop Enabled,8,FALSE,0,NO ERROR,-0.000000,22.105365,-0.000000,22.419781,FALSE,FALSE,TRUE,FALSE,FALSE,FALSE,Disabled,0.000000,0.833747,38.866253,TRUE,13.522797,-5.471344,0.000000,0.000809,0.003159,0.000000,-0.098000,0.082000,0.004000,3.140000,-0.960000,-6.330000,8.214611,Hold,54.815186,50.000000,Hold,-143418.000000,143360.000000,LowGoal,2115.000000,-2181.818182,Speed,2070.000000,-2181.818182,Speed,Off,Off,0.000000,FALSE,0,,,,,0.000000,0.000000
03:15:43.430 PM 04/09/2016,Teleop Enabled,10,FALSE,0,NO ERROR,-0.000000,21.553533,-0.000000,21.867949,FALSE,FALSE,TRUE,FALSE,FALSE,FALSE,Disabled,0.000000,0.833747,38.866253,TRUE,13.521896,-5.470627,0.000000,-0.052170,0.028168,0.000000,-0.108000,0.144000,-0.050000,3.140000,-0.960000,-6.300000,8.234045,Hold,54.815186,50.000000,Hold,-143418.000000,143360.000000,LowGoal,2122.500000,-2181.818182,Speed,2077.500000,-2181.818182,Speed,Off,Off,0.000000,FALSE,0,,,,,0.000000,0.000000
03:15:43.531 PM 04/09/2016,Teleop Enabled,11,FALSE,0,NO ERROR,-0.000000,21.014534,-0.000000,21.316117,FALSE,FALSE,TRUE,FALSE,FALSE,FALSE,Disabled,0.000000,0.833747,38.866253,TRUE,13.516739,-5.466766,0.000000,-0.109497,0.098801,0.000000,-0.017000,0.004000,0.144000,3.120000,-0.930000,-6.300000,8.264332,Hold,54.815186,50.000000,Hold,-143418.000000,143360.000000,LowGoal,2122.500000,-2181.818182,Speed,2077.500000,-2181.818182,Speed,Off,Off,0.000000,FALSE,0,,,,,0.000000,0.000000
03:15:43.631 PM 04/09/2016,Teleop Enabled,1,FALSE,0,NO ERROR,-0.000000,20.745035,-0.000000,21.149284,FALSE,FALSE,TRUE,FALSE,FALSE,FALSE,Disabled,0.000000,0.833747,38.866253,TRUE,13.505127,-5.461212,0.000000,-0.272064,0.085251,0.000000,0.119000,0.070000,-0.241000,3.020000,-1.090000,-7.340000,8.103730,Hold,54.815186,50.000000,Hold,-143418.000000,143360.000000,LowGoal,2122.500000,-2181.818182,Speed,2070.000000,-2181.818182,Speed,Off,Off,0.000000,FALSE,0,,,,,0.000000,0.000000
03:15:43.731 PM 04/09/2016,Teleop Enabled,11,FALSE,0,NO ERROR,-0.000000,20.745035,-0.000000,21.181367,FALSE,FALSE,TRUE,FALSE,FALSE,FALSE,Disabled,0.000000,0.833747,38.866253,TRUE,13.496033,-5.456467,0.000000,-0.198074,0.133789,0.000000,0.039000,-0.137000,0.003000,3.000000,-1.200000,-6.490000,7.979898,Hold,54.803467,50.000000,Hold,-143418.000000,143360.000000,LowGoal,2122.500000,-2181.818182,Speed,2070.000000,-2181.818182,Speed,Off,Off,0.000000,FALSE,0,,,,,0.000000,0.000000
03:15:43.831 PM 04/09/2016,Teleop Enabled,12,FALSE,0,NO ERROR,-0.000000,20.712952,-0.000000,21.162117,FALSE,FALSE,TRUE,FALSE,FALSE,FALSE,Disabled,0.000000,0.833747,38.866253,TRUE,13.484543,-5.452011,0.000000,-0.192352,0.066406,0.000000,0.037000,-0.005000,-0.063000,3.140000,-1.290000,-6.740000,7.914630,Hold,54.801025,50.000000,Hold,-143418.000000,143360.000000,LowGoal,2115.000000,-2181.818182,Speed,2070.000000,-2181.818182,Speed,Off,Off,0.000000,FALSE,0,,,,,0.000000,0.000000
03:15:43.931 PM 04/09/2016,Teleop Enabled,8,FALSE,0,NO ERROR,-0.000000,20.712952,-0.000000,21.155701,FALSE,FALSE,TRUE,FALSE,FALSE,FALSE,Disabled,0.000000,0.833747,38.866253,TRUE,13.475555,-5.447784,0.000000,-0.140869,0.037125,0.000000,0.037000,-0.005000,-0.063000,2.980000,-1.260000,-6.680000,7.966761,Hold,54.799561,50.000000,Hold,-143418.000000,143360.000000,LowGoal,2115.000000,-2181.818182,Speed,2077.500000,-2181.818182,Speed,Off,Off,0.000000,FALSE,0,,,,,0.000000,0.000000
03:15:44.032 PM 04/09/2016,Teleop Enabled,9,FALSE,0,NO ERROR,-0.000000,20.712952,-0.000000,21.155701,FALSE,FALSE,TRUE,FALSE,FALSE,FALSE,Disabled,0.000000,0.833747,38.866253,TRUE,13.470306,-5.446411,0.000000,-0.075165,0.022903,0.000000,-0.076000,-0.068000,-0.032000,3.080000,-1.260000,-6.780000,7.920827,Hold,54.799561,50.000000,Hold,-143418.000000,143360.000000,LowGoal,2107.500000,-2181.818182,Speed,2077.500000,-2181.818182,Speed,Off,Off,0.000000,FALSE,0,,,,,0.000000,0.000000
03:15:44.133 PM 04/09/2016,Teleop Enabled,10,FALSE,0,NO ERROR,-0.000000,20.712952,-0.000000,21.155701,FALSE,FALSE,TRUE,FALSE,FALSE,FALSE,Disabled,0.000000,0.833747,38.866253,TRUE,13.466278,-5.445938,0.000000,-0.123489,0.019226,0.000000,-0.076000,-0.068000,-0.032000,3.100000,-1.260000,-6.700000,7.935940,Hold,54.799316,50.000000,Hold,-143418.000000,143360.000000,LowGoal,2115.000000,-2181.818182,Speed,2070.000000,-2181.818182,Speed,Off,Off,0.000000,FALSE,0,,,,,0.000000,0.000000
03:15:44.233 PM 04/09/2016,Teleop Enabled,9,FALSE,0,NO ERROR,-0.000000,20.712952,-0.000000,21.155701,FALSE,FALSE,TRUE,FALSE,FALSE,FALSE,Disabled,0.000000,0.833747,38.866253,TRUE,13.458832,-5.444595,0.000000,-0.164932,0.048477,0.000000,-0.051000,0.105000,-0.043000,3.100000,-1.260000,-6.700000,7.931062,Hold,54.799316,50.000000,Hold,-143418.000000,143360.000000,LowGoal,2130.000000,-2181.818182,Speed,2070.000000,-2181.818182,Speed,Off,Off,0.000000,FALSE,0,,,,,0.000000,0.000000
03:15:44.334 PM 04/09/2016,Teleop Enabled,12,FALSE,0,NO ERROR,-0.000000,20.712952,-0.000000,21.155701,FALSE,FALSE,TRUE,FALSE,FALSE,FALSE,Disabled,0.000000,0.833747,38.866253,TRUE,13.449066,-5.439499,0.000000,-0.196548,0.114853,0.000000,-0.022000,0.041000,0.082000,3.070000,-1.270000,-6.650000,7.944694,Hold,54.798584,50.000000,Hold,-143418.000000,143360.000000,LowGoal,2122.500000,-2181.818182,Speed,2077.500000,-2181.818182,Speed,Off,Off,0.000000,FALSE,0,,,,,0.000000,0.000000
03:15:44.434 PM 04/09/2016,Teleop Enabled,10,FALSE,0,NO ERROR,-0.000000,20.712952,-0.000000,21.155701,FALSE,FALSE,TRUE,FALSE,FALSE,FALSE,Disabled,0.000000,0.833747,38.866253,TRUE,13.438675,-5.434113,0.000000,-0.213562,0.083221,0.000000,-0.022000,0.041000,0.082000,3.070000,-1.270000,-6.650000,7.937169,Hold,54.798584,50.000000,Hold,-143418.000000,143360.000000,LowGoal,2115.000000,-2181.818182,Speed,2070.000000,-2181.818182,Speed,Off,Off,0.000000,FALSE,0,,,,,0.000000,0.000000
03:15:44.534 PM 04/09/2016,Teleop Enabled,9,FALSE,0,NO ERROR,-0.000000,20.712952,-0.000000,21.155701,FALSE,FALSE,TRUE,FALSE,FALSE,FALSE,Disabled,0.000000,0.833747,38.866253,TRUE,13.427856,-5.429398,0.000000,-0.128983,0.079651,0.000000,0.092000,-0.086000,0.042000,3.160000,-1.280000,-6.630000,7.948560,Hold,54.798584,50.000000,Hold,-143418.000000,143360.000000,LowGoal,2130.000000,-2181.818182,Speed,2077.500000,-2181.818182,Speed,Off,Off,0.000000,FALSE,0,,,,,0.000000,0.000000
03:15:44.634 PM 04/09/2016,Teleop Enabled,12,FALSE,0,NO ERROR,-0.000000,20.712952,-0.000000,21.155701,FALSE,FALSE,TRUE,FALSE,FALSE,FALSE,Disabled,0.000000,0.833747,38.866253,TRUE,13.426956,-5.427048,0.000000,0.005081,0.038223,0.000000,-0.194000,0.000000,0.021000,3.160000,-1.280000,-6.630000,7.948615,Hold,54.798340,50.000000,Hold,-143418.000000,143360.000000,LowGoal,2130.000000,-2181.818182,Speed,2077.500000,-2181.818182,Speed,Off,Off,0.000000,FALSE,0,,,,,0.000000,0.000000
03:15:44.734 PM 04/09/2016,Teleop Enabled,9,FALSE,0,NO ERROR,-0.000000,20.712952,-0.000000,21.155701,FALSE,FALSE,TRUE,FALSE,FALSE,FALSE,Disabled,0.000000,0.833747,38.866253,TRUE,13.425446,-5.426712,0.000000,-0.010452,0.000000,0.000000,0.017000,0.001000,-0.096000,3.170000,-1.290000,-6.610000,7.962114,Hold,54.798340,50.000000,Hold,-143418.000000,143360.000000,LowGoal,2122.500000,-2181.818182,Speed,2077.500000,-2181.818182,Speed,Off,Off,0.000000,FALSE,0,,,,,0.000000,0.000000
03:15:44.837 PM 04/09/2016,Teleop Enabled,9,FALSE,0,NO ERROR,-0.000000,20.712952,-0.000000,21.155701,FALSE,FALSE,TRUE,FALSE,FALSE,FALSE,Disabled,0.000000,0.833747,38.866253,TRUE,13.425186,-5.427567,0.000000,-0.006500,-0.032257,0.000000,0.017000,0.001000,-0.096000,3.170000,-1.290000,-6.610000,7.973801,Hold,54.798340,50.000000,Hold,-143418.000000,143360.000000,LowGoal,2115.000000,-2181.818182,Speed,2077.500000,-2181.818182,Speed,Off,Off,0.000000,FALSE,0,,,,,0.000000,0.000000
03:15:44.936 PM 04/09/2016,Teleop Enabled,8,FALSE,0,NO ERROR,-0.000000,20.712952,-0.000000,21.155701,FALSE,FALSE,TRUE,FALSE,FALSE,FALSE,Disabled,0.000000,0.833747,38.866253,TRUE,13.423981,-5.429596,0.000000,-0.055099,-0.062683,0.000000,-0.076000,-0.057000,0.004000,3.110000,-1.290000,-6.620000,7.974132,Hold,54.798340,50.000000,Hold,-143418.000000,143360.000000,LowGoal,2107.500000,-2181.818182,Speed,2077.500000,-2181.818182,Speed,Off,Off,0.000000,FALSE,0,,,,,0.000000,0.000000
03:15:45.038 PM 04/09/2016,Teleop Enabled,10,FALSE,0,NO ERROR,-0.000000,20.712952,-0.000000,21.155701,FALSE,FALSE,TRUE,FALSE,FALSE,FALSE,Disabled,0.000000,0.833747,38.866253,TRUE,13.420334,-5.428558,0.000000,-0.046783,0.069458,0.000000,0.010000,0.018000,0.024000,3.110000,-1.290000,-6.620000,7.972975,Hold,54.798340,50.000000,Hold,-143418.000000,143360.000000,LowGoal,2100.000000,-2181.818182,Speed,2077.500000,-2181.818182,Speed,Off,Off,0.000000,FALSE,0,,,,,0.000000,0.000000
03:15:45.142 PM 04/09/2016,Teleop Enabled,10,FALSE,0,NO ERROR,-0.000000,20.712952,-0.000000,21.155701,FALSE,FALSE,TRUE,FALSE,FALSE,FALSE,Disabled,0.000000,0.833747,38.866253,TRUE,13.416168,-5.424973,0.000000,-0.072906,0.064484,0.000000,-0.128000,-0.022000,0.095000,3.130000,-1.280000,-6.610000,7.971884,Hold,54.798340,50.000000,Hold,-143418.000000,143360.000000,LowGoal,2115.000000,-2181.818182,Speed,2077.500000,-2181.818182,Speed,Off,Off,0.000000,FALSE,0,,,,,0.000000,0.000000
03:15:45.242 PM 04/09/2016,Teleop Enabled,10,FALSE,0,NO ERROR,-0.000000,20.712952,-0.000000,21.155701,FALSE,FALSE,TRUE,FALSE,FALSE,FALSE,Disabled,0.000000,0.833747,38.866253,TRUE,13.413300,-5.422745,0.000000,-0.023483,0.015961,0.000000,-0.015000,-0.022000,0.123000,3.120000,-1.280000,-6.650000,7.958255,Hold,54.798340,50.000000,Hold,-143418.000000,143360.000000,LowGoal,2122.500000,-2181.818182,Speed,2070.000000,-2181.818182,Speed,Off,Off,0.000000,FALSE,0,,,,,0.000000,0.000000
03:15:45.343 PM 04/09/2016,Teleop Enabled,12,FALSE,0,NO ERROR,-0.000000,20.712952,-0.000000,21.155701,FALSE,FALSE,TRUE,FALSE,FALSE,FALSE,Disabled,0.000000,0.833747,38.866253,TRUE,13.413300,-5.422745,0.000000,-0.023483,0.015961,0.000000,0.035000,-0.045000,0.084000,3.190000,-1.290000,-6.630000,7.963515,Hold,54.798340,50.000000,Hold,-143418.000000,143360.000000,LowGoal,2107.500000,-2181.818182,Speed,2077.500000,-2181.818182,Speed,Off,Off,0.000000,FALSE,0,,,,,0.000000,0.000000
03:15:45.443 PM 04/09/2016,Teleop Enabled,10,FALSE,0,NO ERROR,-0.000000,20.712952,-0.000000,21.155701,FALSE,FALSE,TRUE,FALSE,FALSE,FALSE,Disabled,0.000000,0.833747,38.866253,TRUE,13.411880,-5.423401,0.000000,-0.037994,-0.017548,0.000000,0.041000,-0.036000,-0.106000,3.230000,-1.290000,-6.630000,7.972520,Hold,54.798340,50.000000,Hold,-143418.000000,143360.000000,LowGoal,2115.000000,-2181.818182,Speed,2077.500000,-2181.818182,Speed,Off,Off,0.000000,FALSE,0,,,,,0.000000,0.000000
03:15:45.543 PM 04/09/2016,Teleop Enabled,10,FALSE,0,NO ERROR,-0.000000,20.712952,-0.000000,21.155701,FALSE,FALSE,TRUE,FALSE,FALSE,FALSE,Disabled,0.000000,0.833747,38.866253,TRUE,13.411682,-5.424973,0.000000,0.019684,-0.035110,0.000000,-0.077000,0.032000,-0.098000,3.120000,-1.300000,-6.570000,7.979158,Hold,54.798340,50.000000,Hold,-143418.000000,143360.000000,LowGoal,2122.500000,-2181.818182,Speed,2077.500000,-2181.818182,Speed,Off,Off,0.000000,FALSE,0,,,,,0.000000,0.000000
03:15:45.645 PM 04/09/2016,Teleop Enabled,11,FALSE,0,NO ERROR,-0.000000,20.712952,-0.000000,21.155701,FALSE,FALSE,TRUE,FALSE,FALSE,FALSE,Disabled,0.000000,0.833747,38.866253,TRUE,13.407852,-5.425507,0.000000,-0.080978,0.002090,0.000000,-0.024000,0.036000,-0.131000,3.090000,-1.300000,-6.640000,7.979395,Hold,54.798340,50.000000,Hold,-143418.000000,143360.000000,LowGoal,2122.500000,-2181.818182,Speed,2077.500000,-2181.818182,Speed,Off,Off,0.503937,FALSE,0,,,,,0.000000,0.000000
03:15:45.744 PM 04/09/2016,Teleop Enabled,11,FALSE,0,NO ERROR,-0.000000,20.712952,-0.000000,21.155701,FALSE,FALSE,TRUE,FALSE,FALSE,FALSE,Disabled,0.000000,0.833747,38.866253,TRUE,13.405914,-5.424957,0.000000,-0.023743,0.025497,0.000000,0.134000,-0.030000,0.079000,3.090000,-1.300000,-6.640000,7.974221,Hold,54.798340,50.000000,Hold,-143418.000000,143360.000000,LowGoal,2122.500000,-2181.818182,Speed,2085.000000,-2181.818182,Speed,Off,Off,0.566929,FALSE,0,,,,,0.000000,0.000000
03:15:45.844 PM 04/09/2016,Teleop Enabled,6,FALSE,0,NO ERROR,-0.000000,20.712952,-0.000000,21.155701,FALSE,FALSE,TRUE,FALSE,FALSE,FALSE,Disabled,0.000000,0.833747,38.866253,TRUE,13.402512,-5.424423,0.000000,-0.080460,0.004196,0.000000,-0.131000,-0.070000,0.152000,3.100000,-1.310000,-6.550000,7.974879,Hold,54.798340,50.000000,Hold,-143418.000000,143360.000000,LowGoal,2122.500000,-2181.818182,Speed,2077.500000,-2181.818182,Speed,Off,Off,0.574803,FALSE,0,,,,,0.000000,0.000000
03:15:45.946 PM 04/09/2016,Teleop Enabled,11,FALSE,0,NO ERROR,-0.000000,20.712952,-0.000000,21.155701,FALSE,FALSE,TRUE,FALSE,FALSE,FALSE,Disabled,0.000000,0.833747,38.866253,TRUE,13.402512,-5.424423,0.000000,-0.080460,0.004196,0.000000,0.039000,-0.024000,-0.016000,3.090000,-1.310000,-6.630000,7.964238,Hold,54.798340,50.000000,Hold,-143418.000000,143360.000000,LowGoal,2122.500000,-2181.818182,Speed,2077.500000,-2181.818182,Speed,Off,Off,0.637795,FALSE,0,,,,,0.000000,0.000000
03:15:46.047 PM 04/09/2016,Teleop Enabled,11,FALSE,0,NO ERROR,-0.000000,20.712952,-0.000000,21.155701,FALSE,FALSE,TRUE,FALSE,FALSE,FALSE,Disabled,0.000000,0.833747,38.866253,TRUE,13.399506,-5.425171,0.000000,-0.057343,-0.037811,0.000000,0.075000,-0.004000,-0.018000,3.090000,-1.310000,-6.630000,7.957063,Hold,54.798340,50.000000,Hold,-143418.000000,143360.000000,LowGoal,2137.500000,-2181.818182,Speed,2077.500000,-2181.818182,Speed,Off,Off,0.637795,FALSE,0,,,,,0.000000,0.000000
03:15:46.147 PM 04/09/2016,Teleop Enabled,9,FALSE,0,NO ERROR,-0.000000,20.712952,-0.000000,21.155701,FALSE,FALSE,TRUE,FALSE,FALSE,FALSE,Disabled,0.000000,0.833747,38.866253,TRUE,13.396347,-5.428589,0.000000,-0.073776,-0.068726,0.000000,0.084000,-0.008000,0.019000,3.170000,-1.310000,-6.720000,7.953383,Hold,54.798340,50.000000,Hold,-143418.000000,143360.000000,LowGoal,2145.000000,-2181.818182,Speed,2077.500000,-2181.818182,Speed,Off,Off,0.637795,FALSE,0,,,,,0.000000,0.000000
03:15:46.248 PM 04/09/2016,Teleop Enabled,10,FALSE,0,NO ERROR,-0.000000,20.712952,-0.000000,21.155701,FALSE,FALSE,TRUE,FALSE,FALSE,FALSE,Disabled,0.000000,0.833747,38.866253,TRUE,13.394608,-5.432068,0.000000,-0.005051,-0.069122,0.000000,0.007000,-0.046000,0.040000,3.170000,-1.310000,-6.610000,7.957084,Hold,54.798340,50.000000,Hold,-143418.000000,143360.000000,LowGoal,2145.000000,-2181.818182,Speed,2085.000000,-2181.818182,Speed,Off,Off,0.755906,FALSE,0,,,,,0.000000,0.000000
03:15:46.348 PM 04/09/2016,Teleop Enabled,9,FALSE,0,NO ERROR,-0.000000,20.712952,-0.000000,21.155701,FALSE,FALSE,TRUE,FALSE,FALSE,FALSE,Disabled,0.000000,0.833747,38.866253,TRUE,13.394775,-5.435623,0.000000,0.008545,-0.100449,0.000000,-0.069000,0.026000,-0.084000,3.140000,-1.310000,-6.630000,7.957084,Hold,54.798340,50.000000,Hold,-143418.000000,143360.000000,LowGoal,2122.500000,-2181.818182,Speed,2077.500000,-2181.818182,Speed,Off,Off,0.921260,FALSE,0,,,,,0.000000,0.000000
03:15:46.448 PM 04/09/2016,Teleop Enabled,7,FALSE,0,NO ERROR,-0.000000,20.712952,-0.000000,21.155701,FALSE,FALSE,TRUE,FALSE,FALSE,FALSE,Disabled,0.000000,0.833747,38.866253,TRUE,13.392441,-5.441055,0.000000,-0.085876,-0.069336,0.000000,0.002000,0.127000,-0.052000,3.070000,-1.320000,-6.700000,7.955019,Hold,54.798340,50.000000,Hold,-143418.000000,143360.000000,LowGoal,2107.500000,-2181.818182,Speed,2085.000000,-2181.818182,Speed,Off,Off,1.000000,FALSE,0,,,,,0.000000,0.000000
03:15:46.548 PM 04/09/2016,Teleop Enabled,11,FALSE,0,NO ERROR,-0.000000,20.712952,-0.000000,21.155701,FALSE,FALSE,TRUE,FALSE,FALSE,FALSE,Disabled,0.000000,0.833747,38.866253,TRUE,13.388504,-5.442535,0.000000,-0.076462,-0.033829,0.000000,-0.021000,-0.067000,0.155000,3.060000,-1.320000,-6.670000,7.951855,Hold,54.798340,50.000000,Hold,-143418.000000,143360.000000,LowGoal,2107.500000,-2181.818182,Speed,2085.000000,-2181.818182,Speed,Off,Off,1.000000,FALSE,0,,,,,0.000000,0.000000
03:15:46.648 PM 04/09/2016,Teleop Enabled,10,FALSE,0,NO ERROR,-0.000000,20.712952,-0.000000,21.155701,FALSE,FALSE,TRUE,FALSE,FALSE,FALSE,Disabled,0.000000,0.833747,38.866253,TRUE,13.385956,-5.445801,0.000000,0.001068,-0.054245,0.000000,0.068000,-0.054000,0.077000,3.030000,-1.320000,-6.660000,7.965060,Hold,54.798340,50.000000,Hold,-143418.000000,143360.000000,LowGoal,2115.000000,-2181.818182,Speed,2077.500000,-2181.818182,Speed,Off,Off,1.000000,FALSE,0,,,,,0.000000,0.000000
03:15:46.748 PM 04/09/2016,Teleop Enabled,10,FALSE,0,NO ERROR,-0.000000,20.712952,-0.000000,21.155701,FALSE,FALSE,TRUE,FALSE,FALSE,FALSE,Disabled,0.000000,0.833747,38.866253,TRUE,13.387527,-5.450485,0.000000,0.060913,-0.114456,0.000000,0.027000,-0.097000,0.093000,3.050000,-1.320000,-6.660000,7.970775,Hold,54.798340,50.000000,Hold,-143418.000000,143360.000000,LowGoal,2122.500000,-2181.818182,Speed,2085.000000,-2181.818182,Speed,Off,Off,1.000000,FALSE,0,,,,,0.000000,0.000000
