Time,RobotMode,AutoToRun,ErrorStatus, ErrorCode,ErrorSource,ActualRPM1,ActualRPM2,DesiredRPM1,DesiredRPM2,ControlMode1,ControlMode2,NavXYaw,NavXRoll,NavXPitch,ShooterState,LoopTime,IsLevel,IsAutoTargeting,LeftMotorOutput,RightMotorOutput,IsHaloDrive,NavXVelocityX,NavXVelocityY,NavXVelocityZ,NavXDisplacementX,NavXDisplacementY,NavXDisplacementZ,NavXAccelerationX,NavXAccelerationY,NavXAccelerationZ,AutoDefendState,AngeMotorState,Photoeye,VisionXOutput
07:51:42.330 PM 02/18/2016,Autonomous Disabled,0,TRUE,91,Variant To Data in WPI_DigitalInputRefNum Registry Get.vi->Periodic Tasks.vi->Robot Main.vi,-6094.921875,5992.968750,-6000.000000,-6000.000000,Speed,Speed,-36.530000,1.080000,1.220000,1.000000,101.000000,1,0,-0.000000,0.000000,1,0.107681,-0.088104,0.000000,4.377380,46.143173,0.000000,0.051000,0.045000,-0.100000,FlatInitial,Hold,0,0.096875,-36.530000
07:51:42.430 PM 02/18/2016,Teleop Disabled,0,TRUE,-44007,<LOCATION>WPI_DigitalInputRefNum Registry Get.vi<CALLSTACK>WPI_DigitalInputRefNum Registry Get.vi< <Periodic Tasks.vi< <Robot Main.vi,0.000000,0.000000,0.000000,0.000000,Speed,Speed,-36.530000,1.080000,1.220000,0.000000,14116.000000,1,0,-0.000000,0.000000,1,0.107681,-0.088104,0.000000,4.377380,46.143173,0.000000,0.051000,0.045000,-0.100000,FlatInitial,ResetBack,0,0.096875,-36.530000
07:51:42.530 PM 02/18/2016,Teleop Disabled,0,FALSE,0,NO ERROR,0.000000,0.000000,0.000000,0.000000,Speed,Speed,-0.010000,1.060000,1.650000,0.000000,101.000000,1,0,-0.000000,0.000000,1,0.000000,0.000000,0.000000,4.218521,46.498154,0.000000,0.000000,0.000000,-0.002000,FlatInitial,ResetBack,0,0.096875,-0.010000
07:51:42.630 PM 02/18/2016,Teleop Disabled,0,FALSE,0,NO ERROR,0.000000,0.000000,0.000000,0.000000,Speed,Speed,-0.010000,1.070000,1.640000,0.000000,101.000000,1,0,-0.000000,0.000000,1,0.000000,0.000000,0.000000,4.218521,46.498154,0.000000,-0.001000,0.000000,0.000000,FlatInitial,ResetBack,0,0.096875,-0.010000
07:51:42.730 PM 02/18/2016,Teleop Disabled,0,FALSE,0,NO ERROR,0.000000,0.000000,0.000000,0.000000,Speed,Speed,-0.010000,1.060000,1.640000,0.000000,102.000000,1,0,-0.000000,0.000000,1,0.000000,0.000000,0.000000,4.218521,46.498154,0.000000,0.000000,-0.004000,0.003000,FlatInitial,ResetBack,0,0.096875,-0.010000
07:51:42.832 PM 02/18/2016,Teleop Disabled,0,FALSE,0,NO ERROR,0.000000,0.000000,0.000000,0.000000,Speed,Speed,-0.010000,1.060000,1.640000,0.000000,101.000000,1,0,-0.000000,0.000000,1,0.000000,0.000000,0.000000,4.218521,46.498154,0.000000,-0.001000,-0.001000,0.005000,FlatInitial,ResetBack,0,0.096875,-0.010000
07:51:42.932 PM 02/18/2016,Teleop Disabled,0,FALSE,0,NO ERROR,0.000000,0.000000,0.000000,0.000000,Speed,Speed,-0.010000,1.060000,1.640000,0.000000,102.000000,1,0,-0.000000,0.000000,1,0.000000,0.000000,0.000000,4.218521,46.498154,0.000000,0.000000,0.000000,-0.001000,FlatInitial,ResetBack,0,0.096875,-0.010000
07:51:43.032 PM 02/18/2016,Teleop Disabled,0,FALSE,0,NO ERROR,0.000000,0.000000,0.000000,0.000000,Speed,Speed,-0.010000,1.060000,1.630000,0.000000,102.000000,1,0,-0.000000,0.000000,1,0.000000,0.000000,0.000000,4.218521,46.498154,0.000000,-0.002000,0.000000,-0.002000,FlatInitial,ResetBack,0,0.096875,-0.010000
07:51:43.132 PM 02/18/2016,Teleop Disabled,0,FALSE,0,NO ERROR,0.000000,0.000000,0.000000,0.000000,Speed,Speed,-0.010000,1.060000,1.640000,0.000000,100.000000,1,0,-0.000000,0.000000,1,0.000000,0.000000,0.000000,4.218521,46.498154,0.000000,0.000000,0.000000,0.006000,FlatInitial,ResetBack,0,0.096875,-0.010000
07:51:43.232 PM 02/18/2016,Teleop Disabled,0,FALSE,0,NO ERROR,0.000000,0.000000,0.000000,0.000000,Speed,Speed,-0.010000,1.060000,1.640000,0.000000,101.000000,1,0,-0.000000,0.000000,1,0.000000,0.000000,0.000000,4.218521,46.498154,0.000000,0.000000,0.002000,0.007000,FlatInitial,ResetBack,0,0.096875,-0.010000
07:51:43.332 PM 02/18/2016,Teleop Disabled,0,FALSE,0,NO ERROR,0.000000,0.000000,0.000000,0.000000,Speed,Speed,-0.010000,1.060000,1.640000,0.000000,103.000000,1,0,-0.000000,0.000000,1,0.000000,0.000000,0.000000,4.218521,46.498154,0.000000,0.002000,0.000000,0.000000,FlatInitial,ResetBack,0,0.096875,-0.010000
07:51:43.432 PM 02/18/2016,Teleop Disabled,0,FALSE,0,NO ERROR,0.000000,0.000000,0.000000,0.000000,Speed,Speed,-0.010000,1.060000,1.640000,0.000000,100.000000,1,0,-0.000000,0.000000,1,0.000000,0.000000,0.000000,4.218521,46.498154,0.000000,0.001000,-0.001000,0.004000,FlatInitial,ResetBack,0,0.096875,-0.010000
07:51:43.532 PM 02/18/2016,Teleop Disabled,0,FALSE,0,NO ERROR,0.000000,0.000000,0.000000,0.000000,Speed,Speed,-0.010000,1.060000,1.640000,0.000000,102.000000,1,0,-0.000000,0.000000,1,0.000000,0.000000,0.000000,4.218521,46.498154,0.000000,0.000000,-0.002000,0.002000,FlatInitial,ResetBack,0,0.096875,-0.010000
07:51:43.632 PM 02/18/2016,Teleop Disabled,0,FALSE,0,NO ERROR,0.000000,0.000000,0.000000,0.000000,Speed,Speed,-0.010000,1.060000,1.630000,0.000000,102.000000,1,0,-0.000000,0.000000,1,0.000000,0.000000,0.000000,4.218521,46.498154,0.000000,0.000000,0.000000,0.005000,FlatInitial,ResetBack,0,0.096875,-0.010000
07:51:43.732 PM 02/18/2016,Teleop Disabled,0,FALSE,0,NO ERROR,0.000000,0.000000,0.000000,0.000000,Speed,Speed,-0.010000,1.060000,1.630000,0.000000,102.000000,1,0,-0.000000,0.000000,1,0.000000,0.000000,0.000000,4.218521,46.498154,0.000000,-0.004000,0.000000,0.007000,FlatInitial,ResetBack,0,0.096875,-0.010000
07:51:43.832 PM 02/18/2016,Teleop Disabled,0,FALSE,0,NO ERROR,0.000000,0.000000,0.000000,0.000000,Speed,Speed,-0.010000,1.060000,1.620000,0.000000,101.000000,1,0,-0.000000,0.000000,1,0.000000,0.000000,0.000000,4.218521,46.498154,0.000000,0.000000,0.000000,0.007000,FlatInitial,ResetBack,0,0.096875,-0.010000
07:51:43.932 PM 02/18/2016,Teleop Disabled,0,FALSE,0,NO ERROR,0.000000,0.000000,0.000000,0.000000,Speed,Speed,0.000000,1.060000,1.630000,0.000000,103.000000,1,0,-0.000000,0.000000,1,0.000000,0.000000,0.000000,4.218521,46.498154,0.000000,0.000000,0.000000,0.000000,FlatInitial,ResetBack,0,0.096875,0.000000
07:51:44.032 PM 02/18/2016,Teleop Disabled,0,FALSE,0,NO ERROR,0.000000,0.000000,0.000000,0.000000,Speed,Speed,-0.010000,1.050000,1.620000,0.000000,101.000000,1,0,-0.000000,0.000000,1,0.000000,0.000000,0.000000,4.218521,46.498154,0.000000,0.002000,0.003000,-0.003000,FlatInitial,ResetBack,0,0.096875,-0.010000
07:51:44.132 PM 02/18/2016,Teleop Disabled,0,FALSE,0,NO ERROR,0.000000,0.000000,0.000000,0.000000,Speed,Speed,-0.010000,1.060000,1.630000,0.000000,100.000000,1,0,-0.000000,0.000000,1,0.000000,0.000000,0.000000,4.218521,46.498154,0.000000,0.000000,-0.001000,0.002000,FlatInitial,ResetBack,0,0.096875,-0.010000
07:51:44.232 PM 02/18/2016,Teleop Disabled,0,FALSE,0,NO ERROR,0.000000,0.000000,0.000000,0.000000,Speed,Speed,-0.010000,1.060000,1.630000,0.000000,101.000000,1,0,-0.000000,0.000000,1,0.000000,0.000000,0.000000,4.218521,46.498154,0.000000,0.001000,0.000000,0.003000,FlatInitial,ResetBack,0,0.096875,-0.010000
07:51:44.332 PM 02/18/2016,Teleop Disabled,0,FALSE,0,NO ERROR,0.000000,0.000000,0.000000,0.000000,Speed,Speed,-0.010000,1.060000,1.630000,0.000000,100.000000,1,0,-0.000000,0.000000,1,0.000000,0.000000,0.000000,4.218521,46.498154,0.000000,0.001000,0.000000,0.003000,FlatInitial,ResetBack,0,0.096875,-0.010000
07:51:44.432 PM 02/18/2016,Teleop Disabled,0,FALSE,0,NO ERROR,0.000000,0.000000,0.000000,0.000000,Speed,Speed,-0.010000,1.060000,1.630000,0.000000,102.000000,1,0,-0.000000,0.000000,1,0.000000,0.000000,0.000000,4.218521,46.498154,0.000000,0.000000,0.000000,0.005000,FlatInitial,ResetBack,0,0.096875,-0.010000
07:51:44.532 PM 02/18/2016,Teleop Disabled,0,FALSE,0,NO ERROR,0.000000,0.000000,0.000000,0.000000,Speed,Speed,-0.010000,1.060000,1.630000,0.000000,101.000000,1,0,-0.000000,0.000000,1,0.000000,0.000000,0.000000,4.218521,46.498154,0.000000,-0.002000,0.000000,0.005000,FlatInitial,ResetBack,0,0.096875,-0.010000
07:51:44.633 PM 02/18/2016,Teleop Disabled,0,FALSE,0,NO ERROR,0.000000,0.000000,0.000000,0.000000,Speed,Speed,-0.010000,1.050000,1.630000,0.000000,102.000000,1,0,-0.000000,0.000000,1,0.000000,0.000000,0.000000,4.218521,46.498154,0.000000,0.000000,0.000000,0.004000,FlatInitial,ResetBack,0,0.096875,-0.010000
07:51:44.735 PM 02/18/2016,Teleop Disabled,0,FALSE,0,NO ERROR,0.000000,0.000000,0.000000,0.000000,Speed,Speed,-0.010000,1.050000,1.630000,0.000000,102.000000,1,0,-0.000000,0.000000,1,0.000000,0.000000,0.000000,4.218521,46.498154,0.000000,0.001000,0.000000,0.004000,FlatInitial,ResetBack,0,0.096875,-0.010000
07:51:44.835 PM 02/18/2016,Teleop Disabled,0,FALSE,0,NO ERROR,0.000000,0.000000,0.000000,0.000000,Speed,Speed,-0.010000,1.050000,1.630000,0.000000,106.000000,1,0,-0.000000,0.000000,1,0.000000,0.000000,0.000000,4.218521,46.498154,0.000000,0.003000,0.000000,0.000000,FlatInitial,ResetBack,0,0.096875,-0.010000
07:51:44.936 PM 02/18/2016,Teleop Disabled,0,FALSE,0,NO ERROR,0.000000,0.000000,0.000000,0.000000,Speed,Speed,-0.010000,1.060000,1.630000,0.000000,104.000000,1,0,-0.000000,0.000000,1,0.000000,0.000000,0.000000,4.218521,46.498154,0.000000,0.000000,-0.001000,0.000000,FlatInitial,ResetBack,0,0.096875,-0.010000
07:51:45.037 PM 02/18/2016,Teleop Disabled,0,FALSE,0,NO ERROR,0.000000,0.000000,0.000000,0.000000,Speed,Speed,-0.010000,1.050000,1.620000,0.000000,102.000000,1,0,-0.000000,0.000000,1,0.000000,0.000000,0.000000,4.218521,46.498154,0.000000,0.000000,0.000000,0.001000,FlatInitial,ResetBack,0,0.096875,-0.010000
07:51:45.138 PM 02/18/2016,Teleop Disabled,0,FALSE,0,NO ERROR,0.000000,0.000000,0.000000,0.000000,Speed,Speed,-0.010000,1.050000,1.630000,0.000000,100.000000,1,0,-0.000000,0.000000,1,0.000000,0.000000,0.000000,4.218521,46.498154,0.000000,-0.001000,0.000000,-0.001000,FlatInitial,ResetBack,0,0.096875,-0.010000
07:51:45.240 PM 02/18/2016,Teleop Disabled,0,FALSE,0,NO ERROR,0.000000,0.000000,0.000000,0.000000,Speed,Speed,-0.010000,1.050000,1.630000,0.000000,102.000000,1,0,-0.000000,0.000000,1,0.000000,0.000000,0.000000,4.218521,46.498154,0.000000,0.000000,-0.001000,0.002000,FlatInitial,ResetBack,0,0.096875,-0.010000
07:51:45.345 PM 02/18/2016,Teleop Disabled,0,FALSE,0,NO ERROR,0.000000,0.000000,0.000000,0.000000,Speed,Speed,-0.010000,1.050000,1.630000,0.000000,104.000000,1,0,-0.000000,0.000000,1,0.000000,0.000000,0.000000,4.218521,46.498154,0.000000,-0.001000,-0.001000,-0.001000,FlatInitial,ResetBack,0,0.096875,-0.010000
07:51:45.445 PM 02/18/2016,Teleop Disabled,0,FALSE,0,NO ERROR,0.000000,0.000000,0.000000,0.000000,Speed,Speed,-0.010000,1.050000,1.630000,0.000000,102.000000,1,0,-0.000000,0.000000,1,0.000000,0.000000,0.000000,4.218521,46.498154,0.000000,-0.001000,-0.001000,-0.001000,FlatInitial,ResetBack,0,0.096875,-0.010000
07:51:45.545 PM 02/18/2016,Teleop Disabled,0,FALSE,0,NO ERROR,0.000000,0.000000,0.000000,0.000000,Speed,Speed,-0.010000,1.050000,1.630000,0.000000,100.000000,1,0,-0.000000,0.000000,1,0.000000,0.000000,0.000000,4.218521,46.498154,0.000000,0.000000,-0.001000,0.001000,FlatInitial,ResetBack,0,0.096875,-0.010000
07:51:45.646 PM 02/18/2016,Teleop Disabled,0,FALSE,0,NO ERROR,0.000000,0.000000,-6000.000000,-6000.000000,Speed,Speed,-0.010000,1.050000,1.630000,1.000000,102.000000,1,0,-0.000000,0.000000,1,0.000000,0.000000,0.000000,4.218521,46.498154,0.000000,0.000000,-0.001000,0.001000,FlatInitial,ResetBack,0,0.096875,-0.010000
07:51:45.748 PM 02/18/2016,Teleop Disabled,0,FALSE,0,NO ERROR,0.000000,0.000000,-6000.000000,-6000.000000,Speed,Speed,-0.010000,1.050000,1.640000,1.000000,103.000000,1,0,-0.000000,0.000000,1,0.000000,0.000000,0.000000,4.218521,46.498154,0.000000,0.001000,0.000000,0.001000,FlatInitial,ResetBack,0,0.096875,-0.010000
07:51:45.849 PM 02/18/2016,Teleop Disabled,0,FALSE,0,NO ERROR,0.000000,0.000000,-6000.000000,-6000.000000,Speed,Speed,-0.010000,1.060000,1.640000,1.000000,102.000000,1,0,-0.000000,0.000000,1,0.000000,0.000000,0.000000,4.218521,46.498154,0.000000,0.000000,-0.001000,0.004000,FlatInitial,ResetBack,0,0.096875,-0.010000
07:51:45.949 PM 02/18/2016,Teleop Disabled,0,FALSE,0,NO ERROR,0.000000,0.000000,-6000.000000,-6000.000000,Speed,Speed,-0.010000,1.060000,1.640000,1.000000,102.000000,1,0,-0.000000,0.000000,1,0.000000,0.000000,0.000000,4.218521,46.498154,0.000000,0.000000,-0.001000,0.000000,FlatInitial,ResetBack,0,0.096875,-0.010000
07:51:46.050 PM 02/18/2016,Teleop Disabled,0,FALSE,0,NO ERROR,0.000000,0.000000,-6000.000000,-6000.000000,Speed,Speed,-0.010000,1.050000,1.640000,1.000000,105.000000,1,0,-0.000000,0.000000,1,0.000000,0.000000,0.000000,4.218521,46.498154,0.000000,0.002000,0.001000,0.000000,FlatInitial,ResetBack,0,0.096875,-0.010000
07:51:46.150 PM 02/18/2016,Teleop Disabled,0,FALSE,0,NO ERROR,0.000000,0.000000,-6000.000000,-6000.000000,Speed,Speed,-0.010000,1.050000,1.630000,1.000000,103.000000,1,0,-0.000000,0.000000,1,0.000000,0.000000,0.000000,4.218521,46.498154,0.000000,0.002000,0.001000,0.000000,FlatInitial,ResetBack,0,0.096875,-0.010000
07:51:46.250 PM 02/18/2016,Teleop Disabled,0,FALSE,0,NO ERROR,0.000000,0.000000,-6000.000000,-6000.000000,Speed,Speed,-0.010000,1.050000,1.640000,1.000000,102.000000,1,0,-0.000000,0.000000,1,0.000000,0.000000,0.000000,4.218521,46.498154,0.000000,-0.001000,-0.001000,0.007000,FlatInitial,ResetBack,0,0.096875,-0.010000
07:51:46.350 PM 02/18/2016,Teleop Disabled,0,FALSE,0,NO ERROR,0.000000,0.000000,-6000.000000,-6000.000000,Speed,Speed,-0.010000,1.050000,1.630000,1.000000,102.000000,1,0,-0.000000,0.000000,1,0.000000,0.000000,0.000000,4.218521,46.498154,0.000000,-0.003000,0.000000,0.004000,FlatInitial,ResetBack,0,0.096875,-0.010000
07:51:46.451 PM 02/18/2016,Teleop Disabled,0,FALSE,0,NO ERROR,0.000000,0.000000,-6000.000000,-6000.000000,Speed,Speed,-0.010000,1.060000,1.640000,1.000000,101.000000,1,0,-0.000000,0.000000,1,0.000000,0.000000,0.000000,4.218521,46.498154,0.000000,0.000000,0.000000,0.001000,FlatInitial,ResetBack,0,0.096875,-0.010000
07:51:46.552 PM 02/18/2016,Teleop Disabled,0,FALSE,0,NO ERROR,0.000000,0.000000,-6000.000000,-6000.000000,Speed,Speed,-0.020000,1.050000,1.630000,1.000000,102.000000,1,0,-0.000000,0.000000,1,0.000000,0.000000,0.000000,4.218521,46.498154,0.000000,0.002000,-0.004000,0.003000,FlatInitial,ResetBack,0,0.096875,-0.020000
07:51:46.652 PM 02/18/2016,Teleop Disabled,0,FALSE,0,NO ERROR,0.000000,0.000000,-6000.000000,-6000.000000,Speed,Speed,-0.020000,1.060000,1.640000,1.000000,102.000000,1,0,-0.000000,0.000000,1,0.000000,0.000000,0.000000,4.218521,46.498154,0.000000,0.002000,-0.004000,0.003000,FlatInitial,ResetBack,0,0.096875,-0.020000
07:51:46.753 PM 02/18/2016,Teleop Disabled,0,FALSE,0,NO ERROR,0.000000,0.000000,-6000.000000,-6000.000000,Speed,Speed,-0.010000,1.060000,1.640000,1.000000,103.000000,1,0,-0.000000,0.000000,1,0.000000,0.000000,0.000000,4.218521,46.498154,0.000000,-0.002000,-0.001000,0.005000,FlatInitial,ResetBack,0,0.096875,-0.010000
07:51:46.853 PM 02/18/2016,Teleop Disabled,0,FALSE,0,NO ERROR,0.000000,0.000000,-6000.000000,-6000.000000,Speed,Speed,-0.010000,1.060000,1.640000,1.000000,102.000000,1,0,-0.000000,0.000000,1,0.000000,0.000000,0.000000,4.218521,46.498154,0.000000,0.000000,-0.001000,0.003000,FlatInitial,ResetBack,0,0.096875,-0.010000
07:51:46.953 PM 02/18/2016,Teleop Disabled,0,FALSE,0,NO ERROR,0.000000,0.000000,-6000.000000,-6000.000000,Speed,Speed,-0.010000,1.050000,1.630000,1.000000,105.000000,1,0,-0.000000,0.000000,1,0.000000,0.000000,0.000000,4.218521,46.498154,0.000000,0.000000,0.000000,0.005000,FlatInitial,ResetBack,0,0.096875,-0.010000
07:51:47.053 PM 02/18/2016,Teleop Disabled,0,FALSE,0,NO ERROR,0.000000,0.000000,-6000.000000,-6000.000000,Speed,Speed,-0.010000,1.050000,1.630000,1.000000,103.000000,1,0,-0.000000,0.000000,1,0.000000,0.000000,0.000000,4.218521,46.498154,0.000000,0.000000,0.000000,0.004000,FlatInitial,ResetBack,0,0.096875,-0.010000
07:51:47.153 PM 02/18/2016,Teleop Disabled,0,FALSE,0,NO ERROR,0.000000,0.000000,-6000.000000,-6000.000000,Speed,Speed,-0.010000,1.050000,1.630000,1.000000,102.000000,1,0,-0.000000,0.000000,1,0.000000,0.000000,0.000000,4.218521,46.498154,0.000000,0.000000,0.000000,0.004000,FlatInitial,ResetBack,0,0.096875,-0.010000
07:51:47.253 PM 02/18/2016,Teleop Disabled,0,FALSE,0,NO ERROR,0.000000,0.000000,-6000.000000,-6000.000000,Speed,Speed,-0.010000,1.050000,1.630000,1.000000,102.000000,1,0,-0.000000,0.000000,1,0.000000,0.000000,0.000000,4.218521,46.498154,0.000000,0.001000,0.000000,0.004000,FlatInitial,ResetBack,0,0.096875,-0.010000
07:51:47.353 PM 02/18/2016,Teleop Disabled,0,FALSE,0,NO ERROR,0.000000,0.000000,-6000.000000,-6000.000000,Speed,Speed,-0.010000,1.050000,1.630000,1.000000,108.000000,1,0,-0.000000,0.000000,1,0.000000,0.000000,0.000000,4.218521,46.498154,0.000000,0.000000,0.003000,0.004000,FlatInitial,ResetBack,0,0.096875,-0.010000
07:51:47.453 PM 02/18/2016,Teleop Disabled,0,FALSE,0,NO ERROR,0.000000,0.000000,-6000.000000,-6000.000000,Speed,Speed,-0.010000,1.050000,1.630000,1.000000,101.000000,1,0,-0.000000,0.000000,1,0.000000,0.000000,0.000000,4.218521,46.498154,0.000000,0.000000,0.000000,0.002000,FlatInitial,ResetBack,0,0.096875,-0.010000
07:51:47.554 PM 02/18/2016,Teleop Disabled,0,FALSE,0,NO ERROR,0.000000,0.000000,-6000.000000,-6000.000000,Speed,Speed,-0.010000,1.060000,1.640000,1.000000,101.000000,1,0,-0.000000,0.000000,1,0.000000,0.000000,0.000000,4.218521,46.498154,0.000000,0.001000,0.002000,0.004000,FlatInitial,ResetBack,0,0.096875,-0.010000
07:51:47.655 PM 02/18/2016,Teleop Disabled,0,FALSE,0,NO ERROR,0.000000,0.000000,-6000.000000,-6000.000000,Speed,Speed,-0.010000,1.060000,1.640000,1.000000,103.000000,1,0,-0.000000,0.000000,1,0.000000,0.000000,0.000000,4.218521,46.498154,0.000000,0.000000,0.000000,0.001000,FlatInitial,ResetBack,0,0.096875,-0.010000
07:51:47.755 PM 02/18/2016,Teleop Disabled,0,FALSE,0,NO ERROR,0.000000,0.000000,-6000.000000,-6000.000000,Speed,Speed,-0.010000,1.050000,1.640000,1.000000,103.000000,1,0,-0.000000,0.000000,1,0.000000,0.000000,0.000000,4.218521,46.498154,0.000000,0.000000,0.000000,0.003000,FlatInitial,ResetBack,0,0.096875,-0.010000
07:51:47.856 PM 02/18/2016,Teleop Disabled,0,FALSE,0,NO ERROR,0.000000,0.000000,-6000.000000,-6000.000000,Speed,Speed,-0.010000,1.050000,1.630000,1.000000,113.000000,1,0,-0.000000,0.000000,1,0.000000,0.000000,0.000000,4.218521,46.498154,0.000000,0.001000,-0.003000,0.000000,FlatInitial,ResetBack,0,0.096875,-0.010000
07:51:47.956 PM 02/18/2016,Teleop Disabled,0,FALSE,0,NO ERROR,0.000000,0.000000,-6000.000000,-6000.000000,Speed,Speed,-0.010000,1.050000,1.630000,1.000000,102.000000,1,0,-0.000000,0.000000,1,0.000000,0.000000,0.000000,4.218521,46.498154,0.000000,0.000000,-0.004000,0.004000,FlatInitial,ResetBack,0,0.096875,-0.010000
07:51:48.057 PM 02/18/2016,Teleop Disabled,0,FALSE,0,NO ERROR,0.000000,0.000000,-6000.000000,-6000.000000,Speed,Speed,-0.010000,1.050000,1.630000,1.000000,102.000000,1,0,-0.000000,0.000000,1,0.000000,0.000000,0.000000,4.218521,46.498154,0.000000,0.000000,0.000000,0.004000,FlatInitial,ResetBack,0,0.096875,-0.010000
07:51:48.157 PM 02/18/2016,Teleop Disabled,0,FALSE,0,NO ERROR,0.000000,0.000000,-6000.000000,-6000.000000,Speed,Speed,-0.010000,1.050000,1.630000,1.000000,109.000000,1,0,-0.000000,0.000000,1,0.000000,0.000000,0.000000,4.218521,46.498154,0.000000,0.001000,0.000000,0.000000,FlatInitial,ResetBack,0,0.096875,-0.010000
07:51:48.258 PM 02/18/2016,Teleop Disabled,0,FALSE,0,NO ERROR,0.000000,0.000000,-6000.000000,-6000.000000,Speed,Speed,-0.010000,1.050000,1.630000,1.000000,105.000000,1,0,-0.000000,0.000000,1,0.000000,0.000000,0.000000,4.218521,46.498154,0.000000,0.000000,-0.001000,0.004000,FlatInitial,ResetBack,0,0.096875,-0.010000
07:51:48.358 PM 02/18/2016,Teleop Disabled,0,FALSE,0,NO ERROR,0.000000,0.000000,-6000.000000,-6000.000000,Speed,Speed,-0.010000,1.050000,1.630000,1.000000,123.000000,1,0,-0.000000,0.000000,1,0.000000,0.000000,0.000000,4.218521,46.498154,0.000000,0.000000,0.000000,0.002000,FlatInitial,ResetBack,0,0.096875,-0.010000
07:51:48.458 PM 02/18/2016,Teleop Disabled,0,FALSE,0,NO ERROR,0.000000,0.000000,-6000.000000,-6000.000000,Speed,Speed,-0.010000,1.050000,1.620000,1.000000,106.000000,1,0,-0.000000,0.000000,1,0.000000,0.000000,0.000000,4.218521,46.498154,0.000000,0.000000,0.002000,0.000000,FlatInitial,ResetBack,0,0.096875,-0.010000
07:51:48.558 PM 02/18/2016,Teleop Disabled,0,FALSE,0,NO ERROR,0.000000,0.000000,-6000.000000,-6000.000000,Speed,Speed,-0.010000,1.050000,1.630000,1.000000,101.000000,1,0,-0.000000,0.000000,1,0.000000,0.000000,0.000000,4.218521,46.498154,0.000000,0.000000,0.000000,0.006000,FlatInitial,ResetBack,0,0.096875,-0.010000
07:51:48.658 PM 02/18/2016,Teleop Disabled,0,FALSE,0,NO ERROR,0.000000,0.000000,-6000.000000,-6000.000000,Speed,Speed,-0.010000,1.050000,1.630000,1.000000,101.000000,1,0,-0.000000,0.000000,1,0.000000,0.000000,0.000000,4.218521,46.498154,0.000000,0.000000,-0.001000,0.004000,FlatInitial,ResetBack,0,0.096875,-0.010000
07:51:48.758 PM 02/18/2016,Teleop Disabled,0,FALSE,0,NO ERROR,0.000000,0.000000,-6000.000000,-6000.000000,Speed,Speed,-0.010000,1.050000,1.630000,1.000000,102.000000,1,0,-0.000000,0.000000,1,0.000000,0.000000,0.000000,4.218521,46.498154,0.000000,0.000000,0.000000,0.000000,FlatInitial,ResetBack,0,0.096875,-0.010000
07:51:48.859 PM 02/18/2016,Teleop Disabled,0,FALSE,0,NO ERROR,0.000000,0.000000,-6000.000000,-6000.000000,Speed,Speed,-0.010000,1.050000,1.620000,1.000000,101.000000,1,0,-0.000000,0.000000,1,0.000000,0.000000,0.000000,4.218521,46.498154,0.000000,0.002000,-0.002000,0.000000,FlatInitial,ResetBack,0,0.096875,-0.010000
07:51:48.959 PM 02/18/2016,Teleop Disabled,0,FALSE,0,NO ERROR,0.000000,0.000000,-6000.000000,-6000.000000,Speed,Speed,-0.010000,1.050000,1.620000,1.000000,109.000000,1,0,-0.000000,0.000000,1,0.000000,0.000000,0.000000,4.218521,46.498154,0.000000,-0.001000,-0.001000,0.000000,FlatInitial,ResetBack,0,0.096875,-0.010000
07:51:49.062 PM 02/18/2016,Teleop Disabled,0,FALSE,0,NO ERROR,0.000000,0.000000,-6000.000000,-6000.000000,Speed,Speed,-0.010000,1.050000,1.620000,1.000000,102.000000,1,0,-0.000000,0.000000,1,0.000000,0.000000,0.000000,4.218521,46.498154,0.000000,-0.001000,0.001000,0.000000,FlatInitial,ResetBack,0,0.096875,-0.010000
07:51:49.162 PM 02/18/2016,Teleop Disabled,0,FALSE,0,NO ERROR,0.000000,0.000000,-6000.000000,-6000.000000,Speed,Speed,-0.010000,1.050000,1.620000,1.000000,101.000000,1,0,-0.000000,0.000000,1,0.000000,0.000000,0.000000,4.218521,46.498154,0.000000,0.001000,0.000000,0.003000,FlatInitial,ResetBack,0,0.096875,-0.010000
07:51:49.263 PM 02/18/2016,Teleop Disabled,0,FALSE,0,NO ERROR,0.000000,0.000000,-6000.000000,-6000.000000,Speed,Speed,-0.010000,1.050000,1.630000,1.000000,103.000000,1,0,-0.000000,0.000000,1,0.000000,0.000000,0.000000,4.218521,46.498154,0.000000,0.000000,0.000000,0.003000,FlatInitial,ResetBack,0,0.096875,-0.010000
07:51:49.364 PM 02/18/2016,Teleop Disabled,0,FALSE,0,NO ERROR,0.000000,0.000000,-6000.000000,-6000.000000,Speed,Speed,-0.010000,1.050000,1.630000,1.000000,102.000000,1,0,-0.000000,0.000000,1,0.000000,0.000000,0.000000,4.218521,46.498154,0.000000,0.000000,-0.001000,0.007000,FlatInitial,ResetBack,0,0.096875,-0.010000
07:51:49.466 PM 02/18/2016,Teleop Disabled,0,FALSE,0,NO ERROR,0.000000,0.000000,-6000.000000,-6000.000000,Speed,Speed,-0.010000,1.050000,1.630000,1.000000,101.000000,1,0,-0.000000,0.000000,1,0.000000,0.000000,0.000000,4.218521,46.498154,0.000000,0.001000,-0.001000,0.002000,FlatInitial,ResetBack,0,0.096875,-0.010000
07:51:49.566 PM 02/18/2016,Teleop Disabled,0,FALSE,0,NO ERROR,0.000000,0.000000,-6000.000000,-6000.000000,Speed,Speed,-0.010000,1.050000,1.620000,1.000000,102.000000,1,0,-0.000000,0.000000,1,0.000000,0.000000,0.000000,4.218521,46.498154,0.000000,0.000000,0.001000,0.004000,FlatInitial,ResetBack,0,0.096875,-0.010000
07:51:49.668 PM 02/18/2016,Teleop Disabled,0,FALSE,0,NO ERROR,0.000000,0.000000,-6000.000000,-6000.000000,Speed,Speed,-0.010000,1.050000,1.620000,1.000000,102.000000,1,0,-0.000000,0.000000,1,0.000000,0.000000,0.000000,4.218521,46.498154,0.000000,-0.001000,0.001000,0.005000,FlatInitial,ResetBack,0,0.096875,-0.010000
07:51:49.769 PM 02/18/2016,Teleop Disabled,0,FALSE,0,NO ERROR,0.000000,0.000000,-6000.000000,-6000.000000,Speed,Speed,-0.010000,1.050000,1.620000,1.000000,105.000000,1,0,-0.000000,0.000000,1,0.000000,0.000000,0.000000,4.218521,46.498154,0.000000,-0.001000,0.000000,0.001000,FlatInitial,ResetBack,0,0.096875,-0.010000
07:51:49.869 PM 02/18/2016,Teleop Disabled,0,FALSE,0,NO ERROR,0.000000,0.000000,-6000.000000,-6000.000000,Speed,Speed,-0.010000,1.050000,1.620000,1.000000,102.000000,1,0,-0.000000,0.000000,1,0.000000,0.000000,0.000000,4.218521,46.498154,0.000000,0.000000,0.002000,0.002000,FlatInitial,ResetBack,0,0.096875,-0.010000
07:51:49.969 PM 02/18/2016,Teleop Disabled,0,FALSE,0,NO ERROR,0.000000,0.000000,-6000.000000,-6000.000000,Speed,Speed,-0.010000,1.050000,1.620000,1.000000,121.000000,1,0,-0.000000,0.000000,1,0.000000,0.000000,0.000000,4.218521,46.498154,0.000000,0.000000,-0.002000,0.006000,FlatInitial,ResetBack,0,0.096875,-0.010000
07:51:50.069 PM 02/18/2016,Teleop Disabled,0,FALSE,0,NO ERROR,0.000000,0.000000,-6000.000000,-6000.000000,Speed,Speed,-0.010000,1.050000,1.620000,1.000000,121.000000,1,0,-0.000000,0.000000,1,0.000000,0.000000,0.000000,4.218521,46.498154,0.000000,0.001000,0.000000,0.003000,FlatInitial,ResetBack,0,0.096875,-0.010000
07:51:50.169 PM 02/18/2016,Teleop Disabled,0,FALSE,0,NO ERROR,0.000000,0.000000,-6000.000000,-6000.000000,Speed,Speed,-0.010000,1.060000,1.620000,1.000000,102.000000,1,0,-0.000000,0.000000,1,0.000000,0.000000,0.000000,4.218521,46.498154,0.000000,0.000000,0.003000,0.003000,FlatInitial,ResetBack,0,0.096875,-0.010000
07:51:50.269 PM 02/18/2016,Teleop Disabled,0,FALSE,0,NO ERROR,0.000000,0.000000,-6000.000000,-6000.000000,Speed,Speed,-0.010000,1.050000,1.620000,1.000000,101.000000,1,0,-0.000000,0.000000,1,0.000000,0.000000,0.000000,4.218521,46.498154,0.000000,0.000000,0.000000,0.004000,FlatInitial,ResetBack,0,0.096875,-0.010000
07:51:50.370 PM 02/18/2016,Teleop Disabled,0,FALSE,0,NO ERROR,0.000000,0.000000,-6000.000000,-6000.000000,Speed,Speed,-0.010000,1.050000,1.620000,1.000000,102.000000,1,0,-0.000000,0.000000,1,0.000000,0.000000,0.000000,4.218521,46.498154,0.000000,0.000000,0.000000,0.001000,FlatInitial,ResetBack,0,0.096875,-0.010000
07:51:50.470 PM 02/18/2016,Teleop Disabled,0,FALSE,0,NO ERROR,0.000000,0.000000,-6000.000000,-6000.000000,Speed,Speed,-0.010000,1.050000,1.620000,1.000000,101.000000,1,0,-0.000000,0.000000,1,0.000000,0.000000,0.000000,4.218521,46.498154,0.000000,0.001000,-0.002000,0.005000,FlatInitial,ResetBack,0,0.096875,-0.010000
07:51:50.571 PM 02/18/2016,Teleop Disabled,0,FALSE,0,NO ERROR,0.000000,0.000000,-6000.000000,-6000.000000,Speed,Speed,-0.010000,1.060000,1.610000,1.000000,103.000000,1,0,-0.000000,0.000000,1,0.000000,0.000000,0.000000,4.218521,46.498154,0.000000,0.000000,-0.001000,0.005000,FlatInitial,ResetBack,0,0.096875,-0.010000
07:51:50.672 PM 02/18/2016,Teleop Disabled,0,FALSE,0,NO ERROR,0.000000,0.000000,-6000.000000,-6000.000000,Speed,Speed,-0.010000,1.050000,1.620000,1.000000,105.000000,1,0,-0.000000,0.000000,1,0.000000,0.000000,0.000000,4.218521,46.498154,0.000000,-0.001000,0.000000,0.006000,FlatInitial,ResetBack,0,0.096875,-0.010000
07:51:50.773 PM 02/18/2016,Teleop Disabled,0,FALSE,0,NO ERROR,0.000000,0.000000,-6000.000000,-6000.000000,Speed,Speed,-0.010000,1.060000,1.610000,1.000000,101.000000,1,0,-0.000000,0.000000,1,0.000000,0.000000,0.000000,4.218521,46.498154,0.000000,0.000000,0.000000,0.003000,FlatInitial,ResetBack,0,0.096875,-0.010000
07:51:50.873 PM 02/18/2016,Teleop Disabled,0,FALSE,0,NO ERROR,0.000000,0.000000,-6000.000000,-6000.000000,Speed,Speed,-0.010000,1.060000,1.620000,1.000000,105.000000,1,0,-0.000000,0.000000,1,0.000000,0.000000,0.000000,4.218521,46.498154,0.000000,0.000000,0.001000,0.002000,FlatInitial,ResetBack,0,0.096875,-0.010000
07:51:50.973 PM 02/18/2016,Teleop Disabled,0,FALSE,0,NO ERROR,0.000000,0.000000,-6000.000000,-6000.000000,Speed,Speed,-0.010000,1.060000,1.620000,1.000000,104.000000,1,0,-0.000000,0.000000,1,0.000000,0.000000,0.000000,4.218521,46.498154,0.000000,-0.002000,-0.001000,0.000000,FlatInitial,ResetBack,0,0.096875,-0.010000
07:51:51.073 PM 02/18/2016,Teleop Disabled,0,FALSE,0,NO ERROR,0.000000,0.000000,-6000.000000,-6000.000000,Speed,Speed,-0.010000,1.060000,1.610000,1.000000,101.000000,1,0,-0.000000,0.000000,1,0.000000,0.000000,0.000000,4.218521,46.498154,0.000000,0.000000,0.000000,0.000000,FlatInitial,ResetBack,0,0.096875,-0.010000
07:51:51.174 PM 02/18/2016,Teleop Disabled,0,FALSE,0,NO ERROR,0.000000,0.000000,-6000.000000,-6000.000000,Speed,Speed,-0.010000,1.060000,1.620000,1.000000,115.000000,1,0,-0.000000,0.000000,1,0.000000,0.000000,0.000000,4.218521,46.498154,0.000000,0.001000,0.000000,0.003000,FlatInitial,ResetBack,0,0.096875,-0.010000
07:51:51.275 PM 02/18/2016,Teleop Disabled,0,FALSE,0,NO ERROR,0.000000,0.000000,-6000.000000,-6000.000000,Speed,Speed,-0.010000,1.060000,1.610000,1.000000,105.000000,1,0,-0.000000,0.000000,1,0.000000,0.000000,0.000000,4.218521,46.498154,0.000000,-0.002000,0.000000,0.006000,FlatInitial,ResetBack,0,0.096875,-0.010000
07:51:51.375 PM 02/18/2016,Teleop Disabled,0,FALSE,0,NO ERROR,0.000000,0.000000,-6000.000000,-6000.000000,Speed,Speed,-0.010000,1.060000,1.620000,1.000000,101.000000,1,0,-0.000000,0.000000,1,0.000000,0.000000,0.000000,4.218521,46.498154,0.000000,0.002000,-0.001000,0.004000,FlatInitial,ResetBack,0,0.096875,-0.010000
07:51:51.476 PM 02/18/2016,Teleop Disabled,0,FALSE,0,NO ERROR,0.000000,0.000000,-6000.000000,-6000.000000,Speed,Speed,-0.010000,1.060000,1.620000,1.000000,104.000000,1,0,-0.000000,0.000000,1,0.000000,0.000000,0.000000,4.218521,46.498154,0.000000,0.000000,0.003000,0.004000,FlatInitial,ResetBack,0,0.096875,-0.010000
07:51:51.576 PM 02/18/2016,Teleop Disabled,0,FALSE,0,NO ERROR,0.000000,0.000000,-6000.000000,-6000.000000,Speed,Speed,-0.010000,1.060000,1.620000,1.000000,105.000000,1,0,-0.000000,0.000000,1,0.000000,0.000000,0.000000,4.218521,46.498154,0.000000,0.000000,0.000000,0.002000,FlatInitial,ResetBack,0,0.096875,-0.010000
07:51:51.680 PM 02/18/2016,Teleop Disabled,0,FALSE,0,NO ERROR,0.000000,0.000000,-6000.000000,-6000.000000,Speed,Speed,-0.010000,1.060000,1.610000,1.000000,101.000000,1,0,-0.000000,0.000000,1,0.000000,0.000000,0.000000,4.218521,46.498154,0.000000,-0.002000,0.000000,0.003000,FlatInitial,ResetBack,0,0.096875,-0.010000
07:51:51.781 PM 02/18/2016,Teleop Disabled,0,FALSE,0,NO ERROR,0.000000,0.000000,-6000.000000,-6000.000000,Speed,Speed,-0.010000,1.070000,1.610000,1.000000,102.000000,1,0,-0.000000,0.000000,1,0.000000,0.000000,0.000000,4.218521,46.498154,0.000000,0.000000,-0.001000,0.001000,FlatInitial,ResetBack,0,0.096875,-0.010000
07:51:51.882 PM 02/18/2016,Teleop Disabled,0,FALSE,0,NO ERROR,0.000000,0.000000,-6000.000000,-6000.000000,Speed,Speed,-0.010000,1.070000,1.610000,1.000000,102.000000,1,0,-0.000000,0.000000,1,0.000000,0.000000,0.000000,4.218521,46.498154,0.000000,0.000000,0.002000,0.004000,FlatInitial,ResetBack,0,0.096875,-0.010000
07:51:51.983 PM 02/18/2016,Teleop Disabled,0,FALSE,0,NO ERROR,0.000000,0.000000,-6000.000000,-6000.000000,Speed,Speed,-0.010000,1.070000,1.610000,1.000000,101.000000,1,0,-0.000000,0.000000,1,0.000000,0.000000,0.000000,4.218521,46.498154,0.000000,-0.001000,0.000000,0.005000,FlatInitial,ResetBack,0,0.096875,-0.010000
07:51:52.084 PM 02/18/2016,Teleop Disabled,0,FALSE,0,NO ERROR,0.000000,0.000000,-6000.000000,-6000.000000,Speed,Speed,-0.010000,1.060000,1.610000,1.000000,100.000000,1,0,-0.000000,0.000000,1,0.000000,0.000000,0.000000,4.218521,46.498154,0.000000,0.001000,-0.002000,0.004000,FlatInitial,ResetBack,0,0.096875,-0.010000
07:51:52.186 PM 02/18/2016,Teleop Disabled,0,FALSE,0,NO ERROR,0.000000,0.000000,-6000.000000,-6000.000000,Speed,Speed,-0.010000,1.070000,1.610000,1.000000,102.000000,1,0,-0.000000,0.000000,1,0.000000,0.000000,0.000000,4.218521,46.498154,0.000000,0.000000,0.002000,0.004000,FlatInitial,ResetBack,0,0.096875,-0.010000
07:51:52.286 PM 02/18/2016,Teleop Disabled,0,FALSE,0,NO ERROR,0.000000,0.000000,-6000.000000,-6000.000000,Speed,Speed,-0.010000,1.070000,1.610000,1.000000,102.000000,1,0,-0.000000,0.000000,1,0.000000,0.000000,0.000000,4.218521,46.498154,0.000000,-0.002000,0.001000,0.004000,FlatInitial,ResetBack,0,0.096875,-0.010000
07:51:52.386 PM 02/18/2016,Teleop Disabled,0,FALSE,0,NO ERROR,0.000000,0.000000,-6000.000000,-6000.000000,Speed,Speed,-0.010000,1.060000,1.610000,1.000000,102.000000,1,0,-0.000000,0.000000,1,0.000000,0.000000,0.000000,4.218521,46.498154,0.000000,-0.001000,0.003000,0.002000,FlatInitial,ResetBack,0,0.096875,-0.010000
07:51:52.487 PM 02/18/2016,Teleop Disabled,0,FALSE,0,NO ERROR,0.000000,0.000000,-6000.000000,-6000.000000,Speed,Speed,-0.010000,1.060000,1.610000,1.000000,100.000000,1,0,-0.000000,0.000000,1,0.000000,0.000000,0.000000,4.218521,46.498154,0.000000,0.001000,0.001000,0.003000,FlatInitial,ResetBack,0,0.096875,-0.010000
07:51:52.588 PM 02/18/2016,Teleop Disabled,0,FALSE,0,NO ERROR,0.000000,0.000000,-6000.000000,-6000.000000,Speed,Speed,-0.010000,1.050000,1.610000,1.000000,104.000000,1,0,-0.000000,0.000000,1,0.000000,0.000000,0.000000,4.218521,46.498154,0.000000,-0.003000,0.000000,0.001000,FlatInitial,ResetBack,0,0.096875,-0.010000
07:51:52.688 PM 02/18/2016,Teleop Disabled,0,FALSE,0,NO ERROR,0.000000,0.000000,-6000.000000,-6000.000000,Speed,Speed,-0.010000,1.050000,1.610000,1.000000,102.000000,1,0,-0.000000,0.000000,1,0.000000,0.000000,0.000000,4.218521,46.498154,0.000000,0.000000,0.000000,0.000000,FlatInitial,ResetBack,0,0.096875,-0.010000
07:51:52.788 PM 02/18/2016,Teleop Disabled,0,FALSE,0,NO ERROR,0.000000,0.000000,-6000.000000,-6000.000000,Speed,Speed,-0.010000,1.060000,1.610000,1.000000,106.000000,1,0,-0.000000,0.000000,1,0.000000,0.000000,0.000000,4.218521,46.498154,0.000000,0.001000,-0.002000,-0.002000,FlatInitial,ResetBack,0,0.096875,-0.010000
07:51:52.889 PM 02/18/2016,Teleop Disabled,0,FALSE,0,NO ERROR,0.000000,0.000000,-6000.000000,-6000.000000,Speed,Speed,-0.010000,1.060000,1.610000,1.000000,102.000000,1,0,-0.000000,0.000000,1,0.000000,0.000000,0.000000,4.218521,46.498154,0.000000,0.000000,0.000000,0.003000,FlatInitial,ResetBack,0,0.096875,-0.010000
07:51:52.989 PM 02/18/2016,Teleop Disabled,0,FALSE,0,NO ERROR,0.000000,0.000000,-6000.000000,-6000.000000,Speed,Speed,-0.010000,1.060000,1.610000,1.000000,107.000000,1,0,-0.000000,0.000000,1,0.000000,0.000000,0.000000,4.218521,46.498154,0.000000,0.000000,0.000000,0.003000,FlatInitial,ResetBack,0,0.096875,-0.010000
07:51:53.089 PM 02/18/2016,Teleop Disabled,0,FALSE,0,NO ERROR,0.000000,0.000000,-6000.000000,-6000.000000,Speed,Speed,-0.010000,1.060000,1.610000,1.000000,101.000000,1,0,-0.000000,0.000000,1,0.000000,0.000000,0.000000,4.218521,46.498154,0.000000,0.000000,0.001000,0.001000,FlatInitial,ResetBack,0,0.096875,-0.010000
07:51:53.189 PM 02/18/2016,Teleop Disabled,0,FALSE,0,NO ERROR,0.000000,0.000000,-6000.000000,-6000.000000,Speed,Speed,-0.010000,1.060000,1.620000,1.000000,104.000000,1,0,-0.000000,0.000000,1,0.000000,0.000000,0.000000,4.218521,46.498154,0.000000,0.000000,-0.001000,0.004000,FlatInitial,ResetBack,0,0.096875,-0.010000
07:51:53.289 PM 02/18/2016,Teleop Disabled,0,FALSE,0,NO ERROR,0.000000,0.000000,-6000.000000,-6000.000000,Speed,Speed,-0.010000,1.050000,1.620000,1.000000,103.000000,1,0,-0.000000,0.000000,1,0.000000,0.000000,0.000000,4.218521,46.498154,0.000000,0.000000,0.001000,0.002000,FlatInitial,ResetBack,0,0.096875,-0.010000
07:51:53.390 PM 02/18/2016,Teleop Disabled,0,FALSE,0,NO ERROR,0.000000,0.000000,-6000.000000,-6000.000000,Speed,Speed,-0.010000,1.060000,1.630000,1.000000,102.000000,1,0,-0.000000,0.000000,1,0.000000,0.000000,0.000000,4.218521,46.498154,0.000000,0.000000,-0.002000,0.005000,FlatInitial,ResetBack,0,0.096875,-0.010000
07:51:53.491 PM 02/18/2016,Teleop Disabled,0,FALSE,0,NO ERROR,0.000000,0.000000,-6000.000000,-6000.000000,Speed,Speed,-0.010000,1.060000,1.630000,1.000000,101.000000,1,0,-0.000000,0.000000,1,0.000000,0.000000,0.000000,4.218521,46.498154,0.000000,0.000000,-0.001000,0.003000,FlatInitial,ResetBack,0,0.096875,-0.010000
07:51:53.592 PM 02/18/2016,Teleop Disabled,0,FALSE,0,NO ERROR,0.000000,0.000000,-6000.000000,-6000.000000,Speed,Speed,-0.010000,1.060000,1.630000,1.000000,102.000000,1,0,-0.000000,0.000000,1,0.000000,0.000000,0.000000,4.218521,46.498154,0.000000,0.000000,0.000000,0.005000,FlatInitial,ResetBack,0,0.096875,-0.010000
07:51:53.693 PM 02/18/2016,Teleop Disabled,0,FALSE,0,NO ERROR,0.000000,0.000000,-6000.000000,-6000.000000,Speed,Speed,-0.010000,1.060000,1.630000,1.000000,102.000000,1,0,-0.000000,0.000000,1,0.000000,0.000000,0.000000,4.218521,46.498154,0.000000,0.000000,0.002000,0.004000,FlatInitial,ResetBack,0,0.096875,-0.010000
07:51:53.793 PM 02/18/2016,Teleop Disabled,0,FALSE,0,NO ERROR,0.000000,0.000000,-6000.000000,-6000.000000,Speed,Speed,-0.010000,1.060000,1.630000,1.000000,103.000000,1,0,-0.000000,0.000000,1,0.000000,0.000000,0.000000,4.218521,46.498154,0.000000,0.000000,0.000000,0.004000,FlatInitial,ResetBack,0,0.096875,-0.010000
07:51:53.893 PM 02/18/2016,Teleop Disabled,0,FALSE,0,NO ERROR,0.000000,0.000000,-6000.000000,-6000.000000,Speed,Speed,-0.010000,1.060000,1.630000,1.000000,101.000000,1,0,-0.000000,0.000000,1,0.000000,0.000000,0.000000,4.218521,46.498154,0.000000,-0.002000,0.000000,0.001000,FlatInitial,ResetBack,0,0.096875,-0.010000
07:51:53.994 PM 02/18/2016,Teleop Disabled,0,FALSE,0,NO ERROR,0.000000,0.000000,-6000.000000,-6000.000000,Speed,Speed,-0.010000,1.060000,1.630000,1.000000,106.000000,1,0,-0.000000,0.000000,1,0.000000,0.000000,0.000000,4.218521,46.498154,0.000000,0.003000,0.003000,0.002000,FlatInitial,ResetBack,0,0.096875,-0.010000
07:51:54.093 PM 02/18/2016,Teleop Disabled,0,FALSE,0,NO ERROR,0.000000,0.000000,-6000.000000,-6000.000000,Speed,Speed,-0.010000,1.060000,1.630000,1.000000,102.000000,1,0,-0.000000,0.000000,1,0.000000,0.000000,0.000000,4.218521,46.498154,0.000000,0.000000,0.000000,0.000000,FlatInitial,ResetBack,0,0.096875,-0.010000
07:51:54.194 PM 02/18/2016,Teleop Disabled,0,FALSE,0,NO ERROR,0.000000,0.000000,-6000.000000,-6000.000000,Speed,Speed,-0.010000,1.060000,1.630000,1.000000,101.000000,1,0,-0.000000,0.000000,1,0.000000,0.000000,0.000000,4.218521,46.498154,0.000000,-0.001000,-0.001000,0.000000,FlatInitial,ResetBack,0,0.096875,-0.010000
07:51:54.295 PM 02/18/2016,Teleop Disabled,0,FALSE,0,NO ERROR,0.000000,0.000000,-6000.000000,-6000.000000,Speed,Speed,-0.020000,1.060000,1.630000,1.000000,102.000000,1,0,-0.000000,0.000000,1,0.000000,0.000000,0.000000,4.218521,46.498154,0.000000,0.000000,0.000000,-0.001000,FlatInitial,ResetBack,0,0.096875,-0.020000
07:51:54.396 PM 02/18/2016,Teleop Disabled,0,FALSE,0,NO ERROR,0.000000,0.000000,-6000.000000,-6000.000000,Speed,Speed,-0.020000,1.060000,1.640000,1.000000,104.000000,1,0,-0.000000,0.000000,1,0.000000,0.000000,0.000000,4.218521,46.498154,0.000000,-0.001000,0.001000,0.000000,FlatInitial,ResetBack,0,0.096875,-0.020000
07:51:54.496 PM 02/18/2016,Teleop Disabled,0,FALSE,0,NO ERROR,0.000000,0.000000,-6000.000000,-6000.000000,Speed,Speed,-0.020000,1.060000,1.630000,1.000000,101.000000,1,0,-0.000000,0.000000,1,0.000000,0.000000,0.000000,4.218521,46.498154,0.000000,0.000000,0.000000,0.002000,FlatInitial,ResetBack,0,0.096875,-0.020000
07:51:54.597 PM 02/18/2016,Teleop Disabled,0,FALSE,0,NO ERROR,0.000000,0.000000,-6000.000000,-6000.000000,Speed,Speed,-0.030000,1.060000,1.630000,1.000000,102.000000,1,0,-0.000000,0.000000,1,0.000000,0.000000,0.000000,4.218521,46.498154,0.000000,-0.002000,-0.001000,0.004000,FlatInitial,ResetBack,0,0.096875,-0.030000
07:51:54.698 PM 02/18/2016,Teleop Disabled,0,FALSE,0,NO ERROR,0.000000,0.000000,-6000.000000,-6000.000000,Speed,Speed,-0.030000,1.070000,1.630000,1.000000,101.000000,1,0,-0.000000,0.000000,1,0.000000,0.000000,0.000000,4.218521,46.498154,0.000000,0.001000,-0.001000,-0.004000,FlatInitial,ResetBack,0,0.096875,-0.030000
07:51:54.798 PM 02/18/2016,Teleop Disabled,0,FALSE,0,NO ERROR,0.000000,0.000000,-6000.000000,-6000.000000,Speed,Speed,-0.030000,1.070000,1.630000,1.000000,101.000000,1,0,-0.000000,0.000000,1,0.000000,0.000000,0.000000,4.218521,46.498154,0.000000,0.000000,0.000000,0.000000,FlatInitial,ResetBack,0,0.096875,-0.030000
07:51:54.898 PM 02/18/2016,Teleop Disabled,0,FALSE,0,NO ERROR,0.000000,0.000000,-6000.000000,-6000.000000,Speed,Speed,-0.030000,1.060000,1.630000,1.000000,107.000000,1,0,-0.000000,0.000000,1,0.000000,0.000000,0.000000,4.218521,46.498154,0.000000,0.001000,-0.002000,0.004000,FlatInitial,ResetBack,0,0.096875,-0.030000
07:51:54.998 PM 02/18/2016,Teleop Disabled,0,FALSE,0,NO ERROR,0.000000,0.000000,-6000.000000,-6000.000000,Speed,Speed,-0.030000,1.060000,1.630000,1.000000,104.000000,1,0,-0.000000,0.000000,1,0.000000,0.000000,0.000000,4.218521,46.498154,0.000000,0.002000,0.000000,0.004000,FlatInitial,ResetBack,0,0.096875,-0.030000
07:51:55.099 PM 02/18/2016,Teleop Disabled,0,FALSE,0,NO ERROR,0.000000,0.000000,-6000.000000,-6000.000000,Speed,Speed,-0.030000,1.070000,1.630000,1.000000,101.000000,1,0,-0.000000,0.000000,1,0.000000,0.000000,0.000000,4.218521,46.498154,0.000000,-0.001000,0.000000,0.004000,FlatInitial,ResetBack,0,0.096875,-0.030000
07:51:55.199 PM 02/18/2016,Teleop Disabled,0,FALSE,0,NO ERROR,0.000000,0.000000,-6000.000000,-6000.000000,Speed,Speed,-0.030000,1.060000,1.630000,1.000000,102.000000,1,0,-0.000000,0.000000,1,0.000000,0.000000,0.000000,4.218521,46.498154,0.000000,0.000000,-0.002000,0.007000,FlatInitial,ResetBack,0,0.096875,-0.030000
07:51:55.299 PM 02/18/2016,Teleop Disabled,0,FALSE,0,NO ERROR,0.000000,0.000000,-6000.000000,-6000.000000,Speed,Speed,-0.030000,1.060000,1.630000,1.000000,101.000000,1,0,-0.000000,0.000000,1,0.000000,0.000000,0.000000,4.218521,46.498154,0.000000,0.001000,-0.001000,0.005000,FlatInitial,ResetBack,0,0.096875,-0.030000
07:51:55.399 PM 02/18/2016,Teleop Disabled,0,FALSE,0,NO ERROR,0.000000,0.000000,-6000.000000,-6000.000000,Speed,Speed,-0.040000,1.060000,1.630000,1.000000,122.000000,1,0,-0.000000,0.000000,1,0.000000,0.000000,0.000000,4.218521,46.498154,0.000000,0.002000,0.000000,0.003000,FlatInitial,ResetBack,0,0.096875,-0.040000
07:51:55.499 PM 02/18/2016,Teleop Disabled,0,FALSE,0,NO ERROR,0.000000,0.000000,-6000.000000,-6000.000000,Speed,Speed,-0.030000,1.060000,1.630000,1.000000,101.000000,1,0,-0.000000,0.000000,1,0.000000,0.000000,0.000000,4.218521,46.498154,0.000000,0.000000,-0.001000,0.000000,FlatInitial,ResetBack,0,0.096875,-0.030000
07:51:55.599 PM 02/18/2016,Teleop Disabled,0,FALSE,0,NO ERROR,0.000000,0.000000,-6000.000000,-6000.000000,Speed,Speed,-0.030000,1.060000,1.640000,1.000000,101.000000,1,0,-0.000000,0.000000,1,0.000000,0.000000,0.000000,4.218521,46.498154,0.000000,0.001000,0.002000,0.003000,FlatInitial,ResetBack,0,0.096875,-0.030000
07:51:55.699 PM 02/18/2016,Teleop Disabled,0,FALSE,0,NO ERROR,0.000000,0.000000,-6000.000000,-6000.000000,Speed,Speed,-0.030000,1.060000,1.640000,1.000000,102.000000,1,0,-0.000000,0.000000,1,0.000000,0.000000,0.000000,4.218521,46.498154,0.000000,0.002000,0.000000,0.005000,FlatInitial,ResetBack,0,0.096875,-0.030000
07:51:55.801 PM 02/18/2016,Teleop Disabled,0,FALSE,0,NO ERROR,0.000000,0.000000,-6000.000000,-6000.000000,Speed,Speed,-0.030000,1.050000,1.630000,1.000000,102.000000,1,0,-0.000000,0.000000,1,0.000000,0.000000,0.000000,4.218521,46.498154,0.000000,0.000000,0.000000,0.001000,FlatInitial,ResetBack,0,0.096875,-0.030000
07:51:55.901 PM 02/18/2016,Teleop Disabled,0,FALSE,0,NO ERROR,0.000000,0.000000,-6000.000000,-6000.000000,Speed,Speed,-0.040000,1.060000,1.640000,1.000000,102.000000,1,0,-0.000000,0.000000,1,0.000000,0.000000,0.000000,4.218521,46.498154,0.000000,0.000000,0.000000,0.000000,FlatInitial,ResetBack,0,0.096875,-0.040000
07:51:56.002 PM 02/18/2016,Teleop Disabled,0,FALSE,0,NO ERROR,0.000000,0.000000,-6000.000000,-6000.000000,Speed,Speed,-0.030000,1.060000,1.630000,1.000000,102.000000,1,0,-0.000000,0.000000,1,0.000000,0.000000,0.000000,4.218521,46.498154,0.000000,0.000000,0.000000,0.000000,FlatInitial,ResetBack,0,0.096875,-0.030000
07:51:56.102 PM 02/18/2016,Teleop Disabled,0,FALSE,0,NO ERROR,0.000000,0.000000,-6000.000000,-6000.000000,Speed,Speed,-0.030000,1.060000,1.630000,1.000000,106.000000,1,0,-0.000000,0.000000,1,0.000000,0.000000,0.000000,4.218521,46.498154,0.000000,0.000000,0.000000,0.000000,FlatInitial,ResetBack,0,0.096875,-0.030000
07:51:56.204 PM 02/18/2016,Teleop Disabled,0,FALSE,0,NO ERROR,0.000000,0.000000,-6000.000000,-6000.000000,Speed,Speed,-0.040000,1.060000,1.630000,1.000000,105.000000,1,0,-0.000000,0.000000,1,0.000000,0.000000,0.000000,4.218521,46.498154,0.000000,0.000000,0.000000,0.000000,FlatInitial,ResetBack,0,0.096875,-0.040000
07:51:56.306 PM 02/18/2016,Teleop Disabled,0,FALSE,0,NO ERROR,0.000000,0.000000,-6000.000000,-6000.000000,Speed,Speed,-0.040000,1.060000,1.630000,1.000000,105.000000,1,0,-0.000000,0.000000,1,0.000000,0.000000,0.000000,4.218521,46.498154,0.000000,0.000000,-0.002000,0.004000,FlatInitial,ResetBack,0,0.096875,-0.040000
07:51:56.406 PM 02/18/2016,Teleop Disabled,0,FALSE,0,NO ERROR,0.000000,0.000000,-6000.000000,-6000.000000,Speed,Speed,-0.040000,1.070000,1.630000,1.000000,108.000000,1,0,-0.000000,0.000000,1,0.000000,0.000000,0.000000,4.218521,46.498154,0.000000,0.001000,-0.001000,0.003000,FlatInitial,ResetBack,0,0.096875,-0.040000
07:51:56.507 PM 02/18/2016,Teleop Disabled,0,FALSE,0,NO ERROR,0.000000,0.000000,-6000.000000,-6000.000000,Speed,Speed,-0.040000,1.060000,1.630000,1.000000,102.000000,1,0,-0.000000,0.000000,1,0.000000,0.000000,0.000000,4.218521,46.498154,0.000000,-0.002000,0.000000,0.000000,FlatInitial,ResetBack,0,0.096875,-0.040000
07:51:56.608 PM 02/18/2016,Teleop Disabled,0,FALSE,0,NO ERROR,0.000000,0.000000,-6000.000000,-6000.000000,Speed,Speed,-0.040000,1.060000,1.630000,1.000000,102.000000,1,0,-0.000000,0.000000,1,0.000000,0.000000,0.000000,4.218521,46.498154,0.000000,-0.002000,0.000000,0.000000,FlatInitial,ResetBack,0,0.096875,-0.040000
07:51:56.712 PM 02/18/2016,Teleop Disabled,0,FALSE,0,NO ERROR,0.000000,0.000000,-6000.000000,-6000.000000,Speed,Speed,-0.040000,1.060000,1.640000,1.000000,103.000000,1,0,-0.000000,0.000000,1,0.000000,0.000000,0.000000,4.218521,46.498154,0.000000,-0.001000,0.000000,0.002000,FlatInitial,ResetBack,0,0.096875,-0.040000
07:51:56.813 PM 02/18/2016,Teleop Disabled,0,FALSE,0,NO ERROR,0.000000,0.000000,-6000.000000,-6000.000000,Speed,Speed,-0.040000,1.060000,1.640000,1.000000,102.000000,1,0,-0.000000,0.000000,1,0.000000,0.000000,0.000000,4.218521,46.498154,0.000000,0.000000,-0.001000,-0.003000,FlatInitial,ResetBack,0,0.096875,-0.040000
07:51:56.914 PM 02/18/2016,Teleop Disabled,0,FALSE,0,NO ERROR,0.000000,0.000000,-6000.000000,-6000.000000,Speed,Speed,-0.050000,1.060000,1.630000,1.000000,101.000000,1,0,-0.000000,0.000000,1,0.000000,0.000000,0.000000,4.218521,46.498154,0.000000,-0.001000,0.000000,0.001000,FlatInitial,ResetBack,0,0.096875,-0.050000
07:51:57.014 PM 02/18/2016,Teleop Disabled,0,FALSE,0,NO ERROR,0.000000,0.000000,-6000.000000,-6000.000000,Speed,Speed,-0.050000,1.060000,1.630000,1.000000,101.000000,1,0,-0.000000,0.000000,1,0.000000,0.000000,0.000000,4.218521,46.498154,0.000000,0.000000,0.000000,0.007000,FlatInitial,ResetBack,0,0.096875,-0.050000
07:51:57.114 PM 02/18/2016,Teleop Disabled,0,FALSE,0,NO ERROR,0.000000,0.000000,-6000.000000,-6000.000000,Speed,Speed,-0.060000,1.060000,1.640000,1.000000,107.000000,1,0,-0.000000,0.000000,1,0.000000,0.000000,0.000000,4.218521,46.498154,0.000000,0.000000,0.000000,0.004000,FlatInitial,ResetBack,0,0.096875,-0.060000
07:51:57.214 PM 02/18/2016,Teleop Disabled,0,FALSE,0,NO ERROR,0.000000,0.000000,-6000.000000,-6000.000000,Speed,Speed,-0.060000,1.060000,1.640000,1.000000,100.000000,1,0,-0.000000,0.000000,1,0.000000,0.000000,0.000000,4.218521,46.498154,0.000000,0.000000,0.000000,0.004000,FlatInitial,ResetBack,0,0.096875,-0.060000
07:51:57.314 PM 02/18/2016,Teleop Disabled,0,FALSE,0,NO ERROR,0.000000,0.000000,-6000.000000,-6000.000000,Speed,Speed,-0.060000,1.060000,1.630000,1.000000,103.000000,1,0,-0.000000,0.000000,1,0.000000,0.000000,0.000000,4.218521,46.498154,0.000000,-0.001000,-0.001000,-0.002000,FlatInitial,ResetBack,0,0.096875,-0.060000
07:51:57.414 PM 02/18/2016,Teleop Disabled,0,FALSE,0,NO ERROR,0.000000,0.000000,-6000.000000,-6000.000000,Speed,Speed,-0.060000,1.060000,1.640000,1.000000,103.000000,1,0,-0.000000,0.000000,1,0.000000,0.000000,0.000000,4.218521,46.498154,0.000000,0.000000,0.001000,0.004000,FlatInitial,ResetBack,0,0.096875,-0.060000
07:51:57.516 PM 02/18/2016,Teleop Disabled,0,FALSE,0,NO ERROR,0.000000,0.000000,-6000.000000,-6000.000000,Speed,Speed,-0.060000,1.060000,1.630000,1.000000,101.000000,1,0,-0.000000,0.000000,1,0.000000,0.000000,0.000000,4.218521,46.498154,0.000000,0.000000,0.001000,0.004000,FlatInitial,ResetBack,0,0.096875,-0.060000
07:51:57.617 PM 02/18/2016,Teleop Disabled,0,FALSE,0,NO ERROR,0.000000,0.000000,-6000.000000,-6000.000000,Speed,Speed,-0.060000,1.060000,1.630000,1.000000,103.000000,1,0,-0.000000,0.000000,1,0.000000,0.000000,0.000000,4.218521,46.498154,0.000000,0.000000,-0.001000,0.006000,FlatInitial,ResetBack,0,0.096875,-0.060000
07:51:57.717 PM 02/18/2016,Teleop Disabled,0,FALSE,0,NO ERROR,0.000000,0.000000,-6000.000000,-6000.000000,Speed,Speed,-0.060000,1.060000,1.630000,1.000000,102.000000,1,0,-0.000000,0.000000,1,0.000000,0.000000,0.000000,4.218521,46.498154,0.000000,0.000000,-0.001000,0.003000,FlatInitial,ResetBack,0,0.096875,-0.060000
07:51:57.818 PM 02/18/2016,Teleop Disabled,0,FALSE,0,NO ERROR,0.000000,0.000000,-6000.000000,-6000.000000,Speed,Speed,-0.060000,1.060000,1.630000,1.000000,102.000000,1,0,-0.000000,0.000000,1,0.000000,0.000000,0.000000,4.218521,46.498154,0.000000,-0.001000,0.000000,0.004000,FlatInitial,ResetBack,0,0.096875,-0.060000
07:51:57.919 PM 02/18/2016,Teleop Disabled,0,FALSE,0,NO ERROR,0.000000,0.000000,-6000.000000,-6000.000000,Speed,Speed,-0.060000,1.060000,1.630000,1.000000,104.000000,1,0,-0.000000,0.000000,1,0.000000,0.000000,0.000000,4.218521,46.498154,0.000000,0.000000,0.000000,0.006000,FlatInitial,ResetBack,0,0.096875,-0.060000
07:51:58.020 PM 02/18/2016,Teleop Disabled,0,FALSE,0,NO ERROR,0.000000,0.000000,-6000.000000,-6000.000000,Speed,Speed,-0.060000,1.060000,1.630000,1.000000,102.000000,1,0,-0.000000,0.000000,1,0.000000,0.000000,0.000000,4.218521,46.498154,0.000000,0.000000,-0.002000,0.006000,FlatInitial,ResetBack,0,0.096875,-0.060000
07:51:58.121 PM 02/18/2016,Teleop Disabled,0,FALSE,0,NO ERROR,0.000000,0.000000,-6000.000000,-6000.000000,Speed,Speed,-0.060000,1.060000,1.630000,1.000000,102.000000,1,0,-0.000000,0.000000,1,0.000000,0.000000,0.000000,4.218521,46.498154,0.000000,0.002000,-0.004000,0.006000,FlatInitial,ResetBack,0,0.096875,-0.060000
07:51:58.221 PM 02/18/2016,Teleop Disabled,0,FALSE,0,NO ERROR,0.000000,0.000000,-6000.000000,-6000.000000,Speed,Speed,-0.060000,1.060000,1.630000,1.000000,102.000000,1,0,-0.000000,0.000000,1,0.000000,0.000000,0.000000,4.218521,46.498154,0.000000,0.000000,-0.001000,-0.001000,FlatInitial,ResetBack,0,0.096875,-0.060000
07:51:58.321 PM 02/18/2016,Teleop Disabled,0,FALSE,0,NO ERROR,0.000000,0.000000,-6000.000000,-6000.000000,Speed,Speed,-0.070000,1.060000,1.620000,1.000000,101.000000,1,0,-0.000000,0.000000,1,0.000000,0.000000,0.000000,4.218521,46.498154,0.000000,0.000000,0.001000,0.005000,FlatInitial,ResetBack,0,0.096875,-0.070000
07:51:58.422 PM 02/18/2016,Teleop Disabled,0,FALSE,0,NO ERROR,0.000000,0.000000,-6000.000000,-6000.000000,Speed,Speed,-0.070000,1.060000,1.630000,1.000000,107.000000,1,0,-0.000000,0.000000,1,0.000000,0.000000,0.000000,4.218521,46.498154,0.000000,0.000000,0.000000,0.000000,FlatInitial,ResetBack,0,0.096875,-0.070000
07:51:58.522 PM 02/18/2016,Teleop Disabled,0,FALSE,0,NO ERROR,0.000000,0.000000,-6000.000000,-6000.000000,Speed,Speed,-0.070000,1.050000,1.620000,1.000000,107.000000,1,0,-0.000000,0.000000,1,0.000000,0.000000,0.000000,4.218521,46.498154,0.000000,0.000000,0.000000,0.003000,FlatInitial,ResetBack,0,0.096875,-0.070000
07:51:58.624 PM 02/18/2016,Teleop Disabled,0,FALSE,0,NO ERROR,0.000000,0.000000,-6000.000000,-6000.000000,Speed,Speed,-0.070000,1.060000,1.620000,1.000000,111.000000,1,0,-0.000000,0.000000,1,0.000000,0.000000,0.000000,4.218521,46.498154,0.000000,0.000000,-0.004000,0.005000,FlatInitial,ResetBack,0,0.096875,-0.070000
07:51:58.724 PM 02/18/2016,Teleop Disabled,0,FALSE,0,NO ERROR,0.000000,0.000000,-6000.000000,-6000.000000,Speed,Speed,-0.070000,1.060000,1.620000,1.000000,109.000000,1,0,-0.000000,0.000000,1,0.000000,0.000000,0.000000,4.218521,46.498154,0.000000,-0.002000,0.000000,0.000000,FlatInitial,ResetBack,0,0.096875,-0.070000
07:51:58.824 PM 02/18/2016,Teleop Disabled,0,FALSE,0,NO ERROR,0.000000,0.000000,-6000.000000,-6000.000000,Speed,Speed,-0.070000,1.060000,1.630000,1.000000,102.000000,1,0,-0.000000,0.000000,1,0.000000,0.000000,0.000000,4.218521,46.498154,0.000000,0.001000,-0.001000,0.005000,FlatInitial,ResetBack,0,0.096875,-0.070000
07:51:58.925 PM 02/18/2016,Teleop Disabled,0,FALSE,0,NO ERROR,0.000000,0.000000,-6000.000000,-6000.000000,Speed,Speed,-0.070000,1.060000,1.620000,1.000000,103.000000,1,0,-0.000000,0.000000,1,0.000000,0.000000,0.000000,4.218521,46.498154,0.000000,0.000000,0.001000,0.007000,FlatInitial,ResetBack,0,0.096875,-0.070000
07:51:59.025 PM 02/18/2016,Teleop Disabled,0,FALSE,0,NO ERROR,0.000000,0.000000,-6000.000000,-6000.000000,Speed,Speed,-0.080000,1.060000,1.630000,1.000000,105.000000,1,0,-0.000000,0.000000,1,0.000000,0.000000,0.000000,4.218521,46.498154,0.000000,0.001000,0.002000,0.007000,FlatInitial,ResetBack,0,0.096875,-0.080000
07:51:59.125 PM 02/18/2016,Teleop Disabled,0,FALSE,0,NO ERROR,0.000000,0.000000,-6000.000000,-6000.000000,Speed,Speed,-0.080000,1.060000,1.630000,1.000000,102.000000,1,0,-0.000000,0.000000,1,0.000000,0.000000,0.000000,4.218521,46.498154,0.000000,0.000000,0.000000,0.006000,FlatInitial,ResetBack,0,0.096875,-0.080000
07:51:59.225 PM 02/18/2016,Teleop Disabled,0,FALSE,0,NO ERROR,0.000000,0.000000,-6000.000000,-6000.000000,Speed,Speed,-0.080000,1.070000,1.630000,1.000000,101.000000,1,0,-0.000000,0.000000,1,0.000000,0.000000,0.000000,4.218521,46.498154,0.000000,0.001000,0.000000,0.003000,FlatInitial,ResetBack,0,0.096875,-0.080000
07:51:59.326 PM 02/18/2016,Teleop Disabled,0,FALSE,0,NO ERROR,0.000000,0.000000,-6000.000000,-6000.000000,Speed,Speed,-0.080000,1.060000,1.630000,1.000000,101.000000,1,0,-0.000000,0.000000,1,0.000000,0.000000,0.000000,4.218521,46.498154,0.000000,0.000000,0.000000,0.000000,FlatInitial,ResetBack,0,0.096875,-0.080000
07:51:59.426 PM 02/18/2016,Teleop Disabled,0,FALSE,0,NO ERROR,0.000000,0.000000,-6000.000000,-6000.000000,Speed,Speed,-0.080000,1.060000,1.630000,1.000000,107.000000,1,0,-0.000000,0.000000,1,0.000000,0.000000,0.000000,4.218521,46.498154,0.000000,-0.003000,0.000000,0.001000,FlatInitial,ResetBack,0,0.096875,-0.080000
07:51:59.526 PM 02/18/2016,Teleop Disabled,0,FALSE,0,NO ERROR,0.000000,0.000000,-6000.000000,-6000.000000,Speed,Speed,-0.080000,1.060000,1.630000,1.000000,102.000000,1,0,-0.000000,0.000000,1,0.000000,0.000000,0.000000,4.218521,46.498154,0.000000,0.002000,-0.001000,0.003000,FlatInitial,ResetBack,0,0.096875,-0.080000
07:51:59.626 PM 02/18/2016,Teleop Disabled,0,FALSE,0,NO ERROR,0.000000,0.000000,-6000.000000,-6000.000000,Speed,Speed,-0.080000,1.060000,1.630000,1.000000,102.000000,1,0,-0.000000,0.000000,1,0.000000,0.000000,0.000000,4.218521,46.498154,0.000000,0.000000,-0.002000,0.007000,FlatInitial,ResetBack,0,0.096875,-0.080000
07:51:59.726 PM 02/18/2016,Teleop Disabled,0,FALSE,0,NO ERROR,0.000000,0.000000,-6000.000000,-6000.000000,Speed,Speed,-0.080000,1.060000,1.630000,1.000000,101.000000,1,0,-0.000000,0.000000,1,0.000000,0.000000,0.000000,4.218521,46.498154,0.000000,0.001000,-0.001000,0.004000,FlatInitial,ResetBack,0,0.096875,-0.080000
07:51:59.826 PM 02/18/2016,Teleop Disabled,0,FALSE,0,NO ERROR,0.000000,0.000000,-6000.000000,-6000.000000,Speed,Speed,-0.080000,1.060000,1.630000,1.000000,103.000000,1,0,-0.000000,0.000000,1,0.000000,0.000000,0.000000,4.218521,46.498154,0.000000,0.000000,0.000000,0.003000,FlatInitial,ResetBack,0,0.096875,-0.080000
07:51:59.926 PM 02/18/2016,Teleop Disabled,0,FALSE,0,NO ERROR,0.000000,0.000000,-6000.000000,-6000.000000,Speed,Speed,-0.090000,1.070000,1.630000,1.000000,103.000000,1,0,-0.000000,0.000000,1,0.000000,0.000000,0.000000,4.218521,46.498154,0.000000,0.001000,0.000000,0.003000,FlatInitial,ResetBack,0,0.096875,-0.090000
07:52:00.026 PM 02/18/2016,Teleop Disabled,0,FALSE,0,NO ERROR,0.000000,0.000000,-6000.000000,-6000.000000,Speed,Speed,-0.090000,1.070000,1.630000,1.000000,101.000000,1,0,-0.000000,0.000000,1,0.000000,0.000000,0.000000,4.218521,46.498154,0.000000,0.001000,0.000000,0.006000,FlatInitial,ResetBack,0,0.096875,-0.090000
07:52:00.126 PM 02/18/2016,Teleop Disabled,0,FALSE,0,NO ERROR,0.000000,0.000000,-6000.000000,-6000.000000,Speed,Speed,-0.090000,1.070000,1.630000,1.000000,101.000000,1,0,-0.000000,0.000000,1,0.000000,0.000000,0.000000,4.218521,46.498154,0.000000,-0.001000,0.000000,0.001000,FlatInitial,ResetBack,0,0.096875,-0.090000
07:52:00.226 PM 02/18/2016,Teleop Disabled,0,FALSE,0,NO ERROR,0.000000,0.000000,-6000.000000,-6000.000000,Speed,Speed,-0.090000,1.080000,1.630000,1.000000,103.000000,1,0,-0.000000,0.000000,1,0.000000,0.000000,0.000000,4.218521,46.498154,0.000000,0.001000,0.000000,0.005000,FlatInitial,ResetBack,0,0.096875,-0.090000
07:52:00.326 PM 02/18/2016,Teleop Disabled,0,FALSE,0,NO ERROR,0.000000,0.000000,-6000.000000,-6000.000000,Speed,Speed,-0.090000,1.070000,1.630000,1.000000,102.000000,1,0,-0.000000,0.000000,1,0.000000,0.000000,0.000000,4.218521,46.498154,0.000000,0.000000,-0.001000,0.002000,FlatInitial,ResetBack,0,0.096875,-0.090000
07:52:00.426 PM 02/18/2016,Teleop Disabled,0,FALSE,0,NO ERROR,0.000000,0.000000,-6000.000000,-6000.000000,Speed,Speed,-0.090000,1.070000,1.630000,1.000000,101.000000,1,0,-0.000000,0.000000,1,0.000000,0.000000,0.000000,4.218521,46.498154,0.000000,-0.002000,-0.002000,0.000000,FlatInitial,ResetBack,0,0.096875,-0.090000
07:52:00.526 PM 02/18/2016,Teleop Disabled,0,FALSE,0,NO ERROR,0.000000,0.000000,-6000.000000,-6000.000000,Speed,Speed,-0.090000,1.070000,1.640000,1.000000,103.000000,1,0,-0.000000,0.000000,1,0.000000,0.000000,0.000000,4.218521,46.498154,0.000000,0.000000,0.001000,0.008000,FlatInitial,ResetBack,0,0.096875,-0.090000
07:52:00.626 PM 02/18/2016,Teleop Disabled,0,FALSE,0,NO ERROR,0.000000,0.000000,-6000.000000,-6000.000000,Speed,Speed,-0.090000,1.070000,1.630000,1.000000,105.000000,1,0,-0.000000,0.000000,1,0.000000,0.000000,0.000000,4.218521,46.498154,0.000000,0.001000,-0.002000,0.004000,FlatInitial,ResetBack,0,0.096875,-0.090000
07:52:00.726 PM 02/18/2016,Teleop Disabled,0,FALSE,0,NO ERROR,0.000000,0.000000,-6000.000000,-6000.000000,Speed,Speed,-0.090000,1.070000,1.630000,1.000000,102.000000,1,0,-0.000000,0.000000,1,0.000000,0.000000,0.000000,4.218521,46.498154,0.000000,0.002000,-0.001000,0.004000,FlatInitial,ResetBack,0,0.096875,-0.090000
07:52:00.826 PM 02/18/2016,Teleop Disabled,0,FALSE,0,NO ERROR,0.000000,0.000000,-6000.000000,-6000.000000,Speed,Speed,-0.090000,1.070000,1.630000,1.000000,101.000000,1,0,-0.000000,0.000000,1,0.000000,0.000000,0.000000,4.218521,46.498154,0.000000,0.002000,0.001000,-0.003000,FlatInitial,ResetBack,0,0.096875,-0.090000
07:52:00.926 PM 02/18/2016,Teleop Disabled,0,FALSE,0,NO ERROR,0.000000,0.000000,-6000.000000,-6000.000000,Speed,Speed,-0.090000,1.070000,1.630000,1.000000,103.000000,1,0,-0.000000,0.000000,1,0.000000,0.000000,0.000000,4.218521,46.498154,0.000000,0.000000,0.000000,0.001000,FlatInitial,ResetBack,0,0.096875,-0.090000
07:52:01.026 PM 02/18/2016,Teleop Disabled,0,FALSE,0,NO ERROR,0.000000,0.000000,-6000.000000,-6000.000000,Speed,Speed,-0.090000,1.070000,1.630000,1.000000,101.000000,1,0,-0.000000,0.000000,1,0.000000,0.000000,0.000000,4.218521,46.498154,0.000000,0.000000,-0.001000,0.002000,FlatInitial,ResetBack,0,0.096875,-0.090000
07:52:01.126 PM 02/18/2016,Teleop Disabled,0,FALSE,0,NO ERROR,0.000000,0.000000,-6000.000000,-6000.000000,Speed,Speed,-0.100000,1.070000,1.630000,1.000000,101.000000,1,0,-0.000000,0.000000,1,0.000000,0.000000,0.000000,4.218521,46.498154,0.000000,0.000000,0.000000,0.002000,FlatInitial,ResetBack,0,0.096875,-0.100000
