Time,RobotMode,AutoToRun,ErrorStatus, ErrorCode,ErrorSource,ActualRPM1,ActualRPM2,DesiredRPM1,DesiredRPM2,ControlMode1,ControlMode2,NavXYaw,NavXRoll,NavXPitch,ShooterState,LoopTime,IsLevel,IsAutoTargeting,LeftMotorOutput,RightMotorOutput,IsHaloDrive,NavXVelocityX,NavXVelocityY,NavXVelocityZ,NavXDisplacementX,NavXDisplacementY,NavXDisplacementZ,NavXAccelerationX,NavXAccelerationY,NavXAccelerationZ,AutoDefendState,AngeMotorState,Photoeye,VisionXOutput
07:18:22.534 PM 02/18/2016,Autonomous Disabled,0,TRUE,91,Variant To Data in WPI_DigitalInputRefNum Registry Get.vi->Periodic Tasks.vi->Robot Main.vi,-5998.828125,6000.000000,-6000.000000,-6000.000000,Speed,Speed,24.530000,0.990000,0.200000,1.000000,104.000000,1,0,-0.000000,0.000000,1,-0.157944,2.652954,0.000000,36.389191,12.967300,0.000000,0.029000,0.022000,-0.116000,FlatInitial,Hold,0,0.000000
07:18:22.638 PM 02/18/2016,Teleop Disabled,0,TRUE,-44007,<LOCATION>WPI_DigitalInputRefNum Registry Get.vi<CALLSTACK>WPI_DigitalInputRefNum Registry Get.vi< <Periodic Tasks.vi< <Robot Main.vi,0.000000,0.000000,0.000000,0.000000,Speed,Speed,24.580000,1.050000,2.050000,0.000000,15292.000000,1,0,-0.000000,0.000000,1,0.000000,0.000000,0.000000,36.280731,16.321930,0.000000,-0.001000,-0.001000,0.001000,FlatInitial,ResetBack,0,0.000000
07:18:22.738 PM 02/18/2016,Teleop Disabled,0,FALSE,0,NO ERROR,0.000000,0.000000,0.000000,0.000000,Speed,Speed,0.000000,1.050000,2.050000,0.000000,102.000000,1,0,-0.000000,0.000000,1,0.000000,0.000000,0.000000,36.280731,16.321930,0.000000,-0.001000,0.000000,0.006000,FlatInitial,ResetBack,0,0.000000
07:18:22.843 PM 02/18/2016,Teleop Disabled,0,FALSE,0,NO ERROR,0.000000,0.000000,0.000000,0.000000,Speed,Speed,0.000000,1.050000,2.050000,0.000000,101.000000,1,0,-0.000000,0.000000,1,0.000000,0.000000,0.000000,36.280731,16.321930,0.000000,0.000000,0.002000,0.006000,FlatInitial,ResetBack,0,0.000000
07:18:22.943 PM 02/18/2016,Teleop Disabled,0,FALSE,0,NO ERROR,0.000000,0.000000,0.000000,0.000000,Speed,Speed,0.000000,1.040000,2.060000,0.000000,101.000000,1,0,-0.000000,0.000000,1,0.000000,0.000000,0.000000,36.280731,16.321930,0.000000,-0.001000,-0.001000,0.002000,FlatInitial,ResetBack,0,0.000000
07:18:23.043 PM 02/18/2016,Teleop Disabled,0,FALSE,0,NO ERROR,0.000000,0.000000,0.000000,0.000000,Speed,Speed,0.000000,1.040000,2.060000,0.000000,103.000000,1,0,-0.000000,0.000000,1,0.000000,0.000000,0.000000,36.280731,16.321930,0.000000,0.000000,0.001000,0.007000,FlatInitial,ResetBack,0,0.000000
07:18:23.143 PM 02/18/2016,Teleop Disabled,0,FALSE,0,NO ERROR,0.000000,0.000000,0.000000,0.000000,Speed,Speed,0.000000,1.040000,2.070000,0.000000,104.000000,1,0,-0.000000,0.000000,1,0.000000,0.000000,0.000000,36.280731,16.321930,0.000000,0.000000,-0.002000,0.010000,FlatInitial,ResetBack,0,0.000000
07:18:23.243 PM 02/18/2016,Teleop Disabled,0,FALSE,0,NO ERROR,0.000000,0.000000,0.000000,0.000000,Speed,Speed,0.000000,1.040000,2.070000,0.000000,103.000000,1,0,-0.000000,0.000000,1,0.000000,0.000000,0.000000,36.280731,16.321930,0.000000,0.000000,-0.001000,0.006000,FlatInitial,ResetBack,0,0.000000
07:18:23.345 PM 02/18/2016,Teleop Disabled,0,FALSE,0,NO ERROR,0.000000,0.000000,0.000000,0.000000,Speed,Speed,0.000000,1.040000,2.070000,0.000000,101.000000,1,0,-0.000000,0.000000,1,0.000000,0.000000,0.000000,36.280731,16.321930,0.000000,0.000000,0.000000,0.006000,FlatInitial,ResetBack,0,0.000000
07:18:23.446 PM 02/18/2016,Teleop Disabled,0,FALSE,0,NO ERROR,0.000000,0.000000,0.000000,0.000000,Speed,Speed,0.000000,1.040000,2.060000,0.000000,102.000000,1,0,-0.000000,0.000000,1,0.000000,0.000000,0.000000,36.280731,16.321930,0.000000,-0.001000,0.000000,0.010000,FlatInitial,ResetBack,0,0.000000
07:18:23.548 PM 02/18/2016,Teleop Disabled,0,FALSE,0,NO ERROR,0.000000,0.000000,0.000000,0.000000,Speed,Speed,0.000000,1.040000,2.070000,0.000000,101.000000,1,0,-0.000000,0.000000,1,0.000000,0.000000,0.000000,36.280731,16.321930,0.000000,0.000000,0.002000,0.007000,FlatInitial,ResetBack,0,0.000000
07:18:23.648 PM 02/18/2016,Teleop Disabled,0,FALSE,0,NO ERROR,0.000000,0.000000,0.000000,0.000000,Speed,Speed,0.000000,1.040000,2.070000,0.000000,103.000000,1,0,-0.000000,0.000000,1,0.000000,0.000000,0.000000,36.280731,16.321930,0.000000,0.000000,0.000000,0.004000,FlatInitial,ResetBack,0,0.000000
07:18:23.749 PM 02/18/2016,Teleop Disabled,0,FALSE,0,NO ERROR,0.000000,0.000000,0.000000,0.000000,Speed,Speed,0.000000,1.040000,2.070000,0.000000,104.000000,1,0,-0.000000,0.000000,1,0.000000,0.000000,0.000000,36.280731,16.321930,0.000000,-0.002000,0.001000,0.006000,FlatInitial,ResetBack,0,0.000000
07:18:23.850 PM 02/18/2016,Teleop Disabled,0,FALSE,0,NO ERROR,0.000000,0.000000,0.000000,0.000000,Speed,Speed,0.000000,1.040000,2.070000,0.000000,104.000000,1,0,-0.000000,0.000000,1,0.000000,0.000000,0.000000,36.280731,16.321930,0.000000,0.001000,-0.001000,0.004000,FlatInitial,ResetBack,0,0.000000
07:18:23.951 PM 02/18/2016,Teleop Disabled,0,FALSE,0,NO ERROR,0.000000,0.000000,0.000000,0.000000,Speed,Speed,0.000000,1.040000,2.060000,0.000000,102.000000,1,0,-0.000000,0.000000,1,0.000000,0.000000,0.000000,36.280731,16.321930,0.000000,0.001000,0.001000,0.005000,FlatInitial,ResetBack,0,0.000000
07:18:24.052 PM 02/18/2016,Teleop Disabled,0,FALSE,0,NO ERROR,0.000000,0.000000,0.000000,0.000000,Speed,Speed,0.000000,1.040000,2.060000,0.000000,102.000000,1,0,-0.000000,0.000000,1,0.000000,0.000000,0.000000,36.280731,16.321930,0.000000,0.000000,0.000000,0.006000,FlatInitial,ResetBack,0,0.000000
07:18:24.152 PM 02/18/2016,Teleop Disabled,0,FALSE,0,NO ERROR,0.000000,0.000000,0.000000,0.000000,Speed,Speed,-0.010000,1.040000,2.060000,0.000000,101.000000,1,0,-0.000000,0.000000,1,0.000000,0.000000,0.000000,36.280731,16.321930,0.000000,0.000000,-0.001000,0.004000,FlatInitial,ResetBack,0,0.000000
07:18:24.252 PM 02/18/2016,Teleop Disabled,0,FALSE,0,NO ERROR,0.000000,0.000000,0.000000,0.000000,Speed,Speed,-0.010000,1.050000,2.060000,0.000000,102.000000,1,0,-0.000000,0.000000,1,0.000000,0.000000,0.000000,36.280731,16.321930,0.000000,-0.001000,0.000000,0.005000,FlatInitial,ResetBack,0,0.000000
07:18:24.353 PM 02/18/2016,Teleop Disabled,0,FALSE,0,NO ERROR,0.000000,0.000000,0.000000,0.000000,Speed,Speed,-0.010000,1.050000,2.060000,0.000000,102.000000,1,0,-0.000000,0.000000,1,0.000000,0.000000,0.000000,36.280731,16.321930,0.000000,0.000000,0.001000,0.007000,FlatInitial,ResetBack,0,0.000000
07:18:24.453 PM 02/18/2016,Teleop Disabled,0,FALSE,0,NO ERROR,0.000000,0.000000,0.000000,0.000000,Speed,Speed,-0.010000,1.050000,2.060000,0.000000,101.000000,1,0,-0.000000,0.000000,1,0.000000,0.000000,0.000000,36.280731,16.321930,0.000000,0.000000,-0.001000,0.006000,FlatInitial,ResetBack,0,0.000000
07:18:24.553 PM 02/18/2016,Teleop Disabled,0,FALSE,0,NO ERROR,0.000000,0.000000,0.000000,0.000000,Speed,Speed,-0.010000,1.050000,2.060000,0.000000,102.000000,1,0,-0.000000,0.000000,1,0.000000,0.000000,0.000000,36.280731,16.321930,0.000000,-0.001000,0.000000,0.003000,FlatInitial,ResetBack,0,0.000000
07:18:24.653 PM 02/18/2016,Teleop Disabled,0,FALSE,0,NO ERROR,0.000000,0.000000,0.000000,0.000000,Speed,Speed,-0.010000,1.050000,2.060000,0.000000,101.000000,1,0,-0.000000,0.000000,1,0.000000,0.000000,0.000000,36.280731,16.321930,0.000000,0.000000,-0.003000,0.008000,FlatInitial,ResetBack,0,0.000000
07:18:24.754 PM 02/18/2016,Teleop Disabled,0,FALSE,0,NO ERROR,0.000000,0.000000,0.000000,0.000000,Speed,Speed,-0.010000,1.050000,2.060000,0.000000,102.000000,1,0,-0.000000,0.000000,1,0.000000,0.000000,0.000000,36.280731,16.321930,0.000000,0.003000,0.000000,0.006000,FlatInitial,ResetBack,0,0.000000
07:18:24.854 PM 02/18/2016,Teleop Disabled,0,FALSE,0,NO ERROR,0.000000,0.000000,0.000000,0.000000,Speed,Speed,-0.010000,1.050000,2.060000,0.000000,101.000000,1,0,-0.000000,0.000000,1,0.000000,0.000000,0.000000,36.280731,16.321930,0.000000,-0.001000,-0.002000,0.004000,FlatInitial,ResetBack,0,0.000000
07:18:24.954 PM 02/18/2016,Teleop Disabled,0,FALSE,0,NO ERROR,0.000000,0.000000,0.000000,0.000000,Speed,Speed,-0.010000,1.050000,2.060000,0.000000,104.000000,1,0,-0.000000,0.000000,1,0.000000,0.000000,0.000000,36.280731,16.321930,0.000000,0.001000,0.000000,0.004000,FlatInitial,ResetBack,0,0.000000
07:18:25.054 PM 02/18/2016,Teleop Disabled,0,FALSE,0,NO ERROR,0.000000,0.000000,0.000000,0.000000,Speed,Speed,-0.010000,1.050000,2.060000,0.000000,104.000000,1,0,-0.000000,0.000000,1,0.000000,0.000000,0.000000,36.280731,16.321930,0.000000,0.000000,0.000000,0.003000,FlatInitial,ResetBack,0,0.000000
07:18:25.154 PM 02/18/2016,Teleop Disabled,0,FALSE,0,NO ERROR,0.000000,0.000000,0.000000,0.000000,Speed,Speed,-0.010000,1.050000,2.060000,0.000000,102.000000,1,0,-0.000000,0.000000,1,0.000000,0.000000,0.000000,36.280731,16.321930,0.000000,0.000000,0.000000,0.009000,FlatInitial,ResetBack,0,0.000000
07:18:25.254 PM 02/18/2016,Teleop Disabled,0,FALSE,0,NO ERROR,0.000000,0.000000,0.000000,0.000000,Speed,Speed,-0.010000,1.050000,2.060000,0.000000,101.000000,1,0,-0.000000,0.000000,1,0.000000,0.000000,0.000000,36.280731,16.321930,0.000000,0.000000,0.001000,0.002000,FlatInitial,ResetBack,0,0.000000
07:18:25.354 PM 02/18/2016,Teleop Disabled,0,FALSE,0,NO ERROR,0.000000,0.000000,0.000000,0.000000,Speed,Speed,-0.010000,1.050000,2.060000,0.000000,107.000000,1,0,-0.000000,0.000000,1,0.000000,0.000000,0.000000,36.280731,16.321930,0.000000,-0.001000,-0.001000,0.003000,FlatInitial,ResetBack,0,0.000000
07:18:25.454 PM 02/18/2016,Teleop Disabled,0,FALSE,0,NO ERROR,0.000000,0.000000,0.000000,0.000000,Speed,Speed,-0.010000,1.040000,2.060000,0.000000,108.000000,1,0,-0.000000,0.000000,1,0.000000,0.000000,0.000000,36.280731,16.321930,0.000000,0.001000,-0.001000,0.002000,FlatInitial,ResetBack,0,0.000000
07:18:25.554 PM 02/18/2016,Teleop Disabled,0,FALSE,0,NO ERROR,0.000000,0.000000,0.000000,0.000000,Speed,Speed,-0.020000,1.040000,2.060000,0.000000,102.000000,1,0,-0.000000,0.000000,1,0.000000,0.000000,0.000000,36.280731,16.321930,0.000000,0.000000,-0.002000,0.010000,FlatInitial,ResetBack,0,0.000000
07:18:25.654 PM 02/18/2016,Teleop Disabled,0,FALSE,0,NO ERROR,0.000000,0.000000,0.000000,0.000000,Speed,Speed,-0.020000,1.040000,2.060000,0.000000,102.000000,1,0,-0.000000,0.000000,1,0.000000,0.000000,0.000000,36.280731,16.321930,0.000000,0.001000,0.001000,0.002000,FlatInitial,ResetBack,0,0.000000
07:18:25.754 PM 02/18/2016,Teleop Disabled,0,FALSE,0,NO ERROR,0.000000,0.000000,0.000000,0.000000,Speed,Speed,-0.020000,1.040000,2.060000,0.000000,102.000000,1,0,-0.000000,0.000000,1,0.000000,0.000000,0.000000,36.280731,16.321930,0.000000,0.000000,0.001000,0.000000,FlatInitial,ResetBack,0,0.000000
07:18:25.854 PM 02/18/2016,Teleop Disabled,0,FALSE,0,NO ERROR,0.000000,0.000000,0.000000,0.000000,Speed,Speed,-0.020000,1.040000,2.060000,1.000000,101.000000,1,0,-0.000000,0.000000,1,0.000000,0.000000,0.000000,36.280731,16.321930,0.000000,0.000000,-0.001000,0.007000,FlatInitial,ResetBack,0,0.000000
07:18:25.954 PM 02/18/2016,Teleop Disabled,0,FALSE,0,NO ERROR,0.000000,0.000000,-6000.000000,-6000.000000,Speed,Speed,-0.020000,1.040000,2.050000,1.000000,103.000000,1,0,-0.000000,0.000000,1,0.000000,0.000000,0.000000,36.280731,16.321930,0.000000,0.002000,0.001000,0.005000,FlatInitial,ResetBack,0,0.000000
07:18:26.055 PM 02/18/2016,Teleop Enabled,0,FALSE,0,NO ERROR,0.000000,0.000000,-6000.000000,-6000.000000,Speed,Speed,-0.020000,1.040000,2.060000,1.000000,101.000000,1,0,-0.000000,0.000000,1,0.000000,0.000000,0.000000,36.280731,16.321930,0.000000,0.000000,-0.001000,0.005000,FlatInitial,ResetBack,0,0.000000
07:18:26.156 PM 02/18/2016,Teleop Enabled,0,FALSE,0,NO ERROR,0.000000,4.687500,-6000.000000,-6000.000000,Speed,Speed,-0.050000,1.050000,1.980000,1.000000,109.000000,1,0,-0.000000,0.000000,1,0.011185,-0.028107,0.000000,36.281097,16.321442,0.000000,-0.082000,0.051000,-0.047000,FlatInitial,ResetBack,0,0.000000
07:18:26.257 PM 02/18/2016,Teleop Enabled,0,FALSE,0,NO ERROR,-2277.978516,898.242187,-6000.000000,-6000.000000,Speed,Speed,-0.360000,1.160000,1.820000,1.000000,101.000000,1,0,-0.000000,0.000000,1,0.024872,-0.035706,0.000000,36.282089,16.319946,0.000000,-0.022000,0.029000,0.142000,FlatInitial,ResetBack,0,0.000000
07:18:26.356 PM 02/18/2016,Teleop Enabled,0,FALSE,0,NO ERROR,-2277.978516,2449.951172,-6000.000000,-6000.000000,Speed,Speed,-0.620000,1.060000,1.700000,1.000000,100.000000,1,0,-0.000000,0.000000,1,0.007874,-0.018250,0.000000,36.282639,16.319046,0.000000,-0.116000,0.023000,0.053000,FlatInitial,ResetBack,0,0.000000
07:18:26.456 PM 02/18/2016,Teleop Enabled,0,FALSE,0,NO ERROR,-3875.097656,4126.171875,-6000.000000,-6000.000000,Speed,Speed,-0.610000,1.020000,1.510000,1.000000,101.000000,1,0,-0.000000,0.000000,1,-0.021820,0.000870,0.000000,36.281693,16.318375,0.000000,-0.038000,0.078000,0.079000,FlatInitial,ResetBack,0,0.000000
07:18:26.558 PM 02/18/2016,Teleop Enabled,0,FALSE,0,NO ERROR,-4928.906250,5340.820312,-6000.000000,-6000.000000,Speed,Speed,-0.520000,1.000000,1.340000,1.000000,101.000000,1,0,-0.000000,0.000000,1,-0.001587,0.000702,0.000000,36.281006,16.318863,0.000000,0.032000,-0.072000,0.171000,FlatInitial,ResetBack,0,0.000000
07:18:26.660 PM 02/18/2016,Teleop Enabled,0,FALSE,0,NO ERROR,-5739.257812,5896.289062,-6000.000000,-6000.000000,Speed,Speed,-0.470000,0.970000,1.510000,1.000000,102.000000,1,0,-0.000000,0.000000,1,-0.005402,-0.079758,0.000000,36.281265,16.316559,0.000000,-0.021000,-0.023000,-0.024000,FlatInitial,ResetBack,0,0.000000
07:18:26.761 PM 02/18/2016,Teleop Enabled,0,FALSE,0,NO ERROR,-6006.445312,6031.054688,-6000.000000,-6000.000000,Speed,Speed,-0.470000,0.940000,1.630000,1.000000,101.000000,1,0,-0.000000,0.000000,1,-0.031311,-0.079056,0.000000,36.279922,16.311554,0.000000,-0.034000,0.026000,0.045000,FlatInitial,ResetBack,0,0.000000
07:18:26.861 PM 02/18/2016,Teleop Enabled,0,FALSE,0,NO ERROR,-6052.148438,6040.429688,-6000.000000,-6000.000000,Speed,Speed,-0.510000,0.970000,1.820000,1.000000,102.000000,1,0,-0.000000,0.000000,1,0.000000,-0.059601,0.000000,36.279175,16.309021,0.000000,0.017000,-0.024000,0.081000,FlatInitial,ResetBack,0,0.000000
07:18:26.962 PM 02/18/2016,Teleop Enabled,0,FALSE,0,NO ERROR,-6043.945312,6031.640625,-6000.000000,-6000.000000,Speed,Speed,-0.520000,1.050000,1.790000,1.000000,102.000000,1,0,-0.000000,0.000000,1,0.017731,-0.001144,0.000000,36.279572,16.308380,0.000000,0.050000,-0.029000,0.113000,FlatInitial,ResetBack,0,0.000000
07:18:27.062 PM 02/18/2016,Teleop Enabled,0,FALSE,0,NO ERROR,-6030.468750,6019.335938,-6000.000000,-6000.000000,Speed,Speed,-0.500000,1.110000,1.620000,1.000000,102.000000,1,0,-0.000000,0.000000,1,0.072983,-0.026962,0.000000,36.282578,16.307404,0.000000,0.027000,0.044000,0.139000,FlatInitial,ResetBack,0,0.000000
07:18:27.162 PM 02/18/2016,Teleop Enabled,0,FALSE,0,NO ERROR,-6019.335938,6011.718750,-6000.000000,-6000.000000,Speed,Speed,-0.500000,1.160000,1.500000,1.000000,102.000000,1,0,-0.000000,0.000000,1,0.000000,0.000000,0.000000,36.285049,16.306747,0.000000,0.004000,-0.011000,0.174000,FlatInitial,ResetBack,0,0.000000
07:18:27.262 PM 02/18/2016,Teleop Enabled,0,FALSE,0,NO ERROR,-6014.062500,6008.789062,-6000.000000,-6000.000000,Speed,Speed,-0.510000,1.140000,1.270000,1.000000,102.000000,1,0,-0.000000,0.000000,1,-0.002197,-0.030396,0.000000,36.284882,16.305832,0.000000,-0.008000,-0.037000,0.165000,FlatInitial,ResetBack,0,0.000000
07:18:27.363 PM 02/18/2016,Teleop Enabled,0,FALSE,0,NO ERROR,-6011.718750,6008.203125,-6000.000000,-6000.000000,Speed,Speed,-0.510000,1.130000,1.040000,1.000000,102.000000,1,0,-0.000000,0.000000,1,-0.021683,-0.030701,0.000000,36.284271,16.304153,0.000000,-0.013000,0.003000,0.169000,FlatInitial,ResetBack,0,0.000000
07:18:27.463 PM 02/18/2016,Teleop Enabled,0,FALSE,0,NO ERROR,-6007.617188,6008.789062,-6000.000000,-6000.000000,Speed,Speed,-0.510000,1.070000,0.800000,1.000000,115.000000,1,0,-0.000000,0.000000,1,-0.047195,-0.010895,0.000000,36.282471,16.303955,0.000000,-0.035000,-0.023000,0.185000,FlatInitial,ResetBack,0,0.000000
07:18:27.563 PM 02/18/2016,Teleop Enabled,0,FALSE,0,NO ERROR,-6007.031250,6008.203125,-6000.000000,-6000.000000,Speed,Speed,-0.510000,1.030000,0.570000,1.000000,102.000000,1,0,-0.000000,0.000000,1,-0.069733,0.005798,0.000000,36.279434,16.303665,0.000000,-0.054000,0.029000,0.221000,FlatInitial,ResetBack,0,0.000000
07:18:27.665 PM 02/18/2016,Teleop Enabled,0,FALSE,0,NO ERROR,-6005.859375,6004.687500,-6000.000000,-6000.000000,Speed,Speed,-0.510000,0.940000,0.460000,1.000000,102.000000,1,0,-0.000000,0.000000,1,-0.108810,0.006912,0.000000,36.274704,16.304062,0.000000,-0.036000,0.009000,0.221000,FlatInitial,ResetBack,0,0.000000
07:18:27.765 PM 02/18/2016,Teleop Enabled,0,FALSE,0,NO ERROR,-6004.687500,6002.929688,-6000.000000,-6000.000000,Speed,Speed,-0.520000,0.850000,0.350000,1.000000,106.000000,1,0,-0.000000,0.000000,1,-0.108810,0.006912,0.000000,36.274704,16.304062,0.000000,-0.036000,0.009000,0.221000,FlatInitial,ResetBack,0,0.000000
07:18:27.865 PM 02/18/2016,Teleop Enabled,0,FALSE,0,NO ERROR,-6002.929688,6002.343750,-6000.000000,-6000.000000,Speed,Speed,-0.520000,0.820000,0.290000,1.000000,100.000000,1,0,-0.000000,0.000000,1,-0.228378,0.097183,0.000000,36.254730,16.310318,0.000000,-0.057000,0.036000,0.180000,FlatInitial,ResetBack,0,0.000000
07:18:27.966 PM 02/18/2016,Teleop Enabled,0,FALSE,0,NO ERROR,-6002.929688,6004.687500,-6000.000000,-6000.000000,Speed,Speed,-0.520000,0.730000,0.310000,1.000000,100.000000,1,0,-0.000000,0.000000,1,-0.273087,0.131439,0.000000,36.244492,16.315033,0.000000,-0.041000,0.036000,0.158000,FlatInitial,ResetBack,0,0.000000
07:18:28.067 PM 02/18/2016,Teleop Enabled,0,FALSE,0,NO ERROR,-6001.757812,6008.203125,-6000.000000,-6000.000000,Speed,Speed,-0.510000,0.680000,0.330000,1.000000,101.000000,1,0,-0.000000,0.000000,1,-0.325607,0.184235,0.000000,36.229324,16.323257,0.000000,-0.046000,0.041000,0.158000,FlatInitial,ResetBack,0,0.000000
07:18:28.170 PM 02/18/2016,Teleop Enabled,0,FALSE,0,NO ERROR,-6001.757812,6011.718750,-6000.000000,-6000.000000,Speed,Speed,-0.510000,0.630000,0.430000,1.000000,101.000000,1,0,-0.000000,0.000000,1,-0.377655,0.229767,0.000000,36.211456,16.333755,0.000000,-0.046000,0.041000,0.158000,FlatInitial,ResetBack,0,0.000000
07:18:28.271 PM 02/18/2016,Teleop Enabled,0,FALSE,0,NO ERROR,-6004.101562,6007.031250,-6000.000000,-6000.000000,Speed,Speed,-0.520000,0.570000,0.560000,1.000000,100.000000,1,0,-0.000000,0.000000,1,-0.432587,0.290985,0.000000,36.186935,16.349701,0.000000,-0.042000,0.053000,0.140000,FlatInitial,ResetBack,0,0.000000
07:18:28.371 PM 02/18/2016,Teleop Enabled,0,FALSE,0,NO ERROR,-6004.101562,6004.687500,-6000.000000,-6000.000000,Speed,Speed,-0.520000,0.520000,0.720000,1.000000,100.000000,1,0,-0.000000,0.000000,1,-0.478317,0.322906,0.000000,36.164032,16.365417,0.000000,-0.048000,0.041000,0.105000,FlatInitial,ResetBack,0,0.000000
07:18:28.472 PM 02/18/2016,Teleop Enabled,0,FALSE,0,NO ERROR,-6001.171875,6004.101562,-6000.000000,-6000.000000,Speed,Speed,-0.510000,0.480000,0.820000,1.000000,101.000000,1,0,-0.000000,0.000000,1,-0.533707,0.361221,0.000000,36.143463,16.379288,0.000000,-0.064000,0.027000,0.139000,FlatInitial,ResetBack,0,0.000000
07:18:28.572 PM 02/18/2016,Teleop Enabled,0,FALSE,0,NO ERROR,-6000.585938,6006.445312,-6000.000000,-6000.000000,Speed,Speed,-0.520000,0.460000,0.970000,1.000000,102.000000,1,0,-0.000000,0.000000,1,-0.593262,0.382416,0.000000,36.115005,16.398117,0.000000,-0.061000,-0.004000,0.138000,FlatInitial,ResetBack,0,0.000000
07:18:28.673 PM 02/18/2016,Teleop Enabled,0,FALSE,0,NO ERROR,-6001.171875,6011.718750,-6000.000000,-6000.000000,Speed,Speed,-0.510000,0.440000,1.130000,1.000000,100.000000,1,0,-0.000000,0.000000,1,-0.640167,0.019058,0.000000,36.083939,16.398621,0.000000,-0.027000,0.050000,0.053000,FlatInitial,ResetBack,0,0.000000
07:18:28.774 PM 02/18/2016,Teleop Enabled,0,FALSE,0,NO ERROR,-6001.757812,6011.132812,-6000.000000,-6000.000000,Speed,Speed,-0.510000,0.450000,1.330000,1.000000,100.000000,1,0,-0.000000,0.000000,1,-0.699829,0.004303,0.000000,36.043640,16.399200,0.000000,-0.048000,0.011000,0.061000,FlatInitial,ResetBack,0,0.000000
07:18:28.874 PM 02/18/2016,Teleop Enabled,0,FALSE,0,NO ERROR,-6001.171875,6006.445312,-6000.000000,-6000.000000,Speed,Speed,-0.510000,0.450000,1.480000,1.000000,100.000000,1,0,-0.000000,0.000000,1,-0.736130,0.016876,0.000000,36.014709,16.399658,0.000000,-0.037000,0.011000,0.041000,FlatInitial,ResetBack,0,0.000000
07:18:28.975 PM 02/18/2016,Teleop Enabled,0,FALSE,0,NO ERROR,-6005.273438,6004.687500,-6000.000000,-6000.000000,Speed,Speed,-0.510000,0.480000,1.630000,1.000000,102.000000,1,0,-0.000000,0.000000,1,-0.783691,0.006165,0.000000,35.976578,16.400192,0.000000,-0.034000,0.023000,0.022000,FlatInitial,ResetBack,0,0.000000
07:18:29.075 PM 02/18/2016,Teleop Enabled,0,FALSE,0,NO ERROR,-6009.960938,6004.687500,-6000.000000,-6000.000000,Speed,Speed,-0.510000,0.500000,1.820000,1.000000,102.000000,1,0,-0.000000,0.000000,1,-0.843369,0.019730,0.000000,35.927597,16.401001,0.000000,-0.079000,0.032000,-0.009000,FlatInitial,ResetBack,0,0.000000
07:18:29.180 PM 02/18/2016,Teleop Enabled,0,FALSE,0,NO ERROR,-6009.375000,6002.929688,-6000.000000,-6000.000000,Speed,Speed,-0.510000,0.520000,2.070000,1.000000,101.000000,1,0,-0.000000,0.000000,1,-0.916702,0.000000,0.000000,35.874359,16.402557,0.000000,-0.079000,0.032000,-0.009000,FlatInitial,ResetBack,0,0.000000
07:18:29.280 PM 02/18/2016,Teleop Enabled,0,FALSE,0,NO ERROR,-6003.515625,6002.343750,-6000.000000,-6000.000000,Speed,Speed,-0.510000,0.550000,2.170000,1.000000,100.000000,1,0,-0.000000,0.000000,1,-0.949951,0.010101,0.000000,35.846222,16.402695,0.000000,-0.056000,0.020000,-0.022000,FlatInitial,ResetBack,0,0.000000
07:18:29.380 PM 02/18/2016,Teleop Enabled,0,FALSE,0,NO ERROR,-6004.687500,6004.101562,-6000.000000,-6000.000000,Speed,Speed,-0.500000,0.590000,2.370000,1.000000,101.000000,1,0,-0.000000,0.000000,1,-1.010483,0.039734,0.000000,35.796997,16.404114,0.000000,-0.073000,0.034000,-0.053000,FlatInitial,ResetBack,0,0.000000
07:18:29.480 PM 02/18/2016,Teleop Enabled,0,FALSE,0,NO ERROR,-6007.617188,6006.445312,-6000.000000,-6000.000000,Speed,Speed,-0.500000,0.630000,2.550000,1.000000,103.000000,1,0,-0.000000,0.000000,1,-1.105347,0.088379,0.000000,35.722443,16.408646,0.000000,-0.049000,0.066000,-0.025000,FlatInitial,ResetBack,0,0.000000
07:18:29.581 PM 02/18/2016,Teleop Enabled,0,FALSE,0,NO ERROR,-6005.273438,6012.304688,-6000.000000,-6000.000000,Speed,Speed,-0.520000,0.680000,2.740000,1.000000,107.000000,1,0,-0.000000,0.000000,1,-1.153885,0.144226,0.000000,35.665741,16.414856,0.000000,-0.057000,0.034000,-0.026000,FlatInitial,ResetBack,0,0.000000
07:18:29.681 PM 02/18/2016,Teleop Enabled,0,FALSE,0,NO ERROR,-6004.101562,6009.375000,-6000.000000,-6000.000000,Speed,Speed,-0.500000,0.740000,2.820000,1.000000,103.000000,1,0,-0.000000,0.000000,1,-1.206802,0.169800,0.000000,35.606369,16.422867,0.000000,-0.057000,0.034000,-0.026000,FlatInitial,ResetBack,0,0.000000
07:18:29.782 PM 02/18/2016,Teleop Enabled,0,FALSE,0,NO ERROR,-6004.101562,6007.031250,-6000.000000,-6000.000000,Speed,Speed,-0.510000,0.770000,2.870000,1.000000,100.000000,1,0,-0.000000,0.000000,1,-1.252350,0.204147,0.000000,35.557007,16.430496,0.000000,-0.055000,0.070000,0.026000,FlatInitial,ResetBack,0,0.000000
07:18:29.882 PM 02/18/2016,Teleop Enabled,0,FALSE,0,NO ERROR,-6002.929688,6005.859375,-6000.000000,-6000.000000,Speed,Speed,-0.510000,0.840000,2.970000,1.000000,102.000000,1,0,-0.000000,0.000000,1,-1.326599,0.267349,0.000000,35.479324,16.445251,0.000000,-0.055000,0.070000,0.026000,FlatInitial,ResetBack,0,0.000000
07:18:29.983 PM 02/18/2016,Teleop Enabled,0,FALSE,0,NO ERROR,-5998.242188,6007.031250,-6000.000000,-6000.000000,Speed,Speed,-0.510000,0.880000,3.050000,1.000000,101.000000,1,0,-0.000000,0.000000,1,-1.377823,0.323090,0.000000,35.425064,16.457275,0.000000,-0.078000,0.063000,-0.031000,FlatInitial,ResetBack,0,0.000000
07:18:30.083 PM 02/18/2016,Teleop Enabled,0,FALSE,0,NO ERROR,-5995.898438,6010.546875,-6000.000000,-6000.000000,Speed,Speed,-0.510000,0.890000,3.110000,1.000000,103.000000,1,0,-0.000000,0.000000,1,-1.476486,0.393616,0.000000,35.338791,16.479263,0.000000,-0.079000,0.064000,0.020000,FlatInitial,ResetBack,0,0.000000
07:18:30.184 PM 02/18/2016,Teleop Enabled,0,FALSE,0,NO ERROR,-5994.726562,6011.132812,-6000.000000,-6000.000000,Speed,Speed,-0.510000,0.930000,3.220000,1.000000,100.000000,1,0,-0.000000,0.000000,1,-1.539139,0.442184,0.000000,35.263031,16.500259,0.000000,-0.079000,0.064000,0.020000,FlatInitial,ResetBack,0,0.000000
07:18:30.284 PM 02/18/2016,Teleop Enabled,0,FALSE,0,NO ERROR,-5995.898438,6004.687500,-6000.000000,-6000.000000,Speed,Speed,-0.520000,0.960000,3.310000,1.000000,101.000000,1,0,-0.000000,0.000000,1,-1.593842,0.529327,0.000000,35.184464,16.524963,0.000000,-0.051000,0.085000,0.005000,FlatInitial,ResetBack,0,0.000000
07:18:30.384 PM 02/18/2016,Teleop Enabled,0,FALSE,0,NO ERROR,-5997.656250,6004.687500,-6000.000000,-6000.000000,Speed,Speed,-0.530000,1.010000,3.370000,1.000000,101.000000,1,0,-0.000000,0.000000,1,-1.655228,0.576370,0.000000,35.102921,16.552780,0.000000,-0.063000,0.029000,-0.031000,FlatInitial,ResetBack,0,0.000000
07:18:30.484 PM 02/18/2016,Teleop Enabled,0,FALSE,0,NO ERROR,-5998.828125,6003.515625,-6000.000000,-6000.000000,Speed,Speed,-0.510000,1.020000,3.390000,1.000000,103.000000,1,0,-0.000000,0.000000,1,-1.708572,0.642990,0.000000,35.018448,16.583435,0.000000,-0.012000,0.066000,-0.025000,FlatInitial,ResetBack,0,0.000000
07:18:30.585 PM 02/18/2016,Teleop Enabled,0,FALSE,0,NO ERROR,-6002.343750,6001.171875,-6000.000000,-6000.000000,Speed,Speed,-0.520000,1.080000,3.470000,1.000000,106.000000,1,0,-0.000000,0.000000,1,-1.758499,0.714294,0.000000,34.931671,16.617828,0.000000,-0.052000,0.052000,-0.026000,FlatInitial,ResetBack,0,0.000000
07:18:30.685 PM 02/18/2016,Teleop Enabled,0,FALSE,0,NO ERROR,-6011.718750,6001.171875,-6000.000000,-6000.000000,Speed,Speed,-0.540000,1.100000,3.500000,1.000000,101.000000,1,0,-0.000000,0.000000,1,-1.822739,0.771988,0.000000,34.841980,16.655273,0.000000,-0.052000,0.052000,-0.026000,FlatInitial,ResetBack,1,0.000000
07:18:30.786 PM 02/18/2016,Teleop Enabled,0,FALSE,0,NO ERROR,-6014.062500,6002.929688,-6000.000000,-6000.000000,Speed,Speed,-0.540000,1.100000,3.440000,1.000000,101.000000,1,0,-0.000000,0.000000,1,-1.887802,0.809967,0.000000,34.767548,16.687149,0.000000,-0.087000,0.059000,0.021000,FlatInitial,ResetForward,1,0.000000
07:18:30.887 PM 02/18/2016,Teleop Enabled,0,FALSE,0,NO ERROR,-6004.687500,6005.273438,-6000.000000,-6000.000000,Speed,Speed,-0.550000,1.080000,3.540000,1.000000,101.000000,1,0,-0.000000,0.000000,1,-1.993195,0.851074,0.000000,34.650345,16.737503,0.000000,-0.081000,0.009000,0.071000,FlatInitial,ResetForward,1,0.000000
07:18:30.987 PM 02/18/2016,Teleop Enabled,0,FALSE,0,NO ERROR,-6002.929688,6008.203125,-6000.000000,-6000.000000,Speed,Speed,-0.510000,1.080000,3.310000,1.000000,101.000000,1,0,-0.000000,0.000000,1,-2.059235,0.886795,0.000000,34.548569,16.781189,0.000000,-0.081000,0.009000,0.071000,FlatInitial,ResetForward,1,0.000000
07:18:31.087 PM 02/18/2016,Teleop Enabled,0,FALSE,0,NO ERROR,-6009.375000,6005.273438,-6000.000000,-6000.000000,Speed,Speed,-0.540000,1.090000,3.310000,1.000000,101.000000,1,0,-0.000000,0.000000,1,-2.059235,0.886795,0.000000,34.548569,16.781189,0.000000,-0.042000,0.044000,0.029000,FlatInitial,ResetForward,1,0.000000
07:18:31.187 PM 02/18/2016,Teleop Enabled,0,FALSE,0,NO ERROR,-6011.132812,6003.515625,-6000.000000,-6000.000000,Speed,Speed,-0.560000,1.080000,3.040000,1.000000,100.000000,1,0,-0.000000,0.000000,1,-2.157288,0.831833,0.000000,34.337158,16.867996,0.000000,-0.025000,-0.055000,0.006000,FlatInitial,ResetForward,1,0.000000
07:18:31.287 PM 02/18/2016,Teleop Enabled,0,FALSE,0,NO ERROR,-6004.687500,6001.757812,-6000.000000,-6000.000000,Speed,Speed,-0.550000,1.060000,2.840000,1.000000,104.000000,1,0,-0.000000,0.000000,1,-2.157288,0.831833,0.000000,34.337158,16.867996,0.000000,-0.025000,-0.055000,0.006000,FlatInitial,ResetForward,0,0.000000
07:18:31.387 PM 02/18/2016,Teleop Enabled,0,FALSE,0,NO ERROR,-6007.617188,6002.343750,-6000.000000,-6000.000000,Speed,Speed,-0.540000,1.020000,2.610000,1.000000,100.000000,1,0,-0.000000,0.000000,1,-2.203644,0.758118,0.000000,34.206100,16.915237,0.000000,-0.025000,-0.033000,0.018000,FlatInitial,Reset,0,0.000000
07:18:31.487 PM 02/18/2016,Teleop Enabled,0,FALSE,0,NO ERROR,-6010.546875,6002.343750,-6000.000000,-6000.000000,Speed,Speed,-0.540000,0.980000,2.330000,1.000000,104.000000,1,0,-0.000000,0.000000,1,-2.251511,0.703827,0.000000,34.094513,16.951630,0.000000,-0.036000,-0.085000,0.036000,FlatInitial,Hold,0,0.000000
07:18:31.587 PM 02/18/2016,Teleop Enabled,0,FALSE,0,NO ERROR,-6006.445312,6002.343750,-6000.000000,-6000.000000,Speed,Speed,-0.510000,0.940000,2.110000,1.000000,104.000000,1,0,-0.000000,0.000000,1,-0.005707,0.574814,0.000000,33.958008,17.009064,0.000000,-0.025000,-0.059000,0.002000,FlatInitial,Hold,0,0.000000
07:18:31.687 PM 02/18/2016,Teleop Enabled,0,FALSE,0,NO ERROR,-6003.515625,6000.585938,-6000.000000,-6000.000000,Speed,Speed,-0.540000,0.900000,1.850000,1.000000,101.000000,1,0,-0.000000,0.000000,1,-0.005707,0.574814,0.000000,33.958008,17.009064,0.000000,-0.062000,-0.077000,0.005000,FlatInitial,Hold,0,0.000000
07:18:31.789 PM 02/18/2016,Teleop Enabled,0,FALSE,0,NO ERROR,-6005.859375,5998.242188,-6000.000000,-6000.000000,Speed,Speed,-0.570000,0.870000,1.730000,1.000000,101.000000,1,0,-0.000000,0.000000,1,0.000000,0.514740,0.000000,33.957108,17.041382,0.000000,-0.010000,-0.025000,-0.023000,FlatInitial,Hold,0,0.000000
07:18:31.890 PM 02/18/2016,Teleop Enabled,0,FALSE,0,NO ERROR,-6008.203125,6000.000000,-6000.000000,-6000.000000,Speed,Speed,-0.540000,0.830000,1.530000,1.000000,102.000000,1,0,-0.000000,0.000000,1,-0.014328,0.459579,0.000000,33.956848,17.065445,0.000000,-0.020000,-0.051000,0.005000,FlatInitial,Hold,0,0.000000
07:18:31.991 PM 02/18/2016,Teleop Enabled,0,FALSE,0,NO ERROR,-6005.273438,6001.757812,-6000.000000,-6000.000000,Speed,Speed,-0.540000,0.830000,1.530000,1.000000,102.000000,1,0,-0.000000,0.000000,1,-0.031113,0.389130,0.000000,33.955627,17.086395,0.000000,0.020000,-0.077000,-0.014000,FlatInitial,Hold,0,0.000000
07:18:32.092 PM 02/18/2016,Teleop Enabled,0,FALSE,0,NO ERROR,-5998.242188,6003.515625,-6000.000000,-6000.000000,Speed,Speed,-0.550000,0.780000,1.300000,1.000000,101.000000,1,0,-0.000000,0.000000,1,0.000000,0.326645,0.000000,33.955017,17.103882,0.000000,0.010000,-0.069000,-0.047000,FlatInitial,Hold,0,0.000000
07:18:32.192 PM 02/18/2016,Teleop Enabled,0,FALSE,0,NO ERROR,-5991.796875,6005.859375,-6000.000000,-6000.000000,Speed,Speed,-0.540000,0.750000,1.100000,1.000000,103.000000,1,0,-0.000000,0.000000,1,0.000000,0.252884,0.000000,33.954941,17.120956,0.000000,0.017000,-0.072000,-0.050000,FlatInitial,Hold,0,0.000000
07:18:32.293 PM 02/18/2016,Teleop Enabled,0,FALSE,0,NO ERROR,-5990.039062,6005.859375,-6000.000000,-6000.000000,Speed,Speed,-0.560000,0.740000,1.040000,1.000000,100.000000,1,0,-0.000000,0.000000,1,0.000000,0.197235,0.000000,33.954941,17.129807,0.000000,-0.005000,-0.053000,-0.015000,FlatInitial,Hold,0,0.000000
07:18:32.394 PM 02/18/2016,Teleop Enabled,0,FALSE,0,NO ERROR,-5988.867188,6007.031250,-6000.000000,-6000.000000,Speed,Speed,-0.560000,0.710000,0.840000,1.000000,101.000000,1,0,-0.000000,0.000000,1,-0.015472,0.141373,0.000000,33.954605,17.139603,0.000000,-0.025000,-0.042000,-0.026000,FlatInitial,Hold,0,0.000000
07:18:32.494 PM 02/18/2016,Teleop Enabled,0,FALSE,0,NO ERROR,-5991.796875,6003.515625,-6000.000000,-6000.000000,Speed,Speed,-0.560000,0.700000,0.790000,1.000000,103.000000,1,0,-0.000000,0.000000,1,-0.037994,0.098175,0.000000,33.953049,17.145309,0.000000,-0.022000,-0.035000,0.038000,FlatInitial,Hold,0,0.000000
07:18:32.595 PM 02/18/2016,Teleop Enabled,0,FALSE,0,NO ERROR,-5996.484375,6000.000000,-6000.000000,-6000.000000,Speed,Speed,-0.560000,0.710000,0.700000,1.000000,103.000000,1,0,-0.000000,0.000000,1,-0.064682,0.068253,0.000000,33.950897,17.148346,0.000000,-0.022000,-0.025000,0.011000,FlatInitial,Hold,0,0.000000
07:18:32.696 PM 02/18/2016,Teleop Enabled,0,FALSE,0,NO ERROR,-6001.757812,5998.828125,-6000.000000,-6000.000000,Speed,Speed,-0.560000,0.720000,0.650000,1.000000,105.000000,1,0,-0.000000,0.000000,1,-0.114258,0.014267,0.000000,33.944519,17.151123,0.000000,-0.048000,-0.018000,0.005000,FlatInitial,Hold,0,0.000000
07:18:32.798 PM 02/18/2016,Teleop Enabled,0,FALSE,0,NO ERROR,-6008.789062,6000.585938,-6000.000000,-6000.000000,Speed,Speed,-0.570000,0.710000,0.530000,1.000000,101.000000,1,0,-0.000000,0.000000,1,-0.138596,-0.006958,0.000000,33.939331,17.151077,0.000000,-0.062000,-0.032000,-0.038000,FlatInitial,Hold,0,0.000000
07:18:32.897 PM 02/18/2016,Teleop Enabled,0,FALSE,0,NO ERROR,-6009.375000,6005.273438,-6000.000000,-6000.000000,Speed,Speed,-0.570000,0.710000,0.530000,1.000000,100.000000,1,0,-0.000000,0.000000,1,-0.175812,-0.028961,0.000000,33.932861,17.150330,0.000000,-0.055000,-0.036000,-0.041000,FlatInitial,Hold,0,0.000000
07:18:32.997 PM 02/18/2016,Teleop Enabled,0,FALSE,0,NO ERROR,-6008.203125,6007.617188,-6000.000000,-6000.000000,Speed,Speed,-0.560000,0.690000,0.470000,1.000000,100.000000,1,0,-0.000000,0.000000,1,-0.209946,-0.061127,0.000000,33.920868,17.147446,0.000000,-0.038000,0.008000,-0.004000,FlatInitial,Hold,0,0.000000
07:18:33.097 PM 02/18/2016,Teleop Enabled,0,FALSE,0,NO ERROR,-6007.031250,6007.617188,-6000.000000,-6000.000000,Speed,Speed,-0.570000,0.660000,0.420000,1.000000,101.000000,1,0,-0.000000,0.000000,1,-0.239838,0.000000,0.000000,33.907318,17.144806,0.000000,-0.061000,0.003000,-0.015000,FlatInitial,Hold,0,0.000000
07:18:33.197 PM 02/18/2016,Teleop Enabled,0,FALSE,0,NO ERROR,-6001.171875,6002.929688,-6000.000000,-6000.000000,Speed,Speed,-0.570000,0.660000,0.420000,1.000000,106.000000,1,0,-0.000000,0.000000,1,-0.252960,-0.023712,0.000000,33.899826,17.144379,0.000000,-0.002000,-0.082000,-0.115000,FlatInitial,Hold,0,0.000000
07:18:33.297 PM 02/18/2016,Teleop Enabled,0,FALSE,0,NO ERROR,-5993.554688,5995.898438,-6000.000000,-6000.000000,Speed,Speed,-0.530000,0.650000,0.310000,1.000000,101.000000,1,0,-0.000000,0.000000,1,-0.261795,-0.037476,0.000000,33.883911,17.141891,0.000000,-0.047000,0.026000,0.122000,FlatInitial,Hold,0,0.000000
07:18:33.398 PM 02/18/2016,Teleop Enabled,0,FALSE,0,NO ERROR,-5990.039062,5987.109375,-6000.000000,-6000.000000,Speed,Speed,-0.360000,0.630000,0.290000,1.000000,101.000000,1,0,-0.000000,0.000000,1,-0.296234,0.011475,0.000000,33.869476,17.141327,0.000000,-0.029000,0.092000,0.026000,FlatInitial,Hold,0,0.000000
07:18:33.498 PM 02/18/2016,Teleop Enabled,0,FALSE,0,NO ERROR,-5990.039062,5984.179688,-6000.000000,-6000.000000,Speed,Speed,-0.290000,0.620000,-0.180000,1.000000,101.000000,1,0,-0.000000,0.000000,1,-0.008163,0.113541,0.000000,33.863266,17.145386,0.000000,0.001000,0.002000,-0.244000,FlatInitial,Hold,0,0.000000
07:18:33.599 PM 02/18/2016,Teleop Enabled,0,FALSE,0,NO ERROR,-5986.523438,5984.179688,-6000.000000,-6000.000000,Speed,Speed,-0.330000,0.650000,0.090000,1.000000,102.000000,1,0,-0.000000,0.000000,1,-0.014984,0.009735,0.000000,33.862747,17.149139,0.000000,-0.029000,0.043000,-0.053000,FlatInitial,Hold,0,0.000000
07:18:33.699 PM 02/18/2016,Teleop Enabled,0,FALSE,0,NO ERROR,-5991.796875,5993.554688,-6000.000000,-6000.000000,Speed,Speed,-0.400000,0.700000,-0.320000,1.000000,101.000000,1,0,-0.000000,0.000000,1,-0.011337,0.020859,0.000000,33.861893,17.149597,0.000000,0.022000,0.068000,-0.069000,FlatInitial,Hold,0,0.000000
07:18:33.799 PM 02/18/2016,Teleop Enabled,0,FALSE,0,NO ERROR,-6001.757812,5995.898438,-6000.000000,-6000.000000,Speed,Speed,-0.420000,0.710000,-0.320000,1.000000,103.000000,1,0,-0.000000,0.000000,1,0.000000,0.087418,0.000000,33.861771,17.151932,0.000000,0.005000,0.079000,-0.017000,FlatInitial,Hold,0,0.000000
07:18:33.899 PM 02/18/2016,Teleop Enabled,0,FALSE,0,NO ERROR,-6007.031250,5995.898438,-6000.000000,-6000.000000,Speed,Speed,-0.420000,0.780000,-0.170000,1.000000,105.000000,1,0,-0.000000,0.000000,1,0.025421,0.149628,0.000000,33.862244,17.158249,0.000000,0.000000,0.030000,0.099000,FlatInitial,Hold,0,0.000000
07:18:33.999 PM 02/18/2016,Teleop Enabled,0,FALSE,0,NO ERROR,-6007.031250,5997.656250,-6000.000000,-6000.000000,Speed,Speed,-0.410000,0.800000,-0.260000,1.000000,100.000000,1,0,-0.000000,0.000000,1,0.017868,0.223831,0.000000,33.863190,17.169678,0.000000,0.015000,0.058000,-0.032000,FlatInitial,Hold,0,0.000000
07:18:34.099 PM 02/18/2016,Teleop Enabled,0,FALSE,0,NO ERROR,-6008.789062,6000.000000,-6000.000000,-6000.000000,Speed,Speed,-0.470000,0.730000,-0.580000,1.000000,102.000000,1,0,-0.000000,0.000000,1,0.120178,0.289932,0.000000,33.865952,17.182785,0.000000,0.209000,-0.083000,-0.743000,FlatInitial,Hold,0,0.000000
07:18:34.201 PM 02/18/2016,Teleop Enabled,0,FALSE,0,NO ERROR,-5965.429688,5981.835938,-6000.000000,-6000.000000,Speed,Speed,-0.550000,0.860000,-0.070000,1.000000,100.000000,1,0,-0.000000,0.000000,1,0.093475,0.381927,0.000000,33.872787,17.204559,0.000000,-0.009000,0.009000,0.025000,FlatInitial,Hold,0,0.000000
07:18:34.302 PM 02/18/2016,Teleop Enabled,0,FALSE,0,NO ERROR,-5927.343750,5983.007812,-6000.000000,-6000.000000,Speed,Speed,-0.460000,0.780000,-0.310000,1.000000,106.000000,1,0,-0.000000,0.000000,1,-0.008560,0.459351,0.000000,33.872604,17.225403,0.000000,-0.060000,0.074000,-0.133000,FlatInitial,Hold,0,0.000000
07:18:34.402 PM 02/18/2016,Teleop Enabled,0,FALSE,0,NO ERROR,-5961.328125,6001.757812,-6000.000000,-6000.000000,Speed,Speed,-0.550000,0.740000,-0.070000,1.000000,106.000000,1,0,-0.000000,0.000000,1,-0.059677,0.547974,0.000000,33.870880,17.251038,0.000000,-0.065000,-0.001000,0.159000,FlatInitial,Hold,0,0.000000
07:18:34.502 PM 02/18/2016,Teleop Enabled,0,FALSE,0,NO ERROR,-5997.070312,6008.203125,-6000.000000,-6000.000000,Speed,Speed,-0.570000,0.610000,-0.090000,1.000000,101.000000,1,0,-0.000000,0.000000,1,-0.085083,0.016602,0.000000,33.867676,17.251343,0.000000,0.013000,0.004000,0.014000,FlatInitial,Hold,0,0.000000
07:18:34.602 PM 02/18/2016,Teleop Enabled,0,FALSE,0,NO ERROR,-6008.789062,6005.859375,-6000.000000,-6000.000000,Speed,Speed,-0.450000,0.610000,-0.140000,1.000000,101.000000,1,0,-0.000000,0.000000,1,0.000000,0.079971,0.000000,33.867676,17.254074,0.000000,-0.134000,0.008000,-0.084000,FlatInitial,Hold,0,0.000000
07:18:34.703 PM 02/18/2016,Teleop Enabled,0,FALSE,0,NO ERROR,-6015.234375,6002.929688,-6000.000000,-6000.000000,Speed,Speed,-0.530000,0.610000,0.310000,1.000000,102.000000,1,0,-0.000000,0.000000,1,-0.048386,0.151489,0.000000,33.865997,17.259827,0.000000,-0.046000,0.058000,0.046000,FlatInitial,Hold,0,0.000000
07:18:34.803 PM 02/18/2016,Teleop Enabled,0,FALSE,0,NO ERROR,-6018.750000,5998.828125,-6000.000000,-6000.000000,Speed,Speed,-0.570000,0.530000,0.250000,1.000000,107.000000,1,0,-0.000000,0.000000,1,-0.072952,0.233688,0.000000,33.861618,17.274002,0.000000,0.020000,0.091000,-0.111000,FlatInitial,Hold,0,0.000000
07:18:34.903 PM 02/18/2016,Teleop Enabled,0,FALSE,0,NO ERROR,-6018.750000,5998.242188,-6000.000000,-6000.000000,Speed,Speed,-0.490000,0.530000,0.500000,1.000000,101.000000,1,0,-0.000000,0.000000,1,-0.089981,0.286240,0.000000,33.859222,17.282059,0.000000,0.018000,0.168000,0.046000,FlatInitial,Hold,0,0.000000
07:18:35.003 PM 02/18/2016,Teleop Enabled,0,FALSE,0,NO ERROR,-6009.960938,5995.312500,-6000.000000,-6000.000000,Speed,Speed,-0.490000,0.630000,0.730000,1.000000,103.000000,1,0,-0.000000,0.000000,1,-0.004944,0.377808,0.000000,33.856857,17.298965,0.000000,-0.063000,0.089000,-0.049000,FlatInitial,Hold,0,0.000000
07:18:35.104 PM 02/18/2016,Teleop Enabled,0,FALSE,0,NO ERROR,-6006.445312,5998.828125,-6000.000000,-6000.000000,Speed,Speed,-0.550000,0.700000,0.790000,1.000000,101.000000,1,0,-0.000000,0.000000,1,-0.016251,0.506516,0.000000,33.856247,17.330414,0.000000,-0.003000,0.134000,0.039000,FlatInitial,Hold,0,0.000000
07:18:35.204 PM 02/18/2016,Teleop Enabled,0,FALSE,0,NO ERROR,-6003.515625,5998.828125,-6000.000000,-6000.000000,Speed,Speed,-0.520000,0.720000,1.070000,1.000000,100.000000,1,0,-0.000000,0.000000,1,-0.037186,0.563080,0.000000,33.855408,17.346802,0.000000,-0.061000,0.089000,0.042000,FlatInitial,Hold,0,0.000000
07:18:35.304 PM 02/18/2016,Teleop Enabled,0,FALSE,0,NO ERROR,-6003.515625,6000.585938,-6000.000000,-6000.000000,Speed,Speed,-0.510000,0.810000,1.110000,1.000000,101.000000,1,0,-0.000000,0.000000,1,-0.001083,0.651047,0.000000,33.855057,17.390045,0.000000,-0.038000,0.184000,0.016000,FlatInitial,Hold,0,0.000000
07:18:35.404 PM 02/18/2016,Teleop Enabled,0,FALSE,0,NO ERROR,-6002.343750,6002.929688,-6000.000000,-6000.000000,Speed,Speed,-0.520000,0.900000,1.220000,1.000000,101.000000,1,0,0.173228,-0.173228,1,-0.041824,0.726593,0.000000,33.854080,17.424988,0.000000,-0.045000,0.115000,0.066000,FlatInitial,Hold,0,0.000000
07:18:35.504 PM 02/18/2016,Teleop Enabled,0,FALSE,0,NO ERROR,-6000.000000,6008.203125,-6000.000000,-6000.000000,Speed,Speed,-0.530000,0.990000,1.450000,1.000000,101.000000,1,0,0.173228,-0.173228,1,0.009338,0.775040,0.000000,33.853149,17.462967,0.000000,0.091000,0.116000,0.042000,FlatInitial,Hold,0,0.000000
07:18:35.604 PM 02/18/2016,Teleop Enabled,0,FALSE,0,NO ERROR,-5996.484375,6008.789062,-6000.000000,-6000.000000,Speed,Speed,-1.640000,1.190000,1.610000,1.000000,102.000000,1,0,0.181102,-0.181102,1,-0.012390,0.829483,0.000000,33.853394,17.503342,0.000000,0.024000,0.092000,-0.057000,FlatInitial,Hold,0,0.000000
07:18:35.704 PM 02/18/2016,Teleop Enabled,0,FALSE,0,NO ERROR,-5988.281250,5995.312500,-6000.000000,-6000.000000,Speed,Speed,-3.080000,1.390000,1.710000,1.000000,102.000000,1,1,0.000000,-0.000000,1,-0.009476,0.914017,0.000000,33.853287,17.556168,0.000000,-0.009000,0.099000,-0.015000,FlatInitial,Hold,0,0.000000
07:18:35.805 PM 02/18/2016,Teleop Enabled,0,FALSE,0,NO ERROR,-5981.835938,5980.078125,-6000.000000,-6000.000000,Speed,Speed,-4.640000,1.360000,1.820000,1.000000,102.000000,1,1,0.000000,-0.000000,1,-0.049927,1.005142,0.000000,33.852203,17.594559,0.000000,-0.004000,0.080000,-0.013000,FlatInitial,Hold,0,0.000000
07:18:35.905 PM 02/18/2016,Teleop Enabled,0,FALSE,0,NO ERROR,-5984.765625,5984.765625,-6000.000000,-6000.000000,Speed,Speed,-5.110000,1.210000,2.090000,1.000000,103.000000,1,1,0.000000,-0.000000,1,-0.099976,1.088486,0.000000,33.848297,17.647903,0.000000,-0.092000,-0.040000,0.033000,FlatInitial,Hold,0,0.000000
07:18:36.005 PM 02/18/2016,Teleop Enabled,0,FALSE,0,NO ERROR,-5993.554688,5998.242188,-6000.000000,-6000.000000,Speed,Speed,-4.770000,1.030000,1.970000,1.000000,103.000000,1,1,0.000000,-0.000000,1,-0.147049,1.064133,0.000000,33.843048,17.690964,0.000000,-0.036000,0.006000,0.025000,FlatInitial,Hold,0,0.000000
07:18:36.105 PM 02/18/2016,Teleop Enabled,0,FALSE,0,NO ERROR,-6004.101562,6007.617188,-6000.000000,-6000.000000,Speed,Speed,-4.520000,1.100000,1.960000,1.000000,100.000000,1,1,0.000000,-0.000000,1,-0.184372,1.128250,0.000000,33.833221,17.756836,0.000000,-0.009000,-0.007000,-0.002000,FlatInitial,Hold,0,-0.468750
07:18:36.205 PM 02/18/2016,Teleop Enabled,0,FALSE,0,NO ERROR,-6011.718750,6009.960938,-6000.000000,-6000.000000,Speed,Speed,-4.560000,1.100000,2.030000,1.000000,101.000000,1,1,0.000000,-0.000000,1,-0.212265,1.183792,0.000000,33.821335,17.826294,0.000000,0.004000,0.024000,0.030000,FlatInitial,Hold,0,-0.478125
07:18:36.305 PM 02/18/2016,Teleop Enabled,0,FALSE,0,NO ERROR,-6012.890625,6008.789062,-6000.000000,-6000.000000,Speed,Speed,-4.600000,1.100000,2.050000,1.000000,102.000000,1,1,0.000000,-0.000000,1,-0.232361,1.227020,0.000000,33.812714,17.874863,0.000000,0.004000,0.024000,0.030000,FlatInitial,Hold,0,-0.484375
07:18:36.405 PM 02/18/2016,Teleop Enabled,0,FALSE,0,NO ERROR,-6011.132812,6009.960938,-6000.000000,-6000.000000,Speed,Speed,-4.600000,1.100000,2.050000,1.000000,101.000000,1,1,0.000000,-0.000000,1,-0.232361,1.227020,0.000000,33.812714,17.874863,0.000000,-0.039000,0.033000,0.101000,FlatInitial,Hold,0,-0.478125
07:18:36.505 PM 02/18/2016,Teleop Enabled,0,FALSE,0,NO ERROR,-6007.617188,6008.789062,-6000.000000,-6000.000000,Speed,Speed,-4.560000,1.100000,2.030000,1.000000,101.000000,1,1,0.000000,-0.000000,1,-0.004272,1.348282,0.000000,33.790863,18.004166,0.000000,0.024000,0.069000,0.000000,FlatInitial,Hold,0,-0.478125
07:18:36.605 PM 02/18/2016,Teleop Enabled,0,FALSE,0,NO ERROR,-6009.375000,6002.343750,-6000.000000,-6000.000000,Speed,Speed,-4.560000,1.100000,2.030000,1.000000,101.000000,1,1,0.000000,-0.000000,1,-0.004272,1.348282,0.000000,33.790863,18.004166,0.000000,0.024000,0.069000,0.000000,FlatInitial,Hold,0,-0.481250
07:18:36.705 PM 02/18/2016,Teleop Enabled,0,FALSE,0,NO ERROR,-6007.031250,5997.656250,-6000.000000,-6000.000000,Speed,Speed,-4.580000,1.130000,2.060000,1.000000,102.000000,1,1,0.000000,-0.000000,1,-0.040222,1.415573,0.000000,33.789566,18.114883,0.000000,-0.033000,-0.011000,0.041000,FlatInitial,Hold,0,-0.481250
07:18:36.805 PM 02/18/2016,Teleop Enabled,0,FALSE,0,NO ERROR,-6004.101562,5995.312500,-6000.000000,-6000.000000,Speed,Speed,-4.580000,1.120000,1.970000,1.000000,104.000000,1,1,0.000000,-0.000000,1,-0.066956,1.488235,0.000000,33.785797,18.201920,0.000000,-0.029000,0.026000,-0.033000,FlatInitial,Hold,0,-0.481250
07:18:36.906 PM 02/18/2016,Teleop Enabled,0,FALSE,0,NO ERROR,-6001.171875,5995.312500,-6000.000000,-6000.000000,Speed,Speed,-4.580000,1.160000,1.890000,1.000000,102.000000,1,1,0.000000,-0.000000,1,-0.076889,1.527573,0.000000,33.781326,18.306946,0.000000,-0.029000,0.026000,-0.033000,FlatInitial,Hold,0,-0.481250
07:18:37.007 PM 02/18/2016,Teleop Enabled,0,FALSE,0,NO ERROR,-5998.242188,5996.484375,-6000.000000,-6000.000000,Speed,Speed,-4.580000,1.150000,1.890000,1.000000,120.000000,1,1,0.000000,-0.000000,1,-0.087845,1.550980,0.000000,33.779541,18.337814,0.000000,0.052000,0.139000,-0.020000,FlatInitial,Hold,0,-0.481250
07:18:37.110 PM 02/18/2016,Teleop Enabled,0,FALSE,0,NO ERROR,-5994.140625,5997.656250,-6000.000000,-6000.000000,Speed,Speed,-4.600000,1.150000,1.800000,1.000000,105.000000,1,1,0.000000,-0.000000,1,-0.094574,1.558197,0.000000,33.774338,18.431015,0.000000,-0.084000,0.044000,0.069000,FlatInitial,Hold,0,-0.481250
07:18:37.212 PM 02/18/2016,Teleop Enabled,0,FALSE,0,NO ERROR,-5991.796875,5997.656250,-6000.000000,-6000.000000,Speed,Speed,-4.600000,1.170000,1.810000,1.000000,100.000000,1,1,0.000000,-0.000000,1,-0.108139,1.614655,0.000000,33.770050,18.494400,0.000000,0.019000,0.038000,0.032000,FlatInitial,Hold,0,-0.484375
07:18:37.312 PM 02/18/2016,Teleop Enabled,0,FALSE,0,NO ERROR,-5990.625000,6002.343750,-6000.000000,-6000.000000,Speed,Speed,-4.590000,1.230000,1.750000,1.000000,101.000000,1,1,0.000000,-0.000000,1,-0.083511,1.691086,0.000000,33.763824,18.610657,0.000000,0.019000,0.038000,0.032000,FlatInitial,Hold,0,-0.481250
07:18:37.413 PM 02/18/2016,Teleop Enabled,0,FALSE,0,NO ERROR,-5990.039062,6005.273438,-6000.000000,-6000.000000,Speed,Speed,-4.590000,1.260000,1.810000,1.000000,100.000000,1,1,0.000000,-0.000000,1,-0.133499,1.750717,0.000000,33.757050,18.713852,0.000000,-0.033000,0.050000,0.137000,FlatInitial,Hold,0,-0.481250
07:18:37.516 PM 02/18/2016,Teleop Enabled,0,FALSE,0,NO ERROR,-5992.382812,6007.031250,-6000.000000,-6000.000000,Speed,Speed,-4.610000,1.290000,1.780000,1.000000,101.000000,1,1,0.000000,-0.000000,1,-0.154938,1.774597,0.000000,33.754059,18.749207,0.000000,-0.036000,0.020000,0.037000,FlatInitial,Hold,0,-0.481250
07:18:37.616 PM 02/18/2016,Teleop Enabled,0,FALSE,0,NO ERROR,-5992.382812,6003.515625,-6000.000000,-6000.000000,Speed,Speed,-4.600000,1.310000,1.820000,1.000000,100.000000,1,0,0.181102,-0.181102,1,0.004852,1.827484,0.000000,33.749100,18.857910,0.000000,-0.016000,0.067000,-0.010000,FlatInitial,Hold,0,-0.481250
07:18:37.716 PM 02/18/2016,Teleop Enabled,0,FALSE,0,NO ERROR,-5995.898438,6000.000000,-6000.000000,-6000.000000,Speed,Speed,-4.600000,1.330000,1.810000,1.000000,101.000000,1,0,-0.000000,0.000000,1,-0.056931,1.860886,0.000000,33.747849,18.931946,0.000000,-0.021000,0.012000,0.017000,FlatInitial,Hold,0,-0.481250
07:18:37.817 PM 02/18/2016,Teleop Enabled,0,FALSE,0,NO ERROR,-5998.242188,5986.523438,-6000.000000,-6000.000000,Speed,Speed,-5.260000,1.510000,1.870000,1.000000,105.000000,1,0,-0.000000,0.000000,1,-0.088806,1.897552,0.000000,33.745224,19.026505,0.000000,-0.096000,0.143000,-0.037000,FlatInitial,Hold,0,-0.481250
07:18:37.917 PM 02/18/2016,Teleop Enabled,0,FALSE,0,NO ERROR,-6001.757812,5992.382812,-6000.000000,-6000.000000,Speed,Speed,-5.430000,1.420000,2.000000,1.000000,100.000000,1,0,-0.000000,0.000000,1,-0.130203,1.952362,0.000000,33.738937,19.123566,0.000000,-0.022000,0.138000,0.126000,FlatInitial,Hold,0,-0.481250
07:18:38.017 PM 02/18/2016,Teleop Enabled,0,FALSE,0,NO ERROR,-6008.789062,5995.898438,-6000.000000,-6000.000000,Speed,Speed,-5.010000,1.390000,1.890000,1.000000,103.000000,1,0,-0.236220,0.236220,1,0.001328,1.986969,0.000000,33.737640,19.222565,0.000000,0.032000,-0.036000,0.060000,FlatInitial,Hold,0,-0.481250
07:18:38.118 PM 02/18/2016,Teleop Enabled,0,FALSE,0,NO ERROR,-6002.929688,5990.625000,-6000.000000,-6000.000000,Speed,Speed,-4.550000,1.140000,1.950000,1.000000,103.000000,1,0,-0.212598,0.212598,1,-0.102646,2.060272,0.000000,33.735397,19.364273,0.000000,-0.057000,0.192000,-0.047000,FlatInitial,Hold,0,-0.481250
07:18:38.218 PM 02/18/2016,Teleop Enabled,0,FALSE,0,NO ERROR,-5977.734375,5973.046875,-6000.000000,-6000.000000,Speed,Speed,-2.820000,1.070000,2.040000,1.000000,102.000000,1,0,-0.000000,0.000000,1,-0.122849,2.101273,0.000000,33.732010,19.426926,0.000000,-0.038000,0.091000,-0.027000,FlatInitial,Hold,0,-0.481250
07:18:38.318 PM 02/18/2016,Teleop Enabled,0,FALSE,0,NO ERROR,-5975.390625,5977.148438,-6000.000000,-6000.000000,Speed,Speed,0.280000,1.050000,2.080000,1.000000,102.000000,1,0,-0.000000,0.000000,1,-0.129822,0.007034,0.000000,33.722717,19.490906,0.000000,0.116000,0.065000,-0.082000,FlatInitial,Hold,0,-0.481250
07:18:38.420 PM 02/18/2016,Teleop Enabled,0,FALSE,0,NO ERROR,-5975.390625,5995.898438,-6000.000000,-6000.000000,Speed,Speed,1.320000,1.280000,1.970000,1.000000,111.000000,1,0,-0.188976,0.188976,1,-0.088364,-0.008774,0.000000,33.719833,19.490845,0.000000,0.087000,0.026000,-0.037000,FlatInitial,Hold,0,-0.481250
07:18:38.520 PM 02/18/2016,Teleop Enabled,0,FALSE,0,NO ERROR,-6015.234375,5995.898438,-6000.000000,-6000.000000,Speed,Speed,1.270000,1.470000,1.860000,1.000000,101.000000,1,0,-0.204724,0.204724,1,-0.047668,0.031937,0.000000,33.716888,19.491592,0.000000,0.112000,0.021000,0.173000,FlatInitial,Hold,0,-0.481250
07:18:38.621 PM 02/18/2016,Teleop Enabled,0,FALSE,0,NO ERROR,-6001.171875,6001.757812,-6000.000000,-6000.000000,Speed,Speed,1.480000,1.150000,2.030000,1.000000,101.000000,1,0,-0.000000,0.000000,1,-0.125320,0.115967,0.000000,33.711792,19.496414,0.000000,-0.078000,0.120000,-0.038000,FlatInitial,Hold,0,-0.481250
07:18:38.722 PM 02/18/2016,Teleop Enabled,0,FALSE,0,NO ERROR,-6000.585938,6001.757812,-6000.000000,-6000.000000,Speed,Speed,2.780000,1.360000,2.070000,1.000000,101.000000,1,0,-0.000000,0.000000,1,-0.073120,0.139542,0.000000,33.707886,19.501923,0.000000,0.002000,0.021000,0.040000,FlatInitial,Hold,0,-0.481250
07:18:38.824 PM 02/18/2016,Teleop Enabled,0,FALSE,0,NO ERROR,-6010.546875,6001.757812,-6000.000000,-6000.000000,Speed,Speed,2.850000,1.360000,2.030000,1.000000,102.000000,1,0,-0.000000,0.000000,1,-0.023163,0.186462,0.000000,33.706207,19.513123,0.000000,-0.026000,0.091000,0.160000,FlatInitial,Hold,0,-0.481250
07:18:38.924 PM 02/18/2016,Teleop Enabled,0,FALSE,0,NO ERROR,-6014.062500,6009.960938,-6000.000000,-6000.000000,Speed,Speed,2.490000,1.350000,2.010000,1.000000,102.000000,1,0,-0.299213,0.299213,1,-0.066086,0.262634,0.000000,33.704422,19.524841,0.000000,-0.087000,0.012000,0.054000,FlatInitial,Hold,0,-0.481250
07:18:39.025 PM 02/18/2016,Teleop Enabled,0,FALSE,0,NO ERROR,-5987.109375,6018.750000,-6000.000000,-6000.000000,Speed,Speed,3.280000,0.990000,2.060000,1.000000,107.000000,1,0,-0.000000,0.000000,1,-0.114746,0.345291,0.000000,33.700333,19.540543,0.000000,0.014000,-0.003000,0.078000,FlatInitial,Hold,0,-0.481250
07:18:39.124 PM 02/18/2016,Teleop Enabled,0,FALSE,0,NO ERROR,-5963.085938,6003.515625,-6000.000000,-6000.000000,Speed,Speed,5.620000,1.060000,2.110000,1.000000,102.000000,1,0,-0.000000,0.000000,1,-0.053970,0.378067,0.000000,33.695831,19.558975,0.000000,-0.009000,0.048000,0.090000,FlatInitial,Hold,0,-0.481250
07:18:39.224 PM 02/18/2016,Teleop Enabled,0,FALSE,0,NO ERROR,-5983.593750,5974.804688,-6000.000000,-6000.000000,Speed,Speed,7.860000,1.110000,2.160000,1.000000,102.000000,1,0,-0.000000,0.000000,1,-0.058960,0.405289,0.000000,33.693024,19.578857,0.000000,0.054000,-0.085000,-0.224000,FlatInitial,Hold,0,-0.481250
07:18:39.324 PM 02/18/2016,Teleop Enabled,0,FALSE,0,NO ERROR,-5983.593750,5990.039062,-6000.000000,-6000.000000,Speed,Speed,8.100000,1.350000,1.990000,1.000000,101.000000,1,0,-0.000000,0.000000,1,0.001755,0.016953,0.000000,33.692078,19.583069,0.000000,-0.062000,0.061000,-0.017000,FlatInitial,Hold,0,-0.481250
07:18:39.426 PM 02/18/2016,Teleop Enabled,0,FALSE,0,NO ERROR,-6011.132812,6003.515625,-6000.000000,-6000.000000,Speed,Speed,7.440000,1.390000,2.050000,1.000000,102.000000,1,0,-0.000000,0.000000,1,-0.017715,0.097168,0.000000,33.691406,19.586960,0.000000,-0.014000,0.122000,0.122000,FlatInitial,Hold,0,-0.481250
07:18:39.527 PM 02/18/2016,Teleop Enabled,0,FALSE,0,NO ERROR,-6017.578125,6014.648438,-6000.000000,-6000.000000,Speed,Speed,7.290000,1.350000,2.190000,1.000000,100.000000,1,0,-0.000000,0.000000,1,0.013962,0.153122,0.000000,33.691452,19.593781,0.000000,0.038000,0.094000,0.145000,FlatInitial,Hold,0,-0.481250
07:18:39.628 PM 02/18/2016,Teleop Enabled,0,FALSE,0,NO ERROR,-6017.578125,6021.093750,-6000.000000,-6000.000000,Speed,Speed,7.400000,1.350000,2.150000,1.000000,104.000000,1,0,-0.000000,0.000000,1,0.027130,0.000000,0.000000,33.693069,19.601486,0.000000,0.004000,-0.035000,0.015000,FlatInitial,Hold,0,-0.481250
07:18:39.729 PM 02/18/2016,Teleop Enabled,0,FALSE,0,NO ERROR,-6009.960938,6018.750000,-6000.000000,-6000.000000,Speed,Speed,7.360000,1.430000,2.120000,1.000000,101.000000,1,0,-0.000000,0.000000,1,0.002563,0.017929,0.000000,33.693390,19.601776,0.000000,-0.026000,0.112000,-0.091000,FlatInitial,Hold,0,-0.481250
07:18:39.829 PM 02/18/2016,Teleop Enabled,0,FALSE,0,NO ERROR,-6008.789062,6009.375000,-6000.000000,-6000.000000,Speed,Speed,7.290000,1.440000,2.090000,1.000000,101.000000,1,0,-0.000000,0.000000,1,0.017471,0.057877,0.000000,33.693756,19.603928,0.000000,0.028000,0.058000,0.007000,FlatInitial,Hold,0,-0.481250
07:18:39.930 PM 02/18/2016,Teleop Enabled,0,FALSE,0,NO ERROR,-6007.031250,6009.375000,-6000.000000,-6000.000000,Speed,Speed,7.370000,1.440000,1.930000,1.000000,106.000000,1,0,-0.000000,0.000000,1,0.000000,0.093384,0.000000,33.694153,19.608093,0.000000,0.008000,0.074000,-0.091000,FlatInitial,Hold,0,-0.481250
07:18:40.030 PM 02/18/2016,Teleop Enabled,0,FALSE,0,NO ERROR,-6008.203125,6011.132812,-6000.000000,-6000.000000,Speed,Speed,7.350000,1.530000,1.850000,1.000000,101.000000,1,0,-0.000000,0.000000,1,0.034409,0.000000,0.000000,33.694992,19.610260,0.000000,-0.029000,-0.010000,-0.029000,FlatInitial,Hold,0,-0.481250
07:18:40.130 PM 02/18/2016,Teleop Enabled,0,FALSE,0,NO ERROR,-6008.203125,6004.687500,-6000.000000,-6000.000000,Speed,Speed,7.340000,1.500000,1.710000,1.000000,101.000000,1,0,-0.000000,0.000000,1,0.034943,0.012314,0.000000,33.695908,19.610931,0.000000,0.074000,-0.041000,0.019000,FlatInitial,Hold,0,-0.481250
07:18:40.230 PM 02/18/2016,Teleop Enabled,0,FALSE,0,NO ERROR,-6008.789062,6000.000000,-6000.000000,-6000.000000,Speed,Speed,7.340000,1.530000,1.650000,1.000000,101.000000,1,1,0.000000,-0.000000,1,0.087616,0.023193,0.000000,33.699020,19.611740,0.000000,0.048000,-0.030000,0.070000,FlatInitial,Hold,0,-0.481250
07:18:40.331 PM 02/18/2016,Teleop Enabled,0,FALSE,0,NO ERROR,-6010.546875,5998.242188,-6000.000000,-6000.000000,Speed,Speed,7.320000,1.500000,1.470000,1.000000,100.000000,1,1,0.000000,-0.000000,1,0.115311,-0.002823,0.000000,33.704193,19.611908,0.000000,0.008000,0.021000,0.040000,FlatInitial,Hold,0,-0.481250
07:18:40.432 PM 02/18/2016,Teleop Enabled,0,FALSE,0,NO ERROR,-6004.687500,5995.312500,-6000.000000,-6000.000000,Speed,Speed,7.350000,1.500000,1.370000,1.000000,101.000000,1,1,0.000000,-0.000000,1,0.020218,0.008270,0.000000,33.705765,19.611954,0.000000,-0.029000,-0.026000,-0.045000,FlatInitial,Hold,0,-0.762500
07:18:40.532 PM 02/18/2016,Teleop Enabled,0,FALSE,0,NO ERROR,-6001.757812,5991.796875,-6000.000000,-6000.000000,Speed,Speed,7.350000,1.430000,1.200000,1.000000,101.000000,1,1,0.000000,-0.000000,1,0.020218,0.008270,0.000000,33.705765,19.611954,0.000000,-0.029000,-0.026000,-0.045000,FlatInitial,Hold,0,-0.762500
07:18:40.633 PM 02/18/2016,Teleop Enabled,0,FALSE,0,NO ERROR,-6000.000000,5991.210938,-6000.000000,-6000.000000,Speed,Speed,7.340000,1.380000,1.170000,1.000000,100.000000,1,1,0.000000,-0.000000,1,0.072632,0.060440,0.000000,33.709778,19.615158,0.000000,-0.009000,-0.006000,0.014000,FlatInitial,Hold,0,-0.762500
07:18:40.733 PM 02/18/2016,Teleop Enabled,0,FALSE,0,NO ERROR,-5999.414062,5994.726562,-6000.000000,-6000.000000,Speed,Speed,7.350000,1.370000,1.010000,1.000000,101.000000,1,1,0.000000,-0.000000,1,0.112045,-0.002396,0.000000,33.714600,19.615692,0.000000,-0.002000,0.071000,-0.037000,FlatInitial,Hold,0,-0.762500
07:18:40.834 PM 02/18/2016,Teleop Enabled,0,FALSE,0,NO ERROR,-5998.828125,5997.656250,-6000.000000,-6000.000000,Speed,Speed,7.350000,1.330000,0.960000,1.000000,101.000000,1,1,0.000000,-0.000000,1,0.137924,0.011993,0.000000,33.722260,19.615967,0.000000,-0.019000,0.047000,0.019000,FlatInitial,Hold,0,-0.765625
07:18:40.936 PM 02/18/2016,Teleop Enabled,0,FALSE,0,NO ERROR,-5997.070312,6002.343750,-6000.000000,-6000.000000,Speed,Speed,7.360000,1.280000,0.890000,1.000000,108.000000,1,1,0.000000,-0.000000,1,0.153198,0.033524,0.000000,33.727951,19.617264,0.000000,0.050000,0.011000,0.012000,FlatInitial,Hold,0,-0.765625
07:18:41.038 PM 02/18/2016,Teleop Enabled,0,FALSE,0,NO ERROR,-5994.140625,6008.203125,-6000.000000,-6000.000000,Speed,Speed,7.360000,1.290000,0.820000,1.000000,106.000000,1,1,0.000000,-0.000000,1,0.153198,0.033524,0.000000,33.727951,19.617264,0.000000,0.050000,0.011000,0.012000,FlatInitial,Hold,0,-0.762500
07:18:41.138 PM 02/18/2016,Teleop Enabled,0,FALSE,0,NO ERROR,-5991.796875,6012.304688,-6000.000000,-6000.000000,Speed,Speed,7.350000,1.290000,0.760000,1.000000,106.000000,1,1,0.000000,-0.000000,1,0.000000,0.008270,0.000000,33.743698,19.620285,0.000000,-0.063000,-0.016000,0.074000,FlatInitial,Hold,0,-0.765625
07:18:41.240 PM 02/18/2016,Teleop Enabled,0,FALSE,0,NO ERROR,-5992.382812,6007.031250,-6000.000000,-6000.000000,Speed,Speed,7.320000,1.240000,0.710000,1.000000,101.000000,1,1,0.000000,-0.000000,1,0.014832,0.025391,0.000000,33.743774,19.620895,0.000000,-0.016000,0.002000,-0.030000,FlatInitial,Hold,0,-0.765625
07:18:41.340 PM 02/18/2016,Teleop Enabled,0,FALSE,0,NO ERROR,-5991.210938,6005.273438,-6000.000000,-6000.000000,Speed,Speed,7.360000,1.270000,0.600000,1.000000,101.000000,1,1,0.000000,-0.000000,1,0.049164,0.006104,0.000000,33.746262,19.620941,0.000000,-0.033000,-0.047000,0.018000,FlatInitial,Hold,0,-0.765625
07:18:41.442 PM 02/18/2016,Teleop Enabled,0,FALSE,0,NO ERROR,-5994.140625,6002.343750,-6000.000000,-6000.000000,Speed,Speed,7.340000,1.290000,0.560000,1.000000,100.000000,1,1,0.000000,-0.000000,1,0.066513,0.013367,0.000000,33.748001,19.621109,0.000000,0.045000,0.030000,-0.069000,FlatInitial,Hold,0,-0.765625
07:18:41.542 PM 02/18/2016,Teleop Enabled,0,FALSE,0,NO ERROR,-5995.898438,5998.828125,-6000.000000,-6000.000000,Speed,Speed,7.340000,1.290000,0.560000,1.000000,100.000000,1,1,0.000000,-0.000000,1,0.066513,0.013367,0.000000,33.748001,19.621109,0.000000,0.045000,0.030000,-0.069000,FlatInitial,Hold,0,-0.762500
07:18:41.644 PM 02/18/2016,Teleop Enabled,0,FALSE,0,NO ERROR,-6000.000000,5995.312500,-6000.000000,-6000.000000,Speed,Speed,7.330000,1.330000,0.520000,1.000000,101.000000,1,1,0.000000,-0.000000,1,0.065155,0.032257,0.000000,33.754745,19.621292,0.000000,-0.023000,0.018000,0.053000,FlatInitial,Hold,0,-0.762500
