Time,RobotMode,AutoToRun,ErrorStatus, ErrorCode,ErrorSource,ActualRPM1,ActualRPM2,DesiredRPM1,DesiredRPM2,ControlMode1,ControlMode2,NavXYaw,NavXRoll,NavXPitch,ShooterState,LoopTime,IsLevel,IsAutoTargeting,LeftMotorOutput,RightMotorOutput,IsHaloDrive,NavXVelocityX,NavXVelocityY,NavXVelocityZ,NavXDisplacementX,NavXDisplacementY,NavXDisplacementZ,NavXAccelerationX,NavXAccelerationY,NavXAccelerationZ,AutoDefendState,AngeMotorState,Photoeye,VisionXOutput
07:14:08.311 PM 02/18/2016,Teleop Enabled,0,TRUE,91,Variant To Data in WPI_DigitalInputRefNum Registry Get.vi->Periodic Tasks.vi->Robot Main.vi,-3.515625,10.400391,-6000.000000,-6000.000000,Speed,Speed,-0.060000,1.060000,1.490000,1.000000,101.000000,1,0,-0.000000,0.000000,1,0.000000,-0.002609,0.000000,8.910522,11.640656,0.000000,0.008000,-0.029000,-0.006000,FlatInitial,ResetBack,0,-0.184375
07:14:08.411 PM 02/18/2016,Teleop Enabled,0,TRUE,-44007,<LOCATION>WPI_DigitalInputRefNum Registry Get.vi<CALLSTACK>WPI_DigitalInputRefNum Registry Get.vi< <Periodic Tasks.vi< <Robot Main.vi,-872.167969,1022.900391,-6000.000000,-6000.000000,Speed,Speed,-0.060000,1.080000,1.440000,1.000000,102.000000,1,0,-0.000000,0.000000,1,-0.010483,-0.015900,0.000000,8.910004,11.640076,0.000000,0.011000,-0.016000,-0.026000,FlatInitial,ResetBack,0,-0.184375
07:14:08.514 PM 02/18/2016,Teleop Enabled,0,FALSE,0,NO ERROR,-2799.755859,2940.087891,-6000.000000,-6000.000000,Speed,Speed,-0.070000,1.050000,1.390000,1.000000,100.000000,1,0,-0.000000,0.000000,1,-0.029510,-0.018616,0.000000,8.909134,11.639526,0.000000,-0.016000,-0.007000,-0.002000,FlatInitial,ResetBack,0,-0.184375
07:14:08.612 PM 02/18/2016,Teleop Enabled,0,FALSE,0,NO ERROR,-4411.523438,4251.855469,-6000.000000,-6000.000000,Speed,Speed,-0.050000,1.050000,1.380000,1.000000,100.000000,1,0,-0.000000,0.000000,1,-0.049454,-0.022629,0.000000,8.907028,11.638458,0.000000,0.025000,0.193000,-0.060000,FlatInitial,ResetBack,0,-0.184375
07:14:08.712 PM 02/18/2016,Teleop Enabled,0,FALSE,0,NO ERROR,-5506.640625,5456.250000,-6000.000000,-6000.000000,Speed,Speed,-0.070000,1.080000,1.440000,1.000000,102.000000,1,0,-0.000000,0.000000,1,-0.025558,-0.009933,0.000000,8.904800,11.637924,0.000000,0.126000,0.098000,0.110000,FlatInitial,ResetBack,0,-0.184375
07:14:08.815 PM 02/18/2016,Teleop Enabled,0,FALSE,0,NO ERROR,-5965.429688,5951.953125,-6000.000000,-6000.000000,Speed,Speed,-0.080000,1.040000,1.680000,1.000000,103.000000,1,0,-0.000000,0.000000,1,0.070374,0.047363,0.000000,8.906845,11.639679,0.000000,0.070000,0.059000,0.221000,FlatInitial,ResetBack,0,-0.184375
07:14:08.916 PM 02/18/2016,Teleop Enabled,0,FALSE,0,NO ERROR,-6058.593750,6021.093750,-6000.000000,-6000.000000,Speed,Speed,-0.060000,1.060000,1.820000,1.000000,101.000000,1,0,-0.000000,0.000000,1,0.132812,0.029907,0.000000,8.911240,11.641663,0.000000,0.101000,-0.064000,0.277000,FlatInitial,ResetBack,0,-0.184375
07:14:09.016 PM 02/18/2016,Teleop Enabled,0,FALSE,0,NO ERROR,-6066.796875,6000.585938,-6000.000000,-6000.000000,Speed,Speed,-0.080000,1.090000,1.660000,1.000000,101.000000,1,0,-0.000000,0.000000,1,0.207977,-0.057449,0.000000,8.920319,11.640717,0.000000,0.077000,-0.138000,0.206000,FlatInitial,ResetBack,0,-0.184375
07:14:09.119 PM 02/18/2016,Teleop Enabled,0,FALSE,0,NO ERROR,-6043.359375,5979.492188,-6000.000000,-6000.000000,Speed,Speed,-0.070000,1.050000,1.520000,1.000000,101.000000,1,0,-0.000000,0.000000,1,0.267578,-0.159149,0.000000,8.930115,11.635818,0.000000,0.061000,-0.105000,0.115000,FlatInitial,ResetBack,0,-0.184375
07:14:09.220 PM 02/18/2016,Teleop Enabled,0,FALSE,0,NO ERROR,-6024.023438,5974.218750,-6000.000000,-6000.000000,Speed,Speed,-0.070000,0.990000,1.380000,1.000000,101.000000,1,0,-0.000000,0.000000,1,0.344330,-0.289825,0.000000,8.948746,11.621597,0.000000,0.078000,-0.085000,0.187000,FlatInitial,ResetBack,0,-0.184375
07:14:09.321 PM 02/18/2016,Teleop Enabled,0,FALSE,0,NO ERROR,-6011.718750,5986.523438,-6000.000000,-6000.000000,Speed,Speed,-0.070000,0.910000,1.390000,1.000000,105.000000,1,0,-0.000000,0.000000,1,0.423904,-0.366318,0.000000,8.968246,11.604797,0.000000,0.078000,-0.042000,0.169000,FlatInitial,ResetBack,0,-0.184375
07:14:09.422 PM 02/18/2016,Teleop Enabled,0,FALSE,0,NO ERROR,-6007.617188,6000.000000,-6000.000000,-6000.000000,Speed,Speed,-0.060000,0.840000,1.470000,1.000000,101.000000,1,0,-0.000000,0.000000,1,0.505783,-0.419022,0.000000,8.991867,11.584778,0.000000,0.082000,-0.051000,0.141000,FlatInitial,ResetBack,0,-0.184375
07:14:09.522 PM 02/18/2016,Teleop Enabled,0,FALSE,0,NO ERROR,-6012.304688,6011.718750,-6000.000000,-6000.000000,Speed,Speed,-0.080000,0.760000,1.670000,1.000000,102.000000,1,0,-0.000000,0.000000,1,0.643845,0.000000,0.000000,9.038483,11.552933,0.000000,0.090000,-0.001000,0.109000,FlatInitial,ResetBack,0,-0.184375
07:14:09.622 PM 02/18/2016,Teleop Enabled,0,FALSE,0,NO ERROR,-6008.203125,6020.507812,-6000.000000,-6000.000000,Speed,Speed,-0.070000,0.770000,1.800000,1.000000,102.000000,1,0,-0.000000,0.000000,1,0.697540,-0.016891,0.000000,9.058884,11.552628,0.000000,0.088000,-0.024000,0.144000,FlatInitial,ResetBack,0,-0.184375
07:14:09.723 PM 02/18/2016,Teleop Enabled,0,FALSE,0,NO ERROR,-6005.273438,6015.820312,-6000.000000,-6000.000000,Speed,Speed,-0.090000,0.730000,2.020000,1.000000,104.000000,1,0,-0.000000,0.000000,1,0.793365,-0.044846,0.000000,9.096497,11.550919,0.000000,0.121000,-0.033000,0.150000,FlatInitial,ResetBack,0,-0.184375
07:14:09.824 PM 02/18/2016,Teleop Enabled,0,FALSE,0,NO ERROR,-6005.859375,6003.515625,-6000.000000,-6000.000000,Speed,Speed,-0.100000,0.740000,2.170000,1.000000,101.000000,1,0,-0.000000,0.000000,1,0.898911,-0.072098,0.000000,9.139450,11.547867,0.000000,0.083000,-0.020000,0.175000,FlatInitial,ResetBack,1,-0.184375
07:14:09.924 PM 02/18/2016,Teleop Enabled,0,FALSE,0,NO ERROR,-6006.445312,5998.242188,-6000.000000,-6000.000000,Speed,Speed,-0.110000,0.760000,2.350000,1.000000,101.000000,1,0,-0.000000,0.000000,1,1.028625,-0.079712,0.000000,9.188034,11.543854,0.000000,0.155000,0.020000,0.077000,FlatInitial,ResetForward,1,-0.184375
07:14:10.031 PM 02/18/2016,Teleop Enabled,0,FALSE,0,NO ERROR,-6004.101562,5991.210938,-6000.000000,-6000.000000,Speed,Speed,-0.120000,0.800000,2.600000,1.000000,102.000000,1,0,-0.000000,0.000000,1,1.207504,-0.105621,0.000000,9.256134,11.538300,0.000000,0.140000,0.027000,0.068000,FlatInitial,ResetForward,1,-0.184375
07:14:10.131 PM 02/18/2016,Teleop Enabled,0,FALSE,0,NO ERROR,-6004.687500,5992.968750,-6000.000000,-6000.000000,Speed,Speed,-0.080000,0.850000,2.680000,1.000000,102.000000,1,0,-0.000000,0.000000,1,1.353226,0.000000,0.000000,9.333710,11.533691,0.000000,0.118000,-0.005000,0.055000,FlatInitial,ResetForward,1,-0.184375
07:14:10.231 PM 02/18/2016,Teleop Enabled,0,FALSE,0,NO ERROR,-6008.789062,6000.585938,-6000.000000,-6000.000000,Speed,Speed,-0.090000,0.880000,2.940000,1.000000,104.000000,1,0,-0.000000,0.000000,1,1.417923,0.001678,0.000000,9.375580,11.533661,0.000000,0.102000,0.027000,0.106000,FlatInitial,ResetForward,1,-0.184375
07:14:10.333 PM 02/18/2016,Teleop Enabled,0,FALSE,0,NO ERROR,-6011.132812,6006.445312,-6000.000000,-6000.000000,Speed,Speed,-0.110000,0.930000,3.030000,1.000000,103.000000,1,0,-0.000000,0.000000,1,1.548920,-0.003693,0.000000,9.465118,11.533707,0.000000,0.132000,0.000000,0.116000,FlatInitial,ResetForward,1,-0.184375
07:14:10.434 PM 02/18/2016,Teleop Enabled,0,FALSE,0,NO ERROR,-6011.132812,6010.546875,-6000.000000,-6000.000000,Speed,Speed,-0.080000,0.970000,3.190000,1.000000,101.000000,1,0,-0.000000,0.000000,1,1.680130,-0.025177,0.000000,9.546402,11.533005,0.000000,0.127000,-0.081000,0.106000,FlatInitial,ResetForward,1,-0.184375
07:14:10.535 PM 02/18/2016,Teleop Enabled,0,FALSE,0,NO ERROR,-6007.031250,6012.890625,-6000.000000,-6000.000000,Speed,Speed,-0.110000,1.030000,3.260000,1.000000,102.000000,1,0,-0.000000,0.000000,1,1.807739,-0.072861,0.000000,9.634186,11.530136,0.000000,0.119000,-0.055000,0.111000,FlatInitial,ResetForward,0,-0.184375
07:14:10.636 PM 02/18/2016,Teleop Enabled,0,FALSE,0,NO ERROR,-6007.617188,6011.132812,-6000.000000,-6000.000000,Speed,Speed,-0.110000,1.100000,3.280000,1.000000,101.000000,1,0,-0.000000,0.000000,1,1.941467,-0.121780,0.000000,9.728455,11.525101,0.000000,0.143000,-0.092000,0.121000,FlatInitial,Reset,0,-0.184375
07:14:10.736 PM 02/18/2016,Teleop Enabled,0,FALSE,0,NO ERROR,-6007.031250,6008.203125,-6000.000000,-6000.000000,Speed,Speed,-0.110000,1.160000,3.280000,1.000000,102.000000,1,0,-0.000000,0.000000,1,2.106888,-0.205475,0.000000,9.850647,11.514954,0.000000,0.158000,-0.092000,0.122000,FlatInitial,Hold,0,-0.184375
07:14:10.836 PM 02/18/2016,Teleop Enabled,0,FALSE,0,NO ERROR,-6009.960938,6009.375000,-6000.000000,-6000.000000,Speed,Speed,-0.100000,1.230000,3.210000,1.000000,102.000000,1,0,-0.000000,0.000000,1,2.224915,-0.287628,0.000000,9.937943,11.504654,0.000000,0.123000,-0.104000,0.129000,FlatInitial,Hold,0,-0.184375
07:14:10.936 PM 02/18/2016,Teleop Enabled,0,FALSE,0,NO ERROR,-6009.375000,6012.304688,-6000.000000,-6000.000000,Speed,Speed,-0.110000,1.280000,3.160000,1.000000,101.000000,1,0,-0.000000,0.000000,1,2.354675,-0.387695,0.000000,10.052963,11.487396,0.000000,0.132000,-0.125000,0.141000,FlatInitial,Hold,0,-0.184375
07:14:11.037 PM 02/18/2016,Teleop Enabled,0,FALSE,0,NO ERROR,-6003.515625,6005.273438,-6000.000000,-6000.000000,Speed,Speed,-0.140000,1.360000,3.120000,1.000000,101.000000,1,0,-0.000000,0.000000,1,2.485413,-0.502533,0.000000,10.174652,11.464478,0.000000,0.151000,-0.118000,0.126000,FlatInitial,Hold,0,-0.184375
07:14:11.137 PM 02/18/2016,Teleop Enabled,0,FALSE,0,NO ERROR,-5998.242188,6000.585938,-6000.000000,-6000.000000,Speed,Speed,-0.120000,1.430000,3.010000,1.000000,101.000000,1,0,-0.000000,0.000000,1,2.647934,-0.632782,0.000000,10.329575,11.429825,0.000000,0.151000,-0.118000,0.126000,FlatInitial,Hold,0,-0.184375
07:14:11.238 PM 02/18/2016,Teleop Enabled,0,FALSE,0,NO ERROR,-5995.312500,5998.242188,-6000.000000,-6000.000000,Speed,Speed,-0.120000,1.450000,2.880000,1.000000,101.000000,1,0,-0.000000,0.000000,1,2.778641,-0.750992,0.000000,10.465729,11.394562,0.000000,0.143000,-0.135000,0.125000,FlatInitial,Hold,0,-0.184375
07:14:11.339 PM 02/18/2016,Teleop Enabled,0,FALSE,0,NO ERROR,-5994.726562,5997.656250,-6000.000000,-6000.000000,Speed,Speed,-0.130000,1.490000,2.790000,1.000000,101.000000,1,0,-0.000000,0.000000,1,2.915619,-0.860504,0.000000,10.608749,11.353577,0.000000,0.120000,-0.102000,0.152000,FlatInitial,Hold,0,-0.184375
07:14:11.439 PM 02/18/2016,Teleop Enabled,0,FALSE,0,NO ERROR,-5997.070312,5998.242188,-6000.000000,-6000.000000,Speed,Speed,-0.140000,1.510000,2.760000,1.000000,103.000000,1,0,-0.000000,0.000000,1,3.060715,-0.961975,0.000000,10.758759,11.307663,0.000000,0.156000,-0.127000,0.117000,FlatInitial,Hold,0,-0.184375
07:14:11.539 PM 02/18/2016,Teleop Enabled,0,FALSE,0,NO ERROR,-6000.000000,6000.000000,-6000.000000,-6000.000000,Speed,Speed,-0.130000,1.560000,2.700000,1.000000,100.000000,1,0,-0.000000,0.000000,1,3.236099,-1.087143,0.000000,10.948685,11.245743,0.000000,0.156000,-0.127000,0.117000,FlatInitial,Hold,0,-0.184375
07:14:11.639 PM 02/18/2016,Teleop Enabled,0,FALSE,0,NO ERROR,-6001.171875,6002.343750,-6000.000000,-6000.000000,Speed,Speed,-0.130000,1.580000,2.640000,1.000000,101.000000,1,0,-0.000000,0.000000,1,3.374298,-1.212967,0.000000,11.114609,11.187744,0.000000,0.136000,-0.108000,0.144000,FlatInitial,Hold,0,-0.184375
07:14:11.739 PM 02/18/2016,Teleop Enabled,0,FALSE,0,NO ERROR,-6005.273438,6004.101562,-6000.000000,-6000.000000,Speed,Speed,-0.140000,1.610000,2.530000,1.000000,106.000000,1,0,-0.000000,0.000000,1,3.491058,-1.322128,0.000000,11.252502,11.136444,0.000000,0.146000,-0.128000,0.135000,FlatInitial,Hold,0,-0.184375
07:14:11.839 PM 02/18/2016,Teleop Enabled,0,FALSE,0,NO ERROR,-6009.960938,6002.343750,-6000.000000,-6000.000000,Speed,Speed,-0.140000,1.610000,2.410000,1.000000,102.000000,1,0,-0.000000,0.000000,1,3.643204,-1.480545,0.000000,11.467453,11.051682,0.000000,0.146000,-0.128000,0.135000,FlatInitial,Hold,0,-0.184375
07:14:11.941 PM 02/18/2016,Teleop Enabled,0,FALSE,0,NO ERROR,-6006.445312,6002.343750,-6000.000000,-6000.000000,Speed,Speed,-0.140000,1.590000,2.270000,1.000000,101.000000,1,0,-0.000000,0.000000,1,3.762024,-1.615784,0.000000,11.653229,10.973526,0.000000,0.118000,-0.136000,0.113000,FlatInitial,Hold,0,-0.184375
07:14:12.041 PM 02/18/2016,Teleop Enabled,0,FALSE,0,NO ERROR,-6001.171875,6002.343750,-6000.000000,-6000.000000,Speed,Speed,-0.140000,1.590000,2.270000,1.000000,100.000000,1,0,-0.000000,0.000000,1,3.762024,-1.615784,0.000000,11.653229,10.973526,0.000000,0.118000,-0.136000,0.113000,FlatInitial,Hold,0,-0.184375
07:14:12.142 PM 02/18/2016,Teleop Enabled,0,FALSE,0,NO ERROR,-5996.484375,6003.515625,-6000.000000,-6000.000000,Speed,Speed,-0.140000,1.560000,1.890000,1.000000,103.000000,1,0,-0.000000,0.000000,1,4.000961,-1.883179,0.000000,12.042374,10.797333,0.000000,0.112000,-0.170000,0.095000,FlatInitial,Hold,0,-0.184375
07:14:12.242 PM 02/18/2016,Teleop Enabled,0,FALSE,0,NO ERROR,-5994.726562,6001.171875,-6000.000000,-6000.000000,Speed,Speed,-0.150000,1.540000,1.760000,1.000000,101.000000,1,0,-0.000000,0.000000,1,4.000961,-1.883179,0.000000,12.042374,10.797333,0.000000,0.145000,-0.125000,0.093000,FlatInitial,Hold,0,-0.184375
07:14:12.343 PM 02/18/2016,Teleop Enabled,0,FALSE,0,NO ERROR,-5992.382812,6000.000000,-6000.000000,-6000.000000,Speed,Speed,-0.150000,1.530000,1.630000,1.000000,103.000000,1,0,-0.000000,0.000000,1,4.223480,-2.122879,0.000000,12.413681,10.616074,0.000000,0.132000,-0.135000,0.132000,FlatInitial,Hold,0,-0.184375
07:14:12.444 PM 02/18/2016,Teleop Enabled,0,FALSE,0,NO ERROR,-5991.210938,5996.484375,-6000.000000,-6000.000000,Speed,Speed,-0.150000,1.550000,1.530000,1.000000,106.000000,1,0,-0.000000,0.000000,1,4.223480,-2.122879,0.000000,12.413681,10.616074,0.000000,0.132000,-0.135000,0.132000,FlatInitial,Hold,0,-0.184375
07:14:12.544 PM 02/18/2016,Teleop Enabled,0,FALSE,0,NO ERROR,-5988.281250,5995.898438,-6000.000000,-6000.000000,Speed,Speed,-0.150000,1.580000,1.500000,1.000000,101.000000,1,1,0.000000,-0.000000,1,4.532196,-2.375793,0.000000,12.896774,10.366623,0.000000,0.140000,-0.117000,0.120000,FlatInitial,Hold,0,-0.184375
07:14:12.644 PM 02/18/2016,Teleop Enabled,0,FALSE,0,NO ERROR,-5992.968750,5997.656250,-6000.000000,-6000.000000,Speed,Speed,-0.150000,1.600000,1.490000,1.000000,101.000000,1,1,0.000000,-0.000000,1,4.532196,-2.375793,0.000000,12.896774,10.366623,0.000000,0.128000,-0.126000,0.133000,FlatInitial,Hold,0,-0.184375
07:14:12.744 PM 02/18/2016,Teleop Enabled,0,FALSE,0,NO ERROR,-5995.898438,6000.000000,-6000.000000,-6000.000000,Speed,Speed,-0.150000,1.630000,1.500000,1.000000,100.000000,1,1,0.000000,-0.000000,1,4.674622,-2.480972,0.000000,13.127625,10.244583,0.000000,0.152000,-0.083000,0.149000,FlatInitial,Hold,0,-0.184375
07:14:12.844 PM 02/18/2016,Teleop Enabled,0,FALSE,0,NO ERROR,-6001.171875,6001.171875,-6000.000000,-6000.000000,Speed,Speed,-0.150000,1.660000,1.530000,1.000000,100.000000,1,1,0.000000,-0.000000,1,4.952026,-2.647141,0.000000,13.562088,10.013245,0.000000,0.165000,-0.106000,0.119000,FlatInitial,Hold,0,-0.184375
07:14:12.944 PM 02/18/2016,Teleop Enabled,0,FALSE,0,NO ERROR,-6006.445312,6003.515625,-6000.000000,-6000.000000,Speed,Speed,-0.150000,1.690000,1.470000,1.000000,101.000000,1,1,0.000000,-0.000000,1,5.132751,-2.795013,0.000000,13.865753,9.849319,0.000000,0.165000,-0.106000,0.119000,FlatInitial,Hold,0,-0.184375
07:14:13.044 PM 02/18/2016,Teleop Enabled,0,FALSE,0,NO ERROR,-6008.789062,6005.273438,-6000.000000,-6000.000000,Speed,Speed,-0.150000,1.690000,1.470000,1.000000,102.000000,1,1,0.000000,-0.000000,1,5.132751,-2.795013,0.000000,13.865753,9.849319,0.000000,0.131000,-0.125000,0.128000,FlatInitial,Hold,0,0.059375
07:14:13.144 PM 02/18/2016,Teleop Enabled,0,FALSE,0,NO ERROR,-6010.546875,6000.000000,-6000.000000,-6000.000000,Speed,Speed,-0.160000,1.680000,1.200000,1.000000,101.000000,1,1,0.000000,-0.000000,1,5.347366,-3.022934,0.000000,14.285995,9.615540,0.000000,0.129000,-0.128000,0.114000,FlatInitial,Hold,0,0.059375
07:14:13.245 PM 02/18/2016,Teleop Enabled,0,FALSE,0,NO ERROR,-6007.617188,5999.414062,-6000.000000,-6000.000000,Speed,Speed,-0.150000,1.670000,1.090000,1.000000,100.000000,1,1,0.000000,-0.000000,1,5.508423,-3.210251,0.000000,14.667007,9.396423,0.000000,0.085000,-0.149000,0.114000,FlatInitial,Hold,0,0.059375
07:14:13.346 PM 02/18/2016,Teleop Enabled,0,FALSE,0,NO ERROR,-6005.273438,5997.656250,-6000.000000,-6000.000000,Speed,Speed,-0.150000,1.670000,1.090000,1.000000,104.000000,1,1,0.000000,-0.000000,1,5.508423,-3.210251,0.000000,14.667007,9.396423,0.000000,0.085000,-0.149000,0.114000,FlatInitial,Hold,0,0.059375
07:14:13.446 PM 02/18/2016,Teleop Enabled,0,FALSE,0,NO ERROR,-6005.859375,5997.656250,-6000.000000,-6000.000000,Speed,Speed,-0.160000,1.630000,0.870000,1.000000,101.000000,1,1,0.000000,-0.000000,1,5.614120,-3.340149,0.000000,14.945587,9.232010,0.000000,0.103000,-0.132000,0.086000,FlatInitial,Hold,0,0.059375
07:14:13.547 PM 02/18/2016,Teleop Enabled,0,FALSE,0,NO ERROR,-6007.031250,5998.828125,-6000.000000,-6000.000000,Speed,Speed,-0.160000,1.590000,0.740000,1.000000,101.000000,1,1,0.000000,-0.000000,1,5.715515,-3.449478,0.000000,15.229385,9.061539,0.000000,0.103000,-0.127000,0.101000,FlatInitial,Hold,0,0.059375
07:14:13.648 PM 02/18/2016,Teleop Enabled,0,FALSE,0,NO ERROR,-6002.929688,6000.000000,-6000.000000,-6000.000000,Speed,Speed,-0.160000,1.520000,0.600000,1.000000,106.000000,1,1,0.000000,-0.000000,1,5.863800,-3.601776,0.000000,15.693527,8.778381,0.000000,0.098000,-0.072000,0.091000,FlatInitial,Hold,0,0.059375
07:14:13.748 PM 02/18/2016,Teleop Enabled,0,FALSE,0,NO ERROR,-5998.828125,6001.171875,-6000.000000,-6000.000000,Speed,Speed,-0.160000,1.420000,0.390000,1.000000,104.000000,1,1,0.000000,-0.000000,1,5.958099,-3.708420,0.000000,16.048752,8.558670,0.000000,0.064000,-0.091000,0.105000,FlatInitial,Hold,0,0.059375
07:14:13.850 PM 02/18/2016,Teleop Enabled,0,FALSE,0,NO ERROR,-5997.070312,6001.757812,-6000.000000,-6000.000000,Speed,Speed,-0.160000,1.370000,0.260000,1.000000,101.000000,1,1,0.000000,-0.000000,1,5.990738,-3.745056,0.000000,16.168396,8.483948,0.000000,0.078000,-0.087000,0.109000,FlatInitial,Hold,0,0.059375
07:14:13.953 PM 02/18/2016,Teleop Enabled,0,FALSE,0,NO ERROR,-5995.312500,6002.929688,-6000.000000,-6000.000000,Speed,Speed,-0.160000,1.370000,0.260000,1.000000,102.000000,1,1,0.000000,-0.000000,1,6.069412,-3.827255,0.000000,16.470322,8.294235,0.000000,0.072000,-0.087000,0.084000,FlatInitial,Hold,0,0.059375
07:14:14.054 PM 02/18/2016,Teleop Enabled,0,FALSE,0,NO ERROR,-5997.656250,6003.515625,-6000.000000,-6000.000000,Speed,Speed,-0.160000,1.310000,0.120000,1.000000,101.000000,1,1,0.000000,-0.000000,1,6.182404,-3.942490,0.000000,16.899582,8.021698,0.000000,0.101000,-0.059000,0.092000,FlatInitial,Hold,0,0.059375
07:14:14.156 PM 02/18/2016,Teleop Enabled,0,FALSE,0,NO ERROR,-5998.242188,6004.101562,-6000.000000,-6000.000000,Speed,Speed,-0.160000,1.260000,-0.090000,1.000000,101.000000,1,1,0.000000,-0.000000,1,6.252975,-4.016953,0.000000,17.148651,7.862167,0.000000,0.074000,-0.111000,0.099000,FlatInitial,Hold,0,0.059375
07:14:14.255 PM 02/18/2016,Teleop Enabled,0,FALSE,0,NO ERROR,-5998.828125,6006.445312,-6000.000000,-6000.000000,Speed,Speed,-0.160000,1.260000,-0.090000,1.000000,102.000000,1,1,0.000000,-0.000000,1,6.343140,-4.097061,0.000000,17.463989,7.658936,0.000000,0.083000,-0.107000,0.108000,FlatInitial,Hold,0,0.059375
07:14:14.355 PM 02/18/2016,Teleop Enabled,0,FALSE,0,NO ERROR,-5999.414062,6008.203125,-6000.000000,-6000.000000,Speed,Speed,-0.160000,1.210000,-0.340000,1.000000,100.000000,1,1,0.000000,-0.000000,1,6.343140,-4.097061,0.000000,17.463989,7.658936,0.000000,0.083000,-0.107000,0.108000,FlatInitial,Hold,0,0.059375
07:14:14.456 PM 02/18/2016,Teleop Enabled,0,FALSE,0,NO ERROR,-5999.414062,6005.859375,-6000.000000,-6000.000000,Speed,Speed,-0.170000,1.180000,-0.490000,1.000000,101.000000,1,1,0.000000,-0.000000,1,6.562836,-4.295364,0.000000,18.239822,7.154022,0.000000,0.065000,-0.094000,0.125000,FlatInitial,Hold,0,0.059375
07:14:14.560 PM 02/18/2016,Teleop Enabled,0,FALSE,0,NO ERROR,-6004.101562,6005.859375,-6000.000000,-6000.000000,Speed,Speed,-0.160000,1.120000,-0.750000,1.000000,101.000000,1,1,0.000000,-0.000000,1,6.661270,-4.385498,0.000000,18.637146,6.893005,0.000000,0.045000,-0.073000,0.095000,FlatInitial,Hold,0,0.059375
07:14:14.662 PM 02/18/2016,Teleop Enabled,0,FALSE,0,NO ERROR,-6007.031250,5999.414062,-6000.000000,-6000.000000,Speed,Speed,-0.160000,1.090000,-0.830000,1.000000,102.000000,1,1,0.000000,-0.000000,1,6.716339,-4.448318,0.000000,18.971848,6.671692,0.000000,0.046000,-0.048000,0.106000,FlatInitial,Hold,0,0.059375
07:14:14.761 PM 02/18/2016,Teleop Enabled,0,FALSE,0,NO ERROR,-6007.031250,5988.281250,-6000.000000,-6000.000000,Speed,Speed,-0.160000,1.040000,-0.910000,1.000000,101.000000,1,1,0.000000,-0.000000,1,6.764465,-4.488342,0.000000,19.241684,6.492752,0.000000,0.076000,-0.039000,0.068000,FlatInitial,Hold,0,0.059375
07:14:14.867 PM 02/18/2016,Teleop Enabled,0,FALSE,0,NO ERROR,-6001.171875,5991.210938,-6000.000000,-6000.000000,Speed,Speed,-0.160000,1.040000,-0.910000,1.000000,101.000000,1,1,0.000000,-0.000000,1,6.764465,-4.488342,0.000000,19.241684,6.492752,0.000000,0.076000,-0.039000,0.068000,FlatInitial,Hold,0,0.059375
07:14:14.967 PM 02/18/2016,Teleop Enabled,0,FALSE,0,NO ERROR,-5997.656250,5996.484375,-6000.000000,-6000.000000,Speed,Speed,-0.170000,0.940000,-1.000000,1.000000,102.000000,1,1,0.000000,-0.000000,1,6.923264,-4.562180,0.000000,20.063553,5.948624,0.000000,0.068000,-0.027000,0.074000,FlatInitial,Hold,0,0.059375
07:14:15.068 PM 02/18/2016,Teleop Enabled,0,FALSE,0,NO ERROR,-5997.070312,5995.312500,-6000.000000,-6000.000000,Speed,Speed,-0.170000,0.910000,-1.010000,1.000000,101.000000,1,1,0.000000,-0.000000,1,6.970444,-4.580154,0.000000,20.272156,5.811386,0.000000,0.074000,-0.040000,0.072000,FlatInitial,Hold,0,0.059375
07:14:15.170 PM 02/18/2016,Teleop Enabled,0,FALSE,0,NO ERROR,-5998.242188,5995.898438,-6000.000000,-6000.000000,Speed,Speed,-0.170000,0.910000,-1.010000,1.000000,100.000000,1,1,0.000000,-0.000000,1,6.970444,-4.580154,0.000000,20.272156,5.811386,0.000000,0.074000,-0.040000,0.072000,FlatInitial,Hold,0,0.059375
07:14:15.270 PM 02/18/2016,Teleop Enabled,0,FALSE,0,NO ERROR,-5998.242188,5995.898438,-6000.000000,-6000.000000,Speed,Speed,-0.180000,0.820000,-1.100000,1.000000,119.000000,1,1,0.000000,-0.000000,1,7.107040,-4.649445,0.000000,21.046829,5.302887,0.000000,0.036000,-0.031000,0.060000,FlatInitial,Hold,0,0.059375
07:14:15.370 PM 02/18/2016,Teleop Enabled,0,FALSE,0,NO ERROR,-6001.171875,5998.242188,-6000.000000,-6000.000000,Speed,Speed,-0.180000,0.820000,-1.100000,1.000000,119.000000,1,1,0.000000,-0.000000,1,7.107040,-4.649445,0.000000,21.046829,5.302887,0.000000,0.036000,-0.031000,0.060000,FlatInitial,Hold,0,0.059375
07:14:15.470 PM 02/18/2016,Teleop Enabled,0,FALSE,0,NO ERROR,-6002.929688,6002.929688,-6000.000000,-6000.000000,Speed,Speed,-0.180000,0.750000,-1.070000,1.000000,103.000000,1,1,0.000000,-0.000000,1,7.186630,0.000000,0.000000,21.618881,4.976166,0.000000,0.057000,-0.034000,0.075000,FlatInitial,Hold,0,0.059375
07:14:15.571 PM 02/18/2016,Teleop Enabled,0,FALSE,0,NO ERROR,-6005.273438,6005.273438,-6000.000000,-6000.000000,Speed,Speed,-0.180000,0.750000,-1.070000,1.000000,100.000000,1,1,0.000000,-0.000000,1,7.260529,0.000000,0.000000,22.125000,4.975677,0.000000,0.057000,-0.034000,0.075000,FlatInitial,Hold,0,0.059375
07:14:15.672 PM 02/18/2016,Teleop Enabled,0,FALSE,0,NO ERROR,-6008.789062,6003.515625,-6000.000000,-6000.000000,Speed,Speed,-0.180000,0.710000,-1.050000,1.000000,102.000000,1,1,0.000000,-0.000000,1,7.293182,0.005936,0.000000,22.343475,4.975739,0.000000,0.045000,0.054000,0.067000,FlatInitial,Hold,0,0.059375
07:14:15.774 PM 02/18/2016,Teleop Enabled,0,FALSE,0,NO ERROR,-6013.476562,6002.343750,-6000.000000,-6000.000000,Speed,Speed,-0.190000,0.710000,-0.900000,1.000000,103.000000,1,1,0.000000,-0.000000,1,7.350174,0.062943,0.000000,22.783020,4.978012,0.000000,0.050000,0.048000,0.103000,FlatInitial,Hold,0,0.059375
07:14:15.874 PM 02/18/2016,Teleop Enabled,0,FALSE,0,NO ERROR,-6007.617188,6000.000000,-6000.000000,-6000.000000,Speed,Speed,-0.180000,0.730000,-0.740000,1.000000,100.000000,1,1,0.000000,-0.000000,1,7.388657,0.135483,0.000000,23.225525,4.984100,0.000000,0.026000,0.089000,0.082000,FlatInitial,Hold,0,0.059375
07:14:15.974 PM 02/18/2016,Teleop Enabled,0,FALSE,0,NO ERROR,-6002.343750,5998.828125,-6000.000000,-6000.000000,Speed,Speed,-0.180000,0.730000,-0.600000,1.000000,102.000000,1,1,0.000000,-0.000000,1,7.413315,0.190933,0.000000,23.521698,4.990967,0.000000,0.020000,0.069000,0.052000,FlatInitial,Hold,0,0.059375
07:14:16.076 PM 02/18/2016,Teleop Enabled,0,FALSE,0,NO ERROR,-5998.828125,5997.656250,-6000.000000,-6000.000000,Speed,Speed,-0.180000,0.770000,-0.400000,1.000000,102.000000,1,1,0.000000,-0.000000,1,7.432755,0.275375,0.000000,23.966980,5.005310,0.000000,0.039000,0.055000,0.060000,FlatInitial,Hold,0,0.059375
07:14:16.176 PM 02/18/2016,Teleop Enabled,0,FALSE,0,NO ERROR,-5997.070312,5997.070312,-6000.000000,-6000.000000,Speed,Speed,-0.180000,0.800000,-0.220000,1.000000,101.000000,1,1,0.000000,-0.000000,1,7.432755,0.275375,0.000000,23.966980,5.005310,0.000000,0.039000,0.055000,0.060000,FlatInitial,Hold,0,0.059375
07:14:16.276 PM 02/18/2016,Teleop Enabled,0,FALSE,0,NO ERROR,-5993.554688,5995.898438,-6000.000000,-6000.000000,Speed,Speed,-0.190000,0.820000,-0.080000,1.000000,102.000000,1,1,0.000000,-0.000000,1,7.469299,0.351227,0.000000,24.488647,5.027863,0.000000,0.039000,0.023000,0.111000,FlatInitial,Hold,0,0.059375
07:14:16.378 PM 02/18/2016,Teleop Enabled,0,FALSE,0,NO ERROR,-5993.554688,5998.242188,-6000.000000,-6000.000000,Speed,Speed,-0.190000,0.820000,-0.020000,1.000000,104.000000,1,1,0.000000,-0.000000,1,7.528610,0.427719,0.000000,25.163788,5.063202,0.000000,0.032000,0.048000,0.053000,FlatInitial,Hold,0,0.059375
07:14:16.479 PM 02/18/2016,Teleop Enabled,0,FALSE,0,NO ERROR,-5996.484375,5999.414062,-6000.000000,-6000.000000,Speed,Speed,-0.190000,0.850000,0.080000,1.000000,102.000000,1,1,0.000000,-0.000000,1,7.552719,0.449356,0.000000,25.390076,5.076508,0.000000,0.020000,0.044000,0.074000,FlatInitial,Hold,0,0.059375
07:14:16.580 PM 02/18/2016,Teleop Enabled,0,FALSE,0,NO ERROR,-5997.656250,5998.828125,-6000.000000,-6000.000000,Speed,Speed,-0.190000,0.840000,0.160000,1.000000,102.000000,1,1,0.000000,-0.000000,1,7.583878,0.504349,0.000000,25.844391,5.105270,0.000000,0.040000,0.073000,0.083000,FlatInitial,Hold,0,0.059375
07:14:16.681 PM 02/18/2016,Teleop Enabled,0,FALSE,0,NO ERROR,-5997.656250,5999.414062,-6000.000000,-6000.000000,Speed,Speed,-0.190000,0.840000,0.230000,1.000000,105.000000,1,1,0.000000,-0.000000,1,7.583878,0.504349,0.000000,25.844391,5.105270,0.000000,0.040000,0.073000,0.083000,FlatInitial,Hold,0,0.059375
07:14:16.781 PM 02/18/2016,Teleop Enabled,0,FALSE,0,NO ERROR,-5997.656250,6005.859375,-6000.000000,-6000.000000,Speed,Speed,-0.190000,0.840000,0.230000,1.000000,101.000000,1,1,0.000000,-0.000000,1,7.618423,0.561142,0.000000,26.377029,5.143082,0.000000,0.025000,0.043000,0.062000,FlatInitial,Hold,0,0.059375
07:14:16.882 PM 02/18/2016,Teleop Enabled,0,FALSE,0,NO ERROR,-6000.000000,6008.789062,-6000.000000,-6000.000000,Speed,Speed,-0.190000,0.810000,0.260000,1.000000,102.000000,1,1,0.000000,-0.000000,1,7.650818,0.617310,0.000000,26.987915,5.190689,0.000000,0.022000,0.064000,0.087000,FlatInitial,Hold,0,0.059375
07:14:16.983 PM 02/18/2016,Teleop Enabled,0,FALSE,0,NO ERROR,-6001.171875,6009.960938,-6000.000000,-6000.000000,Speed,Speed,-0.190000,0.780000,0.270000,1.000000,101.000000,1,1,0.000000,-0.000000,1,7.671310,0.650558,0.000000,27.371078,5.222565,0.000000,0.040000,0.045000,0.095000,FlatInitial,Hold,0,0.059375
07:14:17.084 PM 02/18/2016,Teleop Enabled,0,FALSE,0,NO ERROR,-6001.171875,6008.203125,-6000.000000,-6000.000000,Speed,Speed,-0.190000,0.750000,0.280000,1.000000,101.000000,1,1,0.000000,-0.000000,1,0.000000,0.698761,0.000000,27.755386,5.263168,0.000000,0.009000,0.041000,0.084000,FlatInitial,Hold,0,0.059375
07:14:17.184 PM 02/18/2016,Teleop Enabled,0,FALSE,0,NO ERROR,-6003.515625,6005.273438,-6000.000000,-6000.000000,Speed,Speed,-0.190000,0.720000,0.320000,1.000000,101.000000,1,1,0.000000,-0.000000,1,0.008804,0.726715,0.000000,27.755585,5.291748,0.000000,0.008000,0.063000,0.075000,FlatInitial,Hold,0,0.059375
07:14:17.284 PM 02/18/2016,Teleop Enabled,0,FALSE,0,NO ERROR,-6003.515625,6001.757812,-6000.000000,-6000.000000,Speed,Speed,-0.200000,0.680000,0.390000,1.000000,101.000000,1,1,0.000000,-0.000000,1,0.012558,0.818085,0.000000,27.755936,5.346054,0.000000,0.008000,0.063000,0.075000,FlatInitial,Hold,0,0.059375
07:14:17.385 PM 02/18/2016,Teleop Enabled,0,FALSE,0,NO ERROR,-6003.515625,5997.070312,-6000.000000,-6000.000000,Speed,Speed,-0.200000,0.680000,0.390000,1.000000,101.000000,1,1,0.000000,-0.000000,1,0.012558,0.818085,0.000000,27.755936,5.346054,0.000000,0.009000,0.063000,0.068000,FlatInitial,Hold,0,0.059375
07:14:17.485 PM 02/18/2016,Teleop Enabled,0,FALSE,0,NO ERROR,-6002.343750,5995.312500,-6000.000000,-6000.000000,Speed,Speed,-0.200000,0.660000,0.520000,1.000000,103.000000,1,1,0.000000,-0.000000,1,0.000000,0.946503,0.000000,27.755859,5.434784,0.000000,0.019000,0.070000,0.061000,FlatInitial,Hold,0,0.059375
07:14:17.586 PM 02/18/2016,Teleop Enabled,0,FALSE,0,NO ERROR,-6001.171875,5995.898438,-6000.000000,-6000.000000,Speed,Speed,-0.200000,0.660000,0.660000,1.000000,102.000000,1,1,0.000000,-0.000000,1,0.000000,0.946503,0.000000,27.755859,5.434784,0.000000,0.009000,0.052000,0.118000,FlatInitial,Hold,0,0.059375
07:14:17.687 PM 02/18/2016,Teleop Enabled,0,FALSE,0,NO ERROR,-5999.414062,5995.898438,-6000.000000,-6000.000000,Speed,Speed,-0.200000,0.660000,0.810000,1.000000,102.000000,1,1,0.000000,-0.000000,1,0.001938,1.031326,0.000000,27.756073,5.504440,0.000000,0.036000,0.064000,0.082000,FlatInitial,Hold,0,0.059375
07:14:17.787 PM 02/18/2016,Teleop Enabled,0,FALSE,0,NO ERROR,-6001.171875,5998.828125,-6000.000000,-6000.000000,Speed,Speed,-0.210000,0.670000,0.940000,1.000000,104.000000,1,1,0.000000,-0.000000,1,0.019699,1.070770,0.000000,27.756546,5.546585,0.000000,0.037000,0.067000,0.074000,FlatInitial,Hold,0,0.059375
07:14:17.888 PM 02/18/2016,Teleop Enabled,0,FALSE,0,NO ERROR,-6002.343750,6000.000000,-6000.000000,-6000.000000,Speed,Speed,-0.210000,0.670000,0.940000,1.000000,101.000000,1,1,0.000000,-0.000000,1,0.009552,1.124954,0.000000,27.757172,5.601807,0.000000,0.009000,0.083000,0.048000,FlatInitial,Hold,0,0.059375
07:14:17.988 PM 02/18/2016,Teleop Enabled,0,FALSE,0,NO ERROR,-6001.171875,5999.414062,-6000.000000,-6000.000000,Speed,Speed,-0.210000,0.710000,1.150000,1.000000,101.000000,1,1,0.000000,-0.000000,1,0.029099,1.245773,0.000000,27.758530,5.708710,0.000000,0.009000,0.083000,0.048000,FlatInitial,Hold,0,0.059375
07:14:18.095 PM 02/18/2016,Teleop Enabled,0,FALSE,0,NO ERROR,-6001.757812,5998.828125,-6000.000000,-6000.000000,Speed,Speed,-0.200000,0.720000,1.260000,1.000000,101.000000,1,1,0.000000,-0.000000,1,0.000000,1.296417,0.000000,27.759186,5.759827,0.000000,-0.005000,0.061000,0.045000,FlatInitial,Hold,0,0.059375
07:14:18.196 PM 02/18/2016,Teleop Enabled,0,FALSE,0,NO ERROR,-6005.273438,5999.414062,-6000.000000,-6000.000000,Speed,Speed,-0.200000,0.740000,1.400000,1.000000,102.000000,1,1,0.000000,-0.000000,1,0.000000,1.356277,0.000000,27.759323,5.813217,0.000000,0.016000,0.058000,0.032000,FlatInitial,Hold,0,0.059375
07:14:18.300 PM 02/18/2016,Teleop Enabled,0,FALSE,0,NO ERROR,-6008.789062,5997.656250,-6000.000000,-6000.000000,Speed,Speed,-0.210000,0.780000,1.530000,1.000000,101.000000,1,1,0.000000,-0.000000,1,0.035049,1.439774,0.000000,27.760330,5.897614,0.000000,0.039000,0.072000,0.043000,FlatInitial,Hold,0,0.059375
07:14:18.400 PM 02/18/2016,Teleop Enabled,0,FALSE,0,NO ERROR,-6006.445312,5995.898438,-6000.000000,-6000.000000,Speed,Speed,-0.210000,0.820000,1.610000,1.000000,101.000000,1,1,0.000000,-0.000000,1,0.089706,1.495316,0.000000,27.764328,5.986069,0.000000,0.039000,0.072000,0.043000,FlatInitial,Hold,0,0.059375
07:14:18.501 PM 02/18/2016,Teleop Enabled,0,FALSE,0,NO ERROR,-6005.273438,5995.898438,-6000.000000,-6000.000000,Speed,Speed,-0.210000,0.910000,1.750000,1.000000,102.000000,1,1,0.000000,-0.000000,1,0.127670,1.534729,0.000000,27.769958,6.062088,0.000000,0.041000,0.035000,0.043000,FlatInitial,Hold,0,0.059375
07:14:18.601 PM 02/18/2016,Teleop Enabled,0,FALSE,0,NO ERROR,-6001.757812,5996.484375,-6000.000000,-6000.000000,Speed,Speed,-0.220000,0.950000,1.800000,1.000000,102.000000,1,1,0.000000,-0.000000,1,0.159164,1.569366,0.000000,27.777328,6.139801,0.000000,0.035000,0.054000,0.014000,FlatInitial,Hold,0,0.059375
07:14:18.702 PM 02/18/2016,Teleop Enabled,0,FALSE,0,NO ERROR,-5996.484375,5999.414062,-6000.000000,-6000.000000,Speed,Speed,-0.220000,0.980000,1.880000,1.000000,107.000000,1,1,0.000000,-0.000000,1,0.159164,1.569366,0.000000,27.777328,6.139801,0.000000,0.035000,0.054000,0.014000,FlatInitial,Hold,0,0.059375
07:14:18.804 PM 02/18/2016,Teleop Enabled,0,FALSE,0,NO ERROR,-5991.796875,6001.171875,-6000.000000,-6000.000000,Speed,Speed,-0.220000,1.050000,1.980000,1.000000,102.000000,1,1,0.000000,-0.000000,1,0.209946,1.625763,0.000000,27.788773,6.236099,0.000000,0.018000,0.045000,0.019000,FlatInitial,Hold,0,0.059375
07:14:18.905 PM 02/18/2016,Teleop Enabled,0,FALSE,0,NO ERROR,-5991.210938,6003.515625,-6000.000000,-6000.000000,Speed,Speed,-0.220000,1.080000,2.110000,1.000000,100.000000,1,1,0.000000,-0.000000,1,0.004044,1.732407,0.000000,27.802277,6.387100,0.000000,0.035000,0.071000,0.023000,FlatInitial,Hold,0,0.059375
07:14:19.006 PM 02/18/2016,Teleop Enabled,0,FALSE,0,NO ERROR,-5991.796875,6005.273438,-6000.000000,-6000.000000,Speed,Speed,-0.220000,1.090000,2.180000,1.000000,100.000000,1,1,0.000000,-0.000000,1,0.025726,1.795380,0.000000,27.803375,6.493347,0.000000,-0.001000,0.038000,0.019000,FlatInitial,Hold,0,0.059375
07:14:19.106 PM 02/18/2016,Teleop Enabled,0,FALSE,0,NO ERROR,-5990.039062,6008.203125,-6000.000000,-6000.000000,Speed,Speed,-0.220000,1.090000,2.180000,1.000000,105.000000,1,1,0.000000,-0.000000,1,0.025726,1.795380,0.000000,27.803375,6.493347,0.000000,-0.001000,0.038000,0.019000,FlatInitial,Hold,0,0.059375
07:14:19.206 PM 02/18/2016,Teleop Enabled,0,FALSE,0,NO ERROR,-5990.625000,6011.132812,-6000.000000,-6000.000000,Speed,Speed,-0.220000,1.080000,2.250000,1.000000,101.000000,1,1,0.000000,-0.000000,1,0.000000,1.871918,0.000000,27.803757,6.640289,0.000000,-0.001000,0.038000,0.019000,FlatInitial,Hold,0,0.059375
07:14:19.308 PM 02/18/2016,Teleop Enabled,0,FALSE,0,NO ERROR,-5995.312500,6004.101562,-6000.000000,-6000.000000,Speed,Speed,-0.210000,1.050000,2.380000,1.000000,104.000000,1,1,0.000000,-0.000000,1,0.000000,1.894577,0.000000,27.803757,6.696899,0.000000,-0.006000,0.060000,0.052000,FlatInitial,Hold,0,0.059375
07:14:19.408 PM 02/18/2016,Teleop Enabled,0,FALSE,0,NO ERROR,-6000.000000,6000.585938,-6000.000000,-6000.000000,Speed,Speed,-0.210000,1.000000,2.500000,1.000000,100.000000,1,1,0.000000,-0.000000,1,0.008057,1.968262,0.000000,27.803894,6.813110,0.000000,0.031000,0.069000,0.057000,FlatInitial,Hold,0,0.059375
07:14:19.508 PM 02/18/2016,Teleop Enabled,0,FALSE,0,NO ERROR,-6002.343750,5999.414062,-6000.000000,-6000.000000,Speed,Speed,-0.210000,0.930000,2.690000,1.000000,101.000000,1,1,0.000000,-0.000000,1,0.000000,2.009766,0.000000,27.804199,6.893005,0.000000,0.031000,0.069000,0.057000,FlatInitial,Hold,0,0.059375
07:14:19.609 PM 02/18/2016,Teleop Enabled,0,FALSE,0,NO ERROR,-6004.101562,5999.414062,-6000.000000,-6000.000000,Speed,Speed,-0.210000,0.930000,2.750000,1.000000,103.000000,1,1,0.000000,-0.000000,1,0.000000,2.072083,0.000000,27.804199,7.015579,0.000000,0.016000,0.076000,0.040000,FlatInitial,Hold,0,0.059375
07:14:19.710 PM 02/18/2016,Teleop Enabled,0,FALSE,0,NO ERROR,-6004.101562,5998.828125,-6000.000000,-6000.000000,Speed,Speed,-0.210000,0.930000,2.920000,1.000000,100.000000,1,1,0.000000,-0.000000,1,0.037125,2.144867,0.000000,27.805679,7.184891,0.000000,0.016000,0.076000,0.040000,FlatInitial,Hold,0,0.059375
07:14:19.810 PM 02/18/2016,Teleop Enabled,0,FALSE,0,NO ERROR,-6003.515625,5999.414062,-6000.000000,-6000.000000,Speed,Speed,-0.210000,0.930000,2.940000,1.000000,103.000000,1,1,0.000000,-0.000000,1,0.058624,2.152710,0.000000,27.807236,7.249435,0.000000,0.022000,-0.013000,0.049000,FlatInitial,Hold,0,0.059375
07:14:19.910 PM 02/18/2016,Teleop Enabled,0,FALSE,0,NO ERROR,-6004.101562,6001.171875,-6000.000000,-6000.000000,Speed,Speed,-0.210000,0.960000,3.100000,1.000000,104.000000,1,1,0.000000,-0.000000,1,0.058624,2.152710,0.000000,27.807236,7.249435,0.000000,0.033000,0.040000,0.035000,FlatInitial,Hold,0,0.059375
07:14:20.012 PM 02/18/2016,Teleop Enabled,0,FALSE,0,NO ERROR,-6006.445312,6002.343750,-6000.000000,-6000.000000,Speed,Speed,-0.210000,0.980000,3.180000,1.000000,104.000000,1,1,0.000000,-0.000000,1,0.116974,2.224426,0.000000,27.816437,7.468750,0.000000,0.028000,0.044000,0.047000,FlatInitial,Hold,0,0.059375
07:14:20.114 PM 02/18/2016,Teleop Enabled,0,FALSE,0,NO ERROR,-6007.031250,6002.343750,-6000.000000,-6000.000000,Speed,Speed,-0.210000,1.010000,3.320000,1.000000,102.000000,1,1,0.000000,-0.000000,1,0.186066,0.000000,0.000000,27.827454,7.603638,0.000000,0.081000,0.028000,0.013000,FlatInitial,Hold,0,0.059375
07:14:20.216 PM 02/18/2016,Teleop Enabled,0,FALSE,0,NO ERROR,-6007.031250,6004.101562,-6000.000000,-6000.000000,Speed,Speed,-0.210000,1.030000,3.410000,1.000000,101.000000,1,1,0.000000,-0.000000,1,0.208160,0.011124,0.000000,27.833466,7.603867,0.000000,0.064000,0.041000,-0.007000,FlatInitial,Hold,0,0.059375
07:14:20.317 PM 02/18/2016,Teleop Enabled,0,FALSE,0,NO ERROR,-6005.273438,6005.273438,-6000.000000,-6000.000000,Speed,Speed,-0.210000,1.030000,3.410000,1.000000,105.000000,1,1,0.000000,-0.000000,1,0.208160,0.011124,0.000000,27.833466,7.603867,0.000000,0.064000,0.041000,-0.007000,FlatInitial,Hold,0,0.059375
07:14:20.417 PM 02/18/2016,Teleop Enabled,0,FALSE,0,NO ERROR,-6005.273438,6006.445312,-6000.000000,-6000.000000,Speed,Speed,-0.210000,1.100000,3.590000,1.000000,102.000000,1,1,0.000000,-0.000000,1,0.326309,0.065872,0.000000,27.860580,7.607895,0.000000,0.055000,0.012000,-0.027000,FlatInitial,Hold,0,0.059375
07:14:20.518 PM 02/18/2016,Teleop Enabled,0,FALSE,0,NO ERROR,-6005.273438,6007.617188,-6000.000000,-6000.000000,Speed,Speed,-0.210000,1.120000,3.620000,1.000000,102.000000,1,1,0.000000,-0.000000,1,0.379501,0.076614,0.000000,27.874954,7.610870,0.000000,0.062000,0.034000,-0.050000,FlatInitial,Hold,0,0.059375
07:14:20.618 PM 02/18/2016,Teleop Enabled,0,FALSE,0,NO ERROR,-6002.343750,6008.789062,-6000.000000,-6000.000000,Speed,Speed,-0.210000,1.160000,3.640000,1.000000,101.000000,1,1,0.000000,-0.000000,1,0.496933,0.003052,0.000000,27.914978,7.615997,0.000000,0.066000,0.018000,-0.054000,FlatInitial,Hold,0,0.059375
07:14:20.719 PM 02/18/2016,Teleop Enabled,0,FALSE,0,NO ERROR,-5999.414062,6005.859375,-6000.000000,-6000.000000,Speed,Speed,-0.220000,1.190000,3.690000,1.000000,101.000000,1,1,0.000000,-0.000000,1,0.496933,0.003052,0.000000,27.914978,7.615997,0.000000,0.082000,0.026000,-0.062000,FlatInitial,Hold,0,0.059375
07:14:20.820 PM 02/18/2016,Teleop Enabled,0,FALSE,0,NO ERROR,-5997.656250,6001.757812,-6000.000000,-6000.000000,Speed,Speed,-0.220000,1.190000,3.690000,1.000000,103.000000,1,1,0.000000,-0.000000,1,0.591904,0.000000,0.000000,27.947983,7.616684,0.000000,0.072000,0.018000,-0.093000,FlatInitial,Hold,0,0.059375
07:14:20.920 PM 02/18/2016,Teleop Enabled,0,FALSE,0,NO ERROR,-5998.828125,5999.414062,-6000.000000,-6000.000000,Speed,Speed,-0.220000,1.270000,3.860000,1.000000,105.000000,1,1,0.000000,-0.000000,1,0.700211,0.019012,0.000000,28.000031,7.617279,0.000000,0.055000,0.014000,-0.076000,FlatInitial,Hold,0,0.059375
07:14:21.024 PM 02/18/2016,Teleop Enabled,0,FALSE,0,NO ERROR,-5998.828125,5998.828125,-6000.000000,-6000.000000,Speed,Speed,-0.220000,1.310000,3.920000,1.000000,103.000000,1,1,0.000000,-0.000000,1,0.737656,0.025391,0.000000,28.021790,7.617981,0.000000,0.067000,-0.018000,-0.076000,FlatInitial,Hold,0,0.059375
07:14:21.124 PM 02/18/2016,Teleop Enabled,0,FALSE,0,NO ERROR,-5995.898438,5995.898438,-6000.000000,-6000.000000,Speed,Speed,-0.220000,1.350000,3.970000,1.000000,110.000000,1,1,0.000000,-0.000000,1,0.814163,0.043793,0.000000,28.061005,7.619797,0.000000,0.061000,-0.028000,-0.078000,FlatInitial,Hold,0,0.059375
07:14:21.224 PM 02/18/2016,Teleop Enabled,0,FALSE,0,NO ERROR,-5994.726562,5994.140625,-6000.000000,-6000.000000,Speed,Speed,-0.220000,1.390000,3.970000,1.000000,101.000000,1,1,0.000000,-0.000000,1,0.901138,0.003143,0.000000,28.112946,7.621628,0.000000,0.064000,0.046000,-0.055000,FlatInitial,Hold,0,0.059375
07:14:21.324 PM 02/18/2016,Teleop Enabled,0,FALSE,0,NO ERROR,-5998.242188,5994.140625,-6000.000000,-6000.000000,Speed,Speed,-0.220000,1.410000,4.030000,1.000000,101.000000,1,1,0.000000,-0.000000,1,0.927032,0.010376,0.000000,28.131348,7.621811,0.000000,0.058000,-0.028000,-0.038000,FlatInitial,Hold,0,0.059375
07:14:21.426 PM 02/18/2016,Teleop Enabled,0,FALSE,0,NO ERROR,-6001.171875,5996.484375,-6000.000000,-6000.000000,Speed,Speed,-0.220000,1.430000,4.110000,1.000000,101.000000,1,1,0.000000,-0.000000,1,1.008942,0.021866,0.000000,28.199585,7.622955,0.000000,0.077000,0.008000,-0.048000,FlatInitial,Hold,0,0.059375
07:14:21.528 PM 02/18/2016,Teleop Enabled,0,FALSE,0,NO ERROR,-6001.171875,6001.171875,-6000.000000,-6000.000000,Speed,Speed,-0.220000,1.460000,4.180000,1.000000,101.000000,1,1,0.000000,-0.000000,1,1.076614,0.000000,0.000000,28.241577,7.623840,0.000000,0.082000,0.000000,-0.075000,FlatInitial,Hold,0,0.059375
07:14:21.629 PM 02/18/2016,Teleop Enabled,0,FALSE,0,NO ERROR,-6002.343750,6005.859375,-6000.000000,-6000.000000,Speed,Speed,-0.220000,1.500000,4.220000,1.000000,101.000000,1,1,0.000000,-0.000000,1,1.182831,0.006363,0.000000,28.332260,7.623795,0.000000,0.082000,0.000000,-0.075000,FlatInitial,Hold,0,0.059375
07:14:21.731 PM 02/18/2016,Teleop Enabled,0,FALSE,0,NO ERROR,-6002.343750,6012.890625,-6000.000000,-6000.000000,Speed,Speed,-0.220000,1.510000,4.210000,1.000000,102.000000,1,1,0.000000,-0.000000,1,1.276901,0.013306,0.000000,28.406326,7.624313,0.000000,0.104000,0.026000,-0.062000,FlatInitial,Hold,0,0.059375
07:14:21.831 PM 02/18/2016,Teleop Enabled,0,FALSE,0,NO ERROR,-6001.757812,6010.546875,-6000.000000,-6000.000000,Speed,Speed,-0.220000,1.560000,4.220000,1.000000,101.000000,1,1,0.000000,-0.000000,1,1.331192,0.016068,0.000000,28.445724,7.624847,0.000000,0.104000,0.012000,-0.085000,FlatInitial,Hold,0,0.059375
07:14:21.935 PM 02/18/2016,Teleop Enabled,0,FALSE,0,NO ERROR,-6000.000000,6003.515625,-6000.000000,-6000.000000,Speed,Speed,-0.230000,1.620000,4.190000,1.000000,108.000000,1,1,0.000000,-0.000000,1,1.399658,0.000000,0.000000,28.500702,7.625244,0.000000,0.104000,0.012000,-0.085000,FlatInitial,Hold,0,0.059375
07:14:22.035 PM 02/18/2016,Teleop Enabled,0,FALSE,0,NO ERROR,-5995.898438,6002.929688,-6000.000000,-6000.000000,Speed,Speed,-0.230000,1.660000,4.190000,1.000000,102.000000,1,0,-0.000000,0.000000,1,1.500488,0.012680,0.000000,28.588165,7.625778,0.000000,0.068000,0.021000,-0.124000,FlatInitial,Hold,0,0.059375
07:14:22.137 PM 02/18/2016,Teleop Enabled,0,FALSE,0,NO ERROR,-5994.140625,6001.757812,-6000.000000,-6000.000000,Speed,Speed,-0.230000,1.670000,4.170000,1.000000,103.000000,1,0,-0.000000,0.000000,1,1.563232,0.000000,0.000000,28.649734,7.626282,0.000000,0.086000,0.020000,-0.133000,FlatInitial,Hold,0,0.059375
07:14:22.236 PM 02/18/2016,Teleop Enabled,0,FALSE,0,NO ERROR,-5997.656250,6000.585938,-6000.000000,-6000.000000,Speed,Speed,-0.240000,1.720000,4.210000,1.000000,103.000000,1,0,-0.000000,0.000000,1,1.661118,0.000000,0.000000,28.747162,7.626892,0.000000,0.061000,-0.007000,-0.104000,FlatInitial,Hold,0,0.059375
07:14:22.336 PM 02/18/2016,Teleop Enabled,0,FALSE,0,NO ERROR,-6002.929688,6000.585938,-6000.000000,-6000.000000,Speed,Speed,-0.250000,1.750000,4.260000,1.000000,100.000000,1,0,-0.000000,0.000000,1,1.723969,0.011108,0.000000,28.815140,7.627106,0.000000,0.095000,0.023000,-0.141000,FlatInitial,Hold,0,0.059375
07:14:22.436 PM 02/18/2016,Teleop Enabled,0,FALSE,0,NO ERROR,-6006.445312,6002.929688,-6000.000000,-6000.000000,Speed,Speed,-0.250000,1.770000,4.220000,1.000000,101.000000,1,0,-0.000000,0.000000,1,1.814163,0.000000,0.000000,28.904144,7.627563,0.000000,0.082000,-0.007000,-0.119000,FlatInitial,Hold,0,0.059375
07:14:22.537 PM 02/18/2016,Teleop Enabled,0,FALSE,0,NO ERROR,-6007.031250,6001.757812,-6000.000000,-6000.000000,Speed,Speed,-0.250000,1.810000,4.180000,1.000000,101.000000,1,0,-0.000000,0.000000,1,1.901474,0.009888,0.000000,28.997482,7.627945,0.000000,0.072000,-0.038000,-0.118000,FlatInitial,Hold,0,0.059375
07:14:22.637 PM 02/18/2016,Teleop Enabled,0,FALSE,0,NO ERROR,-6008.789062,6001.757812,-6000.000000,-6000.000000,Speed,Speed,-0.240000,1.830000,4.060000,1.000000,102.000000,1,0,-0.000000,0.000000,1,1.987930,0.000000,0.000000,29.095200,7.628174,0.000000,0.078000,0.009000,-0.144000,FlatInitial,Hold,0,0.059375
07:14:22.737 PM 02/18/2016,Teleop Enabled,0,FALSE,0,NO ERROR,-6009.960938,6001.171875,-6000.000000,-6000.000000,Speed,Speed,-0.250000,1.850000,3.910000,1.000000,105.000000,1,0,-0.000000,0.000000,1,2.061508,-0.002853,0.000000,29.196854,7.628143,0.000000,0.056000,0.001000,-0.128000,FlatInitial,Hold,0,0.059375
07:14:22.838 PM 02/18/2016,Teleop Enabled,0,FALSE,0,NO ERROR,-6009.960938,6002.343750,-6000.000000,-6000.000000,Speed,Speed,-0.240000,1.830000,3.660000,1.000000,102.000000,1,0,-0.000000,0.000000,1,2.130234,0.000000,0.000000,29.322876,7.628113,0.000000,0.053000,0.008000,-0.137000,FlatInitial,Hold,0,0.059375
07:14:22.938 PM 02/18/2016,Teleop Enabled,0,FALSE,0,NO ERROR,-6008.203125,5998.828125,-6000.000000,-6000.000000,Speed,Speed,-0.240000,1.820000,3.400000,1.000000,100.000000,1,0,-0.000000,0.000000,1,0.000000,-0.013428,0.000000,29.408875,7.627823,0.000000,0.043000,0.003000,-0.141000,FlatInitial,Hold,0,0.059375
07:14:23.038 PM 02/18/2016,Teleop Enabled,0,FALSE,0,NO ERROR,-6002.343750,5997.070312,-6000.000000,-6000.000000,Speed,Speed,-0.240000,1.780000,3.160000,1.000000,100.000000,1,0,-0.000000,0.000000,1,0.021957,0.003128,0.000000,29.409683,7.627853,0.000000,0.002000,-0.017000,-0.125000,FlatInitial,Hold,0,0.059375
07:14:23.138 PM 02/18/2016,Teleop Enabled,0,FALSE,0,NO ERROR,-5998.242188,5997.656250,-6000.000000,-6000.000000,Speed,Speed,-0.240000,1.730000,2.970000,1.000000,102.000000,1,0,-0.000000,0.000000,1,0.031952,0.001846,0.000000,29.410538,7.627945,0.000000,0.014000,0.015000,-0.153000,FlatInitial,Hold,0,0.059375
07:14:23.239 PM 02/18/2016,Teleop Enabled,0,FALSE,0,NO ERROR,-5995.898438,5999.414062,-6000.000000,-6000.000000,Speed,Speed,-0.230000,1.690000,2.690000,1.000000,100.000000,1,0,-0.000000,0.000000,1,0.010300,0.002472,0.000000,29.411102,7.628204,0.000000,0.036000,0.022000,-0.153000,FlatInitial,Hold,0,0.059375
07:14:23.341 PM 02/18/2016,Teleop Enabled,0,FALSE,0,NO ERROR,-5995.898438,6000.585938,-6000.000000,-6000.000000,Speed,Speed,-0.230000,1.650000,2.540000,1.000000,102.000000,1,0,-0.000000,0.000000,1,0.035233,0.027313,0.000000,29.412384,7.629013,0.000000,0.045000,0.008000,-0.162000,FlatInitial,Hold,0,0.059375
07:14:23.442 PM 02/18/2016,Teleop Enabled,0,FALSE,0,NO ERROR,-5993.554688,6004.687500,-6000.000000,-6000.000000,Speed,Speed,-0.230000,1.620000,2.310000,1.000000,102.000000,1,0,-0.000000,0.000000,1,0.071899,0.000000,0.000000,29.416336,7.629013,0.000000,0.044000,0.018000,-0.145000,FlatInitial,Hold,0,0.059375
07:14:23.542 PM 02/18/2016,Teleop Enabled,0,FALSE,0,NO ERROR,-5988.867188,6006.445312,-6000.000000,-6000.000000,Speed,Speed,-0.230000,1.600000,2.130000,1.000000,101.000000,1,0,-0.000000,0.000000,1,0.113602,0.016068,0.000000,29.420258,7.629303,0.000000,0.049000,0.015000,-0.184000,FlatInitial,Hold,0,0.059375
07:14:23.642 PM 02/18/2016,Teleop Enabled,0,FALSE,0,NO ERROR,-5986.523438,6003.515625,-6000.000000,-6000.000000,Speed,Speed,-0.220000,1.650000,1.990000,1.000000,101.000000,1,0,-0.000000,0.000000,1,0.157379,0.003799,0.000000,29.425934,7.629333,0.000000,0.078000,0.051000,-0.184000,FlatInitial,Hold,0,0.059375
07:14:23.743 PM 02/18/2016,Teleop Enabled,0,FALSE,0,NO ERROR,-5991.796875,6002.343750,-6000.000000,-6000.000000,Speed,Speed,-0.230000,1.690000,1.950000,1.000000,102.000000,1,0,-0.000000,0.000000,1,0.229584,0.044998,0.000000,29.435852,7.630737,0.000000,0.092000,0.022000,-0.180000,FlatInitial,Hold,0,0.059375
07:14:23.844 PM 02/18/2016,Teleop Enabled,0,FALSE,0,NO ERROR,-5995.312500,6003.515625,-6000.000000,-6000.000000,Speed,Speed,-0.230000,1.710000,1.820000,1.000000,102.000000,1,0,-0.000000,0.000000,1,0.300690,0.004562,0.000000,29.449585,7.632446,0.000000,0.085000,0.074000,-0.144000,FlatInitial,Hold,0,0.059375
07:14:23.944 PM 02/18/2016,Teleop Enabled,0,FALSE,0,NO ERROR,-5991.796875,6000.585938,-6000.000000,-6000.000000,Speed,Speed,-0.230000,1.750000,1.770000,1.000000,102.000000,1,0,-0.000000,0.000000,1,0.379593,0.042084,0.000000,29.466949,7.633881,0.000000,0.091000,0.057000,-0.169000,FlatInitial,Hold,0,0.059375
07:14:24.046 PM 02/18/2016,Teleop Enabled,0,FALSE,0,NO ERROR,-5988.281250,5995.898438,-6000.000000,-6000.000000,Speed,Speed,-0.230000,1.790000,1.800000,1.000000,101.000000,1,0,-0.307087,0.307087,1,0.496384,0.099884,0.000000,29.498260,7.639252,0.000000,0.070000,0.039000,-0.185000,FlatInitial,Hold,0,0.059375
07:14:24.146 PM 02/18/2016,Teleop Enabled,0,FALSE,0,NO ERROR,-5988.867188,5994.140625,-6000.000000,-6000.000000,Speed,Speed,0.990000,1.430000,1.890000,1.000000,101.000000,1,0,-0.330709,0.330709,1,0.482727,0.155640,0.000000,29.513077,7.643066,0.000000,0.038000,0.152000,-0.126000,FlatInitial,Hold,0,0.059375
07:14:24.246 PM 02/18/2016,Teleop Enabled,0,FALSE,0,NO ERROR,-5974.804688,5965.429688,-6000.000000,-6000.000000,Speed,Speed,4.720000,1.030000,2.470000,1.000000,101.000000,1,0,-0.338583,0.338583,1,0.508392,0.217438,0.000000,29.542130,7.656235,0.000000,0.102000,0.130000,-0.015000,FlatInitial,Hold,0,0.059375
07:14:24.346 PM 02/18/2016,Teleop Enabled,0,FALSE,0,NO ERROR,-5948.437500,5936.718750,-6000.000000,-6000.000000,Speed,Speed,10.510000,0.890000,3.550000,1.000000,103.000000,1,0,-0.000000,0.000000,1,0.550949,0.348358,0.000000,29.568756,7.670944,0.000000,0.068000,0.157000,-0.109000,FlatInitial,Hold,0,0.059375
07:14:24.448 PM 02/18/2016,Teleop Enabled,0,FALSE,0,NO ERROR,-5966.601562,5954.296875,-6000.000000,-6000.000000,Speed,Speed,15.990000,0.600000,3.230000,1.000000,101.000000,1,0,-0.000000,0.000000,1,0.522110,0.353180,0.000000,29.595306,7.688629,0.000000,0.049000,0.049000,0.017000,FlatInitial,Hold,0,0.059375
07:14:24.548 PM 02/18/2016,Teleop Enabled,0,FALSE,0,NO ERROR,-6002.929688,6001.171875,-6000.000000,-6000.000000,Speed,Speed,20.160000,0.900000,3.660000,1.000000,100.000000,1,0,-0.000000,0.000000,1,0.646790,0.213577,0.000000,29.631271,7.708542,0.000000,-0.036000,-0.203000,0.006000,FlatInitial,Hold,0,0.059375
07:14:24.648 PM 02/18/2016,Teleop Enabled,0,FALSE,0,NO ERROR,-6026.367188,6029.296875,-6000.000000,-6000.000000,Speed,Speed,20.830000,1.090000,2.930000,1.000000,103.000000,1,0,-0.000000,0.000000,1,0.666718,0.239960,0.000000,29.663254,7.719894,0.000000,0.184000,-0.120000,0.052000,FlatInitial,Hold,0,0.059375
07:14:24.752 PM 02/18/2016,Teleop Enabled,0,FALSE,0,NO ERROR,-6040.429688,6038.085938,-6000.000000,-6000.000000,Speed,Speed,20.450000,1.290000,2.940000,1.000000,102.000000,1,0,-0.000000,0.000000,1,0.795319,0.199371,0.000000,29.693344,7.728165,0.000000,0.134000,-0.011000,-0.090000,FlatInitial,Hold,0,0.059375
07:14:24.852 PM 02/18/2016,Teleop Enabled,0,FALSE,0,NO ERROR,-6033.984375,6037.500000,-6000.000000,-6000.000000,Speed,Speed,20.350000,1.270000,2.950000,1.000000,100.000000,1,0,-0.000000,0.000000,1,0.880783,0.148117,0.000000,29.735504,7.737015,0.000000,0.123000,-0.098000,-0.002000,FlatInitial,Hold,0,0.059375
07:14:24.954 PM 02/18/2016,Teleop Enabled,0,FALSE,0,NO ERROR,-6021.093750,6029.296875,-6000.000000,-6000.000000,Speed,Speed,20.440000,1.310000,2.570000,1.000000,107.000000,1,0,-0.000000,0.000000,1,0.970581,0.086426,0.000000,29.792130,7.743347,0.000000,0.092000,-0.077000,-0.112000,FlatInitial,Hold,0,0.059375
07:14:25.055 PM 02/18/2016,Teleop Enabled,0,FALSE,0,NO ERROR,-6012.890625,6022.851562,-6000.000000,-6000.000000,Speed,Speed,20.400000,1.410000,2.360000,1.000000,102.000000,1,0,-0.000000,0.000000,1,1.027985,0.036942,0.000000,29.842529,7.745895,0.000000,0.043000,-0.011000,-0.192000,FlatInitial,Hold,0,0.059375
07:14:25.157 PM 02/18/2016,Teleop Enabled,0,FALSE,0,NO ERROR,-6012.304688,6015.820312,-6000.000000,-6000.000000,Speed,Speed,20.400000,1.380000,2.120000,1.000000,101.000000,1,0,-0.000000,0.000000,1,1.063004,0.031036,0.000000,29.884430,7.747284,0.000000,0.040000,-0.049000,-0.086000,FlatInitial,Hold,0,0.059375
07:14:25.257 PM 02/18/2016,Teleop Enabled,0,FALSE,0,NO ERROR,-6005.273438,6012.304688,-6000.000000,-6000.000000,Speed,Speed,20.410000,1.310000,1.780000,1.000000,102.000000,1,0,-0.000000,0.000000,1,0.021729,0.009720,0.000000,29.906570,7.748520,0.000000,-0.002000,-0.016000,-0.153000,FlatInitial,Hold,0,0.059375
07:14:25.361 PM 02/18/2016,Teleop Enabled,0,FALSE,0,NO ERROR,-6000.585938,6008.789062,-6000.000000,-6000.000000,Speed,Speed,20.400000,1.300000,1.520000,1.000000,101.000000,1,0,-0.000000,0.000000,1,0.031738,0.000000,0.000000,29.907135,7.748581,0.000000,0.005000,0.007000,-0.195000,FlatInitial,Hold,0,0.059375
07:14:25.463 PM 02/18/2016,Teleop Enabled,0,FALSE,0,NO ERROR,-6000.000000,6007.031250,-6000.000000,-6000.000000,Speed,Speed,20.410000,1.260000,1.370000,1.000000,102.000000,1,0,-0.000000,0.000000,1,0.031158,0.019104,0.000000,29.908218,7.749252,0.000000,0.021000,-0.032000,-0.134000,FlatInitial,Hold,0,0.059375
07:14:25.564 PM 02/18/2016,Teleop Enabled,0,FALSE,0,NO ERROR,-6001.757812,6005.273438,-6000.000000,-6000.000000,Speed,Speed,20.410000,1.230000,1.150000,1.000000,100.000000,1,1,0.000000,-0.000000,1,0.046631,0.029663,0.000000,29.910126,7.750168,0.000000,0.021000,-0.032000,-0.134000,FlatInitial,Hold,0,0.059375
07:14:25.664 PM 02/18/2016,Teleop Enabled,0,FALSE,0,NO ERROR,-6004.101562,6004.101562,-6000.000000,-6000.000000,Speed,Speed,20.400000,1.190000,0.950000,1.000000,100.000000,1,0,-0.000000,0.000000,1,0.046631,0.029663,0.000000,29.910126,7.750168,0.000000,0.035000,0.041000,-0.168000,FlatInitial,Hold,0,0.059375
07:14:25.764 PM 02/18/2016,Teleop Enabled,0,FALSE,0,NO ERROR,-5999.414062,6002.343750,-6000.000000,-6000.000000,Speed,Speed,20.410000,1.180000,0.820000,1.000000,103.000000,1,0,-0.000000,0.000000,1,0.000000,0.089615,0.000000,29.911819,7.756989,0.000000,-0.004000,0.036000,-0.170000,FlatInitial,Hold,0,0.059375
07:14:25.864 PM 02/18/2016,Teleop Enabled,0,FALSE,0,NO ERROR,-5995.898438,6001.757812,-6000.000000,-6000.000000,Speed,Speed,20.410000,1.120000,0.640000,1.000000,103.000000,1,0,-0.000000,0.000000,1,0.005249,0.126526,0.000000,29.911911,7.761444,0.000000,-0.002000,0.010000,-0.179000,FlatInitial,Hold,0,0.059375
07:14:25.965 PM 02/18/2016,Teleop Enabled,0,FALSE,0,NO ERROR,-5995.898438,6001.171875,-6000.000000,-6000.000000,Speed,Speed,20.400000,1.080000,0.530000,1.000000,101.000000,1,0,-0.000000,0.000000,1,0.000000,0.155182,0.000000,29.912216,7.768539,0.000000,-0.002000,0.036000,-0.178000,FlatInitial,Hold,0,0.059375
07:14:26.066 PM 02/18/2016,Teleop Enabled,0,FALSE,0,NO ERROR,-5993.554688,5998.242188,-6000.000000,-6000.000000,Speed,Speed,20.410000,1.060000,0.360000,1.000000,101.000000,1,0,-0.000000,0.000000,1,0.018799,0.173157,0.000000,29.912582,7.776810,0.000000,0.045000,0.054000,-0.214000,FlatInitial,Hold,0,0.059375
07:14:26.166 PM 02/18/2016,Teleop Enabled,0,FALSE,0,NO ERROR,-5992.382812,5995.312500,-6000.000000,-6000.000000,Speed,Speed,20.410000,1.040000,0.270000,1.000000,101.000000,1,0,-0.000000,0.000000,1,0.066711,0.205551,0.000000,29.915863,7.790497,0.000000,0.020000,0.020000,-0.194000,FlatInitial,Hold,0,0.059375
07:14:26.266 PM 02/18/2016,Teleop Enabled,0,FALSE,0,NO ERROR,-5996.484375,5994.726562,-6000.000000,-6000.000000,Speed,Speed,20.400000,1.020000,0.190000,1.000000,102.000000,1,0,-0.000000,0.000000,1,0.086517,0.225021,0.000000,29.918259,7.796982,0.000000,0.050000,0.054000,-0.216000,FlatInitial,Hold,0,0.059375
07:14:26.366 PM 02/18/2016,Teleop Enabled,0,FALSE,0,NO ERROR,-6001.171875,5997.070312,-6000.000000,-6000.000000,Speed,Speed,20.400000,1.020000,0.190000,1.000000,101.000000,1,0,-0.000000,0.000000,1,0.086517,0.225021,0.000000,29.918259,7.796982,0.000000,0.050000,0.054000,-0.216000,FlatInitial,Hold,0,0.059375
07:14:26.466 PM 02/18/2016,Teleop Enabled,0,FALSE,0,NO ERROR,-6004.687500,5997.070312,-6000.000000,-6000.000000,Speed,Speed,20.410000,1.010000,0.000000,1.000000,103.000000,1,0,-0.000000,0.000000,1,0.018814,0.320312,0.000000,29.927689,7.829758,0.000000,0.016000,0.055000,-0.188000,FlatInitial,Hold,0,0.059375
07:14:26.566 PM 02/18/2016,Teleop Enabled,0,FALSE,0,NO ERROR,-6008.789062,5995.312500,-6000.000000,-6000.000000,Speed,Speed,20.410000,0.980000,-0.070000,1.000000,101.000000,1,0,-0.000000,0.000000,1,0.036606,0.366104,0.000000,29.929184,7.847137,0.000000,0.003000,0.030000,-0.189000,FlatInitial,Hold,0,0.059375
07:14:26.666 PM 02/18/2016,Teleop Enabled,0,FALSE,0,NO ERROR,-6007.031250,5996.484375,-6000.000000,-6000.000000,Speed,Speed,20.410000,0.950000,-0.180000,1.000000,107.000000,1,0,-0.000000,0.000000,1,0.036606,0.366104,0.000000,29.929184,7.847137,0.000000,-0.002000,0.034000,-0.196000,FlatInitial,Hold,0,0.059375
07:14:26.766 PM 02/18/2016,Teleop Enabled,0,FALSE,0,NO ERROR,-6007.031250,5998.242188,-6000.000000,-6000.000000,Speed,Speed,20.400000,0.900000,-0.260000,1.000000,102.000000,1,0,-0.000000,0.000000,1,0.000000,0.442581,0.000000,29.929428,7.887680,0.000000,0.000000,0.031000,-0.170000,FlatInitial,Hold,0,0.059375
07:14:26.868 PM 02/18/2016,Teleop Enabled,0,FALSE,0,NO ERROR,-6005.859375,6001.171875,-6000.000000,-6000.000000,Speed,Speed,20.400000,0.840000,-0.330000,1.000000,101.000000,1,0,-0.000000,0.000000,1,-0.009521,0.486679,0.000000,29.929230,7.911057,0.000000,-0.018000,0.044000,-0.174000,FlatInitial,Hold,0,0.059375
07:14:26.968 PM 02/18/2016,Teleop Enabled,0,FALSE,0,NO ERROR,-6002.343750,6004.101562,-6000.000000,-6000.000000,Speed,Speed,20.400000,0.790000,-0.350000,1.000000,101.000000,1,0,-0.000000,0.000000,1,0.000000,0.551529,0.000000,29.929230,7.937134,0.000000,-0.018000,0.044000,-0.174000,FlatInitial,Hold,0,0.059375
07:14:27.071 PM 02/18/2016,Teleop Enabled,0,FALSE,0,NO ERROR,-5994.726562,6004.687500,-6000.000000,-6000.000000,Speed,Speed,20.400000,0.760000,-0.430000,1.000000,101.000000,1,1,0.000000,-0.000000,1,-0.033936,0.606064,0.000000,29.928268,7.966324,0.000000,-0.042000,0.064000,-0.198000,FlatInitial,Hold,0,0.059375
07:14:27.172 PM 02/18/2016,Teleop Enabled,0,FALSE,0,NO ERROR,-5985.937500,6005.273438,-6000.000000,-6000.000000,Speed,Speed,20.400000,0.760000,-0.430000,1.000000,101.000000,1,1,0.000000,-0.000000,1,-0.033936,0.606064,0.000000,29.928268,7.966324,0.000000,-0.042000,0.064000,-0.198000,FlatInitial,Hold,0,0.000000
07:14:27.272 PM 02/18/2016,Teleop Enabled,0,FALSE,0,NO ERROR,-5988.281250,6002.929688,-6000.000000,-6000.000000,Speed,Speed,20.400000,0.670000,-0.590000,1.000000,101.000000,1,1,0.000000,-0.000000,1,0.000809,0.722534,0.000000,29.926331,8.033173,0.000000,0.007000,0.045000,-0.186000,FlatInitial,Hold,0,0.000000
07:14:27.374 PM 02/18/2016,Teleop Enabled,0,FALSE,0,NO ERROR,-5994.726562,6002.929688,-6000.000000,-6000.000000,Speed,Speed,20.400000,0.670000,-0.590000,1.000000,102.000000,1,1,0.000000,-0.000000,1,0.000809,0.722534,0.000000,29.926331,8.033173,0.000000,0.007000,0.045000,-0.186000,FlatInitial,Hold,0,-0.506250
07:14:27.474 PM 02/18/2016,Teleop Enabled,0,FALSE,0,NO ERROR,-5996.484375,6004.101562,-6000.000000,-6000.000000,Speed,Speed,20.400000,0.670000,-0.680000,1.000000,101.000000,1,1,0.000000,-0.000000,1,0.000000,0.783112,0.000000,29.926331,8.078781,0.000000,0.014000,0.058000,-0.204000,FlatInitial,Hold,0,0.000000
