Time,RobotMode,AutoToRun,ErrorStatus, ErrorCode,ErrorSource,ActualRPM1,ActualRPM2,DesiredRPM1,DesiredRPM2,ControlMode1,ControlMode2,NavXYaw,NavXRoll,NavXPitch,ShooterState,LoopTime,IsLevel,IsAutoTargeting,LeftMotorOutput,RightMotorOutput,IsHaloDrive,NavXVelocityX,NavXVelocityY,NavXVelocityZ,NavXDisplacementX,NavXDisplacementY,NavXDisplacementZ,NavXAccelerationX,NavXAccelerationY,NavXAccelerationZ,AngeMotorState,Photoeye,VisionXOutput,gyro180,RollerArmDesired,RollerArmActual,ShooterArmDesired,ShooterArmActual, DefenseDetectorController,DefenseDetectorRaw,,IsStalled
12:28:17.539 PM 03/04/2016,Autonomous Enabled,8,TRUE,-44003,<LOCATION>WPI_CameraIssue HTTP Request with Authentication.vi<CALLSTACK>WPI_CameraIssue HTTP Request with Authentication.vi< <WPI_CameraIssue Get.vi< <WPI_CameraSet Image Appearance Property.vi< <WPI_CameraSet Image Size.vi< <Vision Processing.vi< <Robot Main.vi,0.000000,-0.878906,4000.000000,4000.000000,Speed,Speed,-19.650000,0.310000,1.280000,1.000000,102.000000,1,0,0.000000,0.000000,0,0.000000,0.000000,0.000000,0.044922,0.005280,0.000000,0.000000,-0.002000,0.000000,FlatInitial,ResetBack,0,0.000000,-19.650000,-0.200000,3741.000000,-0.300000,-213.000000,0,0,1
12:28:17.641 PM 03/04/2016,Autonomous Enabled,8,FALSE,0,NO ERROR,605.712891,-767.871094,4000.000000,4000.000000,Speed,Speed,-19.650000,0.310000,1.280000,1.000000,104.000000,1,0,0.000000,0.000000,0,0.000000,-0.004471,0.000000,0.044922,0.005203,0.000000,0.019000,0.020000,0.013000,FlatInitial,ResetBack,0,0.000000,-19.650000,-0.200000,3102.000000,-0.300000,895.000000,0,0,0
12:28:17.742 PM 03/04/2016,Autonomous Enabled,8,FALSE,0,NO ERROR,2641.113281,-2347.119141,-6000.000000,-6000.000000,Speed,Speed,-19.650000,0.300000,1.260000,1.000000,100.000000,1,0,0.000000,0.000000,0,0.020462,0.000000,0.000000,0.045547,0.005264,0.000000,-0.045000,0.004000,0.031000,FlatInitial,ResetBack,0,0.000000,-19.650000,-0.200000,-3710.000000,-0.300000,5772.000000,0,0,0
12:28:17.843 PM 03/04/2016,Autonomous Enabled,8,FALSE,0,NO ERROR,3534.521484,-3309.960938,-6000.000000,-6000.000000,Speed,Speed,-19.640000,0.360000,1.260000,1.000000,102.000000,1,0,0.000000,0.000000,0,0.002731,-0.027924,0.000000,0.046005,0.004593,0.000000,-0.031000,0.041000,0.079000,FlatInitial,ResetBack,0,0.000000,-19.640000,0.000000,-7646.000000,-0.300000,12922.000000,0,0,0
12:28:17.944 PM 03/04/2016,Autonomous Enabled,8,FALSE,0,NO ERROR,1036.083984,-821.337891,-6000.000000,-6000.000000,Speed,Speed,-19.640000,0.380000,1.250000,1.000000,103.000000,1,0,0.000000,0.000000,0,-0.003159,-0.022217,0.000000,0.045181,0.004211,0.000000,0.053000,-0.057000,0.068000,FlatInitial,ResetBack,0,0.000000,-19.640000,0.000000,72.000000,-0.300000,18673.000000,0,0,0
12:28:18.043 PM 03/04/2016,Autonomous Enabled,8,FALSE,0,NO ERROR,-1600.341797,1778.613281,-6000.000000,-6000.000000,Speed,Speed,-19.640000,0.420000,1.250000,1.000000,103.000000,1,0,0.000000,0.000000,0,-0.001785,-0.016876,0.000000,0.044678,0.003326,0.000000,-0.001000,-0.009000,0.035000,FlatInitial,ResetBack,0,0.000000,-19.640000,0.000000,76.000000,-0.300000,18673.000000,0,0,0
12:28:18.145 PM 03/04/2016,Autonomous Enabled,8,FALSE,0,NO ERROR,-3518.115234,3783.691406,-6000.000000,-6000.000000,Speed,Speed,-19.660000,0.480000,1.250000,1.000000,100.000000,1,0,0.000000,0.000000,0,-0.026581,-0.014160,0.000000,0.044373,0.002441,0.000000,-0.026000,0.089000,0.016000,FlatInitial,ResetBack,0,0.000000,-19.660000,0.000000,76.000000,-0.300000,23956.000000,0,0,0
12:28:18.243 PM 03/04/2016,Autonomous Enabled,8,FALSE,0,NO ERROR,-4972.265625,5286.914062,-6000.000000,-6000.000000,Speed,Speed,-19.660000,0.480000,1.260000,1.000000,103.000000,1,0,0.000000,0.000000,0,0.010941,0.019257,0.000000,0.043823,0.002518,0.000000,0.091000,0.020000,0.019000,FlatInitial,ResetBack,0,0.000000,-19.660000,0.000000,78.000000,-0.300000,27514.000000,0,0,0
12:28:18.344 PM 03/04/2016,Autonomous Enabled,8,FALSE,0,NO ERROR,-5634.960938,5981.835938,-6000.000000,-6000.000000,Speed,Speed,-19.670000,0.520000,1.280000,1.000000,103.000000,1,0,0.000000,0.000000,0,0.054596,-0.003021,0.000000,0.046234,0.003021,0.000000,-0.060000,0.040000,0.028000,FlatInitial,ResetBack,0,0.000000,-19.670000,0.000000,78.000000,-0.300000,31100.000000,0,0,0
12:28:18.445 PM 03/04/2016,Autonomous Enabled,8,FALSE,0,NO ERROR,-5841.796875,6100.781250,-6000.000000,-6000.000000,Speed,Speed,-19.660000,0.370000,1.260000,1.000000,102.000000,1,0,0.000000,0.000000,0,0.028381,0.000000,0.000000,0.048325,0.003143,0.000000,-0.034000,0.010000,0.087000,FlatInitial,ResetBack,0,0.000000,-19.660000,0.000000,79.000000,-0.300000,33896.000000,0,0,0
12:28:18.545 PM 03/04/2016,Autonomous Enabled,8,FALSE,0,NO ERROR,-5836.523438,6075.585938,-6000.000000,-6000.000000,Speed,Speed,-19.660000,0.450000,1.280000,1.000000,102.000000,1,0,0.000000,0.000000,0,0.066467,-0.061386,0.000000,0.050568,0.001938,0.000000,0.069000,-0.136000,-0.048000,FlatInitial,ResetBack,0,0.000000,-19.660000,0.000000,79.000000,-0.300000,33896.000000,0,0,0
12:28:18.645 PM 03/04/2016,Autonomous Enabled,8,FALSE,0,NO ERROR,-5852.343750,6016.406250,-6000.000000,-6000.000000,Speed,Speed,-19.660000,0.430000,1.320000,1.000000,101.000000,1,0,0.000000,0.000000,0,0.052414,-0.167068,0.000000,0.054230,-0.004669,0.000000,-0.062000,-0.052000,0.146000,FlatInitial,ResetBack,0,0.000000,-19.660000,0.000000,80.000000,-0.300000,35106.000000,0,0,0
12:28:18.746 PM 03/04/2016,Autonomous Enabled,8,FALSE,0,NO ERROR,-5900.390625,6016.406250,-6000.000000,-6000.000000,Speed,Speed,-19.670000,0.490000,1.300000,1.000000,102.000000,1,0,0.000000,0.000000,0,0.054916,-0.210770,0.000000,0.056213,-0.014252,0.000000,0.039000,-0.046000,-0.033000,FlatInitial,Reset,0,0.000000,-19.670000,0.000000,80.000000,0.000000,36246.000000,0,0,0
12:28:18.847 PM 03/04/2016,Autonomous Enabled,8,FALSE,0,NO ERROR,-5950.781250,5964.843750,-6000.000000,-6000.000000,Speed,Speed,-19.670000,0.500000,1.250000,1.000000,101.000000,1,0,0.000000,0.000000,0,0.092041,-0.266724,0.000000,0.060959,-0.028854,0.000000,0.019000,-0.047000,0.076000,FlatInitial,Hold,0,0.000000,-19.670000,0.000000,81.000000,0.000000,36246.000000,0,0,0
12:28:18.947 PM 03/04/2016,Autonomous Enabled,8,FALSE,0,NO ERROR,-5985.351562,5964.843750,-6000.000000,-6000.000000,Speed,Speed,-19.670000,0.550000,1.330000,1.000000,101.000000,1,0,0.000000,0.000000,0,0.002777,-0.316757,0.000000,0.061935,-0.043686,0.000000,0.032000,-0.058000,0.102000,FlatInitial,Hold,0,0.000000,-19.670000,0.000000,81.000000,0.000000,5.000000,0,0,0
12:28:19.048 PM 03/04/2016,Autonomous Enabled,8,FALSE,0,NO ERROR,-6007.031250,5969.531250,-6000.000000,-6000.000000,Speed,Speed,-19.670000,0.630000,1.450000,1.000000,101.000000,1,0,0.000000,0.000000,0,0.032623,-0.363937,0.000000,0.062897,-0.060944,0.000000,0.045000,-0.049000,0.027000,FlatInitial,Hold,0,0.000000,-19.670000,0.000000,81.000000,0.000000,-196.000000,0,0,0
12:28:19.147 PM 03/04/2016,Autonomous Enabled,8,FALSE,0,NO ERROR,-6007.031250,5980.078125,-6000.000000,-6000.000000,Speed,Speed,-19.680000,0.670000,1.520000,1.000000,104.000000,1,0,0.000000,0.000000,0,0.072586,-0.403824,0.000000,0.065689,-0.080399,0.000000,0.041000,-0.014000,-0.008000,FlatInitial,Hold,0,0.000000,-19.680000,0.000000,82.000000,0.000000,-196.000000,0,0,0
12:28:19.248 PM 03/04/2016,Autonomous Enabled,8,FALSE,0,NO ERROR,-6013.476562,5988.867188,-6000.000000,-6000.000000,Speed,Speed,-19.680000,0.670000,1.520000,1.000000,101.000000,1,0,0.000000,0.000000,0,0.072586,-0.403824,0.000000,0.065689,-0.080399,0.000000,0.041000,-0.014000,-0.008000,FlatInitial,Hold,0,0.000000,-19.680000,0.000000,82.000000,0.000000,-196.000000,0,0,0
12:28:19.348 PM 03/04/2016,Autonomous Enabled,8,FALSE,0,NO ERROR,-6014.648438,5996.484375,-6000.000000,-6000.000000,Speed,Speed,0.000000,0.670000,1.690000,1.000000,101.000000,1,0,0.000000,0.000000,0,0.000000,-0.470749,0.000000,0.068771,-0.142670,0.000000,0.012000,-0.008000,0.056000,FlatInitial,Hold,0,0.000000,0.000000,0.000000,82.000000,0.000000,-195.000000,0,0,0
12:28:19.449 PM 03/04/2016,Autonomous Enabled,8,FALSE,0,NO ERROR,-6015.234375,6001.757812,-6000.000000,-6000.000000,Speed,Speed,-0.010000,0.790000,1.700000,1.000000,104.000000,1,0,0.000000,0.000000,0,0.018860,-0.500412,0.000000,0.069199,-0.162231,0.000000,0.014000,-0.049000,0.062000,FlatInitial,Hold,0,0.000000,-0.010000,0.000000,82.000000,0.000000,-195.000000,0,0,0
12:28:19.549 PM 03/04/2016,Autonomous Enabled,8,FALSE,0,NO ERROR,-6015.234375,6008.789062,-6000.000000,-6000.000000,Speed,Speed,-0.010000,0.790000,1.700000,1.000000,103.000000,1,0,0.000000,0.000000,0,0.058990,-0.559036,0.000000,0.071304,-0.188889,0.000000,0.029000,-0.066000,-0.018000,FlatInitial,Hold,0,0.000000,-0.010000,0.000000,83.000000,0.000000,-195.000000,0,0,0
12:28:19.650 PM 03/04/2016,Autonomous Enabled,8,FALSE,0,NO ERROR,-6011.718750,6013.476562,-6000.000000,-6000.000000,Speed,Speed,-0.020000,1.040000,1.450000,1.000000,102.000000,1,0,0.000000,0.000000,0,0.091324,-0.644180,0.000000,0.075272,-0.219376,0.000000,0.027000,-0.060000,-0.046000,FlatInitial,Hold,0,0.000000,-0.020000,0.000000,83.000000,0.000000,-195.000000,0,0,0
12:28:19.750 PM 03/04/2016,Autonomous Enabled,8,FALSE,0,NO ERROR,-6007.031250,6014.648438,-6000.000000,-6000.000000,Speed,Speed,-0.020000,1.040000,1.450000,1.000000,102.000000,1,0,0.000000,0.000000,0,0.115616,-0.722443,0.000000,0.080505,-0.253937,0.000000,0.033000,-0.096000,0.051000,FlatInitial,Hold,0,0.000000,-0.020000,0.000000,83.000000,0.000000,-195.000000,0,0,0
12:28:19.849 PM 03/04/2016,Autonomous Enabled,8,FALSE,0,NO ERROR,-6008.203125,6014.062500,-6000.000000,-6000.000000,Speed,Speed,-0.030000,1.140000,1.320000,1.000000,106.000000,1,0,0.000000,0.000000,0,0.156921,-0.810898,0.000000,0.088806,-0.300354,0.000000,0.033000,-0.096000,0.051000,FlatInitial,Hold,0,0.000000,-0.030000,0.000000,83.000000,0.000000,-195.000000,0,0,0
12:28:19.950 PM 03/04/2016,Autonomous Enabled,8,FALSE,0,NO ERROR,-6011.132812,6008.789062,-6000.000000,-6000.000000,Speed,Speed,-0.030000,1.290000,1.200000,1.000000,103.000000,1,0,0.000000,0.000000,0,0.180939,-0.881226,0.000000,0.097443,-0.343048,0.000000,0.022000,-0.068000,0.036000,FlatInitial,Hold,0,0.000000,-0.030000,0.000000,83.000000,0.000000,-195.000000,0,0,0
12:28:20.050 PM 03/04/2016,Autonomous Enabled,8,FALSE,0,NO ERROR,-6007.617188,6011.718750,-6000.000000,-6000.000000,Speed,Speed,-0.040000,1.410000,1.100000,1.000000,101.000000,1,0,0.000000,0.000000,0,0.008240,-0.945114,0.000000,0.099472,-0.389053,0.000000,0.019000,-0.046000,0.036000,FlatInitial,Hold,0,0.000000,-0.040000,0.000000,84.000000,0.000000,-195.000000,0,0,0
12:28:20.150 PM 03/04/2016,Autonomous Enabled,8,FALSE,0,NO ERROR,-6001.171875,6013.476562,-6000.000000,-6000.000000,Speed,Speed,-0.040000,1.450000,0.970000,1.000000,101.000000,1,0,0.000000,0.000000,0,0.008469,-1.002853,0.000000,0.099854,-0.438110,0.000000,0.026000,-0.077000,0.036000,FlatInitial,Hold,0,0.000000,-0.040000,0.000000,84.000000,0.000000,-195.000000,0,0,0
12:28:20.250 PM 03/04/2016,Autonomous Enabled,8,FALSE,0,NO ERROR,-6001.171875,6012.890625,-6000.000000,-6000.000000,Speed,Speed,-0.040000,1.410000,0.820000,1.000000,102.000000,1,0,0.000000,0.000000,0,0.008469,-1.002853,0.000000,0.099854,-0.438110,0.000000,0.015000,-0.067000,0.025000,FlatInitial,Hold,0,0.000000,-0.040000,0.000000,84.000000,0.000000,-195.000000,0,0,0
12:28:20.350 PM 03/04/2016,Autonomous Enabled,8,FALSE,0,NO ERROR,-6004.687500,6011.132812,-6000.000000,-6000.000000,Speed,Speed,-0.040000,1.360000,0.680000,1.000000,101.000000,1,0,0.000000,0.000000,0,0.000000,-1.041229,0.000000,0.100327,-0.489487,0.000000,-0.003000,-0.018000,0.000000,FlatInitial,Hold,0,0.000000,-0.040000,0.000000,84.000000,0.000000,-195.000000,0,0,0
12:28:20.450 PM 03/04/2016,Autonomous Enabled,8,FALSE,0,NO ERROR,-6005.859375,6012.304688,-6000.000000,-6000.000000,Speed,Speed,-0.040000,1.360000,0.580000,1.000000,101.000000,1,0,0.000000,0.000000,0,0.008835,-1.071747,0.000000,0.100464,-0.542526,0.000000,0.027000,-0.020000,-0.023000,FlatInitial,Hold,0,0.000000,-0.040000,0.000000,84.000000,0.000000,-195.000000,0,0,0
12:28:20.550 PM 03/04/2016,Autonomous Enabled,8,FALSE,0,NO ERROR,-6006.445312,6005.859375,-6000.000000,-6000.000000,Speed,Speed,-0.040000,1.370000,0.470000,1.000000,102.000000,1,0,0.000000,0.000000,0,0.051636,-1.084335,0.000000,0.102066,-0.596542,0.000000,0.051000,-0.017000,-0.052000,FlatInitial,Hold,0,0.000000,-0.040000,0.000000,84.000000,0.000000,-195.000000,0,0,0
12:28:20.651 PM 03/04/2016,Autonomous Enabled,8,FALSE,0,NO ERROR,-6011.718750,6004.101562,-6000.000000,-6000.000000,Speed,Speed,-0.040000,1.280000,0.410000,1.000000,101.000000,1,0,0.000000,0.000000,0,0.000000,0.000000,0.000000,0.104889,-0.596542,0.000000,-0.010000,0.018000,-0.015000,FlatInitial,Hold,0,0.000000,-0.040000,0.000000,84.000000,0.000000,-195.000000,0,0,0
12:28:20.752 PM 03/04/2016,Autonomous Enabled,8,FALSE,0,NO ERROR,-6012.304688,6005.273438,-6000.000000,-6000.000000,Speed,Speed,-0.040000,1.130000,0.400000,1.000000,101.000000,1,0,0.000000,0.000000,0,-0.015152,0.018066,0.000000,0.104599,-0.596191,0.000000,-0.044000,0.031000,0.024000,FlatInitial,Hold,0,0.000000,-0.040000,0.000000,84.000000,0.000000,-195.000000,0,0,0
12:28:20.854 PM 03/04/2016,Autonomous Enabled,8,FALSE,0,NO ERROR,-6011.718750,6009.375000,-6000.000000,-6000.000000,Speed,Speed,-0.040000,0.810000,0.450000,1.000000,101.000000,1,0,0.000000,0.000000,0,-0.055649,0.065598,0.000000,0.102570,-0.593979,0.000000,-0.037000,0.065000,0.052000,FlatInitial,Hold,0,0.000000,-0.040000,0.000000,84.000000,0.000000,-195.000000,0,0,0
12:28:20.954 PM 03/04/2016,Autonomous Enabled,8,FALSE,0,NO ERROR,-6005.859375,6011.718750,-6000.000000,-6000.000000,Speed,Speed,-0.040000,0.600000,0.540000,1.000000,101.000000,1,0,0.000000,0.000000,0,0.000000,0.135986,0.000000,0.100525,-0.588638,0.000000,0.006000,0.081000,0.001000,FlatInitial,Hold,0,0.000000,-0.040000,0.000000,84.000000,0.000000,-195.000000,0,0,0
12:28:21.054 PM 03/04/2016,Autonomous Enabled,8,FALSE,0,NO ERROR,-6005.273438,6007.031250,-6000.000000,-6000.000000,Speed,Speed,-0.040000,0.470000,0.630000,1.000000,103.000000,1,0,0.000000,0.000000,0,0.000000,0.207016,0.000000,0.100525,-0.579742,0.000000,0.001000,0.076000,0.031000,FlatInitial,Hold,0,0.000000,-0.040000,0.000000,85.000000,0.000000,-195.000000,0,0,0
12:28:21.155 PM 03/04/2016,Autonomous Enabled,8,FALSE,0,NO ERROR,-6004.687500,6005.859375,-6000.000000,-6000.000000,Speed,Speed,-0.040000,0.260000,0.730000,1.000000,105.000000,1,0,0.000000,0.000000,0,-0.004532,0.274643,0.000000,0.100464,-0.567307,0.000000,-0.001000,0.068000,0.040000,FlatInitial,Hold,0,0.000000,-0.040000,0.000000,85.000000,0.000000,-195.000000,0,0,0
12:28:21.256 PM 03/04/2016,Autonomous Enabled,8,FALSE,0,NO ERROR,-6005.273438,6002.929688,-6000.000000,-6000.000000,Speed,Speed,-0.040000,0.040000,0.860000,1.000000,101.000000,1,0,0.000000,0.000000,0,0.007645,0.370270,0.000000,0.100525,-0.547546,0.000000,0.018000,0.081000,0.024000,FlatInitial,Hold,0,0.000000,-0.040000,0.000000,85.000000,0.000000,-195.000000,0,0,0
12:28:21.356 PM 03/04/2016,Autonomous Enabled,8,FALSE,0,NO ERROR,-6007.617188,6001.757812,-6000.000000,-6000.000000,Speed,Speed,-0.040000,-0.120000,1.010000,1.000000,101.000000,1,0,0.000000,0.000000,0,0.034042,0.460190,0.000000,0.101730,-0.526321,0.000000,0.014000,0.101000,-0.002000,FlatInitial,Hold,0,0.000000,-0.040000,0.000000,85.000000,0.000000,-195.000000,0,0,0
12:28:21.457 PM 03/04/2016,Autonomous Enabled,8,FALSE,0,NO ERROR,-6009.375000,6004.101562,-6000.000000,-6000.000000,Speed,Speed,-0.040000,-0.240000,1.200000,1.000000,101.000000,1,0,0.000000,0.000000,0,0.060181,0.560135,0.000000,0.104233,-0.500259,0.000000,0.026000,0.093000,0.000000,FlatInitial,Hold,0,0.000000,-0.040000,0.000000,85.000000,0.000000,-195.000000,0,0,0
12:28:21.558 PM 03/04/2016,Autonomous Enabled,8,FALSE,0,NO ERROR,-6010.546875,6003.515625,-6000.000000,-6000.000000,Speed,Speed,-0.040000,-0.330000,1.330000,1.000000,103.000000,1,0,0.000000,0.000000,0,0.112793,0.644699,0.000000,0.108505,-0.469650,0.000000,0.087000,0.066000,-0.010000,FlatInitial,Hold,0,0.000000,-0.040000,0.000000,85.000000,0.000000,-195.000000,0,0,0
12:28:21.659 PM 03/04/2016,Autonomous Enabled,8,FALSE,0,NO ERROR,-6007.031250,6001.171875,-6000.000000,-6000.000000,Speed,Speed,-0.040000,-0.390000,1.420000,1.000000,101.000000,1,0,0.000000,0.000000,0,0.204041,0.722275,0.000000,0.116837,-0.435104,0.000000,0.084000,0.086000,-0.013000,FlatInitial,Hold,0,0.000000,-0.040000,0.000000,85.000000,0.000000,-195.000000,0,0,0
12:28:21.759 PM 03/04/2016,Autonomous Enabled,8,FALSE,0,NO ERROR,-6004.687500,6001.757812,-6000.000000,-6000.000000,Speed,Speed,-0.040000,-0.460000,1.560000,1.000000,100.000000,1,0,0.000000,0.000000,0,0.292282,0.797058,0.000000,0.129608,-0.396713,0.000000,0.105000,0.080000,0.003000,FlatInitial,Hold,0,0.000000,-0.040000,0.000000,85.000000,0.000000,-195.000000,0,0,0
12:28:21.860 PM 03/04/2016,Autonomous Enabled,8,FALSE,0,NO ERROR,-6002.343750,6006.445312,-6000.000000,-6000.000000,Speed,Speed,-0.030000,-0.480000,1.690000,1.000000,104.000000,1,0,0.000000,0.000000,0,0.397232,0.867477,0.000000,0.147202,-0.354752,0.000000,0.108000,0.077000,-0.021000,FlatInitial,Hold,0,0.000000,-0.030000,0.000000,85.000000,0.000000,-195.000000,0,0,0
12:28:21.961 PM 03/04/2016,Autonomous Enabled,8,FALSE,0,NO ERROR,-6000.585938,6008.203125,-6000.000000,-6000.000000,Speed,Speed,-0.030000,-0.450000,1.820000,1.000000,103.000000,1,0,0.000000,0.000000,0,0.525665,0.938889,0.000000,0.170837,-0.309204,0.000000,0.132000,0.063000,-0.016000,FlatInitial,Hold,0,0.000000,-0.030000,0.000000,85.000000,0.000000,-195.000000,0,0,0
12:28:22.061 PM 03/04/2016,Autonomous Enabled,8,FALSE,0,NO ERROR,-5998.242188,6009.960938,-6000.000000,-6000.000000,Speed,Speed,-0.040000,-0.370000,1.910000,1.000000,101.000000,1,0,0.000000,0.000000,0,0.678345,1.002426,0.000000,0.201645,-0.260269,0.000000,0.156000,0.067000,-0.057000,FlatInitial,Hold,0,0.000000,-0.040000,0.000000,85.000000,0.000000,-195.000000,0,0,0
12:28:22.161 PM 03/04/2016,Autonomous Enabled,8,FALSE,0,NO ERROR,-5997.070312,6011.132812,-6000.000000,-6000.000000,Speed,Speed,-0.040000,-0.300000,2.000000,1.000000,102.000000,1,0,0.000000,0.000000,0,0.828354,1.064713,0.000000,0.240234,-0.208267,0.000000,0.112000,0.062000,-0.044000,FlatInitial,Hold,0,0.000000,-0.040000,0.000000,85.000000,0.000000,-195.000000,0,0,0
12:28:22.264 PM 03/04/2016,Autonomous Enabled,8,FALSE,0,NO ERROR,-5999.414062,6004.687500,-6000.000000,-6000.000000,Speed,Speed,-0.040000,-0.310000,2.070000,1.000000,102.000000,1,0,0.000000,0.000000,0,0.948929,1.123611,0.000000,0.285324,-0.153198,0.000000,0.103000,0.062000,-0.071000,FlatInitial,Hold,0,0.000000,-0.040000,0.000000,85.000000,0.000000,-195.000000,0,0,0
12:28:22.364 PM 03/04/2016,Autonomous Enabled,8,FALSE,0,NO ERROR,-6002.929688,6000.585938,-6000.000000,-6000.000000,Speed,Speed,-0.040000,-0.250000,2.110000,1.000000,101.000000,1,0,0.000000,0.000000,0,1.058731,1.167923,0.000000,0.336075,-0.095642,0.000000,0.117000,0.045000,-0.074000,FlatInitial,Hold,0,0.000000,-0.040000,0.000000,85.000000,0.000000,-195.000000,0,0,0
12:28:22.464 PM 03/04/2016,Autonomous Enabled,8,FALSE,0,NO ERROR,-6005.273438,6000.585938,-6000.000000,-6000.000000,Speed,Speed,-0.050000,-0.110000,2.140000,1.000000,102.000000,1,0,0.000000,0.000000,0,1.187393,1.200790,0.000000,0.392685,-0.036179,0.000000,0.144000,0.020000,-0.094000,FlatInitial,Hold,0,0.000000,-0.050000,0.000000,85.000000,0.000000,-195.000000,0,0,0
12:28:22.564 PM 03/04/2016,Autonomous Enabled,8,FALSE,0,NO ERROR,-6007.617188,6000.000000,-6000.000000,-6000.000000,Speed,Speed,-0.060000,0.090000,2.160000,1.000000,102.000000,1,0,0.000000,0.000000,0,1.371719,1.232773,0.000000,0.470352,0.037033,0.000000,0.133000,0.018000,-0.103000,FlatInitial,Hold,0,0.000000,-0.060000,0.000000,85.000000,0.000000,-195.000000,0,0,0
12:28:22.664 PM 03/04/2016,Autonomous Enabled,8,FALSE,0,NO ERROR,-6007.617188,5996.484375,-6000.000000,-6000.000000,Speed,Speed,-0.070000,0.220000,2.150000,1.000000,102.000000,1,0,0.000000,0.000000,0,1.518539,0.000000,0.000000,0.543350,0.074249,0.000000,0.168000,0.019000,-0.097000,FlatInitial,Hold,0,0.000000,-0.070000,0.000000,85.000000,0.000000,-195.000000,0,0,0
12:28:22.765 PM 03/04/2016,Autonomous Enabled,8,FALSE,0,NO ERROR,-6008.789062,5995.312500,-6000.000000,-6000.000000,Speed,Speed,-0.070000,0.300000,2.140000,1.000000,101.000000,1,0,0.000000,0.000000,0,1.680527,0.000000,0.000000,0.624023,0.074402,0.000000,0.183000,0.001000,-0.096000,FlatInitial,Hold,0,0.000000,-0.070000,0.000000,85.000000,0.000000,-195.000000,0,0,0
12:28:22.865 PM 03/04/2016,Autonomous Enabled,8,FALSE,0,NO ERROR,-6009.375000,5994.726562,-6000.000000,-6000.000000,Speed,Speed,-0.080000,0.450000,2.090000,1.000000,101.000000,1,0,0.000000,0.000000,0,1.850906,0.000000,0.000000,0.713165,0.074402,0.000000,0.167000,-0.017000,-0.113000,FlatInitial,Hold,0,0.000000,-0.080000,0.000000,85.000000,0.000000,-195.000000,0,0,0
12:28:22.965 PM 03/04/2016,Autonomous Enabled,8,FALSE,0,NO ERROR,-6004.687500,5997.070312,-6000.000000,-6000.000000,Speed,Speed,-0.090000,0.650000,2.020000,1.000000,102.000000,1,0,0.000000,0.000000,0,2.038696,0.000000,0.000000,0.811234,0.074280,0.000000,0.205000,-0.023000,-0.110000,FlatInitial,Hold,0,0.000000,-0.090000,0.000000,85.000000,0.000000,-195.000000,0,0,0
12:28:23.065 PM 03/04/2016,Autonomous Enabled,8,FALSE,0,NO ERROR,-6000.585938,6001.757812,-6000.000000,-6000.000000,Speed,Speed,-0.100000,0.930000,1.960000,1.000000,101.000000,1,0,0.000000,0.000000,0,2.233276,-0.017944,0.000000,0.918976,0.073792,0.000000,0.196000,-0.016000,-0.142000,FlatInitial,Hold,0,0.000000,-0.100000,0.000000,85.000000,0.000000,-195.000000,0,0,0
12:28:23.165 PM 03/04/2016,Autonomous Enabled,8,FALSE,0,NO ERROR,-5995.312500,6008.789062,-6000.000000,-6000.000000,Speed,Speed,-0.100000,1.160000,1.870000,1.000000,104.000000,1,0,0.000000,0.000000,0,2.432083,-0.013916,0.000000,1.036636,0.073502,0.000000,0.184000,-0.014000,-0.164000,FlatInitial,Hold,0,0.000000,-0.100000,0.000000,85.000000,0.000000,-195.000000,0,0,0
12:28:23.265 PM 03/04/2016,Autonomous Enabled,8,FALSE,0,NO ERROR,-5989.453125,6009.375000,-6000.000000,-6000.000000,Speed,Speed,-0.100000,1.250000,1.810000,1.000000,103.000000,1,0,0.000000,0.000000,0,2.591476,-0.038406,0.000000,1.163269,0.072128,0.000000,0.154000,-0.019000,-0.124000,FlatInitial,Hold,0,0.000000,-0.100000,0.000000,85.000000,0.000000,-195.000000,0,0,0
12:28:23.365 PM 03/04/2016,Autonomous Enabled,8,FALSE,0,NO ERROR,-5987.695312,6005.859375,-6000.000000,-6000.000000,Speed,Speed,-0.100000,1.370000,1.760000,1.000000,100.000000,1,0,0.000000,0.000000,0,2.720688,-0.058899,0.000000,1.296753,0.069595,0.000000,0.135000,-0.008000,-0.125000,FlatInitial,Hold,0,0.000000,-0.100000,0.000000,85.000000,0.000000,-195.000000,0,0,0
12:28:23.465 PM 03/04/2016,Autonomous Enabled,8,FALSE,0,NO ERROR,-5992.968750,6004.687500,-6000.000000,-6000.000000,Speed,Speed,-0.110000,1.520000,1.680000,1.000000,102.000000,1,0,0.000000,0.000000,0,2.842651,-0.081451,0.000000,1.436523,0.066040,0.000000,0.114000,-0.040000,-0.091000,FlatInitial,Hold,0,0.000000,-0.110000,0.000000,85.000000,0.000000,-195.000000,0,0,0
12:28:23.565 PM 03/04/2016,Autonomous Enabled,8,FALSE,0,NO ERROR,-5998.828125,6002.929688,-6000.000000,-6000.000000,Speed,Speed,-0.110000,1.620000,1.580000,1.000000,103.000000,1,0,0.000000,0.000000,0,2.936035,-0.116180,0.000000,1.581497,0.060959,0.000000,0.097000,-0.033000,-0.127000,FlatInitial,Hold,0,0.000000,-0.110000,0.000000,85.000000,0.000000,-195.000000,0,0,0
12:28:23.665 PM 03/04/2016,Autonomous Enabled,8,FALSE,0,NO ERROR,-6006.445312,6001.757812,-6000.000000,-6000.000000,Speed,Speed,-0.120000,1.670000,1.510000,1.000000,103.000000,1,0,0.000000,0.000000,0,3.025070,-0.160248,0.000000,1.731018,0.053864,0.000000,0.078000,-0.040000,-0.127000,FlatInitial,Hold,0,0.000000,-0.120000,0.000000,85.000000,0.000000,-195.000000,0,0,0
12:28:23.766 PM 03/04/2016,Autonomous Enabled,8,FALSE,0,NO ERROR,-6012.890625,6001.757812,-6000.000000,-6000.000000,Speed,Speed,-0.120000,1.750000,1.430000,1.000000,101.000000,1,0,0.000000,0.000000,0,3.080673,-0.203979,0.000000,1.853409,0.046371,0.000000,0.073000,-0.053000,-0.120000,FlatInitial,Hold,0,0.000000,-0.120000,0.000000,85.000000,0.000000,-195.000000,0,0,0
12:28:23.867 PM 03/04/2016,Autonomous Enabled,8,FALSE,0,NO ERROR,-6016.406250,6002.929688,-6000.000000,-6000.000000,Speed,Speed,-0.130000,1.860000,1.340000,1.000000,102.000000,1,0,0.000000,0.000000,0,3.196335,-0.286057,0.000000,2.073410,0.028976,0.000000,0.101000,-0.055000,-0.158000,FlatInitial,Hold,0,0.000000,-0.130000,0.000000,85.000000,0.000000,-195.000000,0,0,0
12:28:23.968 PM 03/04/2016,Autonomous Enabled,8,FALSE,0,NO ERROR,-6015.820312,6005.859375,-6000.000000,-6000.000000,Speed,Speed,-0.130000,2.010000,1.220000,1.000000,102.000000,1,0,0.000000,0.000000,0,3.277618,-0.356644,0.000000,2.235855,0.012665,0.000000,0.032000,-0.089000,-0.174000,FlatInitial,Hold,0,0.000000,-0.130000,0.000000,85.000000,0.000000,-195.000000,0,0,0
12:28:24.068 PM 03/04/2016,Autonomous Enabled,8,FALSE,0,NO ERROR,-6012.304688,6007.031250,-6000.000000,-6000.000000,Speed,Speed,-0.130000,2.100000,1.110000,1.000000,101.000000,1,0,0.000000,0.000000,0,3.304916,-0.426453,0.000000,2.367691,-0.003281,0.000000,0.028000,-0.092000,-0.169000,FlatInitial,Hold,0,0.000000,-0.130000,0.000000,85.000000,0.000000,-195.000000,0,0,0
12:28:24.169 PM 03/04/2016,Autonomous Enabled,8,FALSE,0,NO ERROR,-6005.273438,6007.617188,-6000.000000,-6000.000000,Speed,Speed,-0.140000,2.100000,0.940000,1.000000,101.000000,1,0,0.000000,0.000000,0,3.295532,-0.534119,0.000000,2.566010,-0.032806,0.000000,-0.039000,-0.067000,-0.145000,FlatInitial,Hold,0,0.000000,-0.140000,0.000000,85.000000,0.000000,-195.000000,0,0,0
12:28:24.268 PM 03/04/2016,Autonomous Enabled,8,FALSE,0,NO ERROR,-6002.343750,6007.617188,-6000.000000,-6000.000000,Speed,Speed,-0.140000,2.000000,0.840000,1.000000,104.000000,1,0,0.000000,0.000000,0,3.259338,-0.614044,0.000000,2.729645,-0.061890,0.000000,-0.026000,-0.064000,-0.149000,FlatInitial,Hold,0,0.000000,-0.140000,0.000000,85.000000,0.000000,-195.000000,0,0,0
12:28:24.369 PM 03/04/2016,Autonomous Enabled,8,FALSE,0,NO ERROR,-6001.757812,6003.515625,-6000.000000,-6000.000000,Speed,Speed,-0.140000,1.970000,0.780000,1.000000,102.000000,1,0,0.000000,0.000000,0,3.215607,-0.695862,0.000000,2.891495,-0.095062,0.000000,-0.067000,-0.094000,-0.133000,FlatInitial,Hold,0,0.000000,-0.140000,0.000000,85.000000,0.000000,-195.000000,0,0,0
12:28:24.469 PM 03/04/2016,Autonomous Enabled,8,FALSE,0,NO ERROR,-6001.171875,6002.343750,-6000.000000,-6000.000000,Speed,Speed,-0.140000,1.930000,0.720000,1.000000,101.000000,1,0,0.000000,0.000000,0,3.167114,-0.765945,0.000000,3.018921,-0.124680,0.000000,-0.064000,-0.057000,-0.148000,FlatInitial,Hold,0,0.000000,-0.140000,0.000000,85.000000,0.000000,-195.000000,0,0,0
12:28:24.569 PM 03/04/2016,Autonomous Enabled,8,FALSE,0,NO ERROR,-6000.000000,6000.000000,-6000.000000,-6000.000000,Speed,Speed,-0.140000,1.780000,0.640000,1.000000,101.000000,1,0,0.000000,0.000000,0,3.076462,-0.855621,0.000000,3.205994,-0.173767,0.000000,-0.063000,-0.078000,-0.134000,FlatInitial,Hold,0,0.000000,-0.140000,0.000000,85.000000,0.000000,-195.000000,0,0,0
12:28:24.669 PM 03/04/2016,Autonomous Enabled,8,FALSE,0,NO ERROR,-5999.414062,5998.828125,-6000.000000,-6000.000000,Speed,Speed,-0.130000,1.580000,0.560000,1.000000,101.000000,1,0,0.000000,0.000000,0,2.997421,-0.935577,0.000000,3.357483,-0.218811,0.000000,-0.092000,-0.088000,-0.141000,FlatInitial,Hold,0,0.000000,-0.130000,0.000000,85.000000,0.000000,-195.000000,0,0,0
12:28:24.770 PM 03/04/2016,Autonomous Enabled,8,FALSE,0,NO ERROR,-5999.414062,5995.898438,-6000.000000,-6000.000000,Speed,Speed,-0.140000,1.420000,0.480000,1.000000,103.000000,1,0,0.000000,0.000000,0,2.920898,-1.020203,0.000000,3.505035,-0.268188,0.000000,-0.084000,-0.093000,-0.143000,FlatInitial,Hold,0,0.000000,-0.140000,0.000000,85.000000,0.000000,-195.000000,0,0,0
12:28:24.870 PM 03/04/2016,Autonomous Enabled,8,FALSE,0,NO ERROR,-6000.585938,5992.968750,-6000.000000,-6000.000000,Speed,Speed,-0.150000,1.300000,0.450000,1.000000,102.000000,1,0,0.000000,0.000000,0,2.837830,-1.099548,0.000000,3.648651,-0.321518,0.000000,-0.096000,-0.069000,-0.149000,FlatInitial,Hold,0,0.000000,-0.150000,0.000000,85.000000,0.000000,-195.000000,0,0,0
12:28:24.971 PM 03/04/2016,Autonomous Enabled,8,FALSE,0,NO ERROR,-6001.171875,5990.625000,-6000.000000,-6000.000000,Speed,Speed,-0.140000,1.220000,0.370000,1.000000,102.000000,1,0,0.000000,0.000000,0,2.772507,-1.172897,0.000000,3.788376,-0.378708,0.000000,-0.049000,-0.052000,-0.177000,FlatInitial,Hold,0,0.000000,-0.140000,0.000000,85.000000,0.000000,-195.000000,0,0,0
12:28:25.072 PM 03/04/2016,Autonomous Enabled,8,FALSE,0,NO ERROR,-6000.585938,5990.625000,-6000.000000,-6000.000000,Speed,Speed,-0.140000,1.150000,0.330000,1.000000,104.000000,1,0,0.000000,0.000000,0,2.731110,-1.236298,0.000000,3.925751,-0.439285,0.000000,-0.049000,-0.067000,-0.157000,FlatInitial,Hold,0,0.000000,-0.140000,0.000000,85.000000,0.000000,-195.000000,0,0,0
12:28:25.171 PM 03/04/2016,Autonomous Enabled,8,FALSE,0,NO ERROR,-6001.757812,5995.898438,-6000.000000,-6000.000000,Speed,Speed,-0.140000,1.060000,0.280000,1.000000,103.000000,1,0,0.000000,0.000000,0,2.701736,-1.290466,0.000000,4.034241,-0.490082,0.000000,-0.017000,-0.071000,-0.178000,FlatInitial,Hold,0,0.000000,-0.140000,0.000000,85.000000,0.000000,-195.000000,0,0,0
12:28:25.272 PM 03/04/2016,Autonomous Enabled,8,FALSE,0,NO ERROR,-6003.515625,6003.515625,-6000.000000,-6000.000000,Speed,Speed,-0.140000,0.980000,0.220000,1.000000,101.000000,1,0,0.000000,0.000000,0,2.656876,-1.373489,0.000000,4.194916,-0.570389,0.000000,-0.048000,-0.056000,-0.173000,FlatInitial,Hold,0,0.000000,-0.140000,0.000000,85.000000,0.000000,-195.000000,0,0,0
12:28:25.372 PM 03/04/2016,Autonomous Enabled,8,FALSE,0,NO ERROR,-6000.585938,6009.375000,-6000.000000,-6000.000000,Speed,Speed,-0.130000,0.820000,0.170000,1.000000,101.000000,1,0,0.000000,0.000000,0,2.593201,-1.441956,0.000000,4.326035,-0.641068,0.000000,-0.079000,-0.076000,-0.128000,FlatInitial,Hold,0,0.000000,-0.130000,0.000000,85.000000,0.000000,-195.000000,0,0,0
12:28:25.473 PM 03/04/2016,Autonomous Enabled,8,FALSE,0,NO ERROR,-6000.000000,6009.960938,-6000.000000,-6000.000000,Speed,Speed,-0.130000,0.730000,0.140000,1.000000,101.000000,1,0,0.000000,0.000000,0,2.519165,-1.511780,0.000000,4.453430,-0.715240,0.000000,-0.078000,-0.089000,-0.131000,FlatInitial,Hold,0,0.000000,-0.130000,0.000000,85.000000,0.000000,-195.000000,0,0,0
12:28:25.573 PM 03/04/2016,Autonomous Enabled,8,FALSE,0,NO ERROR,-6002.343750,6009.960938,-6000.000000,-6000.000000,Speed,Speed,-0.130000,0.610000,0.120000,1.000000,101.000000,1,0,0.000000,0.000000,0,2.412933,-1.595001,0.000000,4.601074,-0.808929,0.000000,-0.111000,-0.056000,-0.080000,FlatInitial,Hold,0,0.000000,-0.130000,0.000000,85.000000,0.000000,-195.000000,0,0,0
12:28:25.673 PM 03/04/2016,Autonomous Enabled,8,FALSE,0,NO ERROR,-6002.929688,6006.445312,-6000.000000,-6000.000000,Speed,Speed,-0.140000,0.460000,0.170000,1.000000,100.000000,1,0,0.000000,0.000000,0,2.317780,-1.644714,0.000000,4.718903,-0.890228,0.000000,-0.115000,-0.042000,-0.077000,FlatInitial,Hold,0,0.000000,-0.140000,0.000000,85.000000,0.000000,-195.000000,0,0,0
12:28:25.773 PM 03/04/2016,Autonomous Enabled,8,FALSE,0,NO ERROR,-6003.515625,6004.101562,-6000.000000,-6000.000000,Speed,Speed,-0.140000,0.190000,0.200000,1.000000,102.000000,1,0,0.000000,0.000000,0,2.199997,-1.700500,0.000000,4.831360,-0.974121,0.000000,-0.110000,-0.049000,-0.099000,FlatInitial,Hold,0,0.000000,-0.140000,0.000000,85.000000,0.000000,-195.000000,0,0,0
12:28:25.873 PM 03/04/2016,Autonomous Enabled,8,FALSE,0,NO ERROR,-6003.515625,6005.859375,-6000.000000,-6000.000000,Speed,Speed,-0.140000,-0.030000,0.240000,1.000000,101.000000,1,0,0.000000,0.000000,0,2.106445,-1.729736,0.000000,4.916962,-1.042984,0.000000,-0.088000,-0.038000,-0.067000,FlatInitial,Hold,0,0.000000,-0.140000,0.000000,85.000000,0.000000,-195.000000,0,0,0
12:28:25.975 PM 03/04/2016,Autonomous Enabled,8,FALSE,0,NO ERROR,-6005.273438,6005.273438,-6000.000000,-6000.000000,Speed,Speed,-0.140000,-0.230000,0.280000,1.000000,102.000000,1,0,0.000000,0.000000,0,1.993179,-1.767075,0.000000,5.018906,-1.130524,0.000000,-0.114000,-0.050000,-0.041000,FlatInitial,Hold,0,0.000000,-0.140000,0.000000,85.000000,0.000000,-195.000000,0,0,0
12:28:26.075 PM 03/04/2016,Autonomous Enabled,8,FALSE,0,NO ERROR,-6008.203125,6001.171875,-6000.000000,-6000.000000,Speed,Speed,-0.150000,-0.410000,0.330000,1.000000,101.000000,1,0,0.000000,0.000000,0,1.877762,-1.801819,0.000000,5.115051,-1.220062,0.000000,-0.087000,-0.001000,-0.055000,FlatInitial,Hold,0,0.000000,-0.150000,0.000000,85.000000,0.000000,-195.000000,0,0,0
12:28:26.175 PM 03/04/2016,Autonomous Enabled,8,FALSE,0,NO ERROR,-6007.617188,6000.585938,-6000.000000,-6000.000000,Speed,Speed,-0.140000,-0.630000,0.470000,1.000000,102.000000,1,0,0.000000,0.000000,0,1.785141,0.000000,0.000000,5.206100,-1.220062,0.000000,-0.120000,0.011000,-0.055000,FlatInitial,Hold,0,0.000000,-0.140000,0.000000,85.000000,0.000000,-195.000000,0,0,0
12:28:26.276 PM 03/04/2016,Autonomous Enabled,8,FALSE,0,NO ERROR,-6006.445312,5997.656250,-6000.000000,-6000.000000,Speed,Speed,-0.140000,-0.820000,0.580000,1.000000,102.000000,1,0,0.000000,0.000000,0,1.668686,0.000000,0.000000,5.292023,-1.220062,0.000000,-0.136000,0.012000,-0.030000,FlatInitial,Hold,0,0.000000,-0.140000,0.000000,85.000000,0.000000,-195.000000,0,0,0
12:28:26.378 PM 03/04/2016,Autonomous Enabled,8,FALSE,0,NO ERROR,-6002.929688,5998.828125,-6000.000000,-6000.000000,Speed,Speed,-0.150000,-1.130000,0.720000,1.000000,102.000000,1,0,0.000000,0.000000,0,1.545105,0.001633,0.000000,5.371704,-1.220047,0.000000,-0.108000,-0.003000,-0.012000,FlatInitial,Hold,0,0.000000,-0.150000,0.000000,85.000000,0.000000,-195.000000,0,0,0
12:28:26.478 PM 03/04/2016,Autonomous Enabled,8,FALSE,0,NO ERROR,-5998.242188,6002.343750,-6000.000000,-6000.000000,Speed,Speed,-0.140000,-1.280000,0.820000,1.000000,101.000000,1,0,0.000000,0.000000,0,1.430649,0.000000,0.000000,5.445450,-1.219971,0.000000,-0.092000,-0.002000,-0.022000,FlatInitial,Hold,0,0.000000,-0.140000,0.000000,85.000000,0.000000,-195.000000,0,0,0
12:28:26.578 PM 03/04/2016,Autonomous Enabled,8,FALSE,0,NO ERROR,-5997.656250,6002.343750,-6000.000000,-6000.000000,Speed,Speed,-0.140000,-1.370000,0.870000,1.000000,105.000000,1,0,0.000000,0.000000,0,1.321411,-0.004578,0.000000,5.527359,-1.220032,0.000000,-0.116000,-0.001000,-0.026000,FlatInitial,Hold,0,0.000000,-0.140000,0.000000,85.000000,0.000000,-195.000000,0,0,0
12:28:26.678 PM 03/04/2016,Autonomous Enabled,8,FALSE,0,NO ERROR,-5997.656250,6001.171875,-6000.000000,-6000.000000,Speed,Speed,-0.140000,-1.490000,0.970000,1.000000,104.000000,1,0,0.000000,0.000000,0,1.233536,0.000000,0.000000,5.590866,-1.220078,0.000000,-0.104000,-0.001000,0.013000,FlatInitial,Hold,0,0.000000,-0.140000,0.000000,85.000000,0.000000,-195.000000,0,0,0
12:28:26.777 PM 03/04/2016,Autonomous Enabled,8,FALSE,0,NO ERROR,-5998.242188,5999.414062,-6000.000000,-6000.000000,Speed,Speed,-0.140000,-1.640000,1.110000,1.000000,103.000000,1,0,0.000000,0.000000,0,1.128006,0.017258,0.000000,5.649353,-1.219574,0.000000,-0.082000,0.010000,0.001000,FlatInitial,Hold,0,0.000000,-0.140000,0.000000,85.000000,0.000000,-195.000000,0,0,0
12:28:26.878 PM 03/04/2016,Autonomous Enabled,8,FALSE,0,NO ERROR,-6000.585938,5997.656250,-6000.000000,-6000.000000,Speed,Speed,-0.130000,-1.750000,1.230000,1.000000,102.000000,1,0,0.000000,0.000000,0,1.042801,0.040329,0.000000,5.703156,-1.218079,0.000000,-0.115000,0.034000,0.006000,FlatInitial,Hold,0,0.000000,-0.130000,0.000000,85.000000,0.000000,-195.000000,0,0,0
12:28:26.978 PM 03/04/2016,Autonomous Enabled,8,FALSE,0,NO ERROR,-6002.343750,5998.242188,-6000.000000,-6000.000000,Speed,Speed,-0.130000,-1.860000,1.360000,1.000000,103.000000,1,0,0.000000,0.000000,0,0.949112,0.070343,0.000000,5.752472,-1.215134,0.000000,-0.066000,0.005000,0.021000,FlatInitial,Hold,0,0.000000,-0.130000,0.000000,85.000000,0.000000,-195.000000,0,0,0
12:28:27.077 PM 03/04/2016,Autonomous Enabled,8,FALSE,0,NO ERROR,-6003.515625,5998.828125,-6000.000000,-6000.000000,Speed,Speed,-0.140000,-1.930000,1.430000,1.000000,101.000000,1,0,0.000000,0.000000,0,0.850616,0.000000,0.000000,5.797104,-1.214401,0.000000,-0.098000,-0.013000,0.053000,FlatInitial,Hold,0,0.000000,-0.140000,0.000000,85.000000,0.000000,-195.000000,0,0,0
12:28:27.179 PM 03/04/2016,Autonomous Enabled,8,FALSE,0,NO ERROR,-6005.273438,5995.898438,-6000.000000,-6000.000000,Speed,Speed,-0.130000,-2.040000,1.480000,1.000000,102.000000,1,0,0.000000,0.000000,0,0.739746,0.000000,0.000000,5.836258,-1.214401,0.000000,-0.122000,0.017000,0.017000,FlatInitial,Hold,0,0.000000,-0.130000,0.000000,85.000000,0.000000,-195.000000,0,0,0
12:28:27.281 PM 03/04/2016,Autonomous Enabled,8,FALSE,0,NO ERROR,-6007.031250,5990.625000,-6000.000000,-6000.000000,Speed,Speed,-0.130000,-2.150000,1.560000,1.000000,101.000000,1,0,0.000000,0.000000,0,0.626129,0.011353,0.000000,5.869904,-1.214157,0.000000,-0.145000,0.025000,0.019000,FlatInitial,Hold,0,0.000000,-0.130000,0.000000,85.000000,0.000000,-195.000000,0,0,0
12:28:27.385 PM 03/04/2016,Autonomous Enabled,8,FALSE,0,NO ERROR,-6007.031250,5990.039062,-6000.000000,-6000.000000,Speed,Speed,-0.130000,-2.300000,1.670000,1.000000,102.000000,1,0,0.000000,0.000000,0,0.497330,0.037552,0.000000,5.897461,-1.212753,0.000000,-0.158000,0.015000,0.013000,FlatInitial,Hold,0,0.000000,-0.130000,0.000000,85.000000,0.000000,-195.000000,0,0,0
12:28:27.485 PM 03/04/2016,Autonomous Enabled,8,FALSE,0,NO ERROR,-6005.273438,5998.828125,-6000.000000,-6000.000000,Speed,Speed,-0.120000,-2.450000,1.740000,1.000000,103.000000,1,0,0.000000,0.000000,0,0.351730,0.060425,0.000000,5.917923,-1.210251,0.000000,-0.154000,0.033000,0.001000,FlatInitial,Hold,0,0.000000,-0.120000,0.000000,85.000000,0.000000,-195.000000,0,0,0
12:28:27.588 PM 03/04/2016,Autonomous Enabled,8,FALSE,0,NO ERROR,-6001.171875,6002.343750,-6000.000000,-6000.000000,Speed,Speed,-0.130000,-2.550000,1.780000,1.000000,104.000000,1,0,0.000000,0.000000,0,0.216110,0.084518,0.000000,5.931458,-1.206467,0.000000,-0.176000,0.021000,0.001000,FlatInitial,Hold,0,0.000000,-0.130000,0.000000,85.000000,0.000000,-195.000000,0,0,0
12:28:27.688 PM 03/04/2016,Autonomous Enabled,8,FALSE,0,NO ERROR,-5997.070312,6004.101562,-6000.000000,-6000.000000,Speed,Speed,-0.120000,-2.620000,1.770000,1.000000,101.000000,1,0,0.000000,0.000000,0,0.079697,0.000000,0.000000,5.937973,-1.204742,0.000000,-0.089000,0.000000,0.003000,FlatInitial,Hold,0,0.000000,-0.120000,0.000000,85.000000,0.000000,-195.000000,0,0,0
12:28:27.788 PM 03/04/2016,Autonomous Enabled,8,FALSE,0,NO ERROR,-5992.382812,6004.101562,-6000.000000,-6000.000000,Speed,Speed,-0.120000,-2.650000,1.790000,1.000000,101.000000,1,0,0.000000,0.000000,0,-0.028809,0.006332,0.000000,5.938690,-1.204651,0.000000,-0.118000,0.032000,0.002000,FlatInitial,Hold,0,0.000000,-0.120000,0.000000,85.000000,0.000000,-195.000000,0,0,0
12:28:27.889 PM 03/04/2016,Autonomous Enabled,8,FALSE,0,NO ERROR,-5994.140625,6001.757812,-6000.000000,-6000.000000,Speed,Speed,-0.110000,-2.660000,1.870000,1.000000,103.000000,1,0,0.000000,0.000000,0,-0.159134,0.032684,0.000000,5.932373,-1.203415,0.000000,-0.111000,0.035000,0.049000,FlatInitial,Hold,0,0.000000,-0.110000,0.000000,85.000000,0.000000,-195.000000,0,0,0
12:28:27.990 PM 03/04/2016,Autonomous Enabled,8,FALSE,0,NO ERROR,-5994.726562,6002.343750,-6000.000000,-6000.000000,Speed,Speed,-0.120000,-2.660000,1.960000,1.000000,100.000000,1,0,0.000000,0.000000,0,-0.244553,0.069916,0.000000,5.921738,-1.200775,0.000000,-0.037000,0.049000,0.064000,FlatInitial,Hold,0,0.000000,-0.120000,0.000000,85.000000,0.000000,-195.000000,0,0,0
12:28:28.090 PM 03/04/2016,Autonomous Enabled,8,FALSE,0,NO ERROR,-5997.656250,5998.828125,-6000.000000,-6000.000000,Speed,Speed,-0.120000,-2.570000,2.070000,1.000000,103.000000,1,0,0.000000,0.000000,0,-0.313431,0.121002,0.000000,5.907516,-1.195770,0.000000,-0.079000,0.058000,0.058000,FlatInitial,Hold,0,0.000000,-0.120000,0.000000,85.000000,0.000000,-195.000000,0,0,0
12:28:28.190 PM 03/04/2016,Autonomous Enabled,8,FALSE,0,NO ERROR,-6000.000000,6001.171875,-6000.000000,-6000.000000,Speed,Speed,-0.130000,-2.510000,2.150000,1.000000,101.000000,1,0,0.000000,0.000000,0,-0.382370,0.170944,0.000000,5.889771,-1.188156,0.000000,-0.089000,0.051000,0.019000,FlatInitial,Hold,0,0.000000,-0.130000,0.000000,85.000000,0.000000,-195.000000,0,0,0
12:28:28.289 PM 03/04/2016,Autonomous Enabled,8,FALSE,0,NO ERROR,-6002.929688,6005.273438,-6000.000000,-6000.000000,Speed,Speed,-0.130000,-2.490000,2.170000,1.000000,104.000000,1,0,0.000000,0.000000,0,-0.468185,0.206055,0.000000,5.868210,-1.178589,0.000000,-0.084000,0.037000,0.050000,FlatInitial,Hold,0,0.000000,-0.130000,0.000000,85.000000,0.000000,-195.000000,0,0,0
12:28:28.390 PM 03/04/2016,Autonomous Enabled,8,FALSE,0,NO ERROR,-6005.859375,6008.789062,-6000.000000,-6000.000000,Speed,Speed,-0.140000,-2.470000,2.190000,1.000000,102.000000,1,0,0.000000,0.000000,0,-0.530365,0.253159,0.000000,5.842728,-1.166946,0.000000,-0.023000,0.040000,0.106000,FlatInitial,Hold,0,0.000000,-0.140000,0.000000,85.000000,0.000000,-195.000000,0,0,0
12:28:28.490 PM 03/04/2016,Autonomous Enabled,8,FALSE,0,NO ERROR,-6006.445312,6011.718750,-6000.000000,-6000.000000,Speed,Speed,-0.140000,-2.320000,2.220000,1.000000,104.000000,1,0,0.000000,0.000000,0,-0.555023,0.307343,0.000000,5.815277,-1.152679,0.000000,0.012000,0.059000,0.082000,FlatInitial,Hold,0,0.000000,-0.140000,0.000000,85.000000,0.000000,-195.000000,0,0,0
12:28:28.590 PM 03/04/2016,Autonomous Enabled,8,FALSE,0,NO ERROR,-6008.203125,6005.859375,-6000.000000,-6000.000000,Speed,Speed,-0.160000,-2.040000,2.230000,1.000000,101.000000,1,0,0.000000,0.000000,0,0.000000,0.368195,0.000000,5.815277,-1.135544,0.000000,0.001000,0.080000,0.071000,FlatInitial,Hold,0,0.000000,-0.160000,0.000000,85.000000,0.000000,-195.000000,0,0,0
12:28:28.690 PM 03/04/2016,Autonomous Enabled,8,FALSE,0,NO ERROR,-6006.445312,5999.414062,-6000.000000,-6000.000000,Speed,Speed,-0.170000,-1.710000,2.270000,1.000000,102.000000,1,0,0.000000,0.000000,0,0.003616,0.449051,0.000000,5.815475,-1.114777,0.000000,0.032000,0.092000,0.125000,FlatInitial,Hold,0,0.000000,-0.170000,0.000000,85.000000,0.000000,-195.000000,0,0,0
12:28:28.790 PM 03/04/2016,Autonomous Enabled,8,FALSE,0,NO ERROR,-6004.687500,5998.242188,-6000.000000,-6000.000000,Speed,Speed,-0.180000,-1.460000,2.250000,1.000000,101.000000,1,0,0.000000,0.000000,0,0.000000,0.522354,0.000000,5.815628,-1.090027,0.000000,-0.005000,0.076000,0.099000,FlatInitial,Hold,0,0.000000,-0.180000,0.000000,85.000000,0.000000,-195.000000,0,0,0
12:28:28.890 PM 03/04/2016,Autonomous Enabled,8,FALSE,0,NO ERROR,-6002.343750,5995.898438,-6000.000000,-6000.000000,Speed,Speed,-0.190000,-1.270000,2.190000,1.000000,101.000000,1,0,0.000000,0.000000,0,-0.002014,0.586578,0.000000,5.815613,-1.061920,0.000000,-0.023000,0.076000,0.077000,FlatInitial,Hold,0,0.000000,-0.190000,0.000000,85.000000,0.000000,-195.000000,0,0,0
12:28:28.991 PM 03/04/2016,Autonomous Enabled,8,FALSE,0,NO ERROR,-6000.000000,5993.554688,-6000.000000,-6000.000000,Speed,Speed,-0.220000,-1.210000,2.160000,1.000000,101.000000,1,0,0.000000,0.000000,0,-0.037704,0.647018,0.000000,5.814453,-1.030823,0.000000,-0.016000,0.063000,0.101000,FlatInitial,Hold,0,0.000000,-0.220000,0.000000,85.000000,0.000000,-195.000000,0,0,0
12:28:29.091 PM 03/04/2016,Autonomous Enabled,8,FALSE,0,NO ERROR,-5997.656250,5991.210938,-6000.000000,-6000.000000,Speed,Speed,-0.230000,-0.990000,2.150000,1.000000,101.000000,1,0,0.000000,0.000000,0,-0.069305,0.724670,0.000000,5.811264,-0.989227,0.000000,-0.016000,0.063000,0.101000,FlatInitial,Hold,0,0.000000,-0.230000,0.000000,85.000000,0.000000,-195.000000,0,0,0
12:28:29.192 PM 03/04/2016,Autonomous Enabled,8,FALSE,0,NO ERROR,-5996.484375,5992.382812,-6000.000000,-6000.000000,Speed,Speed,-0.220000,-0.820000,2.090000,1.000000,101.000000,1,0,0.000000,0.000000,0,-0.102356,0.764786,0.000000,5.807755,-0.959198,0.000000,-0.047000,0.049000,0.107000,FlatInitial,Hold,0,0.000000,-0.220000,0.000000,85.000000,0.000000,-195.000000,0,0,0
12:28:29.293 PM 03/04/2016,Autonomous Enabled,8,FALSE,0,NO ERROR,-5998.828125,5996.484375,-6000.000000,-6000.000000,Speed,Speed,-0.240000,-0.690000,2.030000,1.000000,103.000000,1,0,0.000000,0.000000,0,-0.143997,0.817795,0.000000,5.801254,-0.919464,0.000000,-0.047000,0.049000,0.107000,FlatInitial,Hold,0,0.000000,-0.240000,0.000000,85.000000,0.000000,-195.000000,0,0,0
12:28:29.394 PM 03/04/2016,Autonomous Enabled,8,FALSE,0,NO ERROR,-5998.828125,5998.242188,-6000.000000,-6000.000000,Speed,Speed,-0.240000,-0.570000,2.030000,1.000000,102.000000,1,0,0.000000,0.000000,0,-0.201294,0.904099,0.000000,5.790710,-0.867447,0.000000,-0.029000,0.058000,0.136000,FlatInitial,Hold,0,0.000000,-0.240000,0.000000,85.000000,0.000000,-195.000000,0,0,0
12:28:29.495 PM 03/04/2016,Autonomous Enabled,8,FALSE,0,NO ERROR,-6001.757812,6000.000000,-6000.000000,-6000.000000,Speed,Speed,-0.240000,-0.570000,2.030000,1.000000,102.000000,1,0,0.000000,0.000000,0,-0.267090,0.972504,0.000000,5.778687,-0.820160,0.000000,-0.063000,0.075000,0.077000,FlatInitial,Hold,0,0.000000,-0.240000,0.000000,85.000000,0.000000,-195.000000,0,0,0
12:28:29.596 PM 03/04/2016,Autonomous Enabled,8,FALSE,0,NO ERROR,-6003.515625,5997.070312,-6000.000000,-6000.000000,Speed,Speed,-0.250000,-0.510000,1.980000,1.000000,102.000000,1,0,0.000000,0.000000,0,-0.316406,1.028732,0.000000,5.763794,-0.769806,0.000000,-0.046000,0.039000,0.096000,FlatInitial,Hold,0,0.000000,-0.250000,0.000000,85.000000,0.000000,-195.000000,0,0,0
12:28:29.696 PM 03/04/2016,Autonomous Enabled,8,FALSE,0,NO ERROR,-6002.343750,5995.898438,-6000.000000,-6000.000000,Speed,Speed,-0.260000,-0.390000,1.860000,1.000000,101.000000,1,0,0.000000,0.000000,0,-0.372803,1.087936,0.000000,5.746216,-0.716721,0.000000,-0.046000,0.039000,0.096000,FlatInitial,Hold,0,0.000000,-0.260000,0.000000,85.000000,0.000000,-195.000000,0,0,0
12:28:29.797 PM 03/04/2016,Autonomous Enabled,8,FALSE,0,NO ERROR,-6000.585938,5996.484375,-6000.000000,-6000.000000,Speed,Speed,-0.270000,-0.170000,1.780000,1.000000,103.000000,1,0,0.000000,0.000000,0,-0.414688,1.149521,0.000000,5.726395,-0.660400,0.000000,-0.044000,0.066000,0.070000,FlatInitial,Hold,0,0.000000,-0.270000,0.000000,85.000000,0.000000,-195.000000,0,0,0
12:28:29.898 PM 03/04/2016,Autonomous Enabled,8,FALSE,0,NO ERROR,-5999.414062,6000.000000,-6000.000000,-6000.000000,Speed,Speed,-0.270000,-0.170000,1.780000,1.000000,101.000000,1,0,0.000000,0.000000,0,-0.467545,1.197571,0.000000,5.704239,-0.601395,0.000000,-0.059000,0.067000,0.035000,FlatInitial,Hold,0,0.000000,-0.270000,0.000000,85.000000,0.000000,-195.000000,0,0,0
12:28:29.999 PM 03/04/2016,Autonomous Enabled,8,FALSE,0,NO ERROR,-6000.585938,6002.929688,-6000.000000,-6000.000000,Speed,Speed,-0.430000,-0.050000,1.690000,1.000000,101.000000,1,0,0.000000,0.000000,0,-0.528702,1.233368,0.000000,5.678925,-0.540512,0.000000,-0.081000,0.025000,0.039000,FlatInitial,Hold,0,0.000000,-0.430000,0.000000,85.000000,0.000000,-195.000000,0,0,0
12:28:30.099 PM 03/04/2016,Autonomous Enabled,8,FALSE,0,NO ERROR,-6000.000000,6002.929688,-6000.000000,-6000.000000,Speed,Speed,-0.740000,0.000000,1.590000,1.000000,102.000000,1,0,0.000000,0.000000,0,-0.563187,1.290039,0.000000,5.651321,-0.477203,0.000000,-0.047000,0.066000,0.033000,FlatInitial,Hold,0,0.000000,-0.740000,0.000000,85.000000,0.000000,-195.000000,0,0,0
12:28:30.199 PM 03/04/2016,Autonomous Enabled,8,FALSE,0,NO ERROR,-6000.000000,6005.859375,-6000.000000,-6000.000000,Speed,Speed,-1.310000,-0.020000,1.610000,1.000000,102.000000,1,0,0.000000,0.000000,0,-0.563187,1.290039,0.000000,5.651321,-0.477203,0.000000,-0.016000,0.087000,0.081000,FlatInitial,Hold,0,0.000000,-1.310000,0.000000,85.000000,0.000000,-195.000000,0,0,0
12:28:30.301 PM 03/04/2016,Autonomous Enabled,8,FALSE,0,NO ERROR,-6001.171875,6007.617188,-6000.000000,-6000.000000,Speed,Speed,-2.390000,0.090000,1.490000,1.000000,102.000000,1,0,0.000000,0.000000,0,0.001343,1.398895,0.000000,5.628433,-0.341949,0.000000,0.010000,0.051000,0.075000,FlatInitial,Hold,0,0.000000,-2.390000,0.000000,85.000000,0.000000,-195.000000,0,0,0
12:28:30.401 PM 03/04/2016,Autonomous Enabled,8,FALSE,0,NO ERROR,-6001.171875,6009.375000,-6000.000000,-6000.000000,Speed,Speed,-3.730000,0.220000,1.240000,1.000000,105.000000,1,0,0.000000,0.000000,0,-0.018799,1.443924,0.000000,5.627869,-0.270691,0.000000,-0.034000,0.041000,-0.022000,FlatInitial,Hold,0,0.000000,-3.730000,0.000000,85.000000,0.000000,-195.000000,0,0,0
12:28:30.501 PM 03/04/2016,Autonomous Enabled,8,FALSE,0,NO ERROR,-6005.859375,6008.203125,-6000.000000,-6000.000000,Speed,Speed,-5.540000,0.310000,0.920000,1.000000,102.000000,1,0,0.000000,0.000000,0,-0.018799,1.443924,0.000000,5.627869,-0.270691,0.000000,-0.003000,0.089000,-0.010000,FlatInitial,Hold,0,0.000000,-5.540000,0.000000,85.000000,0.000000,-195.000000,0,0,0
12:28:30.602 PM 03/04/2016,Autonomous Enabled,8,FALSE,0,NO ERROR,-6006.445312,6007.617188,-6000.000000,-6000.000000,Speed,Speed,-7.070000,0.500000,0.800000,1.000000,102.000000,1,0,0.000000,0.000000,0,0.002350,1.547394,0.000000,5.627487,-0.195724,0.000000,0.046000,0.118000,-0.017000,FlatInitial,Hold,0,0.000000,-7.070000,0.000000,85.000000,0.000000,-195.000000,0,0,0
12:28:30.703 PM 03/04/2016,Autonomous Enabled,8,FALSE,0,NO ERROR,-6005.859375,6006.445312,-6000.000000,-6000.000000,Speed,Speed,-9.380000,1.030000,0.870000,1.000000,103.000000,1,0,0.000000,0.000000,0,0.093216,1.730042,0.000000,5.630127,-0.096664,0.000000,0.106000,0.134000,-0.071000,FlatInitial,Hold,0,0.000000,-9.380000,0.000000,85.000000,0.000000,-195.000000,0,0,0
12:28:30.804 PM 03/04/2016,Autonomous Enabled,8,FALSE,0,NO ERROR,-6002.343750,6004.101562,-6000.000000,-6000.000000,Speed,Speed,-10.960000,1.530000,0.960000,1.000000,101.000000,1,0,0.000000,0.000000,0,0.214371,1.909073,0.000000,5.638336,-0.004913,0.000000,0.119000,0.192000,-0.015000,FlatInitial,Hold,0,0.000000,-10.960000,0.000000,85.000000,0.000000,-195.000000,0,0,0
12:28:30.905 PM 03/04/2016,Autonomous Enabled,8,FALSE,0,NO ERROR,-6003.515625,6002.929688,-6000.000000,-6000.000000,Speed,Speed,-12.270000,2.190000,1.240000,1.000000,101.000000,1,0,0.000000,0.000000,0,0.339996,2.113495,0.000000,5.652756,0.096207,0.000000,0.143000,0.284000,-0.069000,FlatInitial,Hold,0,0.000000,-12.270000,0.000000,85.000000,0.000000,-195.000000,0,0,0
12:28:31.006 PM 03/04/2016,Autonomous Enabled,8,FALSE,0,NO ERROR,-6002.343750,6001.757812,-6000.000000,-6000.000000,Speed,Speed,-12.710000,2.860000,1.650000,1.000000,101.000000,1,0,0.000000,0.000000,0,0.472397,2.369766,0.000000,5.673706,0.209778,0.000000,0.143000,0.217000,-0.077000,FlatInitial,Hold,0,0.000000,-12.710000,0.000000,85.000000,0.000000,-195.000000,0,0,0
12:28:31.107 PM 03/04/2016,Autonomous Enabled,8,FALSE,0,NO ERROR,-6000.000000,5997.656250,-6000.000000,-6000.000000,Speed,Speed,-12.850000,3.410000,1.630000,1.000000,102.000000,0,0,0.000000,0.000000,0,0.606491,2.550354,0.000000,5.701416,0.334000,0.000000,0.117000,0.135000,-0.002000,FlatInitial,Hold,0,0.000000,-12.850000,0.000000,85.000000,0.000000,-195.000000,0,0,0
12:28:31.207 PM 03/04/2016,Autonomous Enabled,8,FALSE,0,NO ERROR,-5999.414062,5994.726562,-6000.000000,-6000.000000,Speed,Speed,-12.790000,3.580000,1.580000,1.000000,101.000000,0,0,0.000000,0.000000,0,0.710449,2.678558,0.000000,5.735092,0.465378,0.000000,0.079000,0.128000,-0.031000,FlatInitial,Hold,0,0.000000,-12.790000,0.000000,85.000000,0.000000,-195.000000,0,0,0
12:28:31.307 PM 03/04/2016,Autonomous Enabled,8,FALSE,0,NO ERROR,-6001.757812,5994.726562,-6000.000000,-6000.000000,Speed,Speed,-12.860000,3.540000,1.650000,1.000000,102.000000,0,0,0.000000,0.000000,0,0.773392,2.825272,0.000000,5.772629,0.603622,0.000000,0.047000,0.136000,-0.007000,FlatInitial,Hold,0,0.000000,-12.860000,0.000000,85.000000,0.000000,-195.000000,0,0,0
12:28:31.408 PM 03/04/2016,Autonomous Enabled,8,FALSE,0,NO ERROR,-6000.585938,5995.312500,-6000.000000,-6000.000000,Speed,Speed,-12.780000,3.580000,1.550000,1.000000,101.000000,0,0,0.000000,0.000000,0,0.811813,2.936859,0.000000,5.812454,0.748428,0.000000,0.066000,0.088000,-0.038000,FlatInitial,Hold,0,0.000000,-12.780000,0.000000,85.000000,0.000000,-195.000000,0,0,0
12:28:31.508 PM 03/04/2016,Autonomous Enabled,8,FALSE,0,NO ERROR,-6000.585938,5997.070312,-6000.000000,-6000.000000,Speed,Speed,-12.810000,3.710000,1.430000,1.000000,101.000000,0,0,0.000000,0.000000,0,0.891724,3.054596,0.000000,5.855347,0.898758,0.000000,0.073000,0.128000,-0.088000,FlatInitial,Hold,0,0.000000,-12.810000,0.000000,85.000000,0.000000,-195.000000,0,0,0
12:28:31.610 PM 03/04/2016,Autonomous Enabled,8,FALSE,0,NO ERROR,-6000.585938,5997.656250,-6000.000000,-6000.000000,Speed,Speed,-12.820000,3.970000,1.400000,1.000000,103.000000,0,0,0.000000,0.000000,0,0.969666,3.170853,0.000000,5.902222,1.054947,0.000000,0.090000,0.110000,-0.063000,FlatInitial,Hold,0,0.000000,-12.820000,0.000000,85.000000,0.000000,-195.000000,0,0,0
12:28:31.710 PM 03/04/2016,Autonomous Enabled,8,FALSE,0,NO ERROR,-6000.585938,5999.414062,-6000.000000,-6000.000000,Speed,Speed,-12.820000,4.120000,1.350000,1.000000,104.000000,0,0,0.000000,0.000000,0,1.057678,3.296860,0.000000,5.953293,1.217194,0.000000,0.093000,0.163000,-0.069000,FlatInitial,Hold,0,0.000000,-12.820000,0.000000,85.000000,0.000000,-195.000000,0,0,0
12:28:31.810 PM 03/04/2016,Autonomous Enabled,8,FALSE,0,NO ERROR,-6002.929688,5998.828125,-6000.000000,-6000.000000,Speed,Speed,-12.850000,4.200000,1.410000,1.000000,101.000000,0,0,0.000000,0.000000,0,1.133713,3.445816,0.000000,6.008652,1.386505,0.000000,0.036000,0.156000,-0.044000,FlatInitial,Hold,0,0.000000,-12.850000,0.000000,85.000000,0.000000,-195.000000,0,0,0
12:28:31.911 PM 03/04/2016,Autonomous Enabled,8,FALSE,0,NO ERROR,-6005.859375,5997.656250,-6000.000000,-6000.000000,Speed,Speed,-12.830000,4.210000,1.460000,1.000000,103.000000,0,0,0.000000,0.000000,0,1.189606,3.586807,0.000000,6.066864,1.563095,0.000000,0.091000,0.118000,-0.066000,FlatInitial,Hold,0,0.000000,-12.830000,0.000000,85.000000,0.000000,-195.000000,0,0,0
12:28:32.011 PM 03/04/2016,Autonomous Enabled,8,FALSE,0,NO ERROR,-6004.687500,5998.242188,-6000.000000,-6000.000000,Speed,Speed,-12.810000,4.290000,1.360000,1.000000,101.000000,0,0,0.000000,0.000000,0,1.260834,3.711166,0.000000,6.128571,1.746277,0.000000,0.068000,0.097000,-0.072000,FlatInitial,Hold,0,0.000000,-12.810000,0.000000,85.000000,0.000000,-195.000000,0,0,0
12:28:32.111 PM 03/04/2016,Autonomous Enabled,8,FALSE,0,NO ERROR,-6003.515625,5998.242188,-6000.000000,-6000.000000,Speed,Speed,-12.810000,4.320000,1.290000,1.000000,102.000000,0,0,0.000000,0.000000,0,1.322495,3.820480,0.000000,6.193436,1.935028,0.000000,0.070000,0.162000,-0.104000,FlatInitial,Hold,0,0.000000,-12.810000,0.000000,85.000000,0.000000,-195.000000,0,0,0
12:28:32.212 PM 03/04/2016,Autonomous Enabled,8,FALSE,0,NO ERROR,-6002.929688,6000.585938,-6000.000000,-6000.000000,Speed,Speed,-12.800000,4.260000,1.310000,1.000000,101.000000,0,0,0.000000,0.000000,0,1.390366,3.958252,0.000000,6.261612,2.130173,0.000000,0.061000,0.114000,-0.092000,FlatInitial,Hold,0,0.000000,-12.800000,0.000000,85.000000,0.000000,-195.000000,0,0,0
12:28:32.312 PM 03/04/2016,Autonomous Enabled,8,FALSE,0,NO ERROR,-6001.171875,6002.929688,-6000.000000,-6000.000000,Speed,Speed,-12.790000,4.200000,1.330000,1.000000,104.000000,0,0,0.000000,0.000000,0,1.472916,4.115540,0.000000,6.347717,2.373154,0.000000,0.098000,0.124000,-0.080000,FlatInitial,Hold,0,0.000000,-12.790000,0.000000,85.000000,0.000000,-195.000000,0,0,0
12:28:32.413 PM 03/04/2016,Autonomous Enabled,8,FALSE,0,NO ERROR,-6000.000000,6005.273438,-6000.000000,-6000.000000,Speed,Speed,-12.780000,4.130000,1.350000,1.000000,101.000000,0,0,0.000000,0.000000,0,1.543106,4.244293,0.000000,6.423523,2.582794,0.000000,0.073000,0.156000,-0.091000,FlatInitial,Hold,0,0.000000,-12.780000,0.000000,85.000000,0.000000,-195.000000,0,0,0
12:28:32.513 PM 03/04/2016,Autonomous Enabled,8,FALSE,0,NO ERROR,-5997.656250,6006.445312,-6000.000000,-6000.000000,Speed,Speed,-12.760000,4.060000,1.400000,1.000000,102.000000,0,0,0.000000,0.000000,0,1.608185,4.380127,0.000000,6.502747,2.799164,0.000000,0.039000,0.128000,-0.082000,FlatInitial,Hold,0,0.000000,-12.760000,0.000000,85.000000,0.000000,-195.000000,0,0,0
12:28:32.613 PM 03/04/2016,Autonomous Enabled,8,FALSE,0,NO ERROR,-5995.898438,6007.031250,-6000.000000,-6000.000000,Speed,Speed,-12.700000,3.940000,1.370000,1.000000,101.000000,0,0,0.000000,0.000000,0,1.665512,4.503067,0.000000,6.584930,3.021805,0.000000,0.062000,0.108000,-0.081000,FlatInitial,Hold,0,0.000000,-12.700000,0.000000,85.000000,0.000000,-195.000000,0,0,0
12:28:32.713 PM 03/04/2016,Autonomous Enabled,8,FALSE,0,NO ERROR,-5992.968750,6004.101562,-6000.000000,-6000.000000,Speed,Speed,-12.600000,3.770000,1.390000,1.000000,103.000000,0,0,0.000000,0.000000,0,1.709457,4.628815,0.000000,6.669586,3.250809,0.000000,0.035000,0.122000,-0.083000,FlatInitial,Hold,0,0.000000,-12.600000,0.000000,85.000000,0.000000,-195.000000,0,0,0
12:28:32.813 PM 03/04/2016,Autonomous Enabled,8,FALSE,0,NO ERROR,-5992.968750,6006.445312,-6000.000000,-6000.000000,Speed,Speed,-12.460000,3.650000,1.350000,1.000000,101.000000,0,0,0.000000,0.000000,0,1.762817,4.757568,0.000000,6.756546,3.486023,0.000000,0.058000,0.167000,-0.084000,FlatInitial,Hold,0,0.000000,-12.460000,0.000000,85.000000,0.000000,-195.000000,0,0,0
12:28:32.913 PM 03/04/2016,Autonomous Enabled,8,FALSE,0,NO ERROR,-5993.554688,5999.414062,-6000.000000,-6000.000000,Speed,Speed,-12.270000,3.540000,1.300000,1.000000,101.000000,0,0,0.000000,0.000000,0,1.812363,4.884674,0.000000,6.846268,3.727753,0.000000,0.053000,0.151000,-0.114000,FlatInitial,Hold,0,0.000000,-12.270000,0.000000,85.000000,0.000000,-195.000000,0,0,0
12:28:33.014 PM 03/04/2016,Autonomous Enabled,8,FALSE,0,NO ERROR,-5995.312500,5994.726562,-6000.000000,-6000.000000,Speed,Speed,-11.880000,3.450000,1.310000,1.000000,102.000000,0,0,0.000000,0.000000,0,1.849045,5.025208,0.000000,6.937988,3.976105,0.000000,0.043000,0.140000,-0.094000,FlatInitial,Hold,0,0.000000,-11.880000,0.000000,85.000000,0.000000,-195.000000,0,0,0
12:28:33.115 PM 03/04/2016,Autonomous Enabled,8,FALSE,0,NO ERROR,-5996.484375,5994.726562,-6000.000000,-6000.000000,Speed,Speed,-11.170000,3.450000,1.380000,1.000000,101.000000,0,0,0.000000,0.000000,0,1.906815,5.186172,0.000000,7.032089,4.232147,0.000000,0.085000,0.169000,-0.070000,FlatInitial,Hold,0,0.000000,-11.170000,0.000000,85.000000,0.000000,-195.000000,0,0,0
12:28:33.215 PM 03/04/2016,Autonomous Enabled,8,FALSE,0,NO ERROR,-5997.070312,5992.968750,-6000.000000,-6000.000000,Speed,Speed,-10.020000,3.520000,1.540000,1.000000,101.000000,0,0,0.000000,0.000000,0,1.970978,5.360413,0.000000,7.129456,4.496765,0.000000,0.082000,0.153000,-0.089000,FlatInitial,Hold,0,0.000000,-10.020000,0.000000,85.000000,0.000000,-195.000000,0,0,0
12:28:33.315 PM 03/04/2016,Autonomous Enabled,8,FALSE,0,NO ERROR,-5997.070312,5991.210938,-6000.000000,-6000.000000,Speed,Speed,-8.170000,3.580000,1.780000,1.000000,102.000000,0,0,0.000000,0.000000,0,2.059311,5.526550,0.000000,7.230469,4.769745,0.000000,0.091000,0.171000,-0.071000,FlatInitial,Hold,0,0.000000,-8.170000,0.000000,85.000000,0.000000,-195.000000,0,0,0
12:28:33.415 PM 03/04/2016,Autonomous Enabled,8,FALSE,0,NO ERROR,-6001.171875,5994.726562,-6000.000000,-6000.000000,Speed,Speed,-6.310000,3.490000,1.930000,1.000000,102.000000,0,0,0.000000,0.000000,0,2.142441,5.674194,0.000000,7.336029,5.050690,0.000000,0.075000,0.129000,-0.097000,FlatInitial,Hold,0,0.000000,-6.310000,0.000000,85.000000,0.000000,-195.000000,0,0,0
12:28:33.515 PM 03/04/2016,Autonomous Enabled,8,FALSE,0,NO ERROR,-6005.859375,5994.726562,-6000.000000,-6000.000000,Speed,Speed,-4.160000,3.400000,2.040000,1.000000,102.000000,0,0,0.000000,0.000000,0,2.220123,5.799850,0.000000,7.445480,5.338150,0.000000,0.078000,0.126000,-0.096000,FlatInitial,Hold,0,0.000000,-4.160000,0.000000,85.000000,0.000000,-195.000000,0,0,0
