Time,RobotMode,AutoToRun,ErrorStatus, ErrorCode,ErrorSource,ActualRPM1,ActualRPM2,DesiredRPM1,DesiredRPM2,ControlMode1,ControlMode2,NavXYaw,NavXRoll,NavXPitch,ShooterState,LoopTime,IsLevel,IsAutoTargeting,LeftMotorOutput,RightMotorOutput,IsHaloDrive,NavXVelocityX,NavXVelocityY,NavXVelocityZ,NavXDisplacementX,NavXDisplacementY,NavXDisplacementZ,NavXAccelerationX,NavXAccelerationY,NavXAccelerationZ
07:24:00.825 PM 02/09/2016,Autonomous Enabled,0,TRUE,-1074360311,IMAQdx Open Camera.vi,0.000000,0.000000,4000.000000,4000.000000,Speed,Speed,0.320000,-0.430000,1.810000,3.000000,102.000000,1,0,0.000000,0.000000,0,0.000000,0.000000,0.000000,-0.011612,-0.063980,0.000000,0.000000,-0.007000,0.017000
07:24:00.927 PM 02/09/2016,Autonomous Enabled,0,TRUE,-35007,NetComm_CAN_Send.vi:5830007<APPEND>

<b>Complete call chain:</b>
     NetComm_CAN_Send.vi:5830007
     WPI_CANTalonSRX_SetParameter.vi
     WPI_CANTalonSRX_SetPID.vi
     ShooterVI.vi
     Periodic Tasks.vi
     Robot Main.vi,0.000000,0.000000,4000.000000,4000.000000,Speed,Speed,0.320000,-0.420000,1.780000,3.000000,101.000000,1,0,0.000000,0.000000,0,0.000000,0.000000,0.000000,-0.011612,-0.063980,0.000000,-0.002000,0.000000,0.011000
07:24:01.027 PM 02/09/2016,Autonomous Enabled,0,TRUE,-35007,NetComm_CAN_Send.vi:5830007<APPEND>

<b>Complete call chain:</b>
     NetComm_CAN_Send.vi:5830007
     WPI_CANTalonSRX_SetParameter.vi
     WPI_CANTalonSRX_SetPID.vi
     ShooterVI.vi
     Periodic Tasks.vi
     Robot Main.vi,0.000000,0.000000,4000.000000,4000.000000,Speed,Speed,0.320000,-0.420000,1.780000,3.000000,101.000000,1,0,0.000000,0.000000,0,0.000000,0.000000,0.000000,-0.011612,-0.063980,0.000000,-0.001000,-0.003000,0.020000
07:24:01.128 PM 02/09/2016,Autonomous Enabled,0,TRUE,-35007,NetComm_CAN_Send.vi:5830007<APPEND>

<b>Complete call chain:</b>
     NetComm_CAN_Send.vi:5830007
     WPI_CANTalonSRX_SetParameter.vi
     WPI_CANTalonSRX_SetPID.vi
     ShooterVI.vi
     Periodic Tasks.vi
     Robot Main.vi,0.000000,0.000000,4000.000000,4000.000000,Speed,Speed,0.330000,-0.430000,1.780000,3.000000,104.000000,1,0,0.000000,0.000000,0,0.000000,0.000000,0.000000,-0.011612,-0.063980,0.000000,0.001000,-0.001000,0.014000
07:24:01.228 PM 02/09/2016,Autonomous Enabled,0,TRUE,-35007,NetComm_CAN_Send.vi:5830007<APPEND>

<b>Complete call chain:</b>
     NetComm_CAN_Send.vi:5830007
     WPI_CANTalonSRX_SetParameter.vi
     WPI_CANTalonSRX_SetPID.vi
     ShooterVI.vi
     Periodic Tasks.vi
     Robot Main.vi,0.000000,0.000000,4000.000000,4000.000000,Speed,Speed,0.340000,-0.430000,1.800000,3.000000,104.000000,1,0,0.000000,0.000000,0,0.000000,0.000000,0.000000,-0.011612,-0.063980,0.000000,0.000000,0.000000,0.014000
07:24:01.330 PM 02/09/2016,Autonomous Enabled,0,TRUE,-35007,NetComm_CAN_Send.vi:5830007<APPEND>

<b>Complete call chain:</b>
     NetComm_CAN_Send.vi:5830007
     WPI_CANTalonSRX_SetParameter.vi
     WPI_CANTalonSRX_SetPID.vi
     ShooterVI.vi
     Periodic Tasks.vi
     Robot Main.vi,0.000000,0.000000,4000.000000,4000.000000,Speed,Speed,0.340000,-0.430000,1.790000,3.000000,102.000000,1,0,0.000000,0.000000,0,0.000000,0.000000,0.000000,-0.011612,-0.063980,0.000000,0.000000,-0.001000,0.016000
07:24:01.430 PM 02/09/2016,Autonomous Enabled,0,TRUE,-35007,NetComm_CAN_Send.vi:5830007<APPEND>

<b>Complete call chain:</b>
     NetComm_CAN_Send.vi:5830007
     WPI_CANTalonSRX_SetParameter.vi
     WPI_CANTalonSRX_SetPID.vi
     ShooterVI.vi
     Periodic Tasks.vi
     Robot Main.vi,0.000000,0.000000,4000.000000,4000.000000,Speed,Speed,0.340000,-0.430000,1.800000,3.000000,100.000000,1,0,0.000000,0.000000,0,0.000000,0.000000,0.000000,-0.011612,-0.063980,0.000000,0.001000,0.000000,0.012000
07:24:01.530 PM 02/09/2016,Autonomous Enabled,0,TRUE,-35007,NetComm_CAN_Send.vi:5830007<APPEND>

<b>Complete call chain:</b>
     NetComm_CAN_Send.vi:5830007
     WPI_CANTalonSRX_SetParameter.vi
     WPI_CANTalonSRX_SetPID.vi
     ShooterVI.vi
     Periodic Tasks.vi
     Robot Main.vi,0.000000,0.000000,4000.000000,4000.000000,Speed,Speed,0.350000,-0.430000,1.800000,3.000000,103.000000,1,0,0.000000,0.000000,0,0.000000,0.000000,0.000000,-0.011612,-0.063980,0.000000,0.000000,0.003000,0.020000
07:24:01.630 PM 02/09/2016,Autonomous Enabled,0,TRUE,-35007,NetComm_CAN_Send.vi:5830007<APPEND>

<b>Complete call chain:</b>
     NetComm_CAN_Send.vi:5830007
     WPI_CANTalonSRX_SetParameter.vi
     WPI_CANTalonSRX_SetPID.vi
     ShooterVI.vi
     Periodic Tasks.vi
     Robot Main.vi,0.000000,0.000000,4000.000000,4000.000000,Speed,Speed,0.350000,-0.430000,1.790000,3.000000,101.000000,1,0,0.000000,0.000000,0,0.000000,0.000000,0.000000,-0.011612,-0.063980,0.000000,0.000000,-0.004000,0.014000
07:24:01.731 PM 02/09/2016,Autonomous Enabled,0,TRUE,-35007,NetComm_CAN_Send.vi:5830007<APPEND>

<b>Complete call chain:</b>
     NetComm_CAN_Send.vi:5830007
     WPI_CANTalonSRX_SetParameter.vi
     WPI_CANTalonSRX_SetPID.vi
     ShooterVI.vi
     Periodic Tasks.vi
     Robot Main.vi,0.000000,0.000000,4000.000000,4000.000000,Speed,Speed,0.360000,-0.430000,1.780000,3.000000,100.000000,1,0,0.000000,0.000000,0,0.000000,0.000000,0.000000,-0.011612,-0.063980,0.000000,0.000000,-0.001000,0.018000
07:24:01.831 PM 02/09/2016,Autonomous Enabled,0,TRUE,-35007,NetComm_CAN_Send.vi:5830007<APPEND>

<b>Complete call chain:</b>
     NetComm_CAN_Send.vi:5830007
     WPI_CANTalonSRX_SetParameter.vi
     WPI_CANTalonSRX_SetPID.vi
     ShooterVI.vi
     Periodic Tasks.vi
     Robot Main.vi,0.000000,0.000000,4000.000000,4000.000000,Speed,Speed,0.370000,-0.440000,1.790000,3.000000,104.000000,1,0,0.000000,0.000000,0,0.000000,0.000000,0.000000,-0.011612,-0.063980,0.000000,-0.002000,0.000000,0.013000
07:24:01.931 PM 02/09/2016,Autonomous Enabled,0,TRUE,-35007,NetComm_CAN_Send.vi:5830007<APPEND>

<b>Complete call chain:</b>
     NetComm_CAN_Send.vi:5830007
     WPI_CANTalonSRX_SetParameter.vi
     WPI_CANTalonSRX_SetPID.vi
     ShooterVI.vi
     Periodic Tasks.vi
     Robot Main.vi,0.000000,0.000000,4000.000000,4000.000000,Speed,Speed,0.370000,-0.440000,1.800000,3.000000,102.000000,1,0,0.000000,0.000000,0,0.000000,0.000000,0.000000,-0.011612,-0.063980,0.000000,0.000000,-0.001000,0.020000
07:24:02.030 PM 02/09/2016,Autonomous Enabled,0,TRUE,-35007,NetComm_CAN_Send.vi:5830007<APPEND>

<b>Complete call chain:</b>
     NetComm_CAN_Send.vi:5830007
     WPI_CANTalonSRX_SetParameter.vi
     WPI_CANTalonSRX_SetPID.vi
     ShooterVI.vi
     Periodic Tasks.vi
     Robot Main.vi,0.000000,0.000000,4000.000000,4000.000000,Speed,Speed,0.370000,-0.440000,1.810000,3.000000,103.000000,1,0,0.000000,0.000000,0,0.000000,0.000000,0.000000,-0.011612,-0.063980,0.000000,0.001000,-0.001000,0.024000
07:24:02.130 PM 02/09/2016,Autonomous Enabled,0,TRUE,-35007,NetComm_CAN_Send.vi:5830007<APPEND>

<b>Complete call chain:</b>
     NetComm_CAN_Send.vi:5830007
     WPI_CANTalonSRX_SetParameter.vi
     WPI_CANTalonSRX_SetPID.vi
     ShooterVI.vi
     Periodic Tasks.vi
     Robot Main.vi,0.000000,0.000000,4000.000000,4000.000000,Speed,Speed,0.370000,-0.420000,1.800000,3.000000,103.000000,1,0,0.000000,0.000000,0,0.000000,0.000000,0.000000,-0.011612,-0.063980,0.000000,-0.002000,0.000000,0.014000
07:24:02.231 PM 02/09/2016,Autonomous Enabled,0,TRUE,-35007,NetComm_CAN_Send.vi:5830007<APPEND>

<b>Complete call chain:</b>
     NetComm_CAN_Send.vi:5830007
     WPI_CANTalonSRX_SetParameter.vi
     WPI_CANTalonSRX_SetPID.vi
     ShooterVI.vi
     Periodic Tasks.vi
     Robot Main.vi,0.000000,0.000000,4000.000000,4000.000000,Speed,Speed,0.380000,-0.440000,1.810000,3.000000,103.000000,1,0,0.000000,0.000000,0,0.000000,0.000000,0.000000,-0.011612,-0.063980,0.000000,0.000000,-0.002000,0.015000
07:24:02.331 PM 02/09/2016,Autonomous Enabled,0,TRUE,-35007,NetComm_CAN_Send.vi:5830007<APPEND>

<b>Complete call chain:</b>
     NetComm_CAN_Send.vi:5830007
     WPI_CANTalonSRX_SetParameter.vi
     WPI_CANTalonSRX_SetPID.vi
     ShooterVI.vi
     Periodic Tasks.vi
     Robot Main.vi,0.000000,0.000000,4000.000000,4000.000000,Speed,Speed,0.370000,-0.430000,1.820000,3.000000,101.000000,1,0,0.000000,0.000000,0,0.000000,0.000000,0.000000,-0.011612,-0.063980,0.000000,0.000000,-0.002000,0.019000
07:24:02.432 PM 02/09/2016,Autonomous Enabled,0,TRUE,-35007,NetComm_CAN_Send.vi:5830007<APPEND>

<b>Complete call chain:</b>
     NetComm_CAN_Send.vi:5830007
     WPI_CANTalonSRX_SetParameter.vi
     WPI_CANTalonSRX_SetPID.vi
     ShooterVI.vi
     Periodic Tasks.vi
     Robot Main.vi,0.000000,0.000000,4000.000000,4000.000000,Speed,Speed,0.370000,-0.440000,1.830000,3.000000,101.000000,1,0,0.000000,0.000000,0,0.000000,0.000000,0.000000,-0.011612,-0.063980,0.000000,-0.004000,0.001000,0.016000
07:24:02.533 PM 02/09/2016,Autonomous Enabled,0,TRUE,-35007,NetComm_CAN_Send.vi:5830007<APPEND>

<b>Complete call chain:</b>
     NetComm_CAN_Send.vi:5830007
     WPI_CANTalonSRX_SetParameter.vi
     WPI_CANTalonSRX_SetPID.vi
     ShooterVI.vi
     Periodic Tasks.vi
     Robot Main.vi,0.000000,0.000000,4000.000000,4000.000000,Speed,Speed,0.370000,-0.450000,1.820000,3.000000,103.000000,1,0,0.000000,0.000000,0,0.000000,0.000000,0.000000,-0.011612,-0.063980,0.000000,0.000000,-0.003000,0.016000
07:24:02.634 PM 02/09/2016,Autonomous Enabled,0,TRUE,-35007,NetComm_CAN_Send.vi:5830007<APPEND>

<b>Complete call chain:</b>
     NetComm_CAN_Send.vi:5830007
     WPI_CANTalonSRX_SetParameter.vi
     WPI_CANTalonSRX_SetPID.vi
     ShooterVI.vi
     Periodic Tasks.vi
     Robot Main.vi,0.000000,0.000000,4000.000000,4000.000000,Speed,Speed,0.370000,-0.440000,1.830000,3.000000,101.000000,1,0,0.000000,0.000000,0,0.000000,0.000000,0.000000,-0.011612,-0.063980,0.000000,0.004000,0.001000,0.017000
07:24:02.735 PM 02/09/2016,Autonomous Enabled,0,TRUE,-35007,NetComm_CAN_Send.vi:5830007<APPEND>

<b>Complete call chain:</b>
     NetComm_CAN_Send.vi:5830007
     WPI_CANTalonSRX_SetParameter.vi
     WPI_CANTalonSRX_SetPID.vi
     ShooterVI.vi
     Periodic Tasks.vi
     Robot Main.vi,0.000000,0.000000,4000.000000,4000.000000,Speed,Speed,0.370000,-0.430000,1.850000,3.000000,101.000000,1,0,0.000000,0.000000,0,0.000000,0.000000,0.000000,-0.011612,-0.063980,0.000000,-0.001000,0.000000,0.016000
07:24:02.836 PM 02/09/2016,Autonomous Enabled,0,TRUE,-35007,NetComm_CAN_Send.vi:5830007<APPEND>

<b>Complete call chain:</b>
     NetComm_CAN_Send.vi:5830007
     WPI_CANTalonSRX_SetParameter.vi
     WPI_CANTalonSRX_SetPID.vi
     ShooterVI.vi
     Periodic Tasks.vi
     Robot Main.vi,0.000000,0.000000,4000.000000,4000.000000,Speed,Speed,0.370000,-0.440000,1.830000,3.000000,101.000000,1,0,0.000000,0.000000,0,0.000000,0.000000,0.000000,-0.011612,-0.063980,0.000000,0.000000,-0.001000,0.017000
07:24:02.937 PM 02/09/2016,Autonomous Enabled,0,TRUE,-35007,NetComm_CAN_Send.vi:5830007<APPEND>

<b>Complete call chain:</b>
     NetComm_CAN_Send.vi:5830007
     WPI_CANTalonSRX_SetParameter.vi
     WPI_CANTalonSRX_SetPID.vi
     ShooterVI.vi
     Periodic Tasks.vi
     Robot Main.vi,0.000000,0.000000,4000.000000,4000.000000,Speed,Speed,0.370000,-0.440000,1.840000,3.000000,103.000000,1,0,0.000000,0.000000,0,0.000000,0.000000,0.000000,-0.011612,-0.063980,0.000000,0.001000,0.001000,0.013000
07:24:03.038 PM 02/09/2016,Autonomous Enabled,0,TRUE,-35007,NetComm_CAN_Send.vi:5830007<APPEND>

<b>Complete call chain:</b>
     NetComm_CAN_Send.vi:5830007
     WPI_CANTalonSRX_SetParameter.vi
     WPI_CANTalonSRX_SetPID.vi
     ShooterVI.vi
     Periodic Tasks.vi
     Robot Main.vi,0.000000,0.000000,4000.000000,4000.000000,Speed,Speed,0.370000,-0.440000,1.850000,3.000000,102.000000,1,0,0.000000,0.000000,0,0.000000,0.000000,0.000000,-0.011612,-0.063980,0.000000,0.000000,0.000000,0.018000
07:24:03.139 PM 02/09/2016,Autonomous Enabled,0,TRUE,-35007,NetComm_CAN_Send.vi:5830007<APPEND>

<b>Complete call chain:</b>
     NetComm_CAN_Send.vi:5830007
     WPI_CANTalonSRX_SetParameter.vi
     WPI_CANTalonSRX_SetPID.vi
     ShooterVI.vi
     Periodic Tasks.vi
     Robot Main.vi,0.000000,0.000000,4000.000000,4000.000000,Speed,Speed,0.370000,-0.440000,1.850000,3.000000,101.000000,1,0,0.000000,0.000000,0,0.000000,0.000000,0.000000,-0.011612,-0.063980,0.000000,0.001000,0.000000,0.014000
07:24:03.240 PM 02/09/2016,Autonomous Enabled,0,TRUE,-35007,NetComm_CAN_Send.vi:5830007<APPEND>

<b>Complete call chain:</b>
     NetComm_CAN_Send.vi:5830007
     WPI_CANTalonSRX_SetParameter.vi
     WPI_CANTalonSRX_SetPID.vi
     ShooterVI.vi
     Periodic Tasks.vi
     Robot Main.vi,0.000000,0.000000,4000.000000,4000.000000,Speed,Speed,0.370000,-0.440000,1.850000,3.000000,104.000000,1,0,0.000000,0.000000,0,0.000000,0.000000,0.000000,-0.011612,-0.063980,0.000000,-0.002000,0.000000,0.021000
07:24:03.341 PM 02/09/2016,Autonomous Enabled,0,TRUE,-35007,NetComm_CAN_Send.vi:5830009<APPEND>

<b>Complete call chain:</b>
     NetComm_CAN_Send.vi:5830009
     WPI_CANTalonSRX_Send.vi
     WPI_MotorControlSetOutput.vi
     ShooterVI.vi
     Periodic Tasks.vi
     Robot Main.vi,0.000000,0.000000,4000.000000,4000.000000,Speed,Speed,0.370000,-0.440000,1.850000,3.000000,103.000000,1,0,0.000000,0.000000,0,0.000000,0.000000,0.000000,-0.011612,-0.063980,0.000000,0.002000,-0.002000,0.020000
07:24:03.440 PM 02/09/2016,Autonomous Enabled,0,TRUE,-35007,NetComm_CAN_Send.vi:5830009<APPEND>

<b>Complete call chain:</b>
     NetComm_CAN_Send.vi:5830009
     WPI_CANTalonSRX_Send.vi
     WPI_MotorControlSetOutput.vi
     ShooterVI.vi
     Periodic Tasks.vi
     Robot Main.vi,0.000000,0.000000,4000.000000,4000.000000,Speed,Speed,0.370000,-0.430000,1.840000,3.000000,101.000000,1,0,0.000000,0.000000,0,0.000000,0.000000,0.000000,-0.011612,-0.063980,0.000000,0.000000,0.000000,0.017000
07:24:03.540 PM 02/09/2016,Autonomous Enabled,0,TRUE,-35007,NetComm_CAN_Send.vi:5830009<APPEND>

<b>Complete call chain:</b>
     NetComm_CAN_Send.vi:5830009
     WPI_CANTalonSRX_Send.vi
     WPI_MotorControlSetOutput.vi
     ShooterVI.vi
     Periodic Tasks.vi
     Robot Main.vi,0.000000,0.000000,4000.000000,4000.000000,Speed,Speed,0.370000,-0.430000,1.850000,3.000000,104.000000,1,0,0.000000,0.000000,0,0.000000,0.000000,0.000000,-0.011612,-0.063980,0.000000,0.000000,-0.001000,0.015000
07:24:03.640 PM 02/09/2016,Autonomous Enabled,0,TRUE,-35007,NetComm_CAN_Send.vi:5830009<APPEND>

<b>Complete call chain:</b>
     NetComm_CAN_Send.vi:5830009
     WPI_CANTalonSRX_Send.vi
     WPI_MotorControlSetOutput.vi
     ShooterVI.vi
     Periodic Tasks.vi
     Robot Main.vi,0.000000,0.000000,4000.000000,4000.000000,Speed,Speed,0.370000,-0.430000,1.870000,3.000000,101.000000,1,0,0.000000,0.000000,0,0.000000,0.000000,0.000000,-0.011612,-0.063980,0.000000,0.000000,0.002000,0.016000
07:24:03.741 PM 02/09/2016,Autonomous Enabled,0,TRUE,-35007,NetComm_CAN_Send.vi:5830009<APPEND>

<b>Complete call chain:</b>
     NetComm_CAN_Send.vi:5830009
     WPI_CANTalonSRX_Send.vi
     WPI_MotorControlSetOutput.vi
     ShooterVI.vi
     Periodic Tasks.vi
     Robot Main.vi,0.000000,0.000000,4000.000000,4000.000000,Speed,Speed,0.370000,-0.430000,1.870000,3.000000,101.000000,1,0,0.000000,0.000000,0,0.000000,0.000000,0.000000,-0.011612,-0.063980,0.000000,0.000000,-0.003000,0.019000
07:24:03.840 PM 02/09/2016,Autonomous Enabled,0,TRUE,-35007,NetComm_CAN_Send.vi:5830009<APPEND>

<b>Complete call chain:</b>
     NetComm_CAN_Send.vi:5830009
     WPI_CANTalonSRX_Send.vi
     WPI_MotorControlSetOutput.vi
     ShooterVI.vi
     Periodic Tasks.vi
     Robot Main.vi,0.000000,0.000000,4000.000000,4000.000000,Speed,Speed,0.370000,-0.420000,1.890000,3.000000,101.000000,1,0,0.000000,0.000000,0,0.000000,0.000000,0.000000,-0.011612,-0.063980,0.000000,0.000000,0.000000,0.019000
07:24:03.940 PM 02/09/2016,Autonomous Enabled,0,TRUE,-35007,NetComm_CAN_Send.vi:5830009<APPEND>

<b>Complete call chain:</b>
     NetComm_CAN_Send.vi:5830009
     WPI_CANTalonSRX_Send.vi
     WPI_MotorControlSetOutput.vi
     ShooterVI.vi
     Periodic Tasks.vi
     Robot Main.vi,0.000000,0.000000,4000.000000,4000.000000,Speed,Speed,0.370000,-0.420000,1.940000,3.000000,103.000000,1,0,0.000000,0.000000,0,0.000000,0.000000,0.000000,-0.011612,-0.063980,0.000000,0.001000,0.000000,0.013000
07:24:04.040 PM 02/09/2016,Autonomous Enabled,0,TRUE,-35007,NetComm_CAN_Send.vi:5830009<APPEND>

<b>Complete call chain:</b>
     NetComm_CAN_Send.vi:5830009
     WPI_CANTalonSRX_Send.vi
     WPI_MotorControlSetOutput.vi
     ShooterVI.vi
     Periodic Tasks.vi
     Robot Main.vi,0.000000,0.000000,4000.000000,4000.000000,Speed,Speed,0.370000,-0.420000,2.010000,3.000000,100.000000,1,0,0.000000,0.000000,0,0.000000,0.000000,0.000000,-0.011612,-0.063980,0.000000,0.000000,0.002000,0.014000
07:24:04.140 PM 02/09/2016,Autonomous Enabled,0,TRUE,-35007,NetComm_CAN_Send.vi:5830009<APPEND>

<b>Complete call chain:</b>
     NetComm_CAN_Send.vi:5830009
     WPI_CANTalonSRX_Send.vi
     WPI_MotorControlSetOutput.vi
     ShooterVI.vi
     Periodic Tasks.vi
     Robot Main.vi,0.000000,0.000000,4000.000000,4000.000000,Speed,Speed,0.370000,-0.420000,2.060000,3.000000,102.000000,1,0,0.000000,0.000000,0,0.000000,0.000000,0.000000,-0.011612,-0.063980,0.000000,0.000000,0.003000,0.021000
07:24:04.240 PM 02/09/2016,Autonomous Enabled,0,TRUE,-35007,NetComm_CAN_Send.vi:5830009<APPEND>

<b>Complete call chain:</b>
     NetComm_CAN_Send.vi:5830009
     WPI_CANTalonSRX_Send.vi
     WPI_MotorControlSetOutput.vi
     ShooterVI.vi
     Periodic Tasks.vi
     Robot Main.vi,0.000000,0.000000,4000.000000,4000.000000,Speed,Speed,0.370000,-0.420000,2.050000,3.000000,104.000000,1,0,0.000000,0.000000,0,0.000000,0.000000,0.000000,-0.011612,-0.063980,0.000000,0.000000,-0.002000,0.014000
07:24:04.341 PM 02/09/2016,Autonomous Enabled,0,TRUE,-35007,NetComm_CAN_Send.vi:5830009<APPEND>

<b>Complete call chain:</b>
     NetComm_CAN_Send.vi:5830009
     WPI_CANTalonSRX_Send.vi
     WPI_MotorControlSetOutput.vi
     ShooterVI.vi
     Periodic Tasks.vi
     Robot Main.vi,0.000000,0.000000,4000.000000,4000.000000,Speed,Speed,0.370000,-0.420000,2.040000,3.000000,100.000000,1,0,0.000000,0.000000,0,0.000000,0.000000,0.000000,-0.011612,-0.063980,0.000000,0.000000,-0.001000,0.015000
07:24:04.440 PM 02/09/2016,Autonomous Enabled,0,TRUE,-35007,NetComm_CAN_Send.vi:5830009<APPEND>

<b>Complete call chain:</b>
     NetComm_CAN_Send.vi:5830009
     WPI_CANTalonSRX_Send.vi
     WPI_MotorControlSetOutput.vi
     ShooterVI.vi
     Periodic Tasks.vi
     Robot Main.vi,0.000000,0.000000,4000.000000,4000.000000,Speed,Speed,0.370000,-0.420000,2.040000,3.000000,103.000000,1,0,0.000000,0.000000,0,0.000000,0.000000,0.000000,-0.011612,-0.063980,0.000000,0.000000,-0.002000,0.018000
07:24:04.540 PM 02/09/2016,Autonomous Enabled,0,TRUE,-35007,NetComm_CAN_Send.vi:5830010<APPEND>

<b>Complete call chain:</b>
     NetComm_CAN_Send.vi:5830010
     WPI_CANTalonSRX_Send.vi
     WPI_MotorControlSetOutput.vi
     ShooterVI.vi
     Periodic Tasks.vi
     Robot Main.vi,0.000000,0.000000,4000.000000,4000.000000,Speed,Speed,0.370000,-0.420000,2.040000,3.000000,101.000000,1,0,0.000000,0.000000,0,0.000000,0.000000,0.000000,-0.011612,-0.063980,0.000000,0.000000,0.000000,0.015000
07:24:04.640 PM 02/09/2016,Autonomous Enabled,0,TRUE,-35007,NetComm_CAN_Send.vi:5830009<APPEND>

<b>Complete call chain:</b>
     NetComm_CAN_Send.vi:5830009
     WPI_CANTalonSRX_Send.vi
     WPI_MotorControlSetOutput.vi
     ShooterVI.vi
     Periodic Tasks.vi
     Robot Main.vi,0.000000,0.000000,4000.000000,4000.000000,Speed,Speed,0.370000,-0.420000,2.050000,3.000000,100.000000,1,0,0.000000,0.000000,0,0.000000,0.000000,0.000000,-0.011612,-0.063980,0.000000,0.003000,0.000000,0.015000
07:24:04.740 PM 02/09/2016,Autonomous Enabled,0,TRUE,-35007,NetComm_CAN_Send.vi:5830009<APPEND>

<b>Complete call chain:</b>
     NetComm_CAN_Send.vi:5830009
     WPI_CANTalonSRX_Send.vi
     WPI_MotorControlSetOutput.vi
     ShooterVI.vi
     Periodic Tasks.vi
     Robot Main.vi,0.000000,0.000000,4000.000000,4000.000000,Speed,Speed,0.370000,-0.420000,2.060000,3.000000,100.000000,1,0,0.000000,0.000000,0,0.000000,0.000000,0.000000,-0.011612,-0.063980,0.000000,0.002000,0.001000,0.014000
07:24:04.841 PM 02/09/2016,Autonomous Enabled,0,TRUE,-35007,NetComm_CAN_Send.vi:5830009<APPEND>

<b>Complete call chain:</b>
     NetComm_CAN_Send.vi:5830009
     WPI_CANTalonSRX_Send.vi
     WPI_MotorControlSetOutput.vi
     ShooterVI.vi
     Periodic Tasks.vi
     Robot Main.vi,0.000000,0.000000,4000.000000,4000.000000,Speed,Speed,0.370000,-0.420000,2.050000,3.000000,102.000000,1,0,0.000000,0.000000,0,0.000000,0.000000,0.000000,-0.011612,-0.063980,0.000000,0.001000,-0.002000,0.018000
07:24:04.941 PM 02/09/2016,Autonomous Enabled,0,TRUE,-35007,NetComm_CAN_Send.vi:5830009<APPEND>

<b>Complete call chain:</b>
     NetComm_CAN_Send.vi:5830009
     WPI_CANTalonSRX_Send.vi
     WPI_MotorControlSetOutput.vi
     ShooterVI.vi
     Periodic Tasks.vi
     Robot Main.vi,0.000000,0.000000,4000.000000,4000.000000,Speed,Speed,0.370000,-0.420000,2.050000,3.000000,102.000000,1,0,0.000000,0.000000,0,0.000000,0.000000,0.000000,-0.011612,-0.063980,0.000000,0.000000,0.000000,0.016000
07:24:05.041 PM 02/09/2016,Autonomous Enabled,0,TRUE,-35007,NetComm_CAN_Send.vi:5830009<APPEND>

<b>Complete call chain:</b>
     NetComm_CAN_Send.vi:5830009
     WPI_CANTalonSRX_Send.vi
     WPI_MotorControlSetOutput.vi
     ShooterVI.vi
     Periodic Tasks.vi
     Robot Main.vi,0.000000,0.000000,4000.000000,4000.000000,Speed,Speed,0.370000,-0.420000,2.060000,3.000000,101.000000,1,0,0.000000,0.000000,0,0.000000,0.000000,0.000000,-0.011612,-0.063980,0.000000,0.002000,0.005000,0.017000
07:24:05.141 PM 02/09/2016,Autonomous Enabled,0,TRUE,-35007,NetComm_CAN_Send.vi:5830009<APPEND>

<b>Complete call chain:</b>
     NetComm_CAN_Send.vi:5830009
     WPI_CANTalonSRX_Send.vi
     WPI_MotorControlSetOutput.vi
     ShooterVI.vi
     Periodic Tasks.vi
     Robot Main.vi,0.000000,0.000000,4000.000000,4000.000000,Speed,Speed,0.370000,-0.420000,2.050000,3.000000,104.000000,1,0,0.000000,0.000000,0,0.000000,0.000000,0.000000,-0.011612,-0.063980,0.000000,0.001000,0.000000,0.019000
07:24:05.241 PM 02/09/2016,Autonomous Enabled,0,TRUE,-35007,NetComm_CAN_Send.vi:5830010<APPEND>

<b>Complete call chain:</b>
     NetComm_CAN_Send.vi:5830010
     WPI_CANTalonSRX_Send.vi
     WPI_MotorControlSetOutput.vi
     ShooterVI.vi
     Periodic Tasks.vi
     Robot Main.vi,0.000000,0.000000,4000.000000,4000.000000,Speed,Speed,0.370000,-0.420000,2.060000,3.000000,101.000000,1,0,0.000000,0.000000,0,0.000000,0.000000,0.000000,-0.011612,-0.063980,0.000000,0.000000,0.000000,0.017000
07:24:05.341 PM 02/09/2016,Autonomous Enabled,0,TRUE,-35007,NetComm_CAN_Send.vi:5830009<APPEND>

<b>Complete call chain:</b>
     NetComm_CAN_Send.vi:5830009
     WPI_CANTalonSRX_Send.vi
     WPI_MotorControlSetOutput.vi
     ShooterVI.vi
     Periodic Tasks.vi
     Robot Main.vi,0.000000,0.000000,4000.000000,4000.000000,Speed,Speed,0.370000,-0.420000,2.060000,3.000000,105.000000,1,0,0.000000,0.000000,0,0.000000,0.000000,0.000000,-0.011612,-0.063980,0.000000,-0.001000,0.003000,0.015000
07:24:05.441 PM 02/09/2016,Autonomous Enabled,0,TRUE,-35007,NetComm_CAN_Send.vi:5830009<APPEND>

<b>Complete call chain:</b>
     NetComm_CAN_Send.vi:5830009
     WPI_CANTalonSRX_Send.vi
     WPI_MotorControlSetOutput.vi
     ShooterVI.vi
     Periodic Tasks.vi
     Robot Main.vi,0.000000,0.000000,4000.000000,4000.000000,Speed,Speed,0.370000,-0.420000,2.060000,3.000000,101.000000,1,0,0.000000,0.000000,0,0.000000,0.000000,0.000000,-0.011612,-0.063980,0.000000,0.001000,-0.002000,0.016000
07:24:05.542 PM 02/09/2016,Autonomous Enabled,0,TRUE,-35007,NetComm_CAN_Send.vi:5830010<APPEND>

<b>Complete call chain:</b>
     NetComm_CAN_Send.vi:5830010
     WPI_CANTalonSRX_Send.vi
     WPI_MotorControlSetOutput.vi
     ShooterVI.vi
     Periodic Tasks.vi
     Robot Main.vi,0.000000,0.000000,4000.000000,4000.000000,Speed,Speed,0.360000,-0.420000,2.060000,3.000000,101.000000,1,0,0.000000,0.000000,0,0.000000,0.000000,0.000000,-0.011612,-0.063980,0.000000,0.000000,0.000000,0.020000
07:24:05.643 PM 02/09/2016,Autonomous Enabled,0,TRUE,-35007,NetComm_CAN_Send.vi:5830009<APPEND>

<b>Complete call chain:</b>
     NetComm_CAN_Send.vi:5830009
     WPI_CANTalonSRX_Send.vi
     WPI_MotorControlSetOutput.vi
     ShooterVI.vi
     Periodic Tasks.vi
     Robot Main.vi,0.000000,0.000000,4000.000000,4000.000000,Speed,Speed,0.360000,-0.420000,2.050000,3.000000,103.000000,1,0,0.000000,0.000000,0,0.000000,0.000000,0.000000,-0.011612,-0.063980,0.000000,0.000000,0.000000,0.021000
07:24:05.743 PM 02/09/2016,Autonomous Enabled,0,TRUE,-35007,NetComm_CAN_Send.vi:5830009<APPEND>

<b>Complete call chain:</b>
     NetComm_CAN_Send.vi:5830009
     WPI_CANTalonSRX_Send.vi
     WPI_MotorControlSetOutput.vi
     ShooterVI.vi
     Periodic Tasks.vi
     Robot Main.vi,0.000000,0.000000,4000.000000,4000.000000,Speed,Speed,0.370000,-0.420000,2.040000,3.000000,100.000000,1,0,0.000000,0.000000,0,0.000000,0.000000,0.000000,-0.011612,-0.063980,0.000000,0.001000,-0.003000,0.017000
07:24:05.843 PM 02/09/2016,Autonomous Enabled,0,TRUE,-35007,NetComm_CAN_Send.vi:5830009<APPEND>

<b>Complete call chain:</b>
     NetComm_CAN_Send.vi:5830009
     WPI_CANTalonSRX_Send.vi
     WPI_MotorControlSetOutput.vi
     ShooterVI.vi
     Periodic Tasks.vi
     Robot Main.vi,0.000000,0.000000,4000.000000,4000.000000,Speed,Speed,0.370000,-0.420000,2.040000,3.000000,101.000000,1,0,0.000000,0.000000,0,0.000000,0.000000,0.000000,-0.011612,-0.063980,0.000000,0.003000,0.000000,0.015000
07:24:05.943 PM 02/09/2016,Autonomous Enabled,0,TRUE,-35007,NetComm_CAN_Send.vi:5830009<APPEND>

<b>Complete call chain:</b>
     NetComm_CAN_Send.vi:5830009
     WPI_CANTalonSRX_Send.vi
     WPI_MotorControlSetOutput.vi
     ShooterVI.vi
     Periodic Tasks.vi
     Robot Main.vi,0.000000,0.000000,4000.000000,4000.000000,Speed,Speed,0.370000,-0.410000,2.050000,3.000000,101.000000,1,0,0.000000,0.000000,0,0.000000,0.000000,0.000000,-0.011612,-0.063980,0.000000,-0.001000,-0.001000,0.015000
07:24:06.043 PM 02/09/2016,Autonomous Enabled,0,TRUE,-35007,NetComm_CAN_Send.vi:5830009<APPEND>

<b>Complete call chain:</b>
     NetComm_CAN_Send.vi:5830009
     WPI_CANTalonSRX_Send.vi
     WPI_MotorControlSetOutput.vi
     ShooterVI.vi
     Periodic Tasks.vi
     Robot Main.vi,0.000000,0.000000,4000.000000,4000.000000,Speed,Speed,0.370000,-0.420000,2.040000,3.000000,104.000000,1,0,0.000000,0.000000,0,0.000000,0.000000,0.000000,-0.011612,-0.063980,0.000000,0.000000,-0.001000,0.019000
07:24:06.144 PM 02/09/2016,Autonomous Enabled,0,TRUE,-35007,NetComm_CAN_Send.vi:5830009<APPEND>

<b>Complete call chain:</b>
     NetComm_CAN_Send.vi:5830009
     WPI_CANTalonSRX_Send.vi
     WPI_MotorControlSetOutput.vi
     ShooterVI.vi
     Periodic Tasks.vi
     Robot Main.vi,0.000000,0.000000,4000.000000,4000.000000,Speed,Speed,0.360000,-0.420000,2.040000,3.000000,102.000000,1,0,0.000000,0.000000,0,0.000000,0.000000,0.000000,-0.011612,-0.063980,0.000000,-0.001000,0.005000,0.019000
07:24:06.245 PM 02/09/2016,Autonomous Enabled,0,TRUE,-35007,NetComm_CAN_Send.vi:5830009<APPEND>

<b>Complete call chain:</b>
     NetComm_CAN_Send.vi:5830009
     WPI_CANTalonSRX_Send.vi
     WPI_MotorControlSetOutput.vi
     ShooterVI.vi
     Periodic Tasks.vi
     Robot Main.vi,0.000000,0.000000,4000.000000,4000.000000,Speed,Speed,0.360000,-0.420000,2.040000,3.000000,108.000000,1,0,0.000000,0.000000,0,0.000000,0.000000,0.000000,-0.011612,-0.063980,0.000000,0.002000,0.000000,0.018000
07:24:06.346 PM 02/09/2016,Autonomous Enabled,0,TRUE,-35007,NetComm_CAN_Send.vi:5830009<APPEND>

<b>Complete call chain:</b>
     NetComm_CAN_Send.vi:5830009
     WPI_CANTalonSRX_Send.vi
     WPI_MotorControlSetOutput.vi
     ShooterVI.vi
     Periodic Tasks.vi
     Robot Main.vi,0.000000,0.000000,4000.000000,4000.000000,Speed,Speed,0.360000,-0.420000,2.040000,3.000000,101.000000,1,0,0.000000,0.000000,0,0.000000,0.000000,0.000000,-0.011612,-0.063980,0.000000,-0.001000,0.000000,0.018000
07:24:06.446 PM 02/09/2016,Autonomous Enabled,0,TRUE,-35007,NetComm_CAN_Send.vi:5830009<APPEND>

<b>Complete call chain:</b>
     NetComm_CAN_Send.vi:5830009
     WPI_CANTalonSRX_Send.vi
     WPI_MotorControlSetOutput.vi
     ShooterVI.vi
     Periodic Tasks.vi
     Robot Main.vi,0.000000,0.000000,4000.000000,4000.000000,Speed,Speed,0.360000,-0.420000,2.040000,3.000000,102.000000,1,0,0.000000,0.000000,0,0.000000,0.000000,0.000000,-0.011612,-0.063980,0.000000,0.000000,0.000000,0.019000
07:24:06.547 PM 02/09/2016,Autonomous Enabled,0,TRUE,-35007,NetComm_CAN_Send.vi:5830009<APPEND>

<b>Complete call chain:</b>
     NetComm_CAN_Send.vi:5830009
     WPI_CANTalonSRX_Send.vi
     WPI_MotorControlSetOutput.vi
     ShooterVI.vi
     Periodic Tasks.vi
     Robot Main.vi,0.000000,0.000000,4000.000000,4000.000000,Speed,Speed,0.370000,-0.420000,2.040000,3.000000,101.000000,1,0,0.000000,0.000000,0,0.000000,0.000000,0.000000,-0.011612,-0.063980,0.000000,0.000000,0.001000,0.019000
07:24:06.649 PM 02/09/2016,Autonomous Enabled,0,TRUE,-35007,NetComm_CAN_Send.vi:5830009<APPEND>

<b>Complete call chain:</b>
     NetComm_CAN_Send.vi:5830009
     WPI_CANTalonSRX_Send.vi
     WPI_MotorControlSetOutput.vi
     ShooterVI.vi
     Periodic Tasks.vi
     Robot Main.vi,0.000000,0.000000,4000.000000,4000.000000,Speed,Speed,0.360000,-0.420000,2.040000,3.000000,103.000000,1,0,0.000000,0.000000,0,0.000000,0.000000,0.000000,-0.011612,-0.063980,0.000000,0.000000,0.002000,0.016000
07:24:06.748 PM 02/09/2016,Autonomous Enabled,0,TRUE,-35007,NetComm_CAN_Send.vi:5830009<APPEND>

<b>Complete call chain:</b>
     NetComm_CAN_Send.vi:5830009
     WPI_CANTalonSRX_Send.vi
     WPI_MotorControlSetOutput.vi
     ShooterVI.vi
     Periodic Tasks.vi
     Robot Main.vi,0.000000,0.000000,4000.000000,4000.000000,Speed,Speed,0.360000,-0.430000,2.040000,3.000000,103.000000,1,0,0.000000,0.000000,0,0.000000,0.000000,0.000000,-0.011612,-0.063980,0.000000,0.000000,0.000000,0.012000
07:24:06.849 PM 02/09/2016,Autonomous Enabled,0,TRUE,-35007,NetComm_CAN_Send.vi:5830009<APPEND>

<b>Complete call chain:</b>
     NetComm_CAN_Send.vi:5830009
     WPI_CANTalonSRX_Send.vi
     WPI_MotorControlSetOutput.vi
     ShooterVI.vi
     Periodic Tasks.vi
     Robot Main.vi,0.000000,0.000000,4000.000000,4000.000000,Speed,Speed,0.360000,-0.420000,2.030000,3.000000,101.000000,1,0,0.000000,0.000000,0,0.000000,0.000000,0.000000,-0.011612,-0.063980,0.000000,0.000000,0.001000,0.016000
07:24:06.949 PM 02/09/2016,Autonomous Enabled,0,TRUE,-35007,NetComm_CAN_Send.vi:5830009<APPEND>

<b>Complete call chain:</b>
     NetComm_CAN_Send.vi:5830009
     WPI_CANTalonSRX_Send.vi
     WPI_MotorControlSetOutput.vi
     ShooterVI.vi
     Periodic Tasks.vi
     Robot Main.vi,0.000000,0.000000,4000.000000,4000.000000,Speed,Speed,0.370000,-0.420000,2.040000,3.000000,102.000000,1,0,0.000000,0.000000,0,0.000000,0.000000,0.000000,-0.011612,-0.063980,0.000000,0.001000,0.000000,0.015000
07:24:07.050 PM 02/09/2016,Autonomous Enabled,0,TRUE,-35007,NetComm_CAN_Send.vi:5830009<APPEND>

<b>Complete call chain:</b>
     NetComm_CAN_Send.vi:5830009
     WPI_CANTalonSRX_Send.vi
     WPI_MotorControlSetOutput.vi
     ShooterVI.vi
     Periodic Tasks.vi
     Robot Main.vi,0.000000,0.000000,4000.000000,4000.000000,Speed,Speed,0.370000,-0.420000,2.040000,3.000000,101.000000,1,0,0.000000,0.000000,0,0.000000,0.000000,0.000000,-0.011612,-0.063980,0.000000,0.001000,0.000000,0.015000
07:24:07.151 PM 02/09/2016,Autonomous Disabled,0,TRUE,-35007,NetComm_CAN_Send.vi:5830009<APPEND>

<b>Complete call chain:</b>
     NetComm_CAN_Send.vi:5830009
     WPI_CANTalonSRX_Send.vi
     WPI_MotorControlSetOutput.vi
     ShooterVI.vi
     Periodic Tasks.vi
     Robot Main.vi,0.000000,0.000000,4000.000000,4000.000000,Speed,Speed,0.370000,-0.420000,2.030000,3.000000,101.000000,1,0,0.000000,0.000000,0,0.000000,0.000000,0.000000,-0.011612,-0.063980,0.000000,-0.001000,0.002000,0.014000
07:24:07.250 PM 02/09/2016,Autonomous Disabled,0,TRUE,-35007,NetComm_CAN_Send.vi:5830009<APPEND>

<b>Complete call chain:</b>
     NetComm_CAN_Send.vi:5830009
     WPI_CANTalonSRX_Send.vi
     WPI_MotorControlSetOutput.vi
     ShooterVI.vi
     Periodic Tasks.vi
     Robot Main.vi,0.000000,0.000000,4000.000000,4000.000000,Speed,Speed,0.360000,-0.420000,2.030000,3.000000,105.000000,1,0,0.000000,0.000000,0,0.000000,0.000000,0.000000,-0.011612,-0.063980,0.000000,0.002000,-0.003000,0.017000
07:24:07.351 PM 02/09/2016,Autonomous Disabled,0,TRUE,-35007,NetComm_CAN_Send.vi:5830010<APPEND>

<b>Complete call chain:</b>
     NetComm_CAN_Send.vi:5830010
     WPI_CANTalonSRX_Send.vi
     WPI_MotorControlSetOutput.vi
     ShooterVI.vi
     Periodic Tasks.vi
     Robot Main.vi,0.000000,0.000000,4000.000000,4000.000000,Speed,Speed,0.360000,-0.410000,2.030000,3.000000,101.000000,1,0,0.000000,0.000000,0,0.000000,0.000000,0.000000,-0.011612,-0.063980,0.000000,0.000000,0.002000,0.016000
07:24:07.452 PM 02/09/2016,Autonomous Disabled,0,TRUE,-35007,NetComm_CAN_Send.vi:5830009<APPEND>

<b>Complete call chain:</b>
     NetComm_CAN_Send.vi:5830009
     WPI_CANTalonSRX_Send.vi
     WPI_MotorControlSetOutput.vi
     ShooterVI.vi
     Periodic Tasks.vi
     Robot Main.vi,0.000000,0.000000,4000.000000,4000.000000,Speed,Speed,0.360000,-0.420000,2.030000,3.000000,101.000000,1,0,0.000000,0.000000,0,0.000000,0.000000,0.000000,-0.011612,-0.063980,0.000000,0.002000,0.001000,0.020000
07:24:07.552 PM 02/09/2016,Autonomous Disabled,0,TRUE,-35007,NetComm_CAN_Send.vi:5830010<APPEND>

<b>Complete call chain:</b>
     NetComm_CAN_Send.vi:5830010
     WPI_CANTalonSRX_Send.vi
     WPI_MotorControlSetOutput.vi
     ShooterVI.vi
     Periodic Tasks.vi
     Robot Main.vi,0.000000,0.000000,4000.000000,4000.000000,Speed,Speed,0.360000,-0.410000,2.020000,3.000000,103.000000,1,0,0.000000,0.000000,0,0.000000,0.000000,0.000000,-0.011612,-0.063980,0.000000,0.001000,-0.002000,0.019000
07:24:07.653 PM 02/09/2016,Autonomous Disabled,0,TRUE,-35007,NetComm_CAN_Send.vi:5830009<APPEND>

<b>Complete call chain:</b>
     NetComm_CAN_Send.vi:5830009
     WPI_CANTalonSRX_Send.vi
     WPI_MotorControlSetOutput.vi
     ShooterVI.vi
     Periodic Tasks.vi
     Robot Main.vi,0.000000,0.000000,4000.000000,4000.000000,Speed,Speed,0.360000,-0.400000,2.020000,3.000000,101.000000,1,0,0.000000,0.000000,0,0.000000,0.000000,0.000000,-0.011612,-0.063980,0.000000,-0.005000,0.001000,0.016000
07:24:07.752 PM 02/09/2016,Autonomous Disabled,0,TRUE,-35007,NetComm_CAN_Send.vi:5830009<APPEND>

<b>Complete call chain:</b>
     NetComm_CAN_Send.vi:5830009
     WPI_CANTalonSRX_Send.vi
     WPI_MotorControlSetOutput.vi
     ShooterVI.vi
     Periodic Tasks.vi
     Robot Main.vi,0.000000,0.000000,4000.000000,4000.000000,Speed,Speed,0.360000,-0.410000,2.040000,3.000000,102.000000,1,0,0.000000,0.000000,0,0.000000,0.000000,0.000000,-0.011612,-0.063980,0.000000,0.001000,0.000000,0.018000
07:24:07.853 PM 02/09/2016,Autonomous Disabled,0,TRUE,-35007,NetComm_CAN_Send.vi:5830009<APPEND>

<b>Complete call chain:</b>
     NetComm_CAN_Send.vi:5830009
     WPI_CANTalonSRX_Send.vi
     WPI_MotorControlSetOutput.vi
     ShooterVI.vi
     Periodic Tasks.vi
     Robot Main.vi,0.000000,0.000000,4000.000000,4000.000000,Speed,Speed,0.360000,-0.420000,2.040000,3.000000,101.000000,1,0,0.000000,0.000000,0,0.000000,0.000000,0.000000,-0.011612,-0.063980,0.000000,0.000000,0.000000,0.015000
07:24:07.954 PM 02/09/2016,Autonomous Disabled,0,TRUE,-35007,NetComm_CAN_Send.vi:5830009<APPEND>

<b>Complete call chain:</b>
     NetComm_CAN_Send.vi:5830009
     WPI_CANTalonSRX_Send.vi
     WPI_MotorControlSetOutput.vi
     ShooterVI.vi
     Periodic Tasks.vi
     Robot Main.vi,0.000000,0.000000,4000.000000,4000.000000,Speed,Speed,0.360000,-0.420000,2.020000,3.000000,102.000000,1,0,0.000000,0.000000,0,0.000000,0.000000,0.000000,-0.011612,-0.063980,0.000000,-0.001000,0.003000,0.016000
07:24:08.055 PM 02/09/2016,Autonomous Disabled,0,TRUE,-35007,NetComm_CAN_Send.vi:5830009<APPEND>

<b>Complete call chain:</b>
     NetComm_CAN_Send.vi:5830009
     WPI_CANTalonSRX_Send.vi
     WPI_MotorControlSetOutput.vi
     ShooterVI.vi
     Periodic Tasks.vi
     Robot Main.vi,0.000000,0.000000,4000.000000,4000.000000,Speed,Speed,0.360000,-0.420000,2.040000,3.000000,101.000000,1,0,0.000000,0.000000,0,0.000000,0.000000,0.000000,-0.011612,-0.063980,0.000000,0.000000,-0.002000,0.015000
07:24:08.156 PM 02/09/2016,Autonomous Disabled,0,TRUE,-35007,NetComm_CAN_Send.vi:5830009<APPEND>

<b>Complete call chain:</b>
     NetComm_CAN_Send.vi:5830009
     WPI_CANTalonSRX_Send.vi
     WPI_MotorControlSetOutput.vi
     ShooterVI.vi
     Periodic Tasks.vi
     Robot Main.vi,0.000000,0.000000,4000.000000,4000.000000,Speed,Speed,0.360000,-0.420000,2.040000,3.000000,101.000000,1,0,0.000000,0.000000,0,0.000000,0.000000,0.000000,-0.011612,-0.063980,0.000000,0.000000,0.002000,0.013000
07:24:08.257 PM 02/09/2016,Autonomous Disabled,0,TRUE,-35007,NetComm_CAN_Send.vi:5830009<APPEND>

<b>Complete call chain:</b>
     NetComm_CAN_Send.vi:5830009
     WPI_CANTalonSRX_Send.vi
     WPI_MotorControlSetOutput.vi
     ShooterVI.vi
     Periodic Tasks.vi
     Robot Main.vi,0.000000,0.000000,4000.000000,4000.000000,Speed,Speed,0.360000,-0.420000,2.040000,3.000000,101.000000,1,0,0.000000,0.000000,0,0.000000,0.000000,0.000000,-0.011612,-0.063980,0.000000,-0.003000,0.000000,0.018000
07:24:08.357 PM 02/09/2016,Autonomous Disabled,0,TRUE,-35007,NetComm_CAN_Send.vi:5830009<APPEND>

<b>Complete call chain:</b>
     NetComm_CAN_Send.vi:5830009
     WPI_CANTalonSRX_Send.vi
     WPI_MotorControlSetOutput.vi
     ShooterVI.vi
     Periodic Tasks.vi
     Robot Main.vi,0.000000,0.000000,4000.000000,4000.000000,Speed,Speed,0.360000,-0.420000,2.040000,3.000000,101.000000,1,0,0.000000,0.000000,0,0.000000,0.000000,0.000000,-0.011612,-0.063980,0.000000,0.002000,-0.001000,0.013000
07:24:08.457 PM 02/09/2016,Autonomous Disabled,0,TRUE,-35007,NetComm_CAN_Send.vi:5830009<APPEND>

<b>Complete call chain:</b>
     NetComm_CAN_Send.vi:5830009
     WPI_CANTalonSRX_Send.vi
     WPI_MotorControlSetOutput.vi
     ShooterVI.vi
     Periodic Tasks.vi
     Robot Main.vi,0.000000,0.000000,4000.000000,4000.000000,Speed,Speed,0.360000,-0.410000,2.040000,3.000000,100.000000,1,0,0.000000,0.000000,0,0.000000,0.000000,0.000000,-0.011612,-0.063980,0.000000,0.000000,0.000000,0.018000
07:24:08.558 PM 02/09/2016,Autonomous Disabled,0,TRUE,-35007,NetComm_CAN_Send.vi:5830009<APPEND>

<b>Complete call chain:</b>
     NetComm_CAN_Send.vi:5830009
     WPI_CANTalonSRX_Send.vi
     WPI_MotorControlSetOutput.vi
     ShooterVI.vi
     Periodic Tasks.vi
     Robot Main.vi,0.000000,0.000000,4000.000000,4000.000000,Speed,Speed,0.360000,-0.410000,2.050000,3.000000,103.000000,1,0,0.000000,0.000000,0,0.000000,0.000000,0.000000,-0.011612,-0.063980,0.000000,-0.002000,0.000000,0.015000
07:24:08.658 PM 02/09/2016,Autonomous Disabled,0,TRUE,-35007,NetComm_CAN_Send.vi:5830009<APPEND>

<b>Complete call chain:</b>
     NetComm_CAN_Send.vi:5830009
     WPI_CANTalonSRX_Send.vi
     WPI_MotorControlSetOutput.vi
     ShooterVI.vi
     Periodic Tasks.vi
     Robot Main.vi,0.000000,0.000000,4000.000000,4000.000000,Speed,Speed,0.360000,-0.420000,2.040000,3.000000,102.000000,1,0,0.000000,0.000000,0,0.000000,0.000000,0.000000,-0.011612,-0.063980,0.000000,0.000000,0.000000,0.021000
07:24:08.758 PM 02/09/2016,Autonomous Disabled,0,TRUE,-35007,NetComm_CAN_Send.vi:5830010<APPEND>

<b>Complete call chain:</b>
     NetComm_CAN_Send.vi:5830010
     WPI_CANTalonSRX_Send.vi
     WPI_MotorControlSetOutput.vi
     ShooterVI.vi
     Periodic Tasks.vi
     Robot Main.vi,0.000000,0.000000,4000.000000,4000.000000,Speed,Speed,0.360000,-0.410000,2.050000,3.000000,102.000000,1,0,0.000000,0.000000,0,0.000000,0.000000,0.000000,-0.011612,-0.063980,0.000000,-0.001000,0.000000,0.017000
07:24:08.858 PM 02/09/2016,Autonomous Disabled,0,TRUE,-35007,NetComm_CAN_Send.vi:5830009<APPEND>

<b>Complete call chain:</b>
     NetComm_CAN_Send.vi:5830009
     WPI_CANTalonSRX_Send.vi
     WPI_MotorControlSetOutput.vi
     ShooterVI.vi
     Periodic Tasks.vi
     Robot Main.vi,0.000000,0.000000,4000.000000,4000.000000,Speed,Speed,0.360000,-0.420000,2.040000,3.000000,103.000000,1,0,0.000000,0.000000,0,0.000000,0.000000,0.000000,-0.011612,-0.063980,0.000000,-0.002000,0.000000,0.018000
07:24:08.959 PM 02/09/2016,Autonomous Disabled,0,TRUE,-35007,NetComm_CAN_Send.vi:5830009<APPEND>

<b>Complete call chain:</b>
     NetComm_CAN_Send.vi:5830009
     WPI_CANTalonSRX_Send.vi
     WPI_MotorControlSetOutput.vi
     ShooterVI.vi
     Periodic Tasks.vi
     Robot Main.vi,0.000000,0.000000,4000.000000,4000.000000,Speed,Speed,0.360000,-0.420000,2.050000,3.000000,100.000000,1,0,0.000000,0.000000,0,0.000000,0.000000,0.000000,-0.011612,-0.063980,0.000000,-0.001000,0.000000,0.016000
07:24:09.059 PM 02/09/2016,Autonomous Disabled,0,TRUE,-35007,NetComm_CAN_Send.vi:5830009<APPEND>

<b>Complete call chain:</b>
     NetComm_CAN_Send.vi:5830009
     WPI_CANTalonSRX_Send.vi
     WPI_MotorControlSetOutput.vi
     ShooterVI.vi
     Periodic Tasks.vi
     Robot Main.vi,0.000000,0.000000,4000.000000,4000.000000,Speed,Speed,0.360000,-0.410000,2.050000,3.000000,100.000000,1,0,0.000000,0.000000,0,0.000000,0.000000,0.000000,-0.011612,-0.063980,0.000000,-0.004000,0.001000,0.018000
07:24:09.159 PM 02/09/2016,Autonomous Disabled,0,TRUE,-35007,NetComm_CAN_Send.vi:5830009<APPEND>

<b>Complete call chain:</b>
     NetComm_CAN_Send.vi:5830009
     WPI_CANTalonSRX_Send.vi
     WPI_MotorControlSetOutput.vi
     ShooterVI.vi
     Periodic Tasks.vi
     Robot Main.vi,0.000000,0.000000,4000.000000,4000.000000,Speed,Speed,0.360000,-0.410000,2.060000,3.000000,101.000000,1,0,0.000000,0.000000,0,0.000000,0.000000,0.000000,-0.011612,-0.063980,0.000000,0.001000,0.000000,0.012000
07:24:09.261 PM 02/09/2016,Autonomous Disabled,0,TRUE,-35007,NetComm_CAN_Send.vi:5830009<APPEND>

<b>Complete call chain:</b>
     NetComm_CAN_Send.vi:5830009
     WPI_CANTalonSRX_Send.vi
     WPI_MotorControlSetOutput.vi
     ShooterVI.vi
     Periodic Tasks.vi
     Robot Main.vi,0.000000,0.000000,4000.000000,4000.000000,Speed,Speed,0.360000,-0.410000,2.050000,3.000000,102.000000,1,0,0.000000,0.000000,0,0.000000,0.000000,0.000000,-0.011612,-0.063980,0.000000,-0.002000,-0.007000,0.011000
07:24:09.361 PM 02/09/2016,Autonomous Disabled,0,TRUE,-35007,NetComm_CAN_Send.vi:5830009<APPEND>

<b>Complete call chain:</b>
     NetComm_CAN_Send.vi:5830009
     WPI_CANTalonSRX_Send.vi
     WPI_MotorControlSetOutput.vi
     ShooterVI.vi
     Periodic Tasks.vi
     Robot Main.vi,0.000000,0.000000,4000.000000,4000.000000,Speed,Speed,0.370000,-0.420000,2.080000,3.000000,101.000000,1,0,0.000000,0.000000,0,0.000000,0.000000,0.000000,-0.011612,-0.063980,0.000000,-0.001000,0.003000,0.012000
07:24:09.462 PM 02/09/2016,Autonomous Disabled,0,TRUE,-35007,NetComm_CAN_Send.vi:5830009<APPEND>

<b>Complete call chain:</b>
     NetComm_CAN_Send.vi:5830009
     WPI_CANTalonSRX_Send.vi
     WPI_MotorControlSetOutput.vi
     ShooterVI.vi
     Periodic Tasks.vi
     Robot Main.vi,0.000000,0.000000,4000.000000,4000.000000,Speed,Speed,0.370000,-0.410000,2.080000,3.000000,101.000000,1,0,0.000000,0.000000,0,0.000000,0.000000,0.000000,-0.011612,-0.063980,0.000000,0.000000,0.001000,0.019000
07:24:09.561 PM 02/09/2016,Autonomous Disabled,0,TRUE,-35007,NetComm_CAN_Send.vi:5830009<APPEND>

<b>Complete call chain:</b>
     NetComm_CAN_Send.vi:5830009
     WPI_CANTalonSRX_Send.vi
     WPI_MotorControlSetOutput.vi
     ShooterVI.vi
     Periodic Tasks.vi
     Robot Main.vi,0.000000,0.000000,4000.000000,4000.000000,Speed,Speed,0.360000,-0.400000,2.050000,3.000000,102.000000,1,0,0.000000,0.000000,0,0.000000,0.000000,0.000000,-0.011612,-0.063980,0.000000,-0.002000,-0.001000,0.014000
07:24:09.661 PM 02/09/2016,Autonomous Disabled,0,TRUE,-35007,NetComm_CAN_Send.vi:5830009<APPEND>

<b>Complete call chain:</b>
     NetComm_CAN_Send.vi:5830009
     WPI_CANTalonSRX_Send.vi
     WPI_MotorControlSetOutput.vi
     ShooterVI.vi
     Periodic Tasks.vi
     Robot Main.vi,0.000000,0.000000,4000.000000,4000.000000,Speed,Speed,0.350000,-0.410000,2.040000,3.000000,102.000000,1,0,0.000000,0.000000,0,0.000000,0.000000,0.000000,-0.011612,-0.063980,0.000000,-0.001000,0.000000,0.026000
07:24:09.762 PM 02/09/2016,Autonomous Disabled,0,TRUE,-35007,NetComm_CAN_Send.vi:5830009<APPEND>

<b>Complete call chain:</b>
     NetComm_CAN_Send.vi:5830009
     WPI_CANTalonSRX_Send.vi
     WPI_CANTalonSRX_ChangeMode.vi
     ShooterVI.vi
     Periodic Tasks.vi
     Robot Main.vi,0.000000,0.000000,4000.000000,4000.000000,Speed,Speed,0.360000,-0.410000,2.040000,3.000000,101.000000,1,0,0.000000,0.000000,0,0.000000,0.000000,0.000000,-0.011612,-0.063980,0.000000,-0.001000,0.003000,0.015000
07:24:09.862 PM 02/09/2016,Autonomous Disabled,0,TRUE,-35007,NetComm_CAN_Send.vi:5830010<APPEND>

<b>Complete call chain:</b>
     NetComm_CAN_Send.vi:5830010
     WPI_CANTalonSRX_Send.vi
     WPI_MotorControlSetOutput.vi
     ShooterVI.vi
     Periodic Tasks.vi
     Robot Main.vi,0.000000,0.000000,4000.000000,4000.000000,Speed,Speed,0.360000,-0.400000,2.040000,3.000000,101.000000,1,0,0.000000,0.000000,0,0.000000,0.000000,0.000000,-0.011612,-0.063980,0.000000,0.000000,-0.001000,0.014000
07:24:09.963 PM 02/09/2016,Autonomous Disabled,0,TRUE,-35007,NetComm_CAN_Send.vi:5830010<APPEND>

<b>Complete call chain:</b>
     NetComm_CAN_Send.vi:5830010
     WPI_CANTalonSRX_Send.vi
     WPI_MotorControlSetOutput.vi
     ShooterVI.vi
     Periodic Tasks.vi
     Robot Main.vi,0.000000,0.000000,4000.000000,4000.000000,Speed,Speed,0.360000,-0.400000,2.060000,3.000000,102.000000,1,0,0.000000,0.000000,0,0.000000,0.000000,0.000000,-0.011612,-0.063980,0.000000,0.000000,0.002000,0.019000
07:24:10.063 PM 02/09/2016,Autonomous Disabled,0,TRUE,-35007,NetComm_CAN_Send.vi:5830009<APPEND>

<b>Complete call chain:</b>
     NetComm_CAN_Send.vi:5830009
     WPI_CANTalonSRX_Send.vi
     WPI_MotorControlSetOutput.vi
     ShooterVI.vi
     Periodic Tasks.vi
     Robot Main.vi,0.000000,0.000000,4000.000000,4000.000000,Speed,Speed,0.360000,-0.400000,2.050000,3.000000,103.000000,1,0,0.000000,0.000000,0,0.000000,0.000000,0.000000,-0.011612,-0.063980,0.000000,0.000000,0.002000,0.018000
07:24:10.162 PM 02/09/2016,Autonomous Disabled,0,TRUE,-35007,NetComm_CAN_Send.vi:5830009<APPEND>

<b>Complete call chain:</b>
     NetComm_CAN_Send.vi:5830009
     WPI_CANTalonSRX_Send.vi
     WPI_MotorControlSetOutput.vi
     ShooterVI.vi
     Periodic Tasks.vi
     Robot Main.vi,0.000000,0.000000,4000.000000,4000.000000,Speed,Speed,0.360000,-0.400000,2.040000,3.000000,101.000000,1,0,0.000000,0.000000,0,0.000000,0.000000,0.000000,-0.011612,-0.063980,0.000000,0.003000,0.006000,0.009000
07:24:10.262 PM 02/09/2016,Autonomous Disabled,0,TRUE,-35007,NetComm_CAN_Send.vi:5830009<APPEND>

<b>Complete call chain:</b>
     NetComm_CAN_Send.vi:5830009
     WPI_CANTalonSRX_Send.vi
     WPI_MotorControlSetOutput.vi
     ShooterVI.vi
     Periodic Tasks.vi
     Robot Main.vi,0.000000,0.000000,4000.000000,4000.000000,Speed,Speed,0.350000,-0.400000,2.040000,3.000000,102.000000,1,0,0.000000,0.000000,0,0.000000,0.000000,0.000000,-0.011612,-0.063980,0.000000,-0.001000,-0.002000,0.023000
07:24:10.363 PM 02/09/2016,Autonomous Disabled,0,TRUE,-35007,NetComm_CAN_Send.vi:5830009<APPEND>

<b>Complete call chain:</b>
     NetComm_CAN_Send.vi:5830009
     WPI_CANTalonSRX_Send.vi
     WPI_MotorControlSetOutput.vi
     ShooterVI.vi
     Periodic Tasks.vi
     Robot Main.vi,0.000000,0.000000,4000.000000,4000.000000,Speed,Speed,0.360000,-0.400000,2.040000,3.000000,102.000000,1,0,0.000000,0.000000,0,0.000000,0.000000,0.000000,-0.011612,-0.063980,0.000000,0.001000,-0.004000,0.017000
07:24:10.463 PM 02/09/2016,Autonomous Disabled,0,TRUE,-35007,NetComm_CAN_Send.vi:5830010<APPEND>

<b>Complete call chain:</b>
     NetComm_CAN_Send.vi:5830010
     WPI_CANTalonSRX_Send.vi
     WPI_MotorControlSetOutput.vi
     ShooterVI.vi
     Periodic Tasks.vi
     Robot Main.vi,0.000000,0.000000,4000.000000,4000.000000,Speed,Speed,0.350000,-0.400000,2.050000,3.000000,101.000000,1,0,0.000000,0.000000,0,0.000000,0.000000,0.000000,-0.011612,-0.063980,0.000000,0.001000,0.002000,0.014000
07:24:10.563 PM 02/09/2016,Autonomous Disabled,0,TRUE,-35007,NetComm_CAN_Send.vi:5830009<APPEND>

<b>Complete call chain:</b>
     NetComm_CAN_Send.vi:5830009
     WPI_CANTalonSRX_Send.vi
     WPI_MotorControlSetOutput.vi
     ShooterVI.vi
     Periodic Tasks.vi
     Robot Main.vi,0.000000,0.000000,4000.000000,4000.000000,Speed,Speed,0.350000,-0.400000,2.040000,3.000000,103.000000,1,0,0.000000,0.000000,0,0.000000,0.000000,0.000000,-0.011612,-0.063980,0.000000,0.002000,-0.002000,0.019000
07:24:10.663 PM 02/09/2016,Autonomous Disabled,0,TRUE,-35007,NetComm_CAN_Send.vi:5830010<APPEND>

<b>Complete call chain:</b>
     NetComm_CAN_Send.vi:5830010
     WPI_CANTalonSRX_Send.vi
     WPI_MotorControlSetOutput.vi
     ShooterVI.vi
     Periodic Tasks.vi
     Robot Main.vi,0.000000,0.000000,4000.000000,4000.000000,Speed,Speed,0.350000,-0.400000,2.040000,3.000000,101.000000,1,0,0.000000,0.000000,0,0.000000,0.000000,0.000000,-0.011612,-0.063980,0.000000,0.004000,-0.001000,0.016000
07:24:10.763 PM 02/09/2016,Autonomous Disabled,0,TRUE,-35007,NetComm_CAN_Send.vi:5830009<APPEND>

<b>Complete call chain:</b>
     NetComm_CAN_Send.vi:5830009
     WPI_CANTalonSRX_Send.vi
     WPI_MotorControlSetOutput.vi
     ShooterVI.vi
     Periodic Tasks.vi
     Robot Main.vi,0.000000,0.000000,4000.000000,4000.000000,Speed,Speed,0.350000,-0.400000,2.060000,3.000000,102.000000,1,0,0.000000,0.000000,0,0.000000,0.000000,0.000000,-0.011612,-0.063980,0.000000,0.001000,0.000000,0.017000
07:24:10.863 PM 02/09/2016,Autonomous Disabled,0,TRUE,-35007,NetComm_CAN_Send.vi:5830009<APPEND>

<b>Complete call chain:</b>
     NetComm_CAN_Send.vi:5830009
     WPI_CANTalonSRX_Send.vi
     WPI_MotorControlSetOutput.vi
     ShooterVI.vi
     Periodic Tasks.vi
     Robot Main.vi,0.000000,0.000000,4000.000000,4000.000000,Speed,Speed,0.350000,-0.400000,2.040000,3.000000,101.000000,1,0,0.000000,0.000000,0,0.000000,0.000000,0.000000,-0.011612,-0.063980,0.000000,0.000000,0.000000,0.014000
07:24:10.963 PM 02/09/2016,Autonomous Disabled,0,TRUE,-35007,NetComm_CAN_Send.vi:5830009<APPEND>

<b>Complete call chain:</b>
     NetComm_CAN_Send.vi:5830009
     WPI_CANTalonSRX_Send.vi
     WPI_MotorControlSetOutput.vi
     ShooterVI.vi
     Periodic Tasks.vi
     Robot Main.vi,0.000000,0.000000,4000.000000,4000.000000,Speed,Speed,0.350000,-0.400000,2.050000,3.000000,101.000000,1,0,0.000000,0.000000,0,0.000000,0.000000,0.000000,-0.011612,-0.063980,0.000000,0.000000,0.001000,0.017000
07:24:11.063 PM 02/09/2016,Autonomous Disabled,0,TRUE,-35007,NetComm_CAN_Send.vi:5830009<APPEND>

<b>Complete call chain:</b>
     NetComm_CAN_Send.vi:5830009
     WPI_CANTalonSRX_Send.vi
     WPI_MotorControlSetOutput.vi
     ShooterVI.vi
     Periodic Tasks.vi
     Robot Main.vi,0.000000,0.000000,4000.000000,4000.000000,Speed,Speed,0.350000,-0.400000,2.040000,3.000000,102.000000,1,0,0.000000,0.000000,0,0.000000,0.000000,0.000000,-0.011612,-0.063980,0.000000,-0.003000,0.001000,0.014000
07:24:11.163 PM 02/09/2016,Autonomous Disabled,0,TRUE,-35007,NetComm_CAN_Send.vi:5830009<APPEND>

<b>Complete call chain:</b>
     NetComm_CAN_Send.vi:5830009
     WPI_CANTalonSRX_Send.vi
     WPI_MotorControlSetOutput.vi
     ShooterVI.vi
     Periodic Tasks.vi
     Robot Main.vi,0.000000,0.000000,4000.000000,4000.000000,Speed,Speed,0.350000,-0.400000,2.040000,3.000000,101.000000,1,0,0.000000,0.000000,0,0.000000,0.000000,0.000000,-0.011612,-0.063980,0.000000,0.000000,0.000000,0.015000
07:24:11.263 PM 02/09/2016,Autonomous Disabled,0,TRUE,-35007,NetComm_CAN_Send.vi:5830009<APPEND>

<b>Complete call chain:</b>
     NetComm_CAN_Send.vi:5830009
     WPI_CANTalonSRX_Send.vi
     WPI_MotorControlSetOutput.vi
     ShooterVI.vi
     Periodic Tasks.vi
     Robot Main.vi,0.000000,0.000000,4000.000000,4000.000000,Speed,Speed,0.350000,-0.400000,2.040000,3.000000,102.000000,1,0,0.000000,0.000000,0,0.000000,0.000000,0.000000,-0.011612,-0.063980,0.000000,0.002000,0.002000,0.011000
07:24:11.363 PM 02/09/2016,Autonomous Disabled,0,TRUE,-35007,NetComm_CAN_Send.vi:5830010<APPEND>

<b>Complete call chain:</b>
     NetComm_CAN_Send.vi:5830010
     WPI_CANTalonSRX_Send.vi
     WPI_MotorControlSetOutput.vi
     ShooterVI.vi
     Periodic Tasks.vi
     Robot Main.vi,0.000000,0.000000,4000.000000,4000.000000,Speed,Speed,0.350000,-0.410000,2.040000,3.000000,102.000000,1,0,0.000000,0.000000,0,0.000000,0.000000,0.000000,-0.011612,-0.063980,0.000000,0.000000,0.002000,0.015000
07:24:11.463 PM 02/09/2016,Autonomous Disabled,0,TRUE,-35007,NetComm_CAN_Send.vi:5830009<APPEND>

<b>Complete call chain:</b>
     NetComm_CAN_Send.vi:5830009
     WPI_CANTalonSRX_Send.vi
     WPI_MotorControlSetOutput.vi
     ShooterVI.vi
     Periodic Tasks.vi
     Robot Main.vi,0.000000,0.000000,4000.000000,4000.000000,Speed,Speed,0.350000,-0.410000,2.040000,3.000000,102.000000,1,0,0.000000,0.000000,0,0.000000,0.000000,0.000000,-0.011612,-0.063980,0.000000,0.000000,0.004000,0.019000
07:24:11.563 PM 02/09/2016,Autonomous Disabled,0,TRUE,-35007,NetComm_CAN_Send.vi:5830009<APPEND>

<b>Complete call chain:</b>
     NetComm_CAN_Send.vi:5830009
     WPI_CANTalonSRX_Send.vi
     WPI_MotorControlSetOutput.vi
     ShooterVI.vi
     Periodic Tasks.vi
     Robot Main.vi,0.000000,0.000000,4000.000000,4000.000000,Speed,Speed,0.350000,-0.410000,2.040000,3.000000,101.000000,1,0,0.000000,0.000000,0,0.000000,0.000000,0.000000,-0.011612,-0.063980,0.000000,-0.001000,0.000000,0.017000
07:24:11.664 PM 02/09/2016,Autonomous Disabled,0,TRUE,-35007,NetComm_CAN_Send.vi:5830009<APPEND>

<b>Complete call chain:</b>
     NetComm_CAN_Send.vi:5830009
     WPI_CANTalonSRX_Send.vi
     WPI_MotorControlSetOutput.vi
     ShooterVI.vi
     Periodic Tasks.vi
     Robot Main.vi,0.000000,0.000000,4000.000000,4000.000000,Speed,Speed,0.350000,-0.410000,2.040000,3.000000,100.000000,1,0,0.000000,0.000000,0,0.000000,0.000000,0.000000,-0.011612,-0.063980,0.000000,0.001000,-0.001000,0.016000
07:24:11.764 PM 02/09/2016,Autonomous Disabled,0,TRUE,-35007,NetComm_CAN_Send.vi:5830009<APPEND>

<b>Complete call chain:</b>
     NetComm_CAN_Send.vi:5830009
     WPI_CANTalonSRX_Send.vi
     WPI_MotorControlSetOutput.vi
     ShooterVI.vi
     Periodic Tasks.vi
     Robot Main.vi,0.000000,0.000000,4000.000000,4000.000000,Speed,Speed,0.350000,-0.410000,2.040000,3.000000,101.000000,1,0,0.000000,0.000000,0,0.000000,0.000000,0.000000,-0.011612,-0.063980,0.000000,0.000000,0.000000,0.017000
07:24:11.865 PM 02/09/2016,Autonomous Disabled,0,TRUE,-35007,NetComm_CAN_Send.vi:5830009<APPEND>

<b>Complete call chain:</b>
     NetComm_CAN_Send.vi:5830009
     WPI_CANTalonSRX_Send.vi
     WPI_MotorControlSetOutput.vi
     ShooterVI.vi
     Periodic Tasks.vi
     Robot Main.vi,0.000000,0.000000,4000.000000,4000.000000,Speed,Speed,0.350000,-0.410000,2.030000,3.000000,101.000000,1,0,0.000000,0.000000,0,0.000000,0.000000,0.000000,-0.011612,-0.063980,0.000000,0.000000,-0.001000,0.016000
07:24:11.965 PM 02/09/2016,Autonomous Disabled,0,TRUE,-35007,NetComm_CAN_Send.vi:5830009<APPEND>

<b>Complete call chain:</b>
     NetComm_CAN_Send.vi:5830009
     WPI_CANTalonSRX_Send.vi
     WPI_MotorControlSetOutput.vi
     ShooterVI.vi
     Periodic Tasks.vi
     Robot Main.vi,0.000000,0.000000,4000.000000,4000.000000,Speed,Speed,0.350000,-0.410000,2.030000,3.000000,100.000000,1,0,0.000000,0.000000,0,0.000000,0.000000,0.000000,-0.011612,-0.063980,0.000000,-0.001000,0.002000,0.015000
07:24:12.066 PM 02/09/2016,Autonomous Disabled,0,TRUE,-35007,NetComm_CAN_Send.vi:5830009<APPEND>

<b>Complete call chain:</b>
     NetComm_CAN_Send.vi:5830009
     WPI_CANTalonSRX_Send.vi
     WPI_MotorControlSetOutput.vi
     ShooterVI.vi
     Periodic Tasks.vi
     Robot Main.vi,0.000000,0.000000,4000.000000,4000.000000,Speed,Speed,0.350000,-0.420000,2.040000,3.000000,101.000000,1,0,0.000000,0.000000,0,0.000000,0.000000,0.000000,-0.011612,-0.063980,0.000000,0.000000,0.000000,0.019000
07:24:12.167 PM 02/09/2016,Autonomous Disabled,0,TRUE,-35007,NetComm_CAN_Send.vi:5830009<APPEND>

<b>Complete call chain:</b>
     NetComm_CAN_Send.vi:5830009
     WPI_CANTalonSRX_Send.vi
     WPI_MotorControlSetOutput.vi
     ShooterVI.vi
     Periodic Tasks.vi
     Robot Main.vi,0.000000,0.000000,4000.000000,4000.000000,Speed,Speed,0.350000,-0.420000,2.040000,3.000000,102.000000,1,0,0.000000,0.000000,0,0.000000,0.000000,0.000000,-0.011612,-0.063980,0.000000,0.003000,0.001000,0.013000
07:24:12.267 PM 02/09/2016,Autonomous Disabled,0,TRUE,-35007,NetComm_CAN_Send.vi:5830009<APPEND>

<b>Complete call chain:</b>
     NetComm_CAN_Send.vi:5830009
     WPI_CANTalonSRX_Send.vi
     WPI_MotorControlSetOutput.vi
     ShooterVI.vi
     Periodic Tasks.vi
     Robot Main.vi,0.000000,0.000000,4000.000000,4000.000000,Speed,Speed,0.350000,-0.420000,2.040000,3.000000,100.000000,1,0,0.000000,0.000000,0,0.000000,0.000000,0.000000,-0.011612,-0.063980,0.000000,0.000000,0.001000,0.018000
07:24:12.367 PM 02/09/2016,Autonomous Disabled,0,TRUE,-35007,NetComm_CAN_Send.vi:5830009<APPEND>

<b>Complete call chain:</b>
     NetComm_CAN_Send.vi:5830009
     WPI_CANTalonSRX_Send.vi
     WPI_MotorControlSetOutput.vi
     ShooterVI.vi
     Periodic Tasks.vi
     Robot Main.vi,0.000000,0.000000,4000.000000,4000.000000,Speed,Speed,0.340000,-0.420000,2.030000,3.000000,101.000000,1,0,0.000000,0.000000,0,0.000000,0.000000,0.000000,-0.011612,-0.063980,0.000000,0.000000,0.000000,0.018000
07:24:12.468 PM 02/09/2016,Autonomous Disabled,0,TRUE,-35007,NetComm_CAN_Send.vi:5830009<APPEND>

<b>Complete call chain:</b>
     NetComm_CAN_Send.vi:5830009
     WPI_CANTalonSRX_Send.vi
     WPI_MotorControlSetOutput.vi
     ShooterVI.vi
     Periodic Tasks.vi
     Robot Main.vi,0.000000,0.000000,4000.000000,4000.000000,Speed,Speed,0.340000,-0.410000,2.030000,3.000000,102.000000,1,0,0.000000,0.000000,0,0.000000,0.000000,0.000000,-0.011612,-0.063980,0.000000,0.001000,0.001000,0.012000
07:24:12.570 PM 02/09/2016,Autonomous Disabled,0,TRUE,-35007,NetComm_CAN_Send.vi:5830009<APPEND>

<b>Complete call chain:</b>
     NetComm_CAN_Send.vi:5830009
     WPI_CANTalonSRX_Send.vi
     WPI_MotorControlSetOutput.vi
     ShooterVI.vi
     Periodic Tasks.vi
     Robot Main.vi,0.000000,0.000000,4000.000000,4000.000000,Speed,Speed,0.340000,-0.420000,2.030000,3.000000,102.000000,1,0,0.000000,0.000000,0,0.000000,0.000000,0.000000,-0.011612,-0.063980,0.000000,0.000000,-0.002000,0.018000
07:24:12.671 PM 02/09/2016,Autonomous Disabled,0,TRUE,-35007,NetComm_CAN_Send.vi:5830009<APPEND>

<b>Complete call chain:</b>
     NetComm_CAN_Send.vi:5830009
     WPI_CANTalonSRX_Send.vi
     WPI_MotorControlSetOutput.vi
     ShooterVI.vi
     Periodic Tasks.vi
     Robot Main.vi,0.000000,0.000000,4000.000000,4000.000000,Speed,Speed,0.340000,-0.420000,2.020000,3.000000,102.000000,1,0,0.000000,0.000000,0,0.000000,0.000000,0.000000,-0.011612,-0.063980,0.000000,0.000000,0.001000,0.014000
07:24:12.770 PM 02/09/2016,Autonomous Disabled,0,TRUE,-35007,NetComm_CAN_Send.vi:5830009<APPEND>

<b>Complete call chain:</b>
     NetComm_CAN_Send.vi:5830009
     WPI_CANTalonSRX_Send.vi
     WPI_MotorControlSetOutput.vi
     ShooterVI.vi
     Periodic Tasks.vi
     Robot Main.vi,0.000000,0.000000,4000.000000,4000.000000,Speed,Speed,0.330000,-0.420000,2.020000,3.000000,101.000000,1,0,0.000000,0.000000,0,0.000000,0.000000,0.000000,-0.011612,-0.063980,0.000000,0.000000,-0.001000,0.015000
07:24:12.870 PM 02/09/2016,Autonomous Disabled,0,TRUE,-35007,NetComm_CAN_Send.vi:5830009<APPEND>

<b>Complete call chain:</b>
     NetComm_CAN_Send.vi:5830009
     WPI_CANTalonSRX_Send.vi
     WPI_MotorControlSetOutput.vi
     ShooterVI.vi
     Periodic Tasks.vi
     Robot Main.vi,0.000000,0.000000,4000.000000,4000.000000,Speed,Speed,0.340000,-0.420000,2.020000,3.000000,103.000000,1,0,0.000000,0.000000,0,0.000000,0.000000,0.000000,-0.011612,-0.063980,0.000000,0.000000,-0.001000,0.019000
07:24:12.970 PM 02/09/2016,Autonomous Disabled,0,TRUE,-35007,NetComm_CAN_Send.vi:5830009<APPEND>

<b>Complete call chain:</b>
     NetComm_CAN_Send.vi:5830009
     WPI_CANTalonSRX_Send.vi
     WPI_MotorControlSetOutput.vi
     ShooterVI.vi
