Time,Robot Mode,Loop Time,Error Status,Error Code,Error Source,Left Motor Output,Left Motor Encoder,Right Motor Output,Right Motor Encoder,Is Level,Is Stalled,Ball Detector Photoeye,Vision Enabled,Vision Teleop Control,Vision Auto Control,Vision Current State,Vision X Output,Vision NavX Error,Vision NavX Target,NavX Connection Status,NavX Displacement X,NavX Displacement Y,NavX Displacement Z,NavX Velocity X,NavX Velocity Y,NavX Velocity Z,NavX Acceleration X,NavX Acceleration Y,NavX Acceleration Z,NavX Pitch,NavX Yaw,NavX Roll,Gyro Angle,Roller Arm State,Roller Arm Actual,Roller Arm Desired,Shooter Arm State,Shooter Arm Actual,Shooter Arm Desired,Shooter State,Actual RPM Left,Desired RPM Left,Control Mode Left,Actual RPM Right,Desired RPM Right,Control Mode Right,Ball Shooter Cylinder,Ball Halo Cylinder,Scaler Motor Output,Scaler Solenoid Fire,Auto To Run,Auto Current File,Auto File Status,Auto Current Command,Auto Trimmed Command,Shooter Amps Left,Shooter Amps Right, Vision After Offset
04:33:40.389 PM 04/29/2016,Autonomous Enabled,10,TRUE,-44003,<LOCATION>WPI_CameraIssue HTTP Request with Authentication.vi<CALLSTACK>WPI_CameraIssue HTTP Request with Authentication.vi< <WPI_CameraIssue Get.vi< <WPI_CameraSet Image Appearance Property.vi< <WPI_CameraSet Image Size.vi< <Vision Processing.vi< <Robot Main.vi,0.000000,0.000000,-0.000000,0.051333,TRUE,FALSE,TRUE,TRUE,FALSE,FALSE,Disabled,0.000000,0.000000,0.000000,TRUE,-0.000214,-0.000351,0.000000,0.000000,0.000000,0.000000,0.000000,0.000000,0.032000,1.610000,-0.410000,0.380000,3.598716,ResetBack,-0.141846,-0.000049,ResetBack,0.000000,-0.250000,LowGoal,0.000000,-2181.818182,Speed,22.500000,-2181.818182,Speed,Off,Off,0.000000,FALSE,43,Read: /home/lvuser/scripts/auto_43.bee,File good!,WAIT 1500,WAIT,0.000000,0.000000,-0.050000
04:33:40.490 PM 04/29/2016,Autonomous Enabled,11,TRUE,7,Read from Text File in DoesScriptNumberContainNull.vi->Disabled.vi->Robot Main.vi<APPEND> /home/lvuser/scripts/auto_42.bee,0.000000,0.000000,-0.000000,0.051333,TRUE,FALSE,TRUE,TRUE,FALSE,FALSE,Disabled,0.000000,0.000000,0.000000,TRUE,-0.000336,-0.000473,0.000000,-0.007919,-0.008682,0.000000,0.032000,-0.009000,-0.067000,1.590000,-0.400000,0.370000,3.609281,ResetBack,-0.439209,-0.000049,ResetBack,4842.000000,-0.250000,LowGoal,300.000000,-2181.818182,Speed,397.500000,-2181.818182,Speed,Off,Off,0.000000,FALSE,43,Read: /home/lvuser/scripts/auto_43.bee,File good!,WAIT 1500,WAIT,0.000000,0.000000,-0.050000
04:33:40.590 PM 04/29/2016,Autonomous Enabled,10,TRUE,7,Read from Text File in DoesScriptNumberContainNull.vi->Disabled.vi->Robot Main.vi<APPEND> /home/lvuser/scripts/auto_42.bee,0.000000,0.000000,-0.000000,0.051333,TRUE,FALSE,TRUE,TRUE,FALSE,FALSE,Disabled,0.000000,0.000000,0.000000,TRUE,-0.000702,-0.001068,0.000000,-0.010620,-0.017761,0.000000,0.037000,0.033000,0.056000,1.660000,-0.400000,0.390000,3.622242,ResetBack,-0.448730,-0.000049,ResetBack,8521.000000,-0.250000,LowGoal,1057.500000,-2181.818182,Speed,1177.500000,-2181.818182,Speed,Off,Off,0.000000,FALSE,43,Read: /home/lvuser/scripts/auto_43.bee,File good!,WAIT 1500,WAIT,0.000000,0.000000,-0.050000
04:33:40.695 PM 04/29/2016,Autonomous Enabled,9,TRUE,7,Read from Text File in DoesScriptNumberContainNull.vi->Disabled.vi->Robot Main.vi<APPEND> /home/lvuser/scripts/auto_42.bee,0.000000,0.000000,-0.000000,0.051333,TRUE,FALSE,TRUE,TRUE,FALSE,FALSE,Disabled,0.000000,0.000000,0.000000,TRUE,0.000198,-0.001999,0.000000,0.028244,0.000000,0.000000,0.027000,-0.009000,0.035000,1.640000,-0.400000,0.430000,3.634315,Reset,-0.457520,0.000000,ResetBack,8521.000000,-0.250000,LowGoal,1057.500000,-2181.818182,Speed,1807.500000,-2181.818182,Speed,Off,Off,0.000000,FALSE,43,Read: /home/lvuser/scripts/auto_43.bee,File good!,WAIT 1500,WAIT,0.000000,0.000000,-0.050000
04:33:40.796 PM 04/29/2016,Autonomous Enabled,9,TRUE,7,Read from Text File in DoesScriptNumberContainNull.vi->Disabled.vi->Robot Main.vi<APPEND> /home/lvuser/scripts/auto_42.bee,0.000000,0.000000,-0.000000,0.051333,TRUE,FALSE,TRUE,TRUE,FALSE,FALSE,Disabled,0.000000,0.000000,0.000000,TRUE,0.000198,-0.001999,0.000000,0.028244,0.000000,0.000000,0.076000,-0.070000,0.012000,1.640000,-0.410000,0.450000,3.643201,Hold,0.230225,0.000000,ResetBack,8630.000000,-0.250000,LowGoal,1965.000000,-2181.818182,Speed,2220.000000,-2181.818182,Speed,Off,Off,0.000000,FALSE,43,Read: /home/lvuser/scripts/auto_43.bee,File good!,WAIT 1500,WAIT,0.000000,0.000000,-0.050000
04:33:40.901 PM 04/29/2016,Autonomous Enabled,14,TRUE,7,Read from Text File in DoesScriptNumberContainNull.vi->Disabled.vi->Robot Main.vi<APPEND> /home/lvuser/scripts/auto_42.bee,0.000000,0.000000,-0.000000,0.051333,TRUE,FALSE,TRUE,TRUE,FALSE,FALSE,Disabled,0.000000,0.000000,0.000000,TRUE,0.003433,-0.003723,0.000000,0.081146,-0.060760,0.000000,0.042000,-0.061000,0.028000,1.650000,-0.410000,0.330000,3.666572,Hold,0.328369,0.000000,ResetBack,8800.000000,-0.250000,LowGoal,2235.000000,-2181.818182,Speed,2175.000000,-2181.818182,Speed,Off,Off,0.000000,FALSE,43,Read: /home/lvuser/scripts/auto_43.bee,File good!,WAIT 1500,WAIT,0.000000,0.000000,-0.050000
04:33:41.000 PM 04/29/2016,Autonomous Enabled,10,TRUE,7,Read from Text File in DoesScriptNumberContainNull.vi->Disabled.vi->Robot Main.vi<APPEND> /home/lvuser/scripts/auto_42.bee,0.000000,0.000000,-0.000000,0.051333,TRUE,FALSE,TRUE,TRUE,FALSE,FALSE,Disabled,0.000000,0.000000,0.000000,TRUE,0.010315,-0.010681,0.000000,0.133667,-0.160202,0.000000,0.054000,-0.073000,0.022000,1.650000,-0.410000,0.330000,3.680773,Hold,0.328369,0.000000,ResetBack,9881.000000,-0.250000,LowGoal,2197.500000,-2181.818182,Speed,2085.000000,-2181.818182,Speed,Off,Off,0.000000,FALSE,43,Read: /home/lvuser/scripts/auto_43.bee,File good!,WAIT 1500,WAIT,0.000000,0.000000,-0.050000
04:33:41.101 PM 04/29/2016,Autonomous Enabled,11,TRUE,7,Read from Text File in DoesScriptNumberContainNull.vi->Disabled.vi->Robot Main.vi<APPEND> /home/lvuser/scripts/auto_42.bee,0.000000,0.000000,-0.000000,0.051333,TRUE,FALSE,TRUE,TRUE,FALSE,FALSE,Disabled,0.000000,0.000000,0.000000,TRUE,0.018555,-0.021729,0.000000,0.181595,-0.261612,0.000000,0.052000,-0.105000,0.028000,1.660000,-0.410000,0.370000,3.683410,Hold,0.328369,0.000000,ResetBack,10070.000000,-0.250000,LowGoal,2160.000000,-2181.818182,Speed,2070.000000,-2181.818182,Speed,Off,Off,0.000000,FALSE,43,Read: /home/lvuser/scripts/auto_43.bee,File good!,WAIT 1500,WAIT,0.000000,0.000000,-0.050000
04:33:41.203 PM 04/29/2016,Autonomous Enabled,10,TRUE,7,Read from Text File in DoesScriptNumberContainNull.vi->Disabled.vi->Robot Main.vi<APPEND> /home/lvuser/scripts/auto_42.bee,0.000000,0.000000,-0.000000,0.051333,TRUE,FALSE,TRUE,TRUE,FALSE,FALSE,Disabled,0.000000,0.000000,0.000000,TRUE,0.026398,-0.036880,0.000000,0.000000,-0.332932,0.000000,0.059000,-0.059000,0.091000,1.680000,-0.410000,0.380000,3.685200,Hold,0.328369,0.000000,ResetBack,10108.000000,-0.250000,LowGoal,2122.500000,-2181.818182,Speed,2100.000000,-2181.818182,Speed,Off,Off,0.000000,FALSE,43,Read: /home/lvuser/scripts/auto_43.bee,File good!,WAIT 1500,WAIT,0.000000,0.000000,-0.050000
04:33:41.304 PM 04/29/2016,Autonomous Enabled,10,TRUE,7,Read from Text File in DoesScriptNumberContainNull.vi->Disabled.vi->Robot Main.vi<APPEND> /home/lvuser/scripts/auto_42.bee,0.000000,0.000000,-0.000000,0.051333,TRUE,FALSE,TRUE,TRUE,FALSE,FALSE,Disabled,0.000000,0.000000,0.000000,TRUE,0.027435,-0.055344,0.000000,0.033600,-0.389816,0.000000,0.036000,0.020000,0.024000,1.680000,-0.410000,0.400000,3.690543,Hold,0.328369,0.000000,ResetBack,10150.000000,-0.250000,LowGoal,2122.500000,-2181.818182,Speed,2115.000000,-2181.818182,Speed,Off,Off,0.000000,FALSE,43,Read: /home/lvuser/scripts/auto_43.bee,File good!,WAIT 1500,WAIT,0.000000,0.000000,-0.050000
04:33:41.408 PM 04/29/2016,Autonomous Enabled,11,TRUE,7,Read from Text File in DoesScriptNumberContainNull.vi->Disabled.vi->Robot Main.vi<APPEND> /home/lvuser/scripts/auto_42.bee,0.000000,0.000000,-0.000000,0.051333,TRUE,FALSE,TRUE,TRUE,FALSE,FALSE,Disabled,0.000000,0.000000,0.000000,TRUE,0.028320,-0.074097,0.000000,0.004471,-0.358322,0.000000,0.008000,0.005000,0.008000,1.690000,-0.420000,0.370000,3.692615,Hold,0.328369,0.000000,ResetBack,10150.000000,-0.250000,LowGoal,2137.500000,-2181.818182,Speed,2107.500000,-2181.818182,Speed,Off,Off,0.000000,FALSE,43,Read: /home/lvuser/scripts/auto_43.bee,File good!,WAIT 1500,WAIT,0.000000,0.000000,-0.050000
04:33:41.508 PM 04/29/2016,Autonomous Enabled,12,TRUE,7,Read from Text File in DoesScriptNumberContainNull.vi->Disabled.vi->Robot Main.vi<APPEND> /home/lvuser/scripts/auto_42.bee,0.000000,0.000000,-0.000000,0.051333,TRUE,FALSE,TRUE,TRUE,FALSE,FALSE,Disabled,0.000000,0.000000,0.000000,TRUE,0.028687,-0.073746,0.000000,0.002777,0.018631,0.000000,-0.048000,-0.020000,0.004000,1.670000,-0.410000,0.400000,3.703459,Hold,0.328369,0.000000,ResetBack,10186.000000,-0.250000,LowGoal,2137.500000,-2181.818182,Speed,2100.000000,-2181.818182,Speed,Off,Off,0.000000,FALSE,43,Read: /home/lvuser/scripts/auto_43.bee,File good!,WAIT 1500,WAIT,0.000000,0.000000,-0.050000
04:33:41.609 PM 04/29/2016,Autonomous Enabled,9,TRUE,7,Read from Text File in DoesScriptNumberContainNull.vi->Disabled.vi->Robot Main.vi<APPEND> /home/lvuser/scripts/auto_42.bee,0.000000,0.000000,-0.000000,0.051333,TRUE,FALSE,TRUE,TRUE,FALSE,FALSE,Disabled,0.000000,0.000000,0.000000,TRUE,0.028381,-0.072159,0.000000,-0.011017,0.048233,0.000000,-0.103000,-0.017000,0.016000,1.650000,-0.410000,0.430000,3.711925,Hold,0.328369,0.000000,Reset,10189.000000,2.000000,LowGoal,2145.000000,-2181.818182,Speed,2107.500000,-2181.818182,Speed,Off,Off,0.000000,FALSE,43,Read: /home/lvuser/scripts/auto_43.bee,File good!,WAIT 1500,WAIT,0.000000,0.000000,-0.050000
04:33:41.709 PM 04/29/2016,Autonomous Enabled,9,TRUE,7,Read from Text File in DoesScriptNumberContainNull.vi->Disabled.vi->Robot Main.vi<APPEND> /home/lvuser/scripts/auto_42.bee,0.000000,0.000000,-0.000000,0.051333,TRUE,FALSE,TRUE,TRUE,FALSE,FALSE,Disabled,0.000000,0.000000,0.000000,TRUE,0.025330,-0.072357,0.000000,-0.088181,-0.001541,0.000000,-0.073000,0.099000,-0.078000,1.640000,-0.410000,0.360000,3.736153,Hold,0.328369,0.000000,Hold,-153.000000,2.000000,LowGoal,2137.500000,-2181.818182,Speed,2107.500000,-2181.818182,Speed,Off,Off,0.000000,FALSE,43,Read: /home/lvuser/scripts/auto_43.bee,File good!,WAIT 1500,WAIT,0.000000,0.000000,-0.050000
04:33:41.810 PM 04/29/2016,Autonomous Enabled,8,TRUE,7,Read from Text File in DoesScriptNumberContainNull.vi->Disabled.vi->Robot Main.vi<APPEND> /home/lvuser/scripts/auto_42.bee,0.000000,0.000000,-0.000000,0.051333,TRUE,FALSE,TRUE,TRUE,FALSE,FALSE,Disabled,0.000000,0.000000,0.000000,TRUE,0.019379,-0.070374,0.000000,-0.134949,0.060715,0.000000,-0.104000,0.012000,0.007000,1.660000,-0.410000,0.390000,3.746477,Hold,0.328369,0.000000,Hold,-185.000000,2.000000,LowGoal,2137.500000,-2181.818182,Speed,2115.000000,-2181.818182,Speed,Off,Off,0.000000,FALSE,43,Read: /home/lvuser/scripts/auto_43.bee,File good!,WAIT 1500,WAIT,0.000000,0.000000,-0.050000
04:33:41.911 PM 04/29/2016,Autonomous Enabled,9,TRUE,7,Read from Text File in DoesScriptNumberContainNull.vi->Disabled.vi->Robot Main.vi<APPEND> /home/lvuser/scripts/auto_42.bee,0.000000,0.000000,-0.000000,0.051333,TRUE,FALSE,TRUE,TRUE,FALSE,FALSE,Disabled,0.000000,0.000000,0.000000,TRUE,0.014191,-0.067276,0.000000,-0.005402,0.000000,0.000000,-0.002000,0.018000,0.036000,1.610000,-0.410000,0.360000,0.000434,Hold,0.328369,0.000000,Hold,-185.000000,2.000000,LowGoal,2145.000000,-2181.818182,Speed,2107.500000,-2181.818182,Speed,Off,Off,0.000000,FALSE,43,Read: /home/lvuser/scripts/auto_43.bee,File good!,NAVX_ZERO_YAW,NAVX_ZERO_YAW,0.000000,0.000000,-0.050000
04:33:42.014 PM 04/29/2016,Autonomous Enabled,10,TRUE,7,Read from Text File in DoesScriptNumberContainNull.vi->Disabled.vi->Robot Main.vi<APPEND> /home/lvuser/scripts/auto_42.bee,-0.562500,-0.571082,0.562500,0.648082,TRUE,FALSE,TRUE,TRUE,FALSE,FALSE,Disabled,0.000000,0.000000,0.000000,TRUE,0.014023,-0.066208,0.000000,0.009476,0.049942,0.000000,0.017000,0.018000,0.009000,1.650000,-0.410000,0.340000,-0.006358,Hold,0.328369,0.000000,Hold,-185.000000,2.000000,LowGoal,2137.500000,-1818.181818,Speed,2107.500000,-1818.181818,Speed,Off,Off,0.000000,FALSE,43,Read: /home/lvuser/scripts/auto_43.bee,File good!,DRIVE_STRAIGHT_NAVX_RAMPARTS 200 5000 10,DRIVE_STRAIGHT_NAVX_RAMPARTS,0.000000,0.000000,-0.050000
04:33:42.113 PM 04/29/2016,Autonomous Enabled,10,TRUE,7,Read from Text File in DoesScriptNumberContainNull.vi->Disabled.vi->Robot Main.vi<APPEND> /home/lvuser/scripts/auto_42.bee,-0.562500,-2.714244,0.562500,2.951660,TRUE,FALSE,TRUE,TRUE,FALSE,FALSE,Disabled,0.000000,0.000000,0.000000,TRUE,0.015442,-0.063217,0.000000,0.037384,0.049927,0.000000,0.461000,-0.217000,-0.716000,1.440000,-0.140000,2.850000,-0.331942,Hold,0.328369,0.000000,Hold,-185.000000,2.000000,LowGoal,2085.000000,-1818.181818,Speed,2077.500000,-1818.181818,Speed,Off,Off,0.000000,FALSE,43,Read: /home/lvuser/scripts/auto_43.bee,File good!,DRIVE_STRAIGHT_NAVX_RAMPARTS 200 5000 10,DRIVE_STRAIGHT_NAVX_RAMPARTS,0.000000,0.000000,-0.050000
04:33:42.214 PM 04/29/2016,Autonomous Enabled,10,TRUE,7,Read from Text File in DoesScriptNumberContainNull.vi->Disabled.vi->Robot Main.vi<APPEND> /home/lvuser/scripts/auto_42.bee,-0.562500,-5.730070,0.562500,6.108652,FALSE,FALSE,TRUE,TRUE,FALSE,FALSE,Disabled,0.000000,0.000000,0.000000,TRUE,0.029327,-0.064255,0.000000,0.382568,-0.051559,0.000000,0.283000,-0.065000,-0.121000,1.440000,-0.360000,5.060000,-0.514005,Hold,0.329834,0.000000,Hold,-185.000000,2.000000,LowGoal,1897.500000,-1818.181818,Speed,1927.500000,-1818.181818,Speed,Off,Off,0.000000,FALSE,43,Read: /home/lvuser/scripts/auto_43.bee,File good!,DRIVE_STRAIGHT_NAVX_RAMPARTS 200 5000 10,DRIVE_STRAIGHT_NAVX_RAMPARTS,0.000000,0.000000,-0.050000
04:33:42.315 PM 04/29/2016,Autonomous Enabled,10,TRUE,7,Read from Text File in DoesScriptNumberContainNull.vi->Disabled.vi->Robot Main.vi<APPEND> /home/lvuser/scripts/auto_42.bee,-0.562500,-9.753311,0.562500,10.260226,FALSE,FALSE,TRUE,TRUE,FALSE,FALSE,Disabled,0.000000,0.000000,0.000000,TRUE,0.054932,-0.066879,0.000000,0.582748,-0.038391,0.000000,0.156000,-0.085000,0.052000,1.560000,-0.620000,3.150000,-0.514005,Hold,0.329834,0.000000,Hold,-185.000000,2.000000,LowGoal,1747.500000,-1818.181818,Speed,1687.500000,-1818.181818,Speed,Off,Off,0.000000,FALSE,43,Read: /home/lvuser/scripts/auto_43.bee,File good!,DRIVE_STRAIGHT_NAVX_RAMPARTS 200 5000 10,DRIVE_STRAIGHT_NAVX_RAMPARTS,0.000000,0.000000,-0.050000
04:33:42.415 PM 04/29/2016,Autonomous Enabled,8,FALSE,0,NO ERROR,-0.562500,-9.753311,0.562500,10.260226,FALSE,FALSE,TRUE,TRUE,FALSE,FALSE,Disabled,0.000000,0.000000,0.000000,TRUE,0.087418,-0.069565,0.000000,0.657288,-0.063889,0.000000,-0.073000,0.003000,0.319000,1.490000,-0.850000,4.390000,-0.793554,Hold,0.331787,0.000000,Hold,-185.000000,2.000000,LowGoal,1732.500000,-1818.181818,Speed,1665.000000,-1818.181818,Speed,Off,Off,0.000000,FALSE,43,Read: /home/lvuser/scripts/auto_43.bee,File good!,DRIVE_STRAIGHT_NAVX_RAMPARTS 200 5000 10,DRIVE_STRAIGHT_NAVX_RAMPARTS,0.000000,0.000000,-0.050000
04:33:42.517 PM 04/29/2016,Autonomous Enabled,12,FALSE,0,NO ERROR,-0.562500,-13.859968,0.513315,14.482383,FALSE,FALSE,TRUE,TRUE,FALSE,FALSE,Disabled,0.000000,0.000000,0.000000,TRUE,0.119766,-0.072006,0.000000,0.661133,0.000000,0.000000,0.034000,-0.015000,-0.065000,1.500000,-1.080000,3.660000,-1.089215,Hold,0.342529,0.000000,Hold,-185.000000,2.000000,LowGoal,1740.000000,-1818.181818,Speed,1732.500000,-1818.181818,Speed,Off,Off,0.000000,FALSE,43,Read: /home/lvuser/scripts/auto_43.bee,File good!,DRIVE_STRAIGHT_NAVX_RAMPARTS 200 5000 10,DRIVE_STRAIGHT_NAVX_RAMPARTS,0.000000,0.000000,-0.050000
04:33:42.617 PM 04/29/2016,Autonomous Enabled,11,FALSE,0,NO ERROR,-0.562500,-18.197624,0.504782,18.884206,FALSE,FALSE,TRUE,TRUE,FALSE,FALSE,Disabled,0.000000,0.000000,0.000000,TRUE,0.153076,-0.071579,0.000000,0.648911,0.019501,0.000000,-0.131000,-0.014000,-0.033000,1.630000,-1.440000,3.680000,-1.407700,Hold,0.342529,0.000000,Hold,-185.000000,2.000000,LowGoal,1770.000000,-1818.181818,Speed,1762.500000,-1818.181818,Speed,Off,Off,0.000000,FALSE,43,Read: /home/lvuser/scripts/auto_43.bee,File good!,DRIVE_STRAIGHT_NAVX_RAMPARTS 200 5000 10,DRIVE_STRAIGHT_NAVX_RAMPARTS,0.000000,0.000000,-0.050000
04:33:42.717 PM 04/29/2016,Autonomous Enabled,10,FALSE,0,NO ERROR,-0.562500,-22.541697,0.509596,23.234696,FALSE,FALSE,TRUE,TRUE,FALSE,FALSE,Disabled,0.000000,0.000000,0.000000,TRUE,0.182953,-0.071136,0.000000,0.575317,0.005600,0.000000,-0.046000,-0.042000,-0.049000,1.650000,-1.500000,3.200000,-1.582923,Hold,0.347412,0.000000,Hold,-185.000000,2.000000,LowGoal,1777.500000,-1818.181818,Speed,1740.000000,-1818.181818,Speed,Off,Off,0.000000,FALSE,43,Read: /home/lvuser/scripts/auto_43.bee,File good!,DRIVE_STRAIGHT_NAVX_RAMPARTS 200 5000 10,DRIVE_STRAIGHT_NAVX_RAMPARTS,0.000000,0.000000,-0.050000
04:33:42.817 PM 04/29/2016,Autonomous Enabled,10,FALSE,0,NO ERROR,-0.562500,-27.046187,0.514433,27.630102,FALSE,FALSE,TRUE,TRUE,FALSE,FALSE,Disabled,0.000000,0.000000,0.000000,TRUE,0.215759,-0.070328,0.000000,0.510193,0.021957,0.000000,-0.110000,-0.059000,0.044000,1.590000,-1.300000,3.100000,-1.449754,Hold,0.347412,0.000000,Hold,-185.000000,2.000000,LowGoal,1770.000000,-1818.181818,Speed,1732.500000,-1818.181818,Speed,Off,Off,0.000000,FALSE,43,Read: /home/lvuser/scripts/auto_43.bee,File good!,DRIVE_STRAIGHT_NAVX_RAMPARTS 200 5000 10,DRIVE_STRAIGHT_NAVX_RAMPARTS,0.000000,0.000000,-0.050000
04:33:42.917 PM 04/29/2016,Autonomous Enabled,10,FALSE,0,NO ERROR,-0.562500,-31.467260,0.524553,31.916425,TRUE,FALSE,TRUE,TRUE,FALSE,FALSE,Disabled,0.000000,0.000000,0.000000,TRUE,0.234909,-0.070282,0.000000,0.464859,-0.010330,0.000000,-0.023000,0.008000,0.016000,1.600000,-1.040000,2.780000,-1.199549,Hold,0.347656,0.000000,Hold,-185.000000,2.000000,LowGoal,1770.000000,-1818.181818,Speed,1732.500000,-1818.181818,Speed,Off,Off,0.000000,FALSE,43,Read: /home/lvuser/scripts/auto_43.bee,File good!,DRIVE_STRAIGHT_NAVX_RAMPARTS 200 5000 10,DRIVE_STRAIGHT_NAVX_RAMPARTS,0.000000,0.000000,-0.050000
04:33:43.018 PM 04/29/2016,Autonomous Enabled,9,FALSE,0,NO ERROR,-0.562500,-35.740750,0.530596,36.132166,TRUE,FALSE,TRUE,TRUE,FALSE,FALSE,Disabled,0.000000,0.000000,0.000000,TRUE,0.260788,-0.070053,0.000000,0.403702,0.018616,0.000000,-0.120000,0.062000,-0.030000,1.600000,-0.850000,2.740000,-1.017961,Hold,0.347656,0.000000,Hold,-185.000000,2.000000,LowGoal,1770.000000,-1818.181818,Speed,1740.000000,-1818.181818,Speed,Off,Off,0.000000,FALSE,43,Read: /home/lvuser/scripts/auto_43.bee,File good!,DRIVE_STRAIGHT_NAVX_RAMPARTS 200 5000 10,DRIVE_STRAIGHT_NAVX_RAMPARTS,0.000000,0.000000,-0.050000
04:33:43.122 PM 04/29/2016,Autonomous Enabled,11,FALSE,0,NO ERROR,-0.562500,-39.975740,0.529460,40.335072,TRUE,FALSE,TRUE,TRUE,FALSE,FALSE,Disabled,0.000000,0.000000,0.000000,TRUE,0.276672,-0.069901,0.000000,0.400162,-0.004227,0.000000,-0.044000,0.040000,0.080000,1.580000,-0.830000,2.520000,-0.989185,Hold,0.347656,0.000000,Hold,-185.000000,2.000000,LowGoal,1770.000000,-1818.181818,Speed,1747.500000,-1818.181818,Speed,Off,Off,0.000000,FALSE,43,Read: /home/lvuser/scripts/auto_43.bee,File good!,DRIVE_STRAIGHT_NAVX_RAMPARTS 200 5000 10,DRIVE_STRAIGHT_NAVX_RAMPARTS,0.000000,0.000000,-0.050000
04:33:43.221 PM 04/29/2016,Autonomous Enabled,11,FALSE,0,NO ERROR,-0.562500,-44.217147,0.527948,44.640646,TRUE,FALSE,TRUE,TRUE,FALSE,FALSE,Disabled,0.000000,0.000000,0.000000,TRUE,0.299316,-0.069962,0.000000,0.358200,-0.006088,0.000000,-0.044000,0.078000,-0.003000,1.620000,-0.890000,2.430000,-1.066725,Hold,0.347656,0.000000,Hold,-185.000000,2.000000,LowGoal,1770.000000,-1818.181818,Speed,1740.000000,-1818.181818,Speed,Off,Off,0.000000,FALSE,43,Read: /home/lvuser/scripts/auto_43.bee,File good!,DRIVE_STRAIGHT_NAVX_RAMPARTS 200 5000 10,DRIVE_STRAIGHT_NAVX_RAMPARTS,0.000000,0.000000,-0.050000
04:33:43.321 PM 04/29/2016,Autonomous Enabled,12,FALSE,0,NO ERROR,-0.562500,-48.548386,0.523047,48.984719,TRUE,FALSE,TRUE,TRUE,FALSE,FALSE,Disabled,0.000000,0.000000,0.000000,TRUE,0.309555,-0.069519,0.000000,-0.005951,-0.001175,0.000000,-0.063000,-0.061000,0.042000,1.700000,-0.960000,2.700000,-1.168112,Hold,0.347656,0.000000,Hold,-185.000000,2.000000,LowGoal,1770.000000,-1818.181818,Speed,1740.000000,-1818.181818,Speed,Off,Off,0.000000,FALSE,43,Read: /home/lvuser/scripts/auto_43.bee,File good!,DRIVE_STRAIGHT_NAVX_RAMPARTS 200 5000 10,DRIVE_STRAIGHT_NAVX_RAMPARTS,0.000000,0.000000,-0.050000
04:33:43.422 PM 04/29/2016,Autonomous Enabled,11,FALSE,0,NO ERROR,-0.562500,-52.995126,0.522671,53.392958,FALSE,FALSE,TRUE,TRUE,FALSE,FALSE,Disabled,0.000000,0.000000,0.000000,TRUE,0.305817,-0.069611,0.000000,-0.128906,0.000000,0.000000,0.033000,-0.030000,0.203000,1.570000,-1.000000,5.320000,-1.319946,Hold,0.347656,0.000000,Hold,-185.000000,2.000000,LowGoal,1770.000000,-1818.181818,Speed,1747.500000,-1818.181818,Speed,Off,Off,0.000000,FALSE,43,Read: /home/lvuser/scripts/auto_43.bee,File good!,DRIVE_STRAIGHT_NAVX_RAMPARTS 200 5000 10,DRIVE_STRAIGHT_NAVX_RAMPARTS,0.000000,0.000000,-0.050000
04:33:43.522 PM 04/29/2016,Autonomous Enabled,10,FALSE,0,NO ERROR,-0.562500,-57.390532,0.544703,57.711365,FALSE,FALSE,TRUE,TRUE,FALSE,FALSE,Disabled,0.000000,0.000000,0.000000,TRUE,0.298294,-0.070374,0.000000,-0.181610,-0.015472,0.000000,-0.041000,0.011000,-0.170000,1.540000,-1.050000,7.790000,-1.395878,Hold,0.347656,0.000000,Hold,-185.000000,2.000000,LowGoal,1770.000000,-1818.181818,Speed,1740.000000,-1818.181818,Speed,Off,Off,0.000000,FALSE,43,Read: /home/lvuser/scripts/auto_43.bee,File good!,DRIVE_STRAIGHT_NAVX_RAMPARTS 200 5000 10,DRIVE_STRAIGHT_NAVX_RAMPARTS,0.000000,0.000000,-0.050000
04:33:43.623 PM 04/29/2016,Autonomous Enabled,10,FALSE,0,NO ERROR,-0.562500,-61.285440,0.677856,61.022357,FALSE,FALSE,TRUE,TRUE,FALSE,FALSE,Disabled,0.000000,0.000000,0.000000,TRUE,0.282516,-0.069962,0.000000,-0.487595,0.048447,0.000000,0.017000,-0.186000,-0.071000,0.480000,2.460000,11.220000,0.561485,Hold,0.348877,0.000000,Hold,-185.000000,2.000000,LowGoal,1762.500000,-1818.181818,Speed,1740.000000,-1818.181818,Speed,Off,Off,0.000000,FALSE,43,Read: /home/lvuser/scripts/auto_43.bee,File good!,DRIVE_STRAIGHT_NAVX_RAMPARTS 200 5000 10,DRIVE_STRAIGHT_NAVX_RAMPARTS,0.000000,0.000000,-0.050000
04:33:43.723 PM 04/29/2016,Autonomous Enabled,11,FALSE,0,NO ERROR,-0.562500,-64.256350,0.625808,65.122598,FALSE,FALSE,TRUE,TRUE,FALSE,FALSE,Disabled,0.000000,0.000000,0.000000,TRUE,0.254166,-0.071289,0.000000,-0.578598,-0.134598,0.000000,-0.025000,-0.254000,-0.328000,0.210000,2.120000,16.330000,1.848984,Hold,0.348877,0.000000,Hold,-185.000000,2.000000,LowGoal,1762.500000,-1818.181818,Speed,1740.000000,-1818.181818,Speed,Off,Off,0.000000,FALSE,43,Read: /home/lvuser/scripts/auto_43.bee,File good!,DRIVE_STRAIGHT_NAVX_RAMPARTS 200 5000 10,DRIVE_STRAIGHT_NAVX_RAMPARTS,0.000000,0.000000,-0.050000
04:33:43.824 PM 04/29/2016,Autonomous Enabled,11,FALSE,0,NO ERROR,-0.562500,-66.938510,0.559773,69.139422,FALSE,FALSE,TRUE,TRUE,FALSE,FALSE,Disabled,0.000000,0.000000,0.000000,TRUE,0.224930,-0.085922,0.000000,-0.393417,-0.175034,0.000000,0.258000,0.509000,-0.085000,1.900000,-0.060000,17.620000,0.157160,Hold,0.352783,0.000000,Hold,-185.000000,2.000000,LowGoal,1747.500000,-1818.181818,Speed,1725.000000,-1818.181818,Speed,Off,Off,0.000000,FALSE,43,Read: /home/lvuser/scripts/auto_43.bee,File good!,DRIVE_STRAIGHT_NAVX_RAMPARTS 200 5000 10,DRIVE_STRAIGHT_NAVX_RAMPARTS,0.000000,0.000000,-0.050000
04:33:43.923 PM 04/29/2016,Autonomous Enabled,9,FALSE,0,NO ERROR,-0.562500,-70.185336,0.623342,72.482497,FALSE,FALSE,TRUE,TRUE,FALSE,FALSE,Disabled,0.000000,0.000000,0.000000,TRUE,0.215607,-0.087585,0.000000,-0.160889,-0.014175,0.000000,-2.431000,-0.645000,0.425000,1.660000,0.980000,11.850000,-0.188652,Hold,0.367920,0.000000,Hold,-184.000000,2.000000,LowGoal,1747.500000,-1818.181818,Speed,1725.000000,-1818.181818,Speed,Off,Off,0.000000,FALSE,43,Read: /home/lvuser/scripts/auto_43.bee,File good!,DRIVE_STRAIGHT_NAVX_RAMPARTS 200 5000 10,DRIVE_STRAIGHT_NAVX_RAMPARTS,0.000000,0.000000,-0.050000
04:33:44.024 PM 04/29/2016,Autonomous Enabled,12,FALSE,0,NO ERROR,-0.562500,-72.976579,0.723554,75.645906,FALSE,FALSE,TRUE,TRUE,FALSE,FALSE,Disabled,0.000000,0.000000,0.000000,TRUE,0.180817,-0.102005,0.000000,-0.532242,-0.282791,0.000000,-0.201000,0.067000,-0.825000,0.900000,3.060000,9.120000,2.549338,Hold,0.454346,0.000000,Hold,-151.000000,2.000000,LowGoal,1740.000000,-1818.181818,Speed,1725.000000,-1818.181818,Speed,Off,Off,0.000000,FALSE,43,Read: /home/lvuser/scripts/auto_43.bee,File good!,DRIVE_STRAIGHT_NAVX_RAMPARTS 200 5000 10,DRIVE_STRAIGHT_NAVX_RAMPARTS,0.000000,0.000000,-0.050000
04:33:44.125 PM 04/29/2016,Autonomous Enabled,11,FALSE,0,NO ERROR,-0.562500,-75.235241,0.877857,79.900146,FALSE,FALSE,TRUE,TRUE,FALSE,FALSE,Disabled,0.000000,0.000000,0.000000,TRUE,0.156158,-0.113876,0.000000,-0.413803,-0.211853,0.000000,-0.239000,-0.877000,0.461000,1.920000,6.050000,13.820000,5.859471,Hold,0.624268,0.000000,Hold,-157.000000,2.000000,LowGoal,1740.000000,-1818.181818,Speed,1725.000000,-1818.181818,Speed,Off,Off,0.000000,FALSE,43,Read: /home/lvuser/scripts/auto_43.bee,File good!,DRIVE_STRAIGHT_NAVX_RAMPARTS 200 5000 10,DRIVE_STRAIGHT_NAVX_RAMPARTS,0.000000,0.000000,-0.050000
04:33:44.225 PM 04/29/2016,Autonomous Enabled,11,FALSE,0,NO ERROR,-0.562500,-76.890737,0.769831,82.723473,FALSE,FALSE,TRUE,TRUE,FALSE,FALSE,Disabled,0.000000,0.000000,0.000000,TRUE,0.139618,-0.142319,0.000000,-0.178452,-0.622253,0.000000,0.608000,0.835000,-0.280000,2.240000,5.240000,21.420000,5.196566,Hold,0.624268,0.000000,Hold,-157.000000,2.000000,LowGoal,1725.000000,-1818.181818,Speed,1717.500000,-1818.181818,Speed,Off,Off,0.000000,FALSE,43,Read: /home/lvuser/scripts/auto_43.bee,File good!,DRIVE_STRAIGHT_NAVX_RAMPARTS 200 5000 10,DRIVE_STRAIGHT_NAVX_RAMPARTS,0.000000,0.000000,-0.050000
04:33:44.324 PM 04/29/2016,Autonomous Enabled,12,FALSE,0,NO ERROR,-0.562500,-79.791063,0.880782,86.348881,FALSE,FALSE,TRUE,TRUE,FALSE,FALSE,Disabled,0.000000,0.000000,0.000000,TRUE,0.141144,-0.166092,0.000000,0.088928,-0.490921,0.000000,-0.158000,0.302000,0.304000,0.790000,6.390000,24.250000,4.794544,Hold,0.624268,0.000000,Hold,-157.000000,2.000000,LowGoal,1717.500000,-1818.181818,Speed,1702.500000,-1818.181818,Speed,Off,Off,0.000000,FALSE,43,Read: /home/lvuser/scripts/auto_43.bee,File good!,DRIVE_STRAIGHT_NAVX_RAMPARTS 200 5000 10,DRIVE_STRAIGHT_NAVX_RAMPARTS,0.000000,0.000000,-0.050000
04:33:44.425 PM 04/29/2016,Autonomous Enabled,11,FALSE,0,NO ERROR,-0.562500,-82.729890,0.984699,91.296120,FALSE,FALSE,TRUE,TRUE,FALSE,FALSE,Disabled,0.000000,0.000000,0.000000,TRUE,0.140381,-0.184372,0.000000,-0.047379,-0.346481,0.000000,0.023000,-0.492000,-0.418000,-0.160000,9.130000,22.550000,6.685954,Hold,0.624268,0.000000,Hold,-157.000000,2.000000,LowGoal,1725.000000,-1818.181818,Speed,1702.500000,-1818.181818,Speed,Off,Off,0.000000,FALSE,43,Read: /home/lvuser/scripts/auto_43.bee,File good!,DRIVE_STRAIGHT_NAVX_RAMPARTS 200 5000 10,DRIVE_STRAIGHT_NAVX_RAMPARTS,0.000000,0.000000,-0.050000
04:33:44.525 PM 04/29/2016,Autonomous Enabled,10,FALSE,0,NO ERROR,-0.562500,-85.270884,0.826499,97.039023,FALSE,FALSE,TRUE,TRUE,FALSE,FALSE,Disabled,0.000000,0.000000,0.000000,TRUE,0.141800,-0.212128,0.000000,0.097336,-0.653122,0.000000,-0.139000,0.284000,0.373000,0.000000,7.150000,21.830000,6.219587,Hold,0.624268,0.000000,Hold,-157.000000,2.000000,LowGoal,1740.000000,-1818.181818,Speed,1732.500000,-1818.181818,Speed,Off,Off,0.000000,FALSE,43,Read: /home/lvuser/scripts/auto_43.bee,File good!,DRIVE_STRAIGHT_NAVX_RAMPARTS 200 5000 10,DRIVE_STRAIGHT_NAVX_RAMPARTS,0.000000,0.000000,-0.050000
04:33:44.625 PM 04/29/2016,Autonomous Enabled,6,FALSE,0,NO ERROR,-0.562500,-88.485626,0.571113,102.897426,FALSE,FALSE,TRUE,TRUE,FALSE,FALSE,Disabled,0.000000,0.000000,0.000000,TRUE,0.153137,-0.262619,0.000000,0.153015,-1.038055,0.000000,-0.327000,0.332000,0.135000,0.860000,0.770000,15.380000,1.008759,Hold,0.623535,0.000000,Hold,-155.000000,2.000000,LowGoal,1747.500000,-1818.181818,Speed,1725.000000,-1818.181818,Speed,Off,Off,0.000000,FALSE,43,Read: /home/lvuser/scripts/auto_43.bee,File good!,DRIVE_STRAIGHT_NAVX_RAMPARTS 200 5000 10,DRIVE_STRAIGHT_NAVX_RAMPARTS,0.000000,0.000000,-0.050000
04:33:44.726 PM 04/29/2016,Autonomous Enabled,9,FALSE,0,NO ERROR,-0.562500,-92.111035,0.590131,106.850083,FALSE,FALSE,TRUE,TRUE,FALSE,FALSE,Disabled,0.000000,0.000000,0.000000,TRUE,0.159973,-0.296722,0.000000,0.405701,-0.671310,0.000000,0.229000,-0.069000,0.645000,1.640000,0.760000,5.540000,-0.682652,Hold,0.683594,0.000000,Hold,-166.000000,2.000000,LowGoal,1747.500000,-1818.181818,Speed,1717.500000,-1818.181818,Speed,Off,Off,0.000000,FALSE,43,Read: /home/lvuser/scripts/auto_43.bee,File good!,DRIVE_STRAIGHT_NAVX_RAMPARTS 200 5000 10,DRIVE_STRAIGHT_NAVX_RAMPARTS,0.000000,0.000000,-0.050000
04:33:44.828 PM 04/29/2016,Autonomous Enabled,9,FALSE,0,NO ERROR,-0.562500,-96.243358,0.611493,110.430575,TRUE,FALSE,TRUE,TRUE,FALSE,FALSE,Disabled,0.000000,0.000000,0.000000,TRUE,0.191681,-0.360809,0.000000,0.508011,-1.318268,0.000000,0.335000,0.651000,0.303000,-1.950000,1.110000,0.760000,0.288349,Hold,0.686279,0.000000,Hold,-145.000000,2.000000,LowGoal,1717.500000,-1818.181818,Speed,1725.000000,-1818.181818,Speed,Off,Off,0.000000,FALSE,43,Read: /home/lvuser/scripts/auto_43.bee,File good!,DRIVE_STRAIGHT_NAVX_RAMPARTS 200 5000 10,DRIVE_STRAIGHT_NAVX_RAMPARTS,0.000000,0.000000,-0.050000
04:33:44.929 PM 04/29/2016,Autonomous Enabled,9,FALSE,0,NO ERROR,-0.562500,-99.676267,0.564842,115.166064,FALSE,FALSE,TRUE,TRUE,FALSE,FALSE,Disabled,0.000000,0.000000,0.000000,TRUE,0.218338,-0.413116,0.000000,0.480209,-1.025421,0.000000,-0.301000,-0.991000,-0.230000,6.020000,0.060000,-3.130000,-0.302845,Hold,0.686768,0.000000,Hold,-145.000000,2.000000,LowGoal,1732.500000,-1818.181818,Speed,1740.000000,-1818.181818,Speed,Off,Off,0.000000,FALSE,43,Read: /home/lvuser/scripts/auto_43.bee,File good!,DRIVE_STRAIGHT_NAVX_RAMPARTS 200 5000 10,DRIVE_STRAIGHT_NAVX_RAMPARTS,0.000000,0.000000,-0.050000
04:33:45.029 PM 04/29/2016,Autonomous Enabled,10,FALSE,0,NO ERROR,-0.562500,-103.211842,0.479612,119.291971,FALSE,FALSE,TRUE,TRUE,FALSE,FALSE,Disabled,0.000000,0.000000,0.000000,TRUE,0.249908,-0.473785,0.000000,0.688873,-1.033157,0.000000,-0.015000,0.349000,0.367000,7.740000,-2.210000,-9.330000,-2.258821,Hold,0.686768,0.000000,Hold,-145.000000,2.000000,LowGoal,1740.000000,-1818.181818,Speed,1732.500000,-1818.181818,Speed,Off,Off,0.000000,FALSE,43,Read: /home/lvuser/scripts/auto_43.bee,File good!,DRIVE_STRAIGHT_NAVX_RAMPARTS 200 5000 10,DRIVE_STRAIGHT_NAVX_RAMPARTS,0.000000,0.000000,-0.050000
04:33:45.130 PM 04/29/2016,Autonomous Enabled,9,FALSE,0,NO ERROR,-0.562500,-107.408332,0.409958,123.841377,FALSE,FALSE,TRUE,TRUE,FALSE,FALSE,Disabled,0.000000,0.000000,0.000000,TRUE,0.281555,-0.518677,0.000000,0.857468,-1.212219,0.000000,-0.054000,0.067000,-0.827000,6.000000,-4.220000,-11.760000,-4.618994,Hold,0.686768,0.000000,Hold,-146.000000,2.000000,LowGoal,1755.000000,-1818.181818,Speed,1732.500000,-1818.181818,Speed,Off,Off,0.000000,FALSE,43,Read: /home/lvuser/scripts/auto_43.bee,File good!,DRIVE_STRAIGHT_NAVX_RAMPARTS 200 5000 10,DRIVE_STRAIGHT_NAVX_RAMPARTS,0.000000,0.000000,-0.050000
04:33:45.230 PM 04/29/2016,Autonomous Enabled,8,FALSE,0,NO ERROR,-0.562500,-112.143821,0.357174,129.115865,FALSE,FALSE,TRUE,TRUE,FALSE,FALSE,Disabled,0.000000,0.000000,0.000000,TRUE,0.325729,-0.584747,0.000000,0.448990,-0.835327,0.000000,0.514000,-0.784000,0.885000,5.160000,-5.860000,-13.000000,-5.070155,Hold,0.833008,0.000000,Hold,-147.000000,2.000000,LowGoal,1770.000000,-1818.181818,Speed,1740.000000,-1818.181818,Speed,Off,Off,0.000000,FALSE,43,Read: /home/lvuser/scripts/auto_43.bee,File good!,DRIVE_STRAIGHT_NAVX_RAMPARTS 200 5000 10,DRIVE_STRAIGHT_NAVX_RAMPARTS,0.000000,0.000000,-0.050000
04:33:45.330 PM 04/29/2016,Autonomous Enabled,11,FALSE,0,NO ERROR,-0.562500,-116.365978,0.344851,133.415021,FALSE,FALSE,TRUE,TRUE,FALSE,FALSE,Disabled,0.000000,0.000000,0.000000,TRUE,0.343094,-0.635788,0.000000,0.324661,-1.084915,0.000000,0.314000,-0.003000,-0.920000,4.730000,-6.380000,-8.940000,-7.067073,Hold,0.833252,0.000000,Hold,-152.000000,2.000000,LowGoal,1732.500000,-1818.181818,Speed,1747.500000,-1818.181818,Speed,Off,Off,0.000000,FALSE,43,Read: /home/lvuser/scripts/auto_43.bee,File good!,DRIVE_STRAIGHT_NAVX_RAMPARTS 200 5000 10,DRIVE_STRAIGHT_NAVX_RAMPARTS,0.000000,0.000000,-0.050000
04:33:45.431 PM 04/29/2016,Autonomous Enabled,11,FALSE,0,NO ERROR,-0.562500,-121.172050,0.360600,136.546347,FALSE,FALSE,TRUE,TRUE,FALSE,FALSE,Disabled,0.000000,0.000000,0.000000,TRUE,0.362808,-0.646729,0.000000,0.406296,0.012314,0.000000,0.005000,-0.128000,-1.099000,4.720000,-6.070000,-5.650000,-6.837385,Hold,1.236084,0.000000,Hold,-152.000000,2.000000,LowGoal,1710.000000,-1818.181818,Speed,1740.000000,-1818.181818,Speed,Off,Off,0.000000,FALSE,43,Read: /home/lvuser/scripts/auto_43.bee,File good!,DRIVE_STRAIGHT_NAVX_RAMPARTS 200 5000 10,DRIVE_STRAIGHT_NAVX_RAMPARTS,0.000000,0.000000,-0.050000
04:33:45.532 PM 04/29/2016,Autonomous Enabled,8,FALSE,0,NO ERROR,-0.562500,-126.151372,0.388603,140.665838,FALSE,FALSE,TRUE,TRUE,FALSE,FALSE,Disabled,0.000000,0.000000,0.000000,TRUE,0.376190,-0.635254,0.000000,0.023544,0.399750,0.000000,0.446000,0.666000,-0.086000,3.970000,-5.230000,-1.620000,-5.770760,Hold,1.224121,0.000000,Hold,-153.000000,2.000000,LowGoal,1740.000000,-1818.181818,Speed,1740.000000,-1818.181818,Speed,Off,Off,0.000000,FALSE,43,Read: /home/lvuser/scripts/auto_43.bee,File good!,DRIVE_STRAIGHT_NAVX_RAMPARTS 200 5000 10,DRIVE_STRAIGHT_NAVX_RAMPARTS,0.000000,0.000000,-0.050000
04:33:45.632 PM 04/29/2016,Autonomous Enabled,6,FALSE,0,NO ERROR,-0.562500,-0.468416,0.562500,0.327249,TRUE,FALSE,TRUE,TRUE,FALSE,FALSE,Disabled,0.000000,0.000000,0.000000,TRUE,0.378662,-0.615845,0.000000,0.115280,0.297638,0.000000,-0.321000,0.848000,1.034000,2.910000,-5.690000,-0.810000,-6.559330,Hold,3.220459,0.000000,Hold,-153.000000,2.000000,LowGoal,1770.000000,-1818.181818,Speed,1740.000000,-1818.181818,Speed,Off,Off,0.000000,FALSE,43,Read: /home/lvuser/scripts/auto_43.bee,File good!,DRIVE_STRAIGHT_TARGET 12 0 10000 75,DRIVE_STRAIGHT_TARGET,0.000000,0.000000,-0.050000
04:33:45.732 PM 04/29/2016,Autonomous Enabled,8,FALSE,0,NO ERROR,-0.562500,-4.652072,0.562500,4.260657,TRUE,FALSE,TRUE,TRUE,FALSE,FALSE,Disabled,0.000000,0.000000,0.000000,TRUE,0.380966,-0.601379,0.000000,-0.016266,0.053635,0.000000,0.170000,0.201000,-0.676000,2.910000,-5.690000,-0.810000,-6.457588,Hold,3.112305,0.000000,Hold,-153.000000,2.000000,LowGoal,1777.500000,-1818.181818,Speed,1732.500000,-1818.181818,Speed,Off,Off,0.000000,FALSE,43,Read: /home/lvuser/scripts/auto_43.bee,File good!,DRIVE_STRAIGHT_TARGET 12 0 10000 75,DRIVE_STRAIGHT_TARGET,0.000000,0.000000,-0.050000
04:33:45.833 PM 04/29/2016,Autonomous Enabled,4,FALSE,0,NO ERROR,-0.562500,-8.386564,0.562500,7.930981,TRUE,FALSE,TRUE,TRUE,FALSE,FALSE,Disabled,0.000000,0.000000,0.000000,TRUE,0.380280,-0.595917,0.000000,-0.083496,0.185745,0.000000,0.260000,-0.024000,0.367000,2.140000,-5.650000,1.020000,-6.600090,Hold,1.775635,0.000000,Hold,-153.000000,2.000000,LowGoal,1770.000000,-1818.181818,Speed,1747.500000,-1818.181818,Speed,Off,Off,0.000000,FALSE,43,Read: /home/lvuser/scripts/auto_43.bee,File good!,DRIVE_STRAIGHT_TARGET 12 0 10000 75,DRIVE_STRAIGHT_TARGET,0.000000,0.000000,-0.050000
04:33:45.933 PM 04/29/2016,Autonomous Enabled,5,FALSE,0,NO ERROR,-0.250000,-12.429054,-0.250000,12.056888,TRUE,FALSE,TRUE,TRUE,FALSE,FALSE,Disabled,0.000000,0.000000,0.000000,TRUE,0.382660,-0.585693,0.000000,0.113541,0.148941,0.000000,-0.029000,-0.073000,0.230000,2.140000,-5.650000,1.020000,-6.642936,Hold,1.765869,0.000000,Hold,-153.000000,2.000000,LowGoal,1762.500000,-1818.181818,Speed,1747.500000,-1818.181818,Speed,Off,Off,0.000000,FALSE,43,Read: /home/lvuser/scripts/auto_43.bee,File good!,SET_HEADING 0,SET_HEADING,0.000000,0.000000,-0.050000
04:33:46.033 PM 04/29/2016,Autonomous Enabled,5,FALSE,0,NO ERROR,-0.250000,-16.304712,-0.250000,14.604299,TRUE,FALSE,TRUE,TRUE,FALSE,FALSE,Disabled,0.000000,0.000000,0.000000,TRUE,0.385498,-0.580200,0.000000,0.007507,0.156418,0.000000,-0.541000,0.097000,0.208000,2.060000,-5.560000,0.640000,-6.658992,Hold,1.730713,0.000000,Hold,-153.000000,2.000000,LowGoal,1770.000000,-1818.181818,Speed,1747.500000,-1818.181818,Speed,Off,Off,0.000000,FALSE,43,Read: /home/lvuser/scripts/auto_43.bee,File good!,SET_HEADING 0,SET_HEADING,0.000000,0.000000,-0.050000
04:33:46.134 PM 04/29/2016,Autonomous Enabled,4,FALSE,0,NO ERROR,-0.250000,-19.115205,-0.250000,14.931548,FALSE,FALSE,TRUE,TRUE,FALSE,FALSE,Disabled,0.000000,0.000000,0.000000,TRUE,0.370941,-0.568115,0.000000,-0.511658,0.312393,0.000000,-0.172000,0.202000,-0.667000,3.260000,-0.530000,-3.650000,-1.790223,Hold,1.729980,0.000000,Hold,-153.000000,2.000000,LowGoal,1770.000000,-1818.181818,Speed,1755.000000,-1818.181818,Speed,Off,Off,0.000000,FALSE,43,Read: /home/lvuser/scripts/auto_43.bee,File good!,SET_HEADING 0,SET_HEADING,0.000000,0.000000,-0.050000
04:33:46.234 PM 04/29/2016,Autonomous Enabled,13,FALSE,0,NO ERROR,0.000000,-21.104367,-0.000000,14.957215,TRUE,FALSE,TRUE,TRUE,FALSE,TRUE,Disabled,0.000000,0.000000,0.000000,TRUE,0.331390,-0.552094,0.000000,-0.789291,0.031143,0.000000,-0.412000,-0.828000,0.602000,0.430000,4.500000,-2.470000,3.741100,Hold,1.729736,50.000000,Hold,-153.000000,71680.000000,LowGoal,1770.000000,-3272.727273,Speed,1755.000000,-3272.727273,Speed,Off,Off,0.000000,FALSE,43,Read: /home/lvuser/scripts/auto_43.bee,File good!,SEARCH_FOR_GOAL,SEARCH_FOR_GOAL,0.000000,0.000000,-0.050000
04:33:46.337 PM 04/29/2016,Autonomous Enabled,11,FALSE,0,NO ERROR,0.000000,-21.136451,-0.000000,14.995715,FALSE,FALSE,TRUE,TRUE,FALSE,TRUE,Disabled,0.000000,0.000000,0.000000,TRUE,0.282700,-0.566284,0.000000,-1.024231,-0.288727,0.000000,0.195000,0.711000,0.675000,1.280000,3.800000,-3.180000,3.101896,Hold,2.827881,50.000000,Hold,-653.000000,71680.000000,LowGoal,1755.000000,-3272.727273,Speed,1732.500000,-3272.727273,Speed,Off,Off,0.000000,FALSE,43,Read: /home/lvuser/scripts/auto_43.bee,File good!,SEARCH_FOR_GOAL,SEARCH_FOR_GOAL,0.000000,0.000000,-0.050000
04:33:46.437 PM 04/29/2016,Autonomous Enabled,7,FALSE,0,NO ERROR,0.000000,-21.136451,-0.000000,14.970048,TRUE,FALSE,TRUE,TRUE,FALSE,TRUE,Disabled,0.000000,0.000000,0.000000,TRUE,0.234543,-0.567673,0.000000,-0.940445,-0.020844,0.000000,0.091000,-0.587000,0.283000,1.140000,3.850000,-2.520000,3.107900,Hold,5.309814,50.000000,Hold,-18124.000000,71680.000000,LowGoal,1912.500000,-3272.727273,Speed,1980.000000,-3272.727273,Speed,Off,Off,0.000000,FALSE,43,Read: /home/lvuser/scripts/auto_43.bee,File good!,SEARCH_FOR_GOAL,SEARCH_FOR_GOAL,0.000000,0.000000,-0.050000
04:33:46.538 PM 04/29/2016,Autonomous Enabled,20,FALSE,0,NO ERROR,0.000000,-21.136451,-0.000000,14.944382,TRUE,FALSE,TRUE,TRUE,FALSE,TRUE,Disabled,0.000000,0.000000,0.000000,TRUE,0.190186,-0.580612,0.000000,-0.842361,-0.318085,0.000000,-0.014000,0.301000,-0.035000,1.130000,3.950000,-2.260000,3.175316,Hold,7.698486,50.000000,Hold,-37940.000000,71680.000000,LowGoal,2295.000000,-3272.727273,Speed,2355.000000,-3272.727273,Speed,Off,Off,0.000000,FALSE,43,Read: /home/lvuser/scripts/auto_43.bee,File good!,SEARCH_FOR_GOAL,SEARCH_FOR_GOAL,0.000000,0.000000,-0.050000
04:33:46.639 PM 04/29/2016,Autonomous Enabled,10,FALSE,0,NO ERROR,0.000000,-21.117201,-0.000000,14.841715,TRUE,FALSE,TRUE,TRUE,FALSE,TRUE,Disabled,0.000000,0.000000,0.000000,TRUE,0.148529,-0.591415,0.000000,-0.819168,-0.236877,0.000000,0.049000,-0.081000,-0.084000,0.970000,4.080000,-2.090000,3.332097,Hold,10.741943,50.000000,Hold,-54839.000000,71680.000000,LowGoal,2632.500000,-3272.727273,Speed,2752.500000,-3272.727273,Speed,Off,Off,0.000000,FALSE,43,Read: /home/lvuser/scripts/auto_43.bee,File good!,SEARCH_FOR_GOAL,SEARCH_FOR_GOAL,0.000000,0.000000,-0.050000
04:33:46.740 PM 04/29/2016,Autonomous Enabled,17,FALSE,0,NO ERROR,0.000000,-21.110784,-0.000000,14.841715,TRUE,FALSE,TRUE,TRUE,FALSE,TRUE,Disabled,0.000000,0.000000,0.000000,TRUE,0.109528,-0.605423,0.000000,-0.742599,-0.259537,0.000000,-0.030000,0.034000,-0.117000,1.230000,4.020000,-1.870000,3.249709,Hold,14.346191,50.000000,Hold,-73659.000000,71680.000000,LowGoal,2917.500000,-3272.727273,Speed,3075.000000,-3272.727273,Speed,Off,Off,0.000000,FALSE,43,Read: /home/lvuser/scripts/auto_43.bee,File good!,SEARCH_FOR_GOAL,SEARCH_FOR_GOAL,0.000000,0.000000,-0.050000
04:33:46.840 PM 04/29/2016,Autonomous Enabled,12,FALSE,0,NO ERROR,0.000000,-21.117201,-0.000000,14.918715,TRUE,FALSE,TRUE,TRUE,FALSE,TRUE,Disabled,0.000000,0.000000,0.000000,TRUE,0.074066,-0.618439,0.000000,-0.670944,-0.268188,0.000000,0.307000,-0.070000,0.097000,1.100000,3.940000,-1.960000,3.143200,Hold,18.631104,50.000000,Hold,-72101.000000,71680.000000,LowGoal,3142.500000,-3272.727273,Speed,3232.500000,-3272.727273,Speed,Off,Off,0.000000,FALSE,43,Read: /home/lvuser/scripts/auto_43.bee,File good!,SEARCH_FOR_GOAL,SEARCH_FOR_GOAL,0.000000,0.000000,-0.050000
04:33:46.941 PM 04/29/2016,Autonomous Enabled,12,FALSE,0,NO ERROR,0.000000,-21.296867,-0.000000,15.201048,TRUE,FALSE,TRUE,TRUE,FALSE,TRUE,Disabled,0.000000,0.000000,0.000000,TRUE,0.038284,-0.633896,0.000000,-0.637955,-0.242310,0.000000,0.307000,-0.070000,0.097000,1.270000,4.150000,-1.440000,3.309772,Hold,23.208740,50.000000,Hold,-72101.000000,71680.000000,LowGoal,3217.500000,-3272.727273,Speed,3172.500000,-3272.727273,Speed,Off,Off,0.000000,FALSE,43,Read: /home/lvuser/scripts/auto_43.bee,File good!,SEARCH_FOR_GOAL,SEARCH_FOR_GOAL,0.000000,0.000000,-0.050000
04:33:47.041 PM 04/29/2016,Autonomous Enabled,7,FALSE,0,NO ERROR,0.000000,-21.226284,-0.000000,15.175381,TRUE,FALSE,TRUE,TRUE,FALSE,TRUE,Disabled,0.000000,0.000000,0.000000,TRUE,0.004608,-0.648788,0.000000,-0.659836,-0.328018,0.000000,-0.016000,0.013000,0.283000,1.080000,4.060000,-2.040000,3.180659,Hold,31.586914,50.000000,Hold,-71665.000000,71680.000000,LowGoal,3210.000000,-3272.727273,Speed,3157.500000,-3272.727273,Speed,Off,Off,0.000000,FALSE,43,Read: /home/lvuser/scripts/auto_43.bee,File good!,SEARCH_FOR_GOAL,SEARCH_FOR_GOAL,0.000000,0.000000,-0.050000
04:33:47.142 PM 04/29/2016,Autonomous Enabled,13,FALSE,0,NO ERROR,0.000000,-21.123617,-0.000000,15.034215,TRUE,FALSE,TRUE,TRUE,FALSE,TRUE,Disabled,0.000000,0.000000,0.000000,TRUE,-0.029846,-0.664032,0.000000,-0.697403,-0.296127,0.000000,0.189000,-0.041000,0.115000,1.150000,3.910000,-1.680000,3.070373,Hold,38.172119,50.000000,Hold,-71661.000000,71680.000000,LowGoal,3202.500000,-3272.727273,Speed,3172.500000,-3272.727273,Speed,Off,Off,0.000000,FALSE,43,Read: /home/lvuser/scripts/auto_43.bee,File good!,SEARCH_FOR_GOAL,SEARCH_FOR_GOAL,0.000000,0.000000,-0.050000
04:33:47.243 PM 04/29/2016,Autonomous Enabled,11,FALSE,0,NO ERROR,0.000000,-21.130034,-0.000000,15.085548,TRUE,FALSE,TRUE,TRUE,FALSE,TRUE,Disabled,0.000000,0.000000,0.000000,TRUE,-0.059601,-0.678116,0.000000,-0.539597,-0.261032,0.000000,0.189000,-0.041000,0.115000,1.150000,3.910000,-1.680000,3.121216,Hold,48.749268,50.000000,Hold,-71824.000000,71680.000000,LowGoal,3202.500000,-3272.727273,Speed,3187.500000,-3272.727273,Speed,Off,Off,0.000000,FALSE,43,Read: /home/lvuser/scripts/auto_43.bee,File good!,SEARCH_FOR_GOAL,SEARCH_FOR_GOAL,0.000000,0.000000,-0.050000
04:33:47.344 PM 04/29/2016,Autonomous Enabled,9,FALSE,0,NO ERROR,0.000000,-21.200617,-0.000000,15.220298,TRUE,FALSE,TRUE,TRUE,FALSE,TRUE,Disabled,0.000000,0.000000,0.000000,TRUE,-0.087341,-0.691711,0.000000,-0.574936,-0.285400,0.000000,-0.122000,0.193000,-0.188000,1.190000,3.950000,-1.350000,3.027671,Hold,55.836426,50.000000,Hold,-71717.000000,71680.000000,LowGoal,3202.500000,-3272.727273,Speed,3187.500000,-3272.727273,Speed,Off,Off,0.000000,FALSE,43,Read: /home/lvuser/scripts/auto_43.bee,File good!,SEARCH_FOR_GOAL,SEARCH_FOR_GOAL,0.000000,0.000000,-0.050000
04:33:47.445 PM 04/29/2016,Autonomous Enabled,10,FALSE,0,NO ERROR,0.000000,-21.200617,-0.000000,15.213881,TRUE,FALSE,TRUE,TRUE,FALSE,TRUE,Disabled,0.000000,0.000000,0.000000,TRUE,-0.115372,-0.703323,0.000000,-0.544739,0.000000,0.000000,-0.019000,-0.122000,0.053000,1.170000,3.920000,-1.690000,3.080780,Hold,56.806641,50.000000,Hold,-71813.000000,71680.000000,LowGoal,3210.000000,-3272.727273,Speed,3180.000000,-3272.727273,Speed,Off,Off,0.000000,FALSE,43,Read: /home/lvuser/scripts/auto_43.bee,File good!,SEARCH_FOR_GOAL,SEARCH_FOR_GOAL,0.000000,0.000000,-0.050000
04:33:47.550 PM 04/29/2016,Autonomous Enabled,15,FALSE,0,NO ERROR,0.000000,-21.200617,-0.000000,15.213881,TRUE,FALSE,TRUE,TRUE,FALSE,TRUE,Disabled,0.000000,0.000000,0.000000,TRUE,-0.141785,-0.704391,0.000000,-0.527771,-0.028244,0.000000,0.104000,-0.063000,0.130000,1.170000,3.970000,-1.500000,3.022783,Hold,56.806641,50.000000,Hold,-71726.000000,71680.000000,LowGoal,3210.000000,-3272.727273,Speed,3180.000000,-3272.727273,Speed,Off,Off,0.000000,FALSE,43,Read: /home/lvuser/scripts/auto_43.bee,File good!,SEARCH_FOR_GOAL,SEARCH_FOR_GOAL,0.000000,0.000000,-0.050000
04:33:47.650 PM 04/29/2016,Autonomous Enabled,14,FALSE,0,NO ERROR,0.355812,-21.200617,0.355812,15.136881,TRUE,FALSE,TRUE,TRUE,FALSE,TRUE,PID,-0.250000,11.700000,-7.800000,TRUE,-0.174194,-0.704987,0.000000,-0.537262,-0.008301,0.000000,-0.127000,0.219000,0.017000,1.120000,3.890000,-1.210000,3.048822,Hold,56.484375,50.000000,Hold,-71726.000000,71680.000000,LowGoal,3210.000000,-3272.727273,Speed,3180.000000,-3272.727273,Speed,Off,Off,0.000000,FALSE,43,Read: /home/lvuser/scripts/auto_43.bee,File good!,SEARCH_FOR_GOAL,SEARCH_FOR_GOAL,0.000000,0.000000,-0.300000
04:33:47.750 PM 04/29/2016,Autonomous Enabled,14,FALSE,0,NO ERROR,0.340181,-20.283036,0.340181,16.022379,TRUE,FALSE,TRUE,TRUE,FALSE,TRUE,PID,-0.250000,11.700000,-7.800000,TRUE,-0.195557,-0.707382,0.000000,-0.553223,-0.118134,0.000000,0.153000,-0.017000,0.146000,0.720000,2.000000,-1.490000,1.155364,Hold,56.484375,50.000000,Hold,-71746.000000,71680.000000,LowGoal,3210.000000,-3272.727273,Speed,3180.000000,-3272.727273,Speed,Off,Off,0.000000,FALSE,43,Read: /home/lvuser/scripts/auto_43.bee,File good!,SEARCH_FOR_GOAL,SEARCH_FOR_GOAL,0.000000,0.000000,-0.300000
04:33:47.850 PM 04/29/2016,Autonomous Enabled,12,FALSE,0,NO ERROR,0.265740,-19.147289,0.265740,17.215876,TRUE,FALSE,TRUE,TRUE,FALSE,TRUE,PID,-0.250000,11.700000,-7.800000,TRUE,-0.222321,-0.714050,0.000000,-0.538895,-0.129913,0.000000,0.153000,-0.017000,0.146000,0.770000,-1.690000,-1.340000,-3.616366,Hold,56.484131,50.000000,Hold,-71743.000000,71680.000000,LowGoal,3195.000000,-3272.727273,Speed,3157.500000,-3272.727273,Speed,Off,Off,0.000000,FALSE,43,Read: /home/lvuser/scripts/auto_43.bee,File good!,SEARCH_FOR_GOAL,SEARCH_FOR_GOAL,0.000000,0.000000,-0.300000
04:33:47.949 PM 04/29/2016,Autonomous Enabled,13,FALSE,0,NO ERROR,0.237778,-18.345207,0.237778,18.075708,TRUE,FALSE,TRUE,TRUE,FALSE,TRUE,PID,-0.250000,11.700000,-7.800000,TRUE,-0.253693,-0.720917,0.000000,-0.512421,-0.100372,0.000000,0.062000,0.054000,0.225000,1.050000,-5.410000,-1.050000,-7.216604,Hold,56.484131,50.000000,Hold,-71743.000000,71680.000000,LowGoal,3187.500000,-3272.727273,Speed,3157.500000,-3272.727273,Speed,Off,Off,0.000000,FALSE,43,Read: /home/lvuser/scripts/auto_43.bee,File good!,SEARCH_FOR_GOAL,SEARCH_FOR_GOAL,0.000000,0.000000,-0.300000
04:33:48.049 PM 04/29/2016,Autonomous Enabled,10,FALSE,0,NO ERROR,0.204417,-17.985875,0.204417,18.569790,TRUE,FALSE,TRUE,TRUE,FALSE,TRUE,Suspended,-0.250000,11.700000,-7.800000,TRUE,-0.273224,-0.724258,0.000000,-0.463699,-0.067459,0.000000,0.121000,0.033000,-0.026000,1.310000,-7.630000,-0.810000,-9.323607,Hold,56.484131,50.000000,Hold,-71743.000000,71680.000000,LowGoal,3187.500000,-3272.727273,Speed,3180.000000,-3272.727273,Speed,Off,Off,0.000000,FALSE,43,Read: /home/lvuser/scripts/auto_43.bee,File good!,SEARCH_FOR_GOAL,SEARCH_FOR_GOAL,0.000000,0.000000,-0.300000
04:33:48.149 PM 04/29/2016,Autonomous Enabled,11,FALSE,0,NO ERROR,0.000000,-17.953791,-0.000000,18.576207,TRUE,FALSE,TRUE,TRUE,FALSE,TRUE,Suspended,-0.250000,11.700000,-7.800000,TRUE,-0.298965,-0.724960,0.000000,-0.400284,0.042358,0.000000,0.133000,0.151000,-0.035000,1.450000,-8.450000,-0.580000,-9.758967,Hold,56.484131,50.000000,Hold,-71743.000000,71680.000000,LowGoal,3195.000000,-3272.727273,Speed,3187.500000,-3272.727273,Speed,Off,Off,0.000000,FALSE,43,Read: /home/lvuser/scripts/auto_43.bee,File good!,SEARCH_FOR_GOAL,SEARCH_FOR_GOAL,0.000000,0.000000,-0.300000
04:33:48.250 PM 04/29/2016,Autonomous Enabled,13,FALSE,0,NO ERROR,0.000000,-18.204041,-0.000000,18.383707,TRUE,FALSE,TRUE,TRUE,FALSE,TRUE,Suspended,-0.250000,11.700000,-7.800000,TRUE,-0.320740,-0.724304,0.000000,-0.462921,-0.010498,0.000000,0.024000,0.075000,0.090000,1.490000,-7.480000,-0.530000,-8.820836,Hold,56.484131,50.000000,Hold,-71743.000000,71680.000000,LowGoal,3210.000000,-3272.727273,Speed,3187.500000,-3272.727273,Speed,Off,Off,0.000000,FALSE,43,Read: /home/lvuser/scripts/auto_43.bee,File good!,SEARCH_FOR_GOAL,SEARCH_FOR_GOAL,0.000000,0.000000,-0.300000
04:33:48.352 PM 04/29/2016,Autonomous Enabled,10,FALSE,0,NO ERROR,0.000000,-18.210457,-0.000000,18.370874,TRUE,FALSE,TRUE,TRUE,FALSE,TRUE,Suspended,-0.250000,11.700000,-7.800000,TRUE,-0.339340,-0.725296,0.000000,-0.458679,-0.033432,0.000000,0.036000,-0.002000,-0.096000,1.340000,-7.370000,-0.600000,-8.837522,Hold,56.484131,50.000000,Hold,-71743.000000,71680.000000,LowGoal,3210.000000,-3272.727273,Speed,3187.500000,-3272.727273,Speed,Off,Off,0.000000,FALSE,43,Read: /home/lvuser/scripts/auto_43.bee,File good!,SEARCH_FOR_GOAL,SEARCH_FOR_GOAL,0.000000,0.000000,-0.300000
04:33:48.452 PM 04/29/2016,Autonomous Enabled,14,FALSE,0,NO ERROR,0.000000,-18.210457,-0.000000,18.370874,TRUE,FALSE,TRUE,TRUE,FALSE,TRUE,Suspended,-0.250000,11.700000,-7.800000,TRUE,-0.360931,-0.726410,0.000000,-0.425583,-0.014664,0.000000,0.117000,0.109000,-0.164000,1.420000,-7.340000,-0.570000,-8.827710,Hold,56.484131,50.000000,Hold,-71743.000000,71680.000000,LowGoal,3217.500000,-3272.727273,Speed,3195.000000,-3272.727273,Speed,Off,Off,0.000000,FALSE,43,Read: /home/lvuser/scripts/auto_43.bee,File good!,SEARCH_FOR_GOAL,SEARCH_FOR_GOAL,0.000000,0.000000,-0.300000
04:33:48.554 PM 04/29/2016,Autonomous Enabled,17,FALSE,0,NO ERROR,0.000000,-18.210457,-0.000000,18.370874,TRUE,FALSE,TRUE,TRUE,FALSE,TRUE,Suspended,-0.250000,11.700000,-7.800000,TRUE,-0.385925,-0.726761,0.000000,-0.422531,-0.005219,0.000000,0.088000,-0.115000,0.259000,1.370000,-7.350000,-0.520000,-8.853870,Hold,56.484131,50.000000,Hold,-71743.000000,71680.000000,LowGoal,3210.000000,-3272.727273,Speed,3195.000000,-3272.727273,Speed,Off,Off,0.000000,FALSE,43,Read: /home/lvuser/scripts/auto_43.bee,File good!,SEARCH_FOR_GOAL,SEARCH_FOR_GOAL,0.000000,0.000000,-0.300000
04:33:48.656 PM 04/29/2016,Autonomous Enabled,10,FALSE,0,NO ERROR,0.000000,-18.210457,-0.000000,18.370874,TRUE,FALSE,TRUE,TRUE,FALSE,TRUE,Suspended,0.037500,0.487500,-7.847500,TRUE,-0.385925,-0.726761,0.000000,-0.422531,-0.005219,0.000000,-0.004000,-0.009000,0.048000,1.370000,-7.350000,-0.520000,-8.863961,Hold,56.484131,50.000000,Hold,-71743.000000,71680.000000,LowGoal,3217.500000,-3272.727273,Speed,3187.500000,-3272.727273,Speed,Off,Off,0.000000,FALSE,43,Read: /home/lvuser/scripts/auto_43.bee,File good!,SEARCH_FOR_GOAL,SEARCH_FOR_GOAL,0.000000,0.000000,-0.012500
04:33:48.760 PM 04/29/2016,Autonomous Enabled,10,FALSE,0,NO ERROR,0.000000,-18.210457,-0.000000,18.370874,TRUE,FALSE,TRUE,TRUE,FALSE,TRUE,Suspended,0.037500,0.487500,-7.847500,TRUE,-0.431152,-0.725937,0.000000,-0.450836,0.006287,0.000000,0.026000,-0.171000,0.168000,1.420000,-7.350000,-0.520000,-8.877245,Hold,56.484131,50.000000,Hold,-71743.000000,71680.000000,Shoot,3210.000000,-3272.727273,Speed,3195.000000,-3272.727273,Speed,Off,On,0.000000,FALSE,43,Read: /home/lvuser/scripts/auto_43.bee,File good!,SEARCH_FOR_GOAL,SEARCH_FOR_GOAL,0.000000,0.000000,-0.012500
04:33:48.862 PM 04/29/2016,Autonomous Enabled,11,FALSE,0,NO ERROR,0.000000,-18.210457,-0.000000,18.370874,TRUE,FALSE,TRUE,TRUE,FALSE,TRUE,Suspended,0.037500,0.487500,-7.847500,TRUE,-0.452255,-0.726212,0.000000,-0.394699,-0.021271,0.000000,0.002000,0.204000,-0.292000,1.380000,-7.360000,-0.530000,-8.882034,Hold,56.484131,50.000000,Hold,-71743.000000,71680.000000,Shoot,3217.500000,-3272.727273,Speed,3195.000000,-3272.727273,Speed,Off,On,0.000000,FALSE,43,Read: /home/lvuser/scripts/auto_43.bee,File good!,SEARCH_FOR_GOAL,SEARCH_FOR_GOAL,0.000000,0.000000,-0.012500
04:33:48.964 PM 04/29/2016,Autonomous Enabled,12,FALSE,0,NO ERROR,0.000000,-18.210457,-0.000000,18.370874,TRUE,FALSE,TRUE,TRUE,FALSE,FALSE,Disabled,0.037500,0.487500,-7.847500,TRUE,-0.472717,-0.727905,0.000000,-0.428375,-0.025574,0.000000,-0.028000,-0.221000,0.262000,1.350000,-7.390000,-0.520000,-8.891350,Hold,56.484131,50.000000,Hold,-71743.000000,71680.000000,Shoot,3210.000000,-3272.727273,Speed,3187.500000,-3272.727273,Speed,On,On,0.000000,FALSE,43,Read: /home/lvuser/scripts/auto_43.bee,File good!,WAIT 500,WAIT,0.000000,0.000000,-0.012500
04:33:49.065 PM 04/29/2016,Autonomous Enabled,15,FALSE,0,NO ERROR,0.000000,-18.210457,-0.000000,18.364457,TRUE,FALSE,FALSE,TRUE,FALSE,FALSE,Disabled,0.037500,0.487500,-7.847500,TRUE,-0.495132,-0.728790,0.000000,-0.470810,-0.012253,0.000000,0.068000,-0.141000,0.176000,1.350000,-7.390000,-0.520000,-8.905354,Hold,56.484131,50.000000,Hold,-71742.000000,71680.000000,Shoot,3210.000000,-3272.727273,Speed,3180.000000,-3272.727273,Speed,On,On,0.000000,FALSE,43,Read: /home/lvuser/scripts/auto_43.bee,File good!,WAIT 500,WAIT,0.000000,0.000000,-0.012500
04:33:49.167 PM 04/29/2016,Autonomous Enabled,10,FALSE,0,NO ERROR,0.000000,-18.210457,-0.000000,18.325957,TRUE,FALSE,FALSE,TRUE,FALSE,FALSE,Disabled,0.037500,0.487500,-7.847500,TRUE,-0.519836,-0.729599,0.000000,-0.486893,0.004547,0.000000,-0.331000,0.157000,-0.220000,1.350000,-7.370000,-0.470000,-8.902211,Hold,56.483887,50.000000,Hold,-71741.000000,71680.000000,Shoot,2497.500000,-3272.727273,Speed,2520.000000,-3272.727273,Speed,On,On,0.000000,FALSE,43,Read: /home/lvuser/scripts/auto_43.bee,File good!,WAIT 500,WAIT,0.000000,0.000000,-0.012500
04:33:49.268 PM 04/29/2016,Autonomous Enabled,11,FALSE,0,NO ERROR,0.000000,-18.210457,-0.000000,18.332374,TRUE,FALSE,FALSE,TRUE,FALSE,FALSE,Disabled,0.037500,0.487500,-7.847500,TRUE,-0.519424,-0.728577,0.000000,0.013748,-0.008255,0.000000,0.016000,0.123000,-0.064000,1.350000,-7.340000,-0.530000,-8.874529,Hold,56.483887,50.000000,Hold,-71741.000000,71680.000000,Shoot,2355.000000,-3272.727273,Speed,2467.500000,-3272.727273,Speed,On,On,0.000000,FALSE,43,Read: /home/lvuser/scripts/auto_43.bee,File good!,WAIT 500,WAIT,0.000000,0.000000,-0.012500
04:33:49.369 PM 04/29/2016,Autonomous Enabled,12,FALSE,0,NO ERROR,0.000000,-18.210457,-0.000000,18.332374,TRUE,FALSE,FALSE,TRUE,FALSE,FALSE,Disabled,0.037500,0.487500,-7.847500,TRUE,-0.519455,-0.728043,0.000000,0.011490,-0.000946,0.000000,-0.085000,0.077000,-0.021000,1.340000,-7.340000,-0.550000,-8.884754,Hold,56.483887,50.000000,Hold,-71741.000000,71680.000000,Shoot,2707.500000,-3272.727273,Speed,2857.500000,-3272.727273,Speed,On,On,0.000000,FALSE,43,Read: /home/lvuser/scripts/auto_43.bee,File good!,WAIT 500,WAIT,0.000000,0.000000,-0.012500
04:33:49.470 PM 04/29/2016,Autonomous Enabled,11,FALSE,0,NO ERROR,0.000000,-18.210457,-0.000000,18.332374,TRUE,FALSE,FALSE,TRUE,FALSE,FALSE,Disabled,0.037500,0.487500,-7.847500,TRUE,-0.518631,-0.727539,0.000000,0.005890,0.001099,0.000000,-0.026000,0.204000,-0.117000,1.370000,-7.340000,-0.500000,-8.913712,Hold,56.483887,50.000000,Hold,-71741.000000,71680.000000,Shoot,3015.000000,-3272.727273,Speed,3165.000000,-3272.727273,Speed,On,On,0.000000,FALSE,43,Read: /home/lvuser/scripts/auto_43.bee,File good!,WAIT 500,WAIT,0.000000,0.000000,-0.012500
04:33:49.572 PM 04/29/2016,Autonomous Enabled,9,FALSE,0,NO ERROR,0.000000,-18.210457,-0.000000,18.332374,TRUE,FALSE,FALSE,TRUE,FALSE,FALSE,Disabled,0.037500,0.487500,-7.847500,TRUE,-0.517578,-0.727310,0.000000,0.035217,0.002747,0.000000,-0.076000,0.184000,-0.326000,1.370000,-7.340000,-0.500000,-8.929524,Hold,56.483887,50.000000,Hold,-71741.000000,71680.000000,Shoot,3240.000000,-3272.727273,Speed,3247.500000,-3272.727273,Speed,On,On,0.000000,FALSE,43,Read: /home/lvuser/scripts/auto_43.bee,File good!,WAIT 500,WAIT,0.000000,0.000000,-0.012500
04:33:49.673 PM 04/29/2016,Autonomous Enabled,14,FALSE,0,NO ERROR,0.000000,-18.210457,-0.000000,18.332374,TRUE,FALSE,FALSE,TRUE,FALSE,FALSE,Disabled,0.037500,0.487500,-7.847500,TRUE,-0.514984,-0.727478,0.000000,0.078613,-0.003632,0.000000,0.002000,0.217000,-0.300000,1.290000,-7.350000,-0.430000,-8.951618,Hold,56.483887,50.000000,Hold,-71741.000000,71680.000000,Shoot,3262.500000,-3272.727273,Speed,3202.500000,-3272.727273,Speed,On,On,0.000000,FALSE,43,Read: /home/lvuser/scripts/auto_43.bee,File good!,WAIT 500,WAIT,0.000000,0.000000,-0.012500
04:33:49.773 PM 04/29/2016,Autonomous Enabled,12,FALSE,0,NO ERROR,0.000000,-18.210457,-0.000000,18.332374,TRUE,FALSE,FALSE,TRUE,FALSE,FALSE,Disabled,0.037500,0.487500,-7.847500,TRUE,-0.508026,-0.726700,0.000000,0.140335,0.029297,0.000000,-0.001000,0.282000,-0.257000,1.310000,-7.350000,-0.440000,-8.961867,Hold,56.483887,50.000000,Hold,-71741.000000,71680.000000,Shoot,3240.000000,-3272.727273,Speed,3172.500000,-3272.727273,Speed,On,On,0.000000,FALSE,43,Read: /home/lvuser/scripts/auto_43.bee,File good!,WAIT 500,WAIT,0.000000,0.000000,-0.012500
04:33:49.874 PM 04/29/2016,Autonomous Enabled,10,FALSE,0,NO ERROR,0.000000,-18.210457,-0.000000,18.332374,TRUE,FALSE,FALSE,TRUE,FALSE,FALSE,Disabled,0.037500,0.487500,-7.847500,TRUE,-0.508026,-0.726700,0.000000,0.140335,0.029297,0.000000,0.124000,0.037000,0.010000,1.310000,-7.350000,-0.440000,-8.994733,Hold,56.483887,50.000000,Hold,-71741.000000,71680.000000,Shoot,3210.000000,-3272.727273,Speed,3172.500000,-3272.727273,Speed,On,On,0.000000,FALSE,43,Read: /home/lvuser/scripts/auto_43.bee,File good!,WAIT 500,WAIT,0.000000,0.000000,-0.012500
04:33:49.974 PM 04/29/2016,Autonomous Enabled,9,FALSE,0,NO ERROR,0.000000,-18.210457,-0.000000,18.332374,TRUE,FALSE,FALSE,TRUE,FALSE,FALSE,Disabled,0.037500,0.487500,-7.847500,TRUE,-0.493927,-0.723969,0.000000,0.118927,0.023117,0.000000,-0.141000,0.149000,-0.081000,1.280000,-7.350000,-0.400000,-9.016101,Hold,56.483887,50.000000,Hold,-71741.000000,71680.000000,Shoot,3202.500000,-3272.727273,Speed,3187.500000,-3272.727273,Speed,On,On,0.000000,FALSE,43,Read: /home/lvuser/scripts/auto_43.bee,File good!,WAIT 500,WAIT,0.000000,0.000000,-0.012500
04:33:50.075 PM 04/29/2016,Autonomous Enabled,11,FALSE,0,NO ERROR,0.000000,-18.210457,-0.000000,18.332374,TRUE,FALSE,FALSE,TRUE,FALSE,FALSE,Disabled,0.037500,0.487500,-7.847500,TRUE,-0.488235,-0.722214,0.000000,0.124283,0.047470,0.000000,0.100000,0.132000,-0.078000,1.310000,-7.350000,-0.430000,-9.032691,Hold,56.483887,50.000000,Hold,-71741.000000,71680.000000,Shoot,3210.000000,-3272.727273,Speed,3195.000000,-3272.727273,Speed,On,On,0.000000,FALSE,43,Read: /home/lvuser/scripts/auto_43.bee,File good!,STOP_ALL,STOP_ALL,0.000000,0.000000,-0.012500
04:33:50.178 PM 04/29/2016,Autonomous Enabled,12,FALSE,0,NO ERROR,0.000000,-18.210457,-0.000000,18.332374,TRUE,FALSE,FALSE,TRUE,FALSE,FALSE,Disabled,0.037500,0.487500,-7.847500,TRUE,-0.480835,-0.719681,0.000000,0.153610,0.049835,0.000000,0.156000,0.093000,-0.036000,1.290000,-7.350000,-0.430000,-9.049452,Hold,56.483887,50.000000,Hold,-71741.000000,71680.000000,Shoot,3217.500000,-3272.727273,Speed,3180.000000,-3272.727273,Speed,On,On,0.000000,FALSE,43,Read: /home/lvuser/scripts/auto_43.bee,File good!,STOP_ALL,STOP_ALL,0.000000,0.000000,-0.012500
04:33:50.281 PM 04/29/2016,Autonomous Enabled,9,FALSE,0,NO ERROR,0.000000,-18.210457,-0.000000,18.332374,TRUE,FALSE,FALSE,TRUE,FALSE,FALSE,Disabled,0.037500,0.487500,-7.847500,TRUE,-0.472504,-0.716187,0.000000,0.171906,0.081177,0.000000,-0.088000,0.077000,0.104000,1.310000,-7.350000,-0.400000,-9.073998,Hold,56.483887,50.000000,Hold,-71741.000000,71680.000000,Dwell,3217.500000,-3272.727273,Speed,3187.500000,-3272.727273,Speed,Off,On,0.000000,FALSE,43,Read: /home/lvuser/scripts/auto_43.bee,File good!,STOP_ALL,STOP_ALL,0.000000,0.000000,-0.012500
