Time,Robot Mode,Loop Time,Error Status,Error Code,Error Source,Left Motor Output,Left Motor Encoder,Right Motor Output,Right Motor Encoder,Is Level,Is Stalled,Ball Detector Photoeye,Vision Enabled,Vision Teleop Control,Vision Auto Control,Vision Current State,Vision X Output,Vision NavX Error,Vision NavX Target,NavX Connection Status,NavX Displacement X,NavX Displacement Y,NavX Displacement Z,NavX Velocity X,NavX Velocity Y,NavX Velocity Z,NavX Acceleration X,NavX Acceleration Y,NavX Acceleration Z,NavX Pitch,NavX Yaw,NavX Roll,Gyro Angle,Roller Arm State,Roller Arm Actual,Roller Arm Desired,Shooter Arm State,Shooter Arm Actual,Shooter Arm Desired,Shooter State,Actual RPM Left,Desired RPM Left,Control Mode Left,Actual RPM Right,Desired RPM Right,Scaler Motor Output,Auto To Run,Auto Current File,Auto File Status,Auto Current Command,Auto Trimmed Command
05:21:36.993 PM 03/19/2016,Teleop Enabled,9,FALSE,0,NO ERROR,-0.000000,-0.006417,0.000000,0.000000,TRUE,FALSE,FALSE,FALSE,FALSE,FALSE,Disabled,-0.021875,0.128125,31.571875,TRUE,0.174744,-4.624908,0.000000,0.000000,0.000000,0.000000,0.254000,-0.022000,0.231000,-0.160000,-0.160000,2.380000,-2.105758,ResetBack,1.077393,-0.200000,ResetBack,-8439.000000,-0.300000,Suck,0.000000,2181.818182,Speed,0.000000,2181.818182,Speed,Off,On0.000000,0,,,,
05:21:37.094 PM 03/19/2016,Teleop Enabled,10,FALSE,0,NO ERROR,-0.000000,-0.006417,0.000000,-0.166833,TRUE,FALSE,FALSE,FALSE,FALSE,FALSE,Disabled,-0.021875,0.128125,31.571875,TRUE,0.177414,-4.625061,0.000000,0.065308,0.004135,0.000000,-0.031000,-0.002000,-0.045000,-0.110000,-0.150000,2.410000,-2.057483,ResetBack,0.097656,-0.200000,ResetBack,-8330.000000,-0.300000,Suck,-285.000000,2181.818182,Speed,-217.500000,2181.818182,Speed,Off,On0.000000,0,,,,
05:21:37.195 PM 03/19/2016,Teleop Enabled,10,FALSE,0,NO ERROR,-0.000000,-0.006417,0.000000,-0.173250,TRUE,FALSE,FALSE,FALSE,FALSE,FALSE,Disabled,-0.021875,0.128125,31.571875,TRUE,0.179520,-4.625122,0.000000,0.000000,-0.011505,0.000000,0.053000,-0.029000,-0.005000,-0.110000,-0.170000,2.480000,-2.079229,ResetBack,0.081055,-0.200000,ResetBack,-5103.000000,-0.300000,Suck,-967.500000,2181.818182,Speed,-1050.000000,2181.818182,Speed,Off,On0.000000,0,,,,
05:21:37.296 PM 03/19/2016,Teleop Enabled,10,FALSE,0,NO ERROR,-0.000000,-0.006417,0.000000,-0.173250,TRUE,FALSE,FALSE,FALSE,FALSE,FALSE,Disabled,-0.021875,0.128125,31.571875,TRUE,0.179871,-4.625824,0.000000,0.009247,0.000000,0.000000,0.026000,-0.001000,-0.020000,-0.110000,-0.130000,2.440000,-2.073112,Reset,0.062988,0.000000,ResetBack,-3003.000000,-0.300000,Suck,-1680.000000,2181.818182,Speed,-1755.000000,2181.818182,Speed,Off,On0.000000,0,,,,
05:21:37.397 PM 03/19/2016,Teleop Enabled,9,FALSE,0,NO ERROR,-0.000000,-0.006417,0.000000,-0.173250,TRUE,FALSE,FALSE,FALSE,FALSE,FALSE,Disabled,-0.021875,0.128125,31.571875,TRUE,0.179977,-4.624893,0.000000,-0.012711,0.094162,0.000000,-0.067000,0.354000,0.225000,-0.110000,-0.120000,2.380000,-2.100690,Hold,0.702393,0.000000,ResetBack,-2218.000000,-0.300000,Suck,-2205.000000,2181.818182,Speed,-2242.500000,2181.818182,Speed,Off,On0.000000,0,,,,
05:21:37.498 PM 03/19/2016,Teleop Enabled,10,FALSE,0,NO ERROR,-0.000000,-0.006417,0.000000,-0.173250,TRUE,FALSE,FALSE,FALSE,FALSE,FALSE,Disabled,-0.021875,0.128125,31.571875,TRUE,0.177353,-4.615906,0.000000,-0.098633,0.265030,0.000000,-0.074000,0.013000,0.094000,-0.110000,-0.160000,2.420000,-2.107982,Hold,0.960938,0.000000,ResetBack,-872.000000,-0.300000,Suck,-2272.500000,2181.818182,Speed,-2257.500000,2181.818182,Speed,Off,On0.000000,0,,,,
05:21:37.599 PM 03/19/2016,Teleop Enabled,10,FALSE,0,NO ERROR,-0.000000,-0.006417,0.000000,-0.179666,TRUE,FALSE,FALSE,FALSE,FALSE,FALSE,Disabled,-0.021875,0.128125,31.571875,TRUE,0.170731,-4.603134,0.000000,-0.133224,0.240051,0.000000,0.023000,0.064000,0.060000,-0.110000,-0.190000,2.440000,-2.110102,Hold,0.960938,0.000000,ResetBack,-128.000000,-0.300000,Suck,-2122.500000,2181.818182,Speed,-2130.000000,2181.818182,Speed,Off,On0.000000,0,,,,
05:21:37.699 PM 03/19/2016,Teleop Enabled,10,FALSE,0,NO ERROR,-0.000000,-0.006417,0.000000,-0.179666,TRUE,FALSE,FALSE,FALSE,FALSE,FALSE,Disabled,-0.021875,0.128125,31.571875,TRUE,0.163574,-4.587036,0.000000,-0.112473,0.276291,0.000000,0.028000,-0.133000,-0.016000,-0.110000,-0.180000,2.480000,-2.125907,Hold,0.960938,0.000000,ResetBack,-128.000000,-0.300000,Suck,-2092.500000,2181.818182,Speed,-2077.500000,2181.818182,Speed,Off,On0.000000,0,,,,
05:21:37.799 PM 03/19/2016,Teleop Enabled,10,FALSE,0,NO ERROR,-0.000000,-0.006417,0.000000,-0.179666,TRUE,FALSE,FALSE,FALSE,FALSE,FALSE,Disabled,-0.021875,0.128125,31.571875,TRUE,0.160690,-4.579559,0.000000,-0.090286,0.240875,0.000000,0.022000,-0.095000,-0.139000,-0.110000,-0.190000,2.460000,-2.124175,Hold,0.960938,0.000000,ResetBack,-95.000000,-0.300000,Suck,-2145.000000,2181.818182,Speed,-2107.500000,2181.818182,Speed,Off,On0.000000,0,,,,
05:21:37.900 PM 03/19/2016,Teleop Enabled,10,FALSE,0,NO ERROR,-0.000000,-0.006417,0.000000,-0.179666,TRUE,FALSE,FALSE,FALSE,FALSE,FALSE,Disabled,-0.021875,0.128125,31.571875,TRUE,0.156006,-4.568985,0.000000,0.000000,0.126114,0.000000,0.005000,-0.042000,-0.056000,-0.120000,-0.140000,2.410000,-2.141729,Hold,0.960938,0.000000,ResetBack,-94.000000,-0.300000,Suck,-2160.000000,2181.818182,Speed,-2137.500000,2181.818182,Speed,Off,On0.000000,0,,,,
05:21:38.001 PM 03/19/2016,Teleop Enabled,10,FALSE,0,NO ERROR,-0.000000,-0.006417,0.000000,-0.179666,TRUE,FALSE,FALSE,FALSE,FALSE,FALSE,Disabled,-0.021875,0.128125,31.571875,TRUE,0.155594,-4.564758,0.000000,-0.007553,0.027618,0.000000,0.079000,-0.098000,-0.052000,-0.110000,-0.200000,2.470000,-2.143337,Hold,0.960938,0.000000,ResetBack,-90.000000,-0.300000,Suck,-2130.000000,2181.818182,Speed,-2122.500000,2181.818182,Speed,Off,On0.000000,0,,,,
05:21:38.101 PM 03/19/2016,Teleop Enabled,10,FALSE,0,NO ERROR,-0.000000,-0.006417,0.000000,-0.179666,TRUE,FALSE,FALSE,FALSE,FALSE,FALSE,Disabled,-0.021875,0.128125,31.571875,TRUE,0.155609,-4.565781,0.000000,-0.006393,-0.051453,0.000000,-0.051000,-0.049000,-0.010000,-0.110000,-0.140000,2.440000,-2.159141,Hold,0.960938,0.000000,ResetBack,-51.000000,-0.300000,Suck,-2130.000000,2181.818182,Speed,-2115.000000,2181.818182,Speed,Off,On0.000000,0,,,,
05:21:38.201 PM 03/19/2016,Teleop Enabled,10,FALSE,0,NO ERROR,-0.000000,-0.006417,0.000000,-0.179666,TRUE,FALSE,FALSE,FALSE,FALSE,FALSE,Disabled,-0.021875,0.128125,31.571875,TRUE,0.154404,-4.565613,0.000000,-0.027573,0.035797,0.000000,0.018000,0.003000,0.074000,-0.110000,-0.180000,2.450000,-2.166591,Hold,0.960938,0.000000,Reset,-47.000000,2.000000,Suck,-2130.000000,2181.818182,Speed,-2122.500000,2181.818182,Speed,Off,On0.000000,0,,,,
05:21:38.302 PM 03/19/2016,Teleop Enabled,9,FALSE,0,NO ERROR,-0.000000,-0.006417,0.000000,-0.179666,TRUE,FALSE,FALSE,FALSE,FALSE,FALSE,Disabled,-0.021875,0.128125,31.571875,TRUE,0.153336,-4.563217,0.000000,-0.030045,0.080551,0.000000,-0.048000,0.088000,0.164000,-0.110000,-0.190000,2.440000,-2.171373,Hold,0.960938,0.000000,Hold,-47.000000,2.000000,Suck,-2122.500000,2181.818182,Speed,-2122.500000,2181.818182,Speed,Off,On0.000000,0,,,,
05:21:38.402 PM 03/19/2016,Teleop Enabled,10,FALSE,0,NO ERROR,-0.000000,-0.006417,0.000000,-0.179666,TRUE,FALSE,FALSE,FALSE,FALSE,FALSE,Disabled,-0.021875,0.128125,31.571875,TRUE,0.149918,-4.552307,0.000000,-0.059372,0.196747,0.000000,0.028000,0.020000,0.089000,-0.110000,-0.220000,2.480000,-2.177594,Hold,0.960938,0.000000,Hold,-240.000000,2.000000,Suck,-2122.500000,2181.818182,Speed,-2122.500000,2181.818182,Speed,Off,On0.000000,0,,,,
05:21:38.502 PM 03/19/2016,Teleop Enabled,10,FALSE,0,NO ERROR,-0.000000,-0.006417,0.000000,-0.179666,TRUE,FALSE,FALSE,FALSE,FALSE,FALSE,Disabled,-0.021875,0.128125,31.571875,TRUE,0.148041,-4.545929,0.000000,-0.043381,0.000000,0.000000,0.024000,-0.018000,0.063000,-0.110000,-0.190000,2.400000,-2.165028,Hold,0.960938,0.000000,Hold,-240.000000,2.000000,Suck,-2122.500000,2181.818182,Speed,-2122.500000,2181.818182,Speed,Off,On0.000000,0,,,,
05:21:38.601 PM 03/19/2016,Teleop Enabled,11,FALSE,0,NO ERROR,-0.000000,-0.006417,0.000000,-0.179666,TRUE,FALSE,FALSE,FALSE,FALSE,FALSE,Disabled,-0.021875,0.128125,31.571875,TRUE,0.146896,-4.545959,0.000000,-0.005173,0.000000,0.000000,-0.033000,-0.008000,-0.005000,-0.110000,-0.200000,2.450000,-2.169621,Hold,0.960938,0.000000,Hold,-240.000000,2.000000,Suck,-2122.500000,2181.818182,Speed,-2122.500000,2181.818182,Speed,Off,On0.000000,0,,,,
05:21:38.702 PM 03/19/2016,Teleop Enabled,11,FALSE,0,NO ERROR,-0.000000,-0.006417,0.000000,-0.179666,TRUE,FALSE,FALSE,FALSE,FALSE,FALSE,Disabled,-0.021875,0.128125,31.571875,TRUE,0.146561,-4.547501,0.000000,-0.012772,-0.072556,0.000000,0.006000,-0.094000,-0.004000,-0.110000,-0.190000,2.420000,-2.175012,Hold,0.960938,0.000000,Hold,-240.000000,2.000000,Suck,-2130.000000,2181.818182,Speed,-2122.500000,2181.818182,Speed,Off,On0.000000,0,,,,
05:21:38.803 PM 03/19/2016,Teleop Enabled,10,FALSE,0,NO ERROR,-0.000000,-0.006417,0.000000,-0.179666,TRUE,FALSE,FALSE,FALSE,FALSE,FALSE,Disabled,-0.021875,0.128125,31.571875,TRUE,0.146713,-4.556458,0.000000,0.019196,-0.186951,0.000000,-0.026000,-0.139000,-0.131000,-0.110000,-0.180000,2.420000,-2.205623,Hold,0.960938,0.000000,Hold,-240.000000,2.000000,Suck,-2122.500000,2181.818182,Speed,-2122.500000,2181.818182,Speed,Off,On0.000000,0,,,,
05:21:38.902 PM 03/19/2016,Teleop Enabled,11,FALSE,0,NO ERROR,-0.000000,-0.006417,0.000000,-0.179666,TRUE,FALSE,FALSE,FALSE,FALSE,FALSE,Disabled,-0.021875,0.128125,31.571875,TRUE,0.147858,-4.568390,0.000000,0.000000,-0.262466,0.000000,-0.027000,0.061000,0.065000,-0.120000,-0.170000,2.360000,-2.219073,Hold,0.960938,0.000000,Hold,-240.000000,2.000000,Suck,-2122.500000,2181.818182,Speed,-2122.500000,2181.818182,Speed,Off,On0.000000,0,,,,
05:21:39.002 PM 03/19/2016,Teleop Enabled,8,FALSE,0,NO ERROR,-0.000000,-0.006417,0.000000,-0.179666,TRUE,FALSE,FALSE,FALSE,FALSE,FALSE,Disabled,-0.021875,0.128125,31.571875,TRUE,0.146881,-4.580688,0.000000,-0.026825,-0.234512,0.000000,0.018000,0.025000,0.124000,-0.110000,-0.200000,2.390000,-2.232282,Hold,0.960938,233472.000000,Hold,-240.000000,143360.000000,Suck,-2145.000000,2181.818182,Speed,-2122.500000,2181.818182,Speed,Off,On0.000000,0,,,,
05:21:39.102 PM 03/19/2016,Teleop Enabled,9,FALSE,0,NO ERROR,-0.000000,-0.006417,0.000000,-0.179666,TRUE,FALSE,FALSE,FALSE,FALSE,FALSE,Disabled,-0.021875,0.128125,31.571875,TRUE,0.146851,-4.591965,0.000000,-0.001450,-0.156403,0.000000,0.018000,0.025000,0.124000,-0.110000,-0.160000,2.330000,-2.238916,Hold,3.663574,233472.000000,Hold,-289.000000,143360.000000,Suck,-2137.500000,2181.818182,Speed,-2130.000000,2181.818182,Speed,Off,On0.000000,0,,,,
05:21:39.203 PM 03/19/2016,Teleop Enabled,11,FALSE,0,NO ERROR,-0.000000,-0.006417,0.000000,-0.179666,TRUE,FALSE,FALSE,FALSE,FALSE,FALSE,Disabled,-0.021875,0.128125,31.571875,TRUE,0.146667,-4.597733,0.000000,0.011932,-0.156982,0.000000,0.074000,0.116000,0.099000,-0.080000,-0.130000,2.310000,-2.206043,Hold,6.109863,233472.000000,Hold,-12888.000000,143360.000000,Suck,-2122.500000,2181.818182,Speed,-2137.500000,2181.818182,Speed,Off,On0.000000,0,,,,
05:21:39.304 PM 03/19/2016,Teleop Enabled,11,FALSE,0,NO ERROR,-0.000000,-0.006417,0.000000,-0.179666,TRUE,FALSE,FALSE,FALSE,FALSE,FALSE,Disabled,-0.021875,0.128125,31.571875,TRUE,0.149597,-4.604782,0.000000,0.072632,-0.118042,0.000000,0.120000,-0.067000,0.026000,-0.100000,-0.080000,2.400000,-2.232041,Hold,10.851807,233472.000000,Hold,-26166.000000,143360.000000,Suck,-2130.000000,2181.818182,Speed,-2145.000000,2181.818182,Speed,Off,On0.000000,0,,,,
05:21:39.404 PM 03/19/2016,Teleop Enabled,10,FALSE,0,NO ERROR,-0.000000,0.000000,0.000000,-0.173250,TRUE,FALSE,FALSE,FALSE,FALSE,FALSE,Disabled,-0.021875,0.128125,31.571875,TRUE,0.156311,-4.613312,0.000000,0.175690,-0.198669,0.000000,0.090000,-0.101000,-0.147000,0.010000,-0.100000,2.380000,-2.132913,Hold,16.415039,233472.000000,Hold,-36562.000000,143360.000000,Suck,-2137.500000,2181.818182,Speed,-2145.000000,2181.818182,Speed,Off,On0.000000,0,,,,
05:21:39.504 PM 03/19/2016,Teleop Enabled,9,FALSE,0,NO ERROR,-0.000000,0.000000,0.000000,-0.179666,TRUE,FALSE,FALSE,FALSE,FALSE,FALSE,Disabled,-0.021875,0.128125,31.571875,TRUE,0.164383,-4.626862,0.000000,0.000000,-0.330612,0.000000,-0.037000,-0.209000,-0.251000,-0.070000,-0.190000,2.460000,-2.237267,Hold,22.914551,233472.000000,Hold,-49099.000000,143360.000000,Suck,-2130.000000,2181.818182,Speed,-2137.500000,2181.818182,Speed,Off,On0.000000,0,,,,
05:21:39.604 PM 03/19/2016,Teleop Enabled,8,FALSE,0,NO ERROR,-0.000000,0.000000,0.000000,-0.179666,TRUE,FALSE,FALSE,FALSE,FALSE,FALSE,Disabled,-0.021875,0.128125,31.571875,TRUE,0.163193,-4.649780,0.000000,-0.049896,-0.535965,0.000000,-0.092000,-0.118000,-0.048000,-0.050000,-0.170000,2.480000,-2.219462,Hold,30.536377,233472.000000,Hold,-49099.000000,143360.000000,Suck,-2130.000000,2181.818182,Speed,-2145.000000,2181.818182,Speed,Off,On0.000000,0,,,,
05:21:39.704 PM 03/19/2016,Teleop Enabled,10,FALSE,0,NO ERROR,-0.000000,0.000000,0.000000,-0.198916,TRUE,FALSE,FALSE,FALSE,FALSE,FALSE,Disabled,-0.021875,0.128125,31.571875,TRUE,0.159515,-4.687302,0.000000,-0.030914,-0.695923,0.000000,-0.092000,-0.118000,-0.048000,-0.060000,-0.450000,2.470000,-2.219218,Hold,39.409424,233472.000000,Hold,-62283.000000,143360.000000,Suck,-2130.000000,2181.818182,Speed,-2145.000000,2181.818182,Speed,Off,On0.000000,0,,,,
05:21:39.804 PM 03/19/2016,Teleop Enabled,10,FALSE,0,NO ERROR,-0.000000,-0.102666,0.000000,-0.391416,TRUE,FALSE,FALSE,FALSE,FALSE,FALSE,Disabled,-0.021875,0.128125,31.571875,TRUE,0.160553,-4.724686,0.000000,0.005508,-0.773895,0.000000,0.130000,-0.178000,-0.243000,0.030000,-0.420000,2.420000,-2.111679,Hold,48.904541,233472.000000,Hold,-78002.000000,143360.000000,Suck,-2137.500000,2181.818182,Speed,-2152.500000,2181.818182,Speed,Off,On0.000000,0,,,,
05:21:39.905 PM 03/19/2016,Teleop Enabled,10,FALSE,0,NO ERROR,-0.000000,-0.147583,0.000000,-0.461999,TRUE,FALSE,FALSE,FALSE,FALSE,FALSE,Disabled,-0.021875,0.128125,31.571875,TRUE,0.158615,-4.755920,0.000000,-0.069519,-0.785370,0.000000,-0.053000,-0.053000,-0.200000,0.160000,-1.150000,2.390000,-1.999063,Hold,59.113770,233472.000000,Hold,-95485.000000,143360.000000,Suck,-2137.500000,2181.818182,Speed,-2145.000000,2181.818182,Speed,Off,On0.000000,0,,,,
05:21:40.004 PM 03/19/2016,Teleop Enabled,12,FALSE,0,NO ERROR,-0.000000,-0.147583,0.000000,-0.461999,TRUE,FALSE,FALSE,FALSE,FALSE,FALSE,Disabled,-0.021875,0.128125,31.571875,TRUE,0.153992,-4.797180,0.000000,-0.104965,-0.830017,0.000000,-0.053000,-0.053000,-0.200000,0.040000,-1.330000,2.390000,-2.104450,Hold,62.909180,233472.000000,Hold,-113662.000000,143360.000000,Suck,-2145.000000,2181.818182,Speed,-2145.000000,2181.818182,Speed,Off,On0.000000,0,,,,
05:21:40.104 PM 03/19/2016,Teleop Enabled,10,FALSE,0,NO ERROR,-0.000000,-0.147583,0.000000,-0.461999,TRUE,FALSE,FALSE,FALSE,FALSE,FALSE,Disabled,-0.021875,0.128125,31.571875,TRUE,0.148529,-4.821259,0.000000,-0.116638,-0.006042,0.000000,0.018000,0.057000,-0.235000,-0.010000,-1.040000,2.420000,-2.169893,Hold,62.983643,233472.000000,Hold,-131252.000000,143360.000000,Suck,-2145.000000,2181.818182,Speed,-2137.500000,2181.818182,Speed,Off,On0.000000,0,,,,
05:21:40.205 PM 03/19/2016,Teleop Enabled,11,FALSE,0,NO ERROR,-0.000000,-0.089833,0.000000,-0.378582,TRUE,FALSE,FALSE,FALSE,FALSE,FALSE,Disabled,-0.021875,0.128125,31.571875,TRUE,0.141876,-4.819061,0.000000,-0.168015,0.089050,0.000000,-0.062000,-0.055000,-0.292000,0.110000,-0.420000,2.450000,-2.103709,Hold,61.747803,233472.000000,Hold,-144439.000000,143360.000000,Suck,-2130.000000,2181.818182,Speed,-2122.500000,2181.818182,Speed,Off,On0.000000,0,,,,
05:21:40.304 PM 03/19/2016,Teleop Enabled,12,FALSE,0,NO ERROR,-0.000000,-0.012833,0.000000,-0.307999,TRUE,FALSE,FALSE,FALSE,FALSE,FALSE,Disabled,-0.021875,0.128125,31.571875,TRUE,0.134949,-4.814056,0.000000,-0.082550,0.139877,0.000000,-0.313000,-0.116000,0.227000,0.210000,-0.360000,2.480000,-1.961594,Hold,61.196045,233472.000000,Hold,-144439.000000,143360.000000,Suck,-2122.500000,2181.818182,Speed,-2130.000000,2181.818182,Speed,Off,On0.000000,0,,,,
05:21:40.404 PM 03/19/2016,Teleop Enabled,11,FALSE,0,NO ERROR,-0.000000,-0.012833,0.000000,-0.307999,TRUE,FALSE,FALSE,FALSE,FALSE,FALSE,Disabled,-0.021875,0.128125,31.571875,TRUE,0.126434,-4.810806,0.000000,-0.160538,0.005341,0.000000,-0.313000,-0.116000,0.227000,0.170000,-0.460000,2.480000,-2.065790,Hold,61.123535,233472.000000,Hold,-143374.000000,143360.000000,Suck,-2077.500000,2181.818182,Speed,-2100.000000,2181.818182,Speed,Off,On0.000000,0,,,,
05:21:40.504 PM 03/19/2016,Teleop Enabled,10,FALSE,0,NO ERROR,-0.000000,-0.012833,0.000000,-0.301583,TRUE,FALSE,FALSE,FALSE,FALSE,FALSE,Disabled,-0.021875,0.128125,31.571875,TRUE,0.120743,-4.810745,0.000000,-0.144989,-0.013992,0.000000,0.125000,0.087000,0.170000,0.090000,-0.950000,2.460000,-2.166471,Hold,61.016357,233472.000000,Hold,-143519.000000,143360.000000,Suck,-2152.500000,2181.818182,Speed,-2122.500000,2181.818182,Speed,Off,On0.000000,0,,,,
05:21:40.605 PM 03/19/2016,Teleop Enabled,9,FALSE,0,NO ERROR,-0.000000,-0.012833,0.000000,-0.301583,TRUE,FALSE,FALSE,FALSE,FALSE,FALSE,Disabled,-0.021875,0.128125,31.571875,TRUE,0.112320,-4.814209,0.000000,-0.137726,-0.098877,0.000000,0.007000,-0.109000,0.042000,0.100000,-0.760000,2.460000,-2.212515,Hold,60.886230,233472.000000,Hold,-143490.000000,143360.000000,Suck,-2182.500000,2181.818182,Speed,-2152.500000,2181.818182,Speed,Off,On0.000000,0,,,,
05:21:40.705 PM 03/19/2016,Teleop Enabled,10,FALSE,0,NO ERROR,-0.000000,-0.012833,0.000000,-0.301583,TRUE,FALSE,FALSE,FALSE,FALSE,FALSE,Disabled,-0.021875,0.128125,31.571875,TRUE,0.104172,-4.820007,0.000000,-0.179657,-0.120819,0.000000,0.005000,0.009000,0.043000,0.040000,-0.750000,2.450000,-2.291164,Hold,60.871582,233472.000000,Hold,-143490.000000,143360.000000,Suck,-2160.000000,2181.818182,Speed,-2145.000000,2181.818182,Speed,Off,On0.000000,0,,,,
05:21:40.806 PM 03/19/2016,Teleop Enabled,9,FALSE,0,NO ERROR,-0.000000,-0.012833,0.000000,-0.301583,TRUE,FALSE,FALSE,FALSE,FALSE,FALSE,Disabled,-0.021875,0.128125,31.571875,TRUE,0.095093,-4.825272,0.000000,-0.196198,0.000000,0.000000,0.030000,0.000000,0.152000,0.100000,-0.750000,2.390000,-2.268732,Hold,60.871582,233472.000000,Hold,-143490.000000,143360.000000,Suck,-2152.500000,2181.818182,Speed,-2130.000000,2181.818182,Speed,Off,On0.000000,0,,,,
05:21:40.908 PM 03/19/2016,Teleop Enabled,12,FALSE,0,NO ERROR,-0.000000,-0.012833,0.000000,-0.301583,TRUE,FALSE,FALSE,FALSE,FALSE,FALSE,Disabled,-0.021875,0.128125,31.571875,TRUE,0.091125,-4.825516,0.000000,0.006363,0.002411,0.000000,-0.019000,-0.035000,0.165000,0.080000,-0.880000,2.400000,-2.327231,Hold,60.871582,233472.000000,Hold,-143490.000000,143360.000000,Suck,-2152.500000,2181.818182,Speed,-2137.500000,2181.818182,Speed,Off,On0.000000,0,,,,
05:21:41.007 PM 03/19/2016,Teleop Enabled,10,FALSE,0,NO ERROR,-0.000000,-0.012833,0.000000,-0.301583,TRUE,FALSE,FALSE,FALSE,FALSE,FALSE,Disabled,-0.021875,0.128125,31.571875,TRUE,0.091125,-4.825516,0.000000,0.006363,0.002411,0.000000,0.045000,0.060000,0.010000,0.070000,-0.810000,2.440000,-2.379503,Hold,60.871582,233472.000000,Hold,-143490.000000,143360.000000,Suck,-2145.000000,2181.818182,Speed,-2130.000000,2181.818182,Speed,Off,On0.000000,0,,,,
05:21:41.108 PM 03/19/2016,Teleop Enabled,11,FALSE,0,NO ERROR,-0.000000,-0.012833,0.000000,-0.301583,TRUE,FALSE,FALSE,FALSE,FALSE,FALSE,Disabled,-0.021875,0.128125,31.571875,TRUE,0.095779,-4.821671,0.000000,0.069000,0.063080,0.000000,0.016000,0.067000,-0.041000,0.050000,-0.800000,2.360000,-2.430680,Hold,60.871582,233472.000000,Hold,-143490.000000,143360.000000,Suck,-2137.500000,2181.818182,Speed,-2130.000000,2181.818182,Speed,Off,On0.000000,0,,,,
05:21:41.209 PM 03/19/2016,Teleop Enabled,9,FALSE,0,NO ERROR,-0.000000,-0.012833,0.000000,-0.301583,TRUE,FALSE,FALSE,FALSE,FALSE,FALSE,Disabled,-0.021875,0.128125,31.571875,TRUE,0.095566,-4.817139,0.000000,0.002243,0.123093,0.000000,0.015000,0.021000,-0.078000,0.060000,-0.860000,2.410000,-2.457918,Hold,60.871582,233472.000000,Hold,-143490.000000,143360.000000,Suck,-2145.000000,2181.818182,Speed,-2137.500000,2181.818182,Speed,Off,On0.000000,0,,,,
05:21:41.308 PM 03/19/2016,Teleop Enabled,9,FALSE,0,NO ERROR,-0.000000,-0.012833,0.000000,-0.301583,TRUE,FALSE,FALSE,FALSE,FALSE,FALSE,Disabled,-0.021875,0.128125,31.571875,TRUE,0.096588,-4.813095,0.000000,0.030258,0.002747,0.000000,0.040000,-0.045000,-0.189000,0.050000,-0.830000,2.400000,-2.498788,Hold,60.871582,233472.000000,Hold,-143490.000000,143360.000000,Suck,-2137.500000,2181.818182,Speed,-2137.500000,2181.818182,Speed,Off,On0.000000,0,,,,
05:21:41.408 PM 03/19/2016,Teleop Enabled,10,FALSE,0,NO ERROR,-0.000000,-0.012833,0.000000,-0.301583,TRUE,FALSE,FALSE,FALSE,FALSE,FALSE,Disabled,-0.021875,0.128125,31.571875,TRUE,0.098618,-4.812897,0.000000,0.053070,-0.004669,0.000000,0.048000,0.014000,-0.068000,0.050000,-0.830000,2.340000,-2.528917,Hold,60.871582,233472.000000,Hold,-143490.000000,143360.000000,Suck,-2145.000000,2181.818182,Speed,-2137.500000,2181.818182,Speed,Off,On0.000000,0,,,,
05:21:41.508 PM 03/19/2016,Teleop Enabled,10,FALSE,0,NO ERROR,-0.000000,-0.012833,0.000000,-0.301583,TRUE,FALSE,FALSE,FALSE,FALSE,FALSE,Disabled,-0.021875,0.128125,31.571875,TRUE,0.100357,-4.814468,0.000000,0.025238,-0.053711,0.000000,-0.025000,-0.091000,-0.156000,0.050000,-0.830000,2.340000,-2.573594,Hold,60.871582,233472.000000,Hold,-143490.000000,143360.000000,Suck,-2152.500000,2181.818182,Speed,-2137.500000,2181.818182,Speed,Off,On0.000000,0,,,,
05:21:41.609 PM 03/19/2016,Teleop Enabled,9,FALSE,0,NO ERROR,-0.000000,-0.012833,0.000000,-0.301583,TRUE,FALSE,FALSE,FALSE,FALSE,FALSE,Disabled,-0.021875,0.128125,31.571875,TRUE,0.100555,-4.821167,0.000000,0.000000,-0.158356,0.000000,0.012000,-0.084000,-0.113000,0.050000,-0.860000,2.390000,-2.576132,Hold,60.871582,233472.000000,Hold,-143490.000000,143360.000000,Suck,-2145.000000,2181.818182,Speed,-2152.500000,2181.818182,Speed,Off,On0.000000,0,,,,
05:21:41.710 PM 03/19/2016,Teleop Enabled,10,FALSE,0,NO ERROR,-0.000000,-0.012833,0.000000,-0.301583,TRUE,FALSE,FALSE,FALSE,FALSE,FALSE,Disabled,-0.021875,0.128125,31.571875,TRUE,0.100555,-4.821167,0.000000,0.000000,-0.158356,0.000000,0.000000,-0.023000,0.099000,0.050000,-0.840000,2.370000,-2.606519,Hold,60.871582,233472.000000,Hold,-143490.000000,143360.000000,Suck,-2137.500000,2181.818182,Speed,-2160.000000,2181.818182,Speed,Off,On0.000000,0,,,,
05:21:41.810 PM 03/19/2016,Teleop Enabled,9,FALSE,0,NO ERROR,-0.000000,-0.012833,0.000000,-0.301583,TRUE,FALSE,FALSE,FALSE,FALSE,FALSE,Disabled,-0.021875,0.128125,31.571875,TRUE,0.099777,-4.842026,0.000000,-0.038300,-0.231735,0.000000,-0.087000,0.033000,0.121000,0.050000,-0.840000,2.370000,-2.627051,Hold,60.871582,233472.000000,Hold,-143490.000000,143360.000000,Suck,-2137.500000,2181.818182,Speed,-2152.500000,2181.818182,Speed,Off,On0.000000,0,,,,
05:21:41.914 PM 03/19/2016,Teleop Enabled,10,FALSE,0,NO ERROR,-0.000000,-0.012833,0.000000,-0.301583,TRUE,FALSE,FALSE,FALSE,FALSE,FALSE,Disabled,-0.021875,0.128125,31.571875,TRUE,0.099777,-4.842026,0.000000,-0.038300,-0.231735,0.000000,-0.044000,-0.022000,0.070000,0.050000,-0.890000,2.430000,-2.685925,Hold,60.871582,233472.000000,HighGoal,-143490.000000,69632.000000,Suck,-2130.000000,2181.818182,Speed,-2145.000000,2181.818182,Speed,Off,On0.000000,0,,,,
05:21:42.015 PM 03/19/2016,Teleop Enabled,12,FALSE,0,NO ERROR,-0.000000,-0.012833,0.000000,-0.301583,TRUE,FALSE,FALSE,FALSE,FALSE,FALSE,Disabled,-0.021875,0.128125,31.571875,TRUE,0.096146,-4.854156,0.000000,-0.098892,-0.250717,0.000000,-0.018000,-0.008000,0.160000,0.050000,-0.850000,2.360000,-2.707004,Hold,60.871582,233472.000000,Hold,-143490.000000,69632.000000,Suck,-2130.000000,2181.818182,Speed,-2152.500000,2181.818182,Speed,Off,On0.000000,0,,,,
05:21:42.114 PM 03/19/2016,Teleop Enabled,11,FALSE,0,NO ERROR,-0.000000,-0.012833,0.000000,-0.301583,TRUE,FALSE,FALSE,FALSE,FALSE,FALSE,Disabled,-0.021875,0.128125,31.571875,TRUE,0.094910,-4.871887,0.000000,0.005127,-0.235275,0.000000,0.053000,0.040000,0.118000,0.050000,-0.920000,2.370000,-2.721266,Hold,60.871582,233472.000000,HighGoal,-141150.000000,69632.000000,Suck,-2130.000000,2181.818182,Speed,-2152.500000,2181.818182,Speed,Off,On0.000000,0,,,,
05:21:42.215 PM 03/19/2016,Teleop Enabled,10,FALSE,0,NO ERROR,-0.000000,-0.012833,0.000000,-0.301583,TRUE,FALSE,FALSE,FALSE,FALSE,FALSE,Disabled,-0.021875,0.128125,31.571875,TRUE,0.096130,-4.883362,0.000000,0.032990,-0.231079,0.000000,0.007000,-0.006000,-0.088000,0.070000,-0.830000,2.360000,-2.795027,Hold,60.871582,233472.000000,Hold,-133733.000000,69632.000000,Suck,-2130.000000,2181.818182,Speed,-2145.000000,2181.818182,Speed,Off,On0.000000,0,,,,
05:21:42.316 PM 03/19/2016,Teleop Enabled,10,FALSE,0,NO ERROR,-0.000000,-0.012833,0.000000,-0.301583,TRUE,FALSE,FALSE,FALSE,FALSE,FALSE,Disabled,-0.021875,0.128125,31.571875,TRUE,0.096512,-4.894302,0.000000,0.004013,-0.205032,0.000000,0.071000,0.130000,0.012000,0.030000,-0.820000,2.380000,-2.797147,Hold,60.871582,233472.000000,Hold,-125579.000000,69632.000000,Suck,-2130.000000,2181.818182,Speed,-2137.500000,2181.818182,Speed,Off,On0.000000,0,,,,
05:21:42.417 PM 03/19/2016,Teleop Enabled,9,FALSE,0,NO ERROR,-0.000000,-0.012833,0.000000,-0.301583,TRUE,FALSE,FALSE,FALSE,FALSE,FALSE,Disabled,-0.021875,0.128125,31.571875,TRUE,0.097778,-4.902176,0.000000,0.025085,-0.128632,0.000000,-0.011000,0.101000,0.005000,0.050000,-0.780000,2.370000,-2.797147,Hold,60.871582,233472.000000,Hold,-125579.000000,69632.000000,Suck,-2137.500000,2181.818182,Speed,-2137.500000,2181.818182,Speed,Off,On0.000000,0,,,,
05:21:42.517 PM 03/19/2016,Teleop Enabled,10,FALSE,0,NO ERROR,-0.000000,-0.012833,0.000000,-0.301583,TRUE,FALSE,FALSE,FALSE,FALSE,FALSE,Disabled,-0.021875,0.128125,31.571875,TRUE,0.098328,-4.906403,0.000000,0.020599,-0.077118,0.000000,-0.037000,0.059000,-0.023000,0.030000,-0.880000,2.380000,-2.844314,Hold,60.871582,233472.000000,Hold,-117271.000000,69632.000000,Suck,-2137.500000,2181.818182,Speed,-2130.000000,2181.818182,Speed,Off,On0.000000,0,,,,
05:21:42.618 PM 03/19/2016,Teleop Enabled,10,FALSE,0,NO ERROR,-0.000000,-0.012833,0.000000,-0.301583,TRUE,FALSE,FALSE,FALSE,FALSE,FALSE,Disabled,-0.021875,0.128125,31.571875,TRUE,0.098785,-4.909225,0.000000,0.000000,-0.038208,0.000000,-0.030000,-0.034000,0.005000,0.030000,-0.780000,2.420000,-2.905536,Hold,60.871582,233472.000000,Hold,-108769.000000,69632.000000,Suck,-2137.500000,2181.818182,Speed,-2137.500000,2181.818182,Speed,Off,On0.000000,0,,,,
05:21:42.717 PM 03/19/2016,Teleop Enabled,11,FALSE,0,NO ERROR,-0.000000,-0.012833,0.000000,-0.301583,TRUE,FALSE,FALSE,FALSE,FALSE,FALSE,Disabled,-0.021875,0.128125,31.571875,TRUE,0.098785,-4.912048,0.000000,-0.000031,-0.063538,0.000000,0.000000,0.028000,0.068000,0.030000,-0.800000,2.380000,-2.928078,Hold,60.871582,233472.000000,Hold,-99856.000000,69632.000000,Suck,-2137.500000,2181.818182,Speed,-2137.500000,2181.818182,Speed,Off,On0.000000,0,,,,
05:21:42.818 PM 03/19/2016,Teleop Enabled,11,FALSE,0,NO ERROR,-0.000000,-0.012833,0.000000,-0.301583,TRUE,FALSE,FALSE,FALSE,FALSE,FALSE,Disabled,-0.021875,0.128125,31.571875,TRUE,0.098740,-4.915222,0.000000,0.000000,-0.078934,0.000000,-0.095000,-0.067000,0.048000,0.030000,-0.790000,2.410000,-2.962617,Hold,60.871582,233472.000000,Hold,-90588.000000,69632.000000,Suck,-2137.500000,2181.818182,Speed,-2137.500000,2181.818182,Speed,Off,On0.000000,0,,,,
05:21:42.919 PM 03/19/2016,Teleop Enabled,11,FALSE,0,NO ERROR,-0.000000,-0.012833,0.000000,-0.301583,TRUE,FALSE,FALSE,FALSE,FALSE,FALSE,Disabled,-0.021875,0.128125,31.571875,TRUE,0.097153,-4.923798,0.000000,-0.042480,-0.182495,0.000000,0.016000,-0.086000,-0.034000,0.020000,-0.770000,2.380000,-2.989755,Hold,60.871582,233472.000000,Hold,-81014.000000,69632.000000,Suck,-2130.000000,2181.818182,Speed,-2137.500000,2181.818182,Speed,Off,On0.000000,0,,,,
05:21:43.020 PM 03/19/2016,Teleop Enabled,11,FALSE,0,NO ERROR,-0.000000,-0.012833,0.000000,-0.301583,TRUE,FALSE,FALSE,FALSE,FALSE,FALSE,Disabled,-0.021875,0.128125,31.571875,TRUE,0.096878,-4.935547,0.000000,0.009537,-0.270050,0.000000,0.041000,-0.072000,-0.054000,0.030000,-0.770000,2.380000,-3.021492,Hold,60.871582,233472.000000,Hold,-71074.000000,69632.000000,Suck,-2137.500000,2181.818182,Speed,-2130.000000,2181.818182,Speed,Off,On0.000000,0,,,,
05:21:43.121 PM 03/19/2016,Teleop Enabled,9,FALSE,0,NO ERROR,-0.000000,-0.012833,0.000000,-0.301583,TRUE,FALSE,FALSE,FALSE,FALSE,FALSE,Disabled,-0.021875,0.128125,31.571875,TRUE,0.097610,-4.947556,0.000000,0.023941,-0.311691,0.000000,0.075000,0.048000,-0.048000,0.010000,-0.700000,2.360000,-3.055563,Hold,60.871582,233472.000000,Hold,-71074.000000,69632.000000,Suck,-2137.500000,2181.818182,Speed,-2137.500000,2181.818182,Speed,Off,On0.000000,0,,,,
05:21:43.221 PM 03/19/2016,Teleop Enabled,11,FALSE,0,NO ERROR,-0.000000,-0.012833,0.000000,-0.295166,TRUE,FALSE,FALSE,FALSE,FALSE,FALSE,Disabled,-0.021875,0.128125,31.571875,TRUE,0.100174,-4.962585,0.000000,0.038727,-0.188919,0.000000,-0.040000,0.102000,0.151000,0.190000,-0.650000,2.360000,-2.954486,Hold,60.871582,233472.000000,Hold,-69846.000000,69632.000000,Suck,-2130.000000,2181.818182,Speed,-2137.500000,2181.818182,Speed,Off,On0.000000,0,,,,
05:21:43.321 PM 03/19/2016,Teleop Enabled,11,FALSE,0,NO ERROR,-0.000000,-0.012833,0.000000,-0.301583,TRUE,FALSE,FALSE,FALSE,FALSE,FALSE,Disabled,-0.021875,0.128125,31.571875,TRUE,0.100922,-4.968567,0.000000,0.003952,-0.136749,0.000000,-0.091000,0.096000,0.011000,0.010000,-0.750000,2.260000,-3.011405,Hold,60.873535,233472.000000,Hold,-69774.000000,69632.000000,Suck,-2137.500000,2181.818182,Speed,-2137.500000,2181.818182,Speed,Off,On0.000000,0,,,,
05:21:43.422 PM 03/19/2016,Teleop Enabled,10,FALSE,0,NO ERROR,-0.000000,-0.038500,0.000000,-0.301583,TRUE,FALSE,FALSE,FALSE,FALSE,FALSE,Disabled,-0.021875,0.128125,31.571875,TRUE,0.099548,-4.970184,0.000000,0.000000,0.076797,0.000000,-0.011000,0.216000,0.138000,0.000000,-0.690000,2.340000,-3.159487,Hold,60.857422,233472.000000,Hold,-69745.000000,69632.000000,Suck,-2145.000000,2181.818182,Speed,-2145.000000,2181.818182,Speed,Off,On0.000000,0,,,,
05:21:43.522 PM 03/19/2016,Teleop Enabled,11,FALSE,0,NO ERROR,-0.000000,-0.038500,0.000000,-0.301583,TRUE,FALSE,FALSE,FALSE,FALSE,FALSE,Disabled,-0.021875,0.128125,31.571875,TRUE,0.099854,-4.962799,0.000000,0.016083,0.185928,0.000000,0.041000,0.053000,-0.012000,0.030000,-0.730000,2.330000,-3.142109,Hold,60.867920,233472.000000,Hold,-69743.000000,69632.000000,Suck,-2145.000000,2181.818182,Speed,-2137.500000,2181.818182,Speed,Off,On0.000000,0,,,,
05:21:43.622 PM 03/19/2016,Teleop Enabled,11,FALSE,0,NO ERROR,-0.000000,-0.038500,0.000000,-0.301583,TRUE,FALSE,FALSE,FALSE,FALSE,FALSE,Disabled,-0.021875,0.128125,31.571875,TRUE,0.100876,-4.951324,0.000000,0.008286,0.257690,0.000000,-0.036000,0.067000,0.067000,0.010000,-0.640000,2.330000,-3.193778,Hold,60.863281,233472.000000,Hold,-69743.000000,69632.000000,Suck,-2137.500000,2181.818182,Speed,-2137.500000,2181.818182,Speed,Off,On0.000000,0,,,,
05:21:43.723 PM 03/19/2016,Teleop Enabled,10,FALSE,0,NO ERROR,-0.000000,-0.038500,0.000000,-0.301583,TRUE,FALSE,FALSE,FALSE,FALSE,FALSE,Disabled,-0.021875,0.128125,31.571875,TRUE,0.101379,-4.945862,0.000000,0.016602,0.000000,0.000000,0.024000,-0.002000,-0.031000,0.020000,-0.690000,2.290000,-3.205772,Hold,60.863281,233472.000000,Hold,-69743.000000,69632.000000,Suck,-2137.500000,2181.818182,Speed,-2137.500000,2181.818182,Speed,Off,On0.000000,0,,,,
05:21:43.823 PM 03/19/2016,Teleop Enabled,11,FALSE,0,NO ERROR,-0.000000,-0.038500,0.000000,-0.301583,TRUE,FALSE,FALSE,FALSE,FALSE,FALSE,Disabled,-0.021875,0.128125,31.571875,TRUE,0.102524,-4.946320,0.000000,0.022049,-0.015182,0.000000,-0.010000,-0.032000,-0.020000,0.020000,-0.710000,2.320000,-3.238067,Hold,60.863281,233472.000000,Hold,-69743.000000,69632.000000,Suck,-2145.000000,2181.818182,Speed,-2145.000000,2181.818182,Speed,Off,On0.000000,0,,,,
05:21:43.923 PM 03/19/2016,Teleop Enabled,10,FALSE,0,NO ERROR,-0.000000,-0.038500,0.000000,-0.301583,TRUE,FALSE,FALSE,FALSE,FALSE,FALSE,Disabled,-0.021875,0.128125,31.571875,TRUE,0.104218,-4.948120,0.000000,0.064606,-0.066162,0.000000,-0.012000,-0.123000,-0.003000,0.000000,-0.670000,2.370000,-3.281708,Hold,60.863281,233472.000000,Hold,-69743.000000,69632.000000,Suck,-2145.000000,2181.818182,Speed,-2152.500000,2181.818182,Speed,Off,On0.000000,0,,,,
05:21:44.025 PM 03/19/2016,Teleop Enabled,11,FALSE,0,NO ERROR,-0.000000,-0.038500,0.000000,-0.301583,TRUE,FALSE,FALSE,FALSE,FALSE,FALSE,Disabled,-0.021875,0.128125,31.571875,TRUE,0.109039,-4.957230,0.000000,0.075424,-0.215317,0.000000,-0.010000,-0.129000,-0.092000,0.010000,-0.680000,2.320000,-3.308353,Hold,60.863281,233472.000000,Hold,-69743.000000,69632.000000,Suck,-2137.500000,2181.818182,Speed,-2145.000000,2181.818182,Speed,Off,On0.000000,0,,,,
05:21:44.124 PM 03/19/2016,Teleop Enabled,11,FALSE,0,NO ERROR,-0.000000,-0.038500,0.000000,-0.301583,TRUE,FALSE,FALSE,FALSE,FALSE,FALSE,Disabled,-0.021875,0.128125,31.571875,TRUE,0.109039,-4.975357,0.000000,0.000000,-0.354965,0.000000,-0.013000,-0.064000,0.007000,0.000000,-0.690000,2.340000,-3.372967,Hold,60.863281,233472.000000,Hold,-69743.000000,69632.000000,Suck,-2145.000000,2181.818182,Speed,-2145.000000,2181.818182,Speed,Off,On0.000000,0,,,,
05:21:44.224 PM 03/19/2016,Teleop Enabled,11,FALSE,0,NO ERROR,-0.000000,-0.038500,0.000000,-0.301583,TRUE,FALSE,FALSE,FALSE,FALSE,FALSE,Disabled,-0.021875,0.128125,31.571875,TRUE,0.109116,-4.991013,0.000000,0.013428,-0.421402,0.000000,0.039000,-0.180000,-0.126000,0.010000,-0.720000,2.370000,-3.393966,Hold,60.863281,233472.000000,Hold,-69743.000000,69632.000000,Suck,-2145.000000,2181.818182,Speed,-2145.000000,2181.818182,Speed,Off,On0.000000,0,,,,
05:21:44.324 PM 03/19/2016,Teleop Enabled,11,FALSE,0,NO ERROR,-0.000000,-0.038500,0.000000,-0.301583,TRUE,FALSE,FALSE,FALSE,FALSE,FALSE,Disabled,-0.021875,0.128125,31.571875,TRUE,0.111023,-5.014984,0.000000,0.050873,-0.499252,0.000000,0.036000,-0.034000,-0.059000,0.000000,-0.640000,2.340000,-3.434052,Hold,60.863281,233472.000000,Hold,-69743.000000,69632.000000,Suck,-2145.000000,2181.818182,Speed,-2137.500000,2181.818182,Speed,Off,On0.000000,0,,,,
05:21:44.424 PM 03/19/2016,Teleop Enabled,10,FALSE,0,NO ERROR,-0.000000,-0.038500,0.000000,-0.301583,TRUE,FALSE,FALSE,FALSE,FALSE,FALSE,Disabled,-0.021875,0.128125,31.571875,TRUE,0.112793,-5.039688,0.000000,0.010300,-0.480591,0.000000,-0.042000,0.084000,0.044000,0.000000,-0.660000,2.340000,-3.470071,Hold,60.863281,233472.000000,Hold,-69743.000000,69632.000000,Suck,-2137.500000,2181.818182,Speed,-2130.000000,2181.818182,Speed,Off,On0.000000,0,,,,
05:21:44.524 PM 03/19/2016,Teleop Enabled,10,FALSE,0,NO ERROR,-0.000000,-0.038500,0.000000,-0.301583,TRUE,FALSE,FALSE,FALSE,FALSE,FALSE,Disabled,-0.021875,0.128125,31.571875,TRUE,0.112350,-5.057190,0.000000,0.000000,-0.410233,0.000000,-0.037000,0.108000,0.124000,0.000000,-0.660000,2.370000,-3.502624,Hold,60.863281,233472.000000,Hold,-69743.000000,69632.000000,Suck,-2137.500000,2181.818182,Speed,-2145.000000,2181.818182,Speed,Off,On0.000000,0,,,,
05:21:44.624 PM 03/19/2016,Teleop Enabled,10,FALSE,0,NO ERROR,-0.000000,-0.038500,0.000000,-0.301583,TRUE,FALSE,FALSE,FALSE,FALSE,FALSE,Disabled,-0.021875,0.128125,31.571875,TRUE,0.111084,-5.076920,0.000000,-0.036850,-0.261871,0.000000,0.050000,0.095000,0.129000,0.000000,-0.660000,2.340000,-3.520360,Hold,60.863281,233472.000000,Hold,-69743.000000,69632.000000,Suck,-2145.000000,2181.818182,Speed,-2137.500000,2181.818182,Speed,Off,On0.000000,0,,,,
05:21:44.724 PM 03/19/2016,Teleop Enabled,10,FALSE,0,NO ERROR,-0.000000,-0.038500,0.000000,-0.301583,TRUE,FALSE,FALSE,FALSE,FALSE,FALSE,Disabled,-0.021875,0.128125,31.571875,TRUE,0.110062,-5.087311,0.000000,-0.007385,-0.184830,0.000000,0.002000,0.035000,0.099000,0.000000,-0.650000,2.330000,-3.558008,Hold,60.863281,233472.000000,Hold,-69743.000000,69632.000000,Suck,-2145.000000,2181.818182,Speed,-2130.000000,2181.818182,Speed,Off,On0.000000,0,,,,
05:21:44.824 PM 03/19/2016,Teleop Enabled,10,FALSE,0,NO ERROR,-0.000000,-0.038500,0.000000,-0.301583,TRUE,FALSE,FALSE,FALSE,FALSE,FALSE,Disabled,-0.021875,0.128125,31.571875,TRUE,0.109924,-5.094528,0.000000,0.000000,-0.124176,0.000000,0.029000,-0.035000,0.070000,-0.010000,-0.670000,2.360000,-3.593156,Hold,60.863281,233472.000000,Hold,-69743.000000,69632.000000,Suck,-2145.000000,2181.818182,Speed,-2137.500000,2181.818182,Speed,Off,On0.000000,0,,,,
05:21:44.924 PM 03/19/2016,Teleop Enabled,10,FALSE,0,NO ERROR,-0.000000,-0.038500,0.000000,-0.301583,TRUE,FALSE,FALSE,FALSE,FALSE,FALSE,Disabled,-0.021875,0.128125,31.571875,TRUE,0.110168,-5.101028,0.000000,0.010635,-0.129440,0.000000,0.060000,-0.037000,0.037000,-0.010000,-0.660000,2.290000,-3.621062,Hold,60.863281,233472.000000,Hold,-69743.000000,69632.000000,Suck,-2137.500000,2181.818182,Speed,-2130.000000,2181.818182,Speed,Off,On0.000000,0,,,,
05:21:45.024 PM 03/19/2016,Teleop Enabled,11,FALSE,0,NO ERROR,-0.000000,-0.038500,0.000000,-0.301583,TRUE,FALSE,FALSE,FALSE,FALSE,FALSE,Disabled,-0.021875,0.128125,31.571875,TRUE,0.111771,-5.108444,0.000000,0.045059,-0.177780,0.000000,-0.046000,-0.120000,-0.065000,-0.020000,-0.640000,2.310000,-3.669905,Hold,60.863281,233472.000000,Hold,-69743.000000,69632.000000,Suck,-2130.000000,2181.818182,Speed,-2137.500000,2181.818182,Speed,Off,On0.000000,0,,,,
05:21:45.125 PM 03/19/2016,Teleop Enabled,11,FALSE,0,NO ERROR,-0.000000,-0.038500,0.000000,-0.301583,TRUE,FALSE,FALSE,FALSE,FALSE,FALSE,Disabled,-0.021875,0.128125,31.571875,TRUE,0.113373,-5.119919,0.000000,0.011368,-0.256119,0.000000,-0.029000,-0.081000,-0.010000,-0.020000,-0.660000,2.320000,-3.697855,Hold,60.863281,233472.000000,Hold,-69743.000000,69632.000000,Suck,-2137.500000,2181.818182,Speed,-2122.500000,2181.818182,Speed,Off,On0.000000,0,,,,
05:21:45.224 PM 03/19/2016,Teleop Enabled,9,FALSE,0,NO ERROR,-0.000000,-0.038500,0.000000,-0.301583,TRUE,FALSE,FALSE,FALSE,FALSE,FALSE,Disabled,-0.021875,0.128125,31.571875,TRUE,0.112610,-5.135696,0.000000,-0.031998,-0.361145,0.000000,0.000000,-0.098000,0.022000,-0.010000,-0.650000,2.350000,-3.726765,Hold,60.863281,233472.000000,Hold,-69743.000000,69632.000000,Suck,-2145.000000,2181.818182,Speed,-2130.000000,2181.818182,Speed,Off,On0.000000,0,,,,
05:21:45.324 PM 03/19/2016,Teleop Enabled,10,FALSE,0,NO ERROR,-0.000000,-0.038500,0.000000,-0.301583,TRUE,FALSE,FALSE,FALSE,FALSE,FALSE,Disabled,-0.021875,0.128125,31.571875,TRUE,0.112427,-5.161240,0.000000,0.008102,-0.452545,0.000000,0.018000,-0.008000,0.017000,-0.020000,-0.650000,2.350000,-3.752774,Hold,60.863281,233472.000000,Hold,-69743.000000,69632.000000,Suck,-2152.500000,2181.818182,Speed,-2145.000000,2181.818182,Speed,Off,On0.000000,0,,,,
05:21:45.425 PM 03/19/2016,Teleop Enabled,11,FALSE,0,NO ERROR,-0.000000,-0.038500,0.000000,-0.301583,TRUE,FALSE,FALSE,FALSE,FALSE,FALSE,Disabled,-0.021875,0.128125,31.571875,TRUE,0.112137,-5.183517,0.000000,-0.019928,-0.430344,0.000000,-0.001000,0.036000,-0.019000,-0.010000,-0.710000,2.370000,-3.779560,Hold,60.863281,233472.000000,Hold,-69743.000000,69632.000000,Suck,-2152.500000,2181.818182,Speed,-2145.000000,2181.818182,Speed,Off,On0.000000,0,,,,
05:21:45.524 PM 03/19/2016,Teleop Enabled,10,FALSE,0,NO ERROR,-0.000000,-0.038500,0.000000,-0.301583,TRUE,FALSE,FALSE,FALSE,FALSE,FALSE,Disabled,-0.021875,0.128125,31.571875,TRUE,0.112625,-5.204803,0.000000,0.018936,-0.415314,0.000000,0.007000,0.076000,0.070000,-0.020000,-0.670000,2.310000,-3.825973,Hold,60.863281,233472.000000,Hold,-69743.000000,69632.000000,Suck,-2137.500000,2181.818182,Speed,-2130.000000,2181.818182,Speed,Off,On0.000000,0,,,,
05:21:45.624 PM 03/19/2016,Teleop Enabled,11,FALSE,0,NO ERROR,-0.000000,-0.038500,0.000000,-0.301583,TRUE,FALSE,FALSE,FALSE,FALSE,FALSE,Disabled,-0.021875,0.128125,31.571875,TRUE,0.112396,-5.224854,0.000000,-0.014389,-0.250702,0.000000,0.046000,0.180000,0.189000,-0.020000,-0.660000,2.330000,-3.868265,Hold,60.863281,233472.000000,Hold,-69743.000000,69632.000000,Suck,-2137.500000,2181.818182,Speed,-2137.500000,2181.818182,Speed,Off,On0.000000,0,,,,
05:21:45.724 PM 03/19/2016,Teleop Enabled,11,FALSE,0,NO ERROR,-0.000000,-0.038500,0.000000,-0.301583,TRUE,FALSE,FALSE,FALSE,FALSE,FALSE,Disabled,-0.021875,0.128125,31.571875,TRUE,0.111435,-5.232742,0.000000,-0.019409,-0.109177,0.000000,0.025000,0.059000,0.117000,-0.020000,-0.690000,2.370000,-3.894425,Hold,60.863281,233472.000000,Hold,-69743.000000,69632.000000,Suck,-2145.000000,2181.818182,Speed,-2137.500000,2181.818182,Speed,Off,On0.000000,0,,,,
05:21:45.824 PM 03/19/2016,Teleop Enabled,11,FALSE,0,NO ERROR,-0.000000,-0.038500,0.000000,-0.301583,TRUE,FALSE,FALSE,FALSE,FALSE,FALSE,Disabled,-0.021875,0.128125,31.571875,TRUE,0.110901,-5.235916,0.000000,-0.005829,-0.061768,0.000000,-0.005000,0.046000,0.134000,-0.020000,-0.620000,2.340000,-3.918402,Hold,60.863281,233472.000000,Hold,-69743.000000,69632.000000,Suck,-2137.500000,2181.818182,Speed,-2145.000000,2181.818182,Speed,Off,On0.000000,0,,,,
05:21:45.924 PM 03/19/2016,Teleop Enabled,11,FALSE,0,NO ERROR,-0.000000,-0.038500,0.000000,-0.301583,TRUE,FALSE,FALSE,FALSE,FALSE,FALSE,Disabled,-0.021875,0.128125,31.571875,TRUE,0.111023,-5.237900,0.000000,0.000412,-0.025513,0.000000,0.006000,-0.001000,0.093000,-0.020000,-0.690000,2.370000,-3.960439,Hold,60.863281,233472.000000,Hold,-69743.000000,69632.000000,Suck,-2145.000000,2181.818182,Speed,-2137.500000,2181.818182,Speed,Off,On0.000000,0,,,,
05:21:46.024 PM 03/19/2016,Teleop Enabled,10,FALSE,0,NO ERROR,-0.000000,-0.038500,0.000000,-0.301583,TRUE,FALSE,FALSE,FALSE,FALSE,FALSE,Disabled,-0.021875,0.128125,31.571875,TRUE,0.111603,-5.238831,0.000000,0.023285,-0.039886,0.000000,0.045000,-0.096000,-0.012000,-0.030000,-0.650000,2.360000,-3.987247,Hold,60.863281,233472.000000,Hold,-69743.000000,69632.000000,Suck,-2145.000000,2181.818182,Speed,-2137.500000,2181.818182,Speed,Off,On0.000000,0,,,,
05:21:46.126 PM 03/19/2016,Teleop Enabled,11,FALSE,0,NO ERROR,-0.000000,-0.038500,0.000000,-0.301583,TRUE,FALSE,FALSE,FALSE,FALSE,FALSE,Disabled,-0.021875,0.128125,31.571875,TRUE,0.114059,-5.243591,0.000000,0.060562,-0.134781,0.000000,-0.009000,-0.057000,-0.100000,-0.030000,-0.650000,2.320000,-4.015503,Hold,60.863281,233472.000000,Hold,-69743.000000,69632.000000,Suck,-2145.000000,2181.818182,Speed,-2137.500000,2181.818182,Speed,Off,On0.000000,0,,,,
05:21:46.226 PM 03/19/2016,Teleop Enabled,9,FALSE,0,NO ERROR,-0.000000,-0.038500,0.000000,-0.301583,TRUE,FALSE,FALSE,FALSE,FALSE,FALSE,Disabled,-0.021875,0.128125,31.571875,TRUE,0.117523,-5.252991,0.000000,0.064850,-0.210510,0.000000,0.060000,-0.086000,0.066000,-0.030000,-0.670000,2.430000,-4.045866,Hold,60.863281,233472.000000,Hold,-69743.000000,69632.000000,Suck,-2145.000000,2181.818182,Speed,-2130.000000,2181.818182,Speed,Off,On0.000000,0,,,,
05:21:46.327 PM 03/19/2016,Teleop Enabled,6,FALSE,0,NO ERROR,-0.000000,-0.038500,0.000000,-0.301583,TRUE,FALSE,FALSE,FALSE,FALSE,FALSE,Disabled,-0.021875,0.128125,31.571875,TRUE,0.119370,-5.265869,0.000000,-0.001755,-0.299820,0.000000,-0.054000,-0.064000,-0.063000,-0.040000,-0.640000,2.440000,-4.083390,Hold,60.863281,233472.000000,Hold,-69743.000000,69632.000000,Suck,-2137.500000,2181.818182,Speed,-2137.500000,2181.818182,Speed,Off,On0.000000,0,,,,
05:21:46.428 PM 03/19/2016,Teleop Enabled,10,FALSE,0,NO ERROR,-0.000000,-0.038500,0.000000,-0.301583,TRUE,FALSE,FALSE,FALSE,FALSE,FALSE,Disabled,-0.021875,0.128125,31.571875,TRUE,0.117661,-5.282547,0.000000,-0.061142,-0.347183,0.000000,-0.034000,-0.021000,-0.002000,-0.040000,-0.680000,2.410000,-4.137796,Hold,60.863281,233472.000000,Hold,-69743.000000,69632.000000,Suck,-2137.500000,2181.818182,Speed,-2130.000000,2181.818182,Speed,Off,On0.000000,0,,,,
05:21:46.529 PM 03/19/2016,Teleop Enabled,6,FALSE,0,NO ERROR,-0.000000,-0.038500,0.000000,-0.301583,TRUE,FALSE,FALSE,FALSE,FALSE,FALSE,Disabled,-0.021875,0.128125,31.571875,TRUE,0.112701,-5.301086,0.000000,-0.084549,-0.262024,0.000000,-0.010000,0.112000,0.155000,-0.040000,-0.690000,2.440000,-4.175830,Hold,60.863281,233472.000000,Hold,-69743.000000,69632.000000,Suck,-2137.500000,2181.818182,Speed,-2130.000000,2181.818182,Speed,Off,On0.000000,0,,,,
05:21:46.629 PM 03/19/2016,Teleop Enabled,9,FALSE,0,NO ERROR,-0.000000,-0.038500,0.000000,-0.301583,TRUE,FALSE,FALSE,FALSE,FALSE,FALSE,Disabled,-0.021875,0.128125,31.571875,TRUE,0.110092,-5.311386,0.000000,-0.028656,-0.163559,0.000000,0.061000,0.119000,0.091000,-0.050000,-0.670000,2.390000,-4.208947,Hold,60.863281,233472.000000,Hold,-69743.000000,69632.000000,Suck,-2137.500000,2181.818182,Speed,-2137.500000,2181.818182,Speed,Off,On0.000000,0,,,,
05:21:46.730 PM 03/19/2016,Teleop Enabled,11,FALSE,0,NO ERROR,-0.000000,-0.038500,0.000000,-0.301583,TRUE,FALSE,FALSE,FALSE,FALSE,FALSE,Disabled,-0.021875,0.128125,31.571875,TRUE,0.109177,-5.315750,0.000000,-0.025818,-0.032501,0.000000,-0.050000,0.125000,0.073000,-0.050000,-0.670000,2.380000,-4.246781,Hold,60.863281,233472.000000,Hold,-69743.000000,69632.000000,Suck,-2152.500000,2181.818182,Speed,-2145.000000,2181.818182,Speed,Off,On0.000000,0,,,,
05:21:46.830 PM 03/19/2016,Teleop Enabled,11,FALSE,0,NO ERROR,-0.000000,-0.038500,0.000000,-0.301583,TRUE,FALSE,FALSE,FALSE,FALSE,FALSE,Disabled,-0.021875,0.128125,31.571875,TRUE,0.107590,-5.314392,0.000000,0.000000,0.059494,0.000000,-0.036000,0.032000,0.046000,-0.050000,-0.680000,2.410000,-4.279936,Hold,60.863281,233472.000000,Hold,-69743.000000,69632.000000,Suck,-2145.000000,2181.818182,Speed,-2145.000000,2181.818182,Speed,Off,On0.000000,0,,,,
05:21:46.930 PM 03/19/2016,Teleop Enabled,9,FALSE,0,NO ERROR,-0.000000,-0.038500,0.000000,-0.301583,TRUE,FALSE,FALSE,FALSE,FALSE,FALSE,Disabled,-0.021875,0.128125,31.571875,TRUE,0.107620,-5.308121,0.000000,0.007217,0.139954,0.000000,0.025000,0.015000,0.052000,-0.050000,-0.660000,2.390000,-4.320410,Hold,60.863281,233472.000000,Hold,-69743.000000,69632.000000,Suck,-2137.500000,2181.818182,Speed,-2137.500000,2181.818182,Speed,Off,On0.000000,0,,,,
05:21:47.032 PM 03/19/2016,Teleop Enabled,9,FALSE,0,NO ERROR,-0.259843,-0.038500,0.259843,-0.301583,TRUE,FALSE,FALSE,FALSE,FALSE,FALSE,Disabled,-0.021875,0.128125,31.571875,TRUE,0.108276,-5.302444,0.000000,0.025406,0.130905,0.000000,0.035000,-0.143000,-0.002000,-0.060000,-0.660000,2.400000,-4.357318,Hold,60.863281,233472.000000,Hold,-69743.000000,69632.000000,Suck,-2145.000000,2181.818182,Speed,-2130.000000,2181.818182,Speed,Off,On0.000000,0,,,,
05:21:47.133 PM 03/19/2016,Teleop Enabled,10,FALSE,0,NO ERROR,-0.645669,0.654498,0.645669,-1.052331,FALSE,FALSE,FALSE,FALSE,FALSE,FALSE,Disabled,-0.021875,0.128125,31.571875,TRUE,0.112381,-5.297272,0.000000,0.146942,0.145782,0.000000,0.224000,0.312000,0.180000,1.470000,-0.090000,3.310000,-3.792911,Hold,60.864502,233472.000000,Hold,-69743.000000,69632.000000,Suck,-2145.000000,2181.818182,Speed,-2122.500000,2181.818182,Speed,Off,On0.000000,0,,,,
05:21:47.234 PM 03/19/2016,Teleop Enabled,9,FALSE,0,NO ERROR,-0.000000,1.873662,0.000000,-2.476828,FALSE,FALSE,FALSE,FALSE,FALSE,FALSE,Disabled,-0.021875,0.128125,31.571875,TRUE,0.124512,-5.287140,0.000000,0.257889,0.127792,0.000000,-0.574000,-0.271000,-0.108000,9.270000,-0.160000,3.240000,3.044960,Hold,60.847900,233472.000000,Hold,-69743.000000,69632.000000,Suck,-2107.500000,2181.818182,Speed,-2092.500000,2181.818182,Speed,Off,On0.000000,0,,,,
05:21:47.333 PM 03/19/2016,Teleop Enabled,10,FALSE,0,NO ERROR,-0.000000,2.220161,0.000000,-2.900327,FALSE,FALSE,FALSE,FALSE,FALSE,FALSE,Disabled,-0.021875,0.128125,31.571875,TRUE,0.128647,-5.287155,0.000000,-0.002823,-0.016647,0.000000,-0.574000,-0.271000,-0.108000,9.270000,-0.160000,3.240000,6.175316,Hold,61.014160,233472.000000,Hold,-69743.000000,69632.000000,Suck,-2107.500000,2181.818182,Speed,-2122.500000,2181.818182,Speed,Off,On0.000000,0,,,,
05:21:47.434 PM 03/19/2016,Teleop Enabled,11,FALSE,0,NO ERROR,-0.000000,2.194495,0.000000,-2.784827,TRUE,FALSE,FALSE,FALSE,FALSE,FALSE,Disabled,-0.021875,0.128125,31.571875,TRUE,0.128113,-5.284958,0.000000,-0.011887,0.083618,0.000000,0.204000,0.262000,0.127000,9.420000,-1.110000,2.180000,4.964596,Hold,61.003174,233472.000000,Hold,-69743.000000,69632.000000,Suck,-2152.500000,2181.818182,Speed,-2160.000000,2181.818182,Speed,Off,On0.000000,0,,,,
05:21:47.534 PM 03/19/2016,Teleop Enabled,10,FALSE,0,NO ERROR,-0.000000,2.181662,0.000000,-2.759160,TRUE,FALSE,FALSE,FALSE,FALSE,FALSE,Disabled,-0.021875,0.128125,31.571875,TRUE,0.130646,-5.273804,0.000000,0.079712,0.302567,0.000000,-0.003000,0.021000,0.053000,9.420000,-1.110000,2.180000,4.758059,Hold,61.003174,233472.000000,Hold,-69743.000000,69632.000000,Suck,-2160.000000,2181.818182,Speed,-2137.500000,2181.818182,Speed,Off,On0.000000,0,,,,
05:21:47.635 PM 03/19/2016,Teleop Enabled,9,FALSE,0,NO ERROR,-0.000000,2.181662,0.000000,-2.765577,TRUE,FALSE,FALSE,FALSE,FALSE,FALSE,Disabled,-0.021875,0.128125,31.571875,TRUE,0.131027,-5.257263,0.000000,0.019470,0.342499,0.000000,0.016000,0.069000,0.063000,9.520000,-1.050000,2.460000,4.756934,Hold,61.003174,233472.000000,Hold,-69743.000000,69632.000000,Suck,-2145.000000,2181.818182,Speed,-2130.000000,2181.818182,Speed,Off,On0.000000,0,,,,
05:21:47.736 PM 03/19/2016,Teleop Enabled,11,FALSE,0,NO ERROR,-0.000000,2.181662,0.000000,-2.765577,TRUE,FALSE,FALSE,FALSE,FALSE,FALSE,Disabled,-0.021875,0.128125,31.571875,TRUE,0.133255,-5.238770,0.000000,0.063446,0.377167,0.000000,0.000000,0.049000,-0.029000,9.470000,-1.060000,2.440000,4.690788,Hold,61.003174,233472.000000,Hold,-69743.000000,69632.000000,Suck,-2137.500000,2181.818182,Speed,-2137.500000,2181.818182,Speed,Off,On0.000000,0,,,,
05:21:47.838 PM 03/19/2016,Teleop Enabled,10,FALSE,0,NO ERROR,-0.000000,2.181662,0.000000,-2.765577,TRUE,FALSE,FALSE,FALSE,FALSE,FALSE,Disabled,-0.021875,0.128125,31.571875,TRUE,0.136154,-5.218430,0.000000,0.000000,0.427795,0.000000,0.068000,0.003000,0.060000,9.440000,-1.030000,2.500000,4.620402,Hold,61.003174,233472.000000,Hold,-69743.000000,69632.000000,Suck,-2145.000000,2181.818182,Speed,-2137.500000,2181.818182,Speed,Off,On0.000000,0,,,,
05:21:47.938 PM 03/19/2016,Teleop Enabled,11,FALSE,0,NO ERROR,-0.000000,2.181662,0.000000,-2.765577,TRUE,FALSE,FALSE,FALSE,FALSE,FALSE,Disabled,-0.021875,0.128125,31.571875,TRUE,0.137177,-5.209824,0.000000,0.014359,-0.003494,0.000000,0.018000,-0.105000,-0.070000,9.460000,-1.010000,2.510000,4.615400,Hold,61.003174,233472.000000,Hold,-69743.000000,69632.000000,Suck,-2145.000000,2181.818182,Speed,-2137.500000,2181.818182,Speed,Off,On0.000000,0,,,,
05:21:48.038 PM 03/19/2016,Teleop Enabled,10,FALSE,0,NO ERROR,-0.000000,2.181662,0.000000,-2.765577,TRUE,FALSE,FALSE,FALSE,FALSE,FALSE,Disabled,-0.021875,0.128125,31.571875,TRUE,0.138199,-5.212570,0.000000,0.025757,-0.093918,0.000000,0.013000,-0.072000,0.021000,9.450000,-0.960000,2.470000,4.599946,Hold,61.003174,233472.000000,Hold,-69743.000000,69632.000000,Suck,-2145.000000,2181.818182,Speed,-2137.500000,2181.818182,Speed,Off,On0.000000,0,,,,
05:21:48.138 PM 03/19/2016,Teleop Enabled,11,FALSE,0,NO ERROR,-0.000000,2.181662,0.000000,-2.765577,TRUE,FALSE,FALSE,FALSE,FALSE,FALSE,Disabled,-0.021875,0.128125,31.571875,TRUE,0.138000,-5.219254,0.000000,-0.018509,-0.163864,0.000000,0.025000,-0.125000,-0.059000,9.450000,-0.980000,2.480000,4.580558,Hold,61.002930,233472.000000,Hold,-69743.000000,69632.000000,Suck,-2145.000000,2181.818182,Speed,-2137.500000,2181.818182,Speed,Off,On0.000000,0,,,,
05:21:48.238 PM 03/19/2016,Teleop Enabled,10,FALSE,0,NO ERROR,-0.000000,2.181662,0.000000,-2.765577,TRUE,FALSE,FALSE,FALSE,FALSE,FALSE,Disabled,-0.021875,0.128125,31.571875,TRUE,0.136047,-5.229416,0.000000,-0.061676,-0.221939,0.000000,-0.088000,-0.062000,-0.076000,9.450000,-0.960000,2.520000,4.547605,Hold,61.002930,233472.000000,Hold,-69743.000000,69632.000000,Suck,-2145.000000,2181.818182,Speed,-2137.500000,2181.818182,Speed,Off,On0.000000,0,,,,
05:21:48.339 PM 03/19/2016,Teleop Enabled,9,FALSE,0,NO ERROR,-0.000000,2.181662,0.000000,-2.765577,TRUE,FALSE,FALSE,FALSE,FALSE,FALSE,Disabled,-0.021875,0.128125,31.571875,TRUE,0.130936,-5.241455,0.000000,-0.117386,-0.244766,0.000000,-0.088000,-0.062000,-0.076000,9.440000,-0.940000,2.490000,4.514605,Hold,61.002930,233472.000000,Hold,-69743.000000,69632.000000,Suck,-2145.000000,2181.818182,Speed,-2137.500000,2181.818182,Speed,Off,On0.000000,0,,,,
05:21:48.440 PM 03/19/2016,Teleop Enabled,10,FALSE,0,NO ERROR,-0.000000,2.181662,0.000000,-2.765577,TRUE,FALSE,FALSE,FALSE,FALSE,FALSE,Disabled,-0.021875,0.128125,31.571875,TRUE,0.124023,-5.252808,0.000000,-0.149994,-0.210342,0.000000,0.047000,0.064000,0.060000,9.450000,-0.940000,2.470000,4.499162,Hold,61.002930,233472.000000,Hold,-69743.000000,69632.000000,Suck,-2145.000000,2181.818182,Speed,-2137.500000,2181.818182,Speed,Off,On0.000000,0,,,,
05:21:48.540 PM 03/19/2016,Teleop Enabled,10,FALSE,0,NO ERROR,-0.000000,2.181662,0.000000,-2.765577,TRUE,FALSE,FALSE,FALSE,FALSE,FALSE,Disabled,-0.021875,0.128125,31.571875,TRUE,0.116455,-5.261414,0.000000,-0.149139,-0.152817,0.000000,0.047000,0.090000,0.017000,9.450000,-0.940000,2.470000,4.460333,Hold,61.002930,233472.000000,Hold,-69743.000000,69632.000000,Suck,-2145.000000,2181.818182,Speed,-2137.500000,2181.818182,Speed,Off,On0.000000,0,,,,
05:21:48.640 PM 03/19/2016,Teleop Enabled,11,FALSE,0,NO ERROR,-0.000000,2.181662,0.000000,-2.765577,TRUE,FALSE,FALSE,FALSE,FALSE,FALSE,Disabled,-0.021875,0.128125,31.571875,TRUE,0.108826,-5.267792,0.000000,-0.157379,-0.109634,0.000000,0.047000,0.090000,0.017000,9.440000,-0.970000,2.470000,4.435409,Hold,61.002930,233472.000000,Hold,-69743.000000,69632.000000,Suck,-2145.000000,2181.818182,Speed,-2145.000000,2181.818182,Speed,Off,On0.000000,0,,,,
05:21:48.741 PM 03/19/2016,Teleop Enabled,10,FALSE,0,NO ERROR,-0.000000,2.181662,0.000000,-2.765577,TRUE,FALSE,FALSE,FALSE,FALSE,FALSE,Disabled,-0.021875,0.128125,31.571875,TRUE,0.099472,-5.273605,0.000000,-0.149551,-0.087173,0.000000,0.071000,0.007000,0.082000,9.440000,-0.910000,2.420000,4.389282,Hold,61.002930,233472.000000,Hold,-69743.000000,69632.000000,Suck,-2145.000000,2181.818182,Speed,-2137.500000,2181.818182,Speed,Off,On0.000000,0,,,,
05:21:48.841 PM 03/19/2016,Teleop Enabled,10,FALSE,0,NO ERROR,0.181102,2.181662,-0.181102,-2.765577,TRUE,FALSE,FALSE,FALSE,FALSE,FALSE,Disabled,-0.021875,0.128125,31.571875,TRUE,0.093170,-5.277161,0.000000,-0.106033,-0.057709,0.000000,0.071000,0.007000,0.082000,9.430000,-0.940000,2.410000,4.359132,Hold,61.002930,233472.000000,Hold,-69743.000000,69632.000000,Suck,-2145.000000,2181.818182,Speed,-2137.500000,2181.818182,Speed,Off,On0.000000,0,,,,
05:21:48.941 PM 03/19/2016,Teleop Enabled,10,FALSE,0,NO ERROR,0.181102,1.770996,-0.181102,-2.386994,TRUE,FALSE,FALSE,FALSE,FALSE,FALSE,Disabled,-0.021875,0.128125,31.571875,TRUE,0.093170,-5.277161,0.000000,-0.106033,-0.057709,0.000000,0.042000,0.016000,0.052000,9.430000,-0.970000,2.430000,4.262462,Hold,61.002930,233472.000000,Hold,-69743.000000,69632.000000,Suck,-2137.500000,2181.818182,Speed,-2167.500000,2181.818182,Speed,Off,On0.000000,0,,,,
05:21:49.042 PM 03/19/2016,Teleop Enabled,10,FALSE,0,NO ERROR,0.188976,1.373163,-0.188976,-1.931412,TRUE,FALSE,FALSE,FALSE,FALSE,FALSE,Disabled,-0.021875,0.128125,31.571875,TRUE,0.085678,-5.284378,0.000000,-0.068268,0.000000,0.000000,-0.136000,-0.193000,-0.111000,9.410000,-1.000000,2.420000,2.394657,Hold,61.002930,233472.000000,Hold,-69743.000000,69632.000000,Suck,-2152.500000,2181.818182,Speed,-2160.000000,2181.818182,Speed,Off,On0.000000,0,,,,
05:21:49.142 PM 03/19/2016,Teleop Enabled,11,FALSE,0,NO ERROR,0.000000,1.212747,-0.000000,-1.738913,TRUE,FALSE,FALSE,TRUE,TRUE,FALSE,Disabled,-0.021875,0.128125,31.571875,TRUE,0.082413,-5.284348,0.000000,-0.040939,0.016617,0.000000,0.006000,-0.061000,-0.125000,7.560000,-1.060000,2.080000,1.031945,Hold,61.002930,233472.000000,Hold,-69743.000000,69632.000000,Suck,-2152.500000,2181.818182,Speed,-2137.500000,2181.818182,Speed,Off,On0.000000,0,,,,
05:21:49.243 PM 03/19/2016,Teleop Enabled,10,FALSE,0,NO ERROR,0.000000,1.411663,-0.000000,-2.136745,TRUE,FALSE,FALSE,TRUE,TRUE,FALSE,Enable,-0.021875,0.896875,5.373125,TRUE,0.082184,-5.282501,0.000000,0.002625,0.024353,0.000000,0.112000,0.074000,-0.004000,6.050000,-0.910000,2.390000,1.951359,Hold,61.002930,233472.000000,Hold,-69743.000000,69632.000000,Suck,-2137.500000,2181.818182,Speed,-2130.000000,2181.818182,Speed,Off,On0.000000,0,,,,
05:21:49.342 PM 03/19/2016,Teleop Enabled,11,FALSE,0,NO ERROR,0.000000,1.437330,-0.000000,-2.393411,TRUE,FALSE,FALSE,TRUE,TRUE,FALSE,Suspended,-0.021875,0.896875,5.373125,TRUE,0.082489,-5.284424,0.000000,0.008575,-0.066147,0.000000,0.023000,-0.110000,0.004000,7.180000,-0.600000,2.600000,2.402227,Hold,61.002930,233472.000000,Hold,-69743.000000,69632.000000,Suck,-2145.000000,2181.818182,Speed,-2130.000000,2181.818182,Speed,Off,On0.000000,0,,,,
05:21:49.442 PM 03/19/2016,Teleop Enabled,11,FALSE,0,NO ERROR,0.000000,1.398830,-0.000000,-2.393411,TRUE,FALSE,FALSE,TRUE,TRUE,FALSE,Suspended,-0.021875,0.896875,5.373125,TRUE,0.081131,-5.287643,0.000000,-0.052353,-0.063812,0.000000,-0.070000,0.025000,0.068000,7.530000,-0.550000,2.390000,2.162002,Hold,61.002930,233472.000000,Hold,-69743.000000,69632.000000,Suck,-2145.000000,2181.818182,Speed,-2137.500000,2181.818182,Speed,Off,On0.000000,0,,,,
05:21:49.542 PM 03/19/2016,Teleop Enabled,11,FALSE,0,NO ERROR,0.000000,1.392413,-0.000000,-2.393411,TRUE,FALSE,FALSE,TRUE,TRUE,FALSE,Suspended,-0.200000,0.896875,5.373125,TRUE,0.077591,-5.289642,0.000000,-0.076935,-0.012360,0.000000,-0.047000,0.016000,-0.054000,7.330000,-0.860000,2.360000,2.153234,Hold,61.002930,233472.000000,Hold,-69743.000000,69632.000000,Suck,-2145.000000,2181.818182,Speed,-2137.500000,2181.818182,Speed,Off,On0.000000,0,,,,
05:21:49.642 PM 03/19/2016,Teleop Enabled,10,FALSE,0,NO ERROR,0.000000,1.392413,-0.000000,-2.386994,TRUE,FALSE,FALSE,TRUE,TRUE,FALSE,Enable,-0.200000,8.200000,-0.870000,TRUE,0.074219,-5.287949,0.000000,-0.062622,0.068283,0.000000,-0.026000,0.070000,0.127000,7.320000,-0.820000,2.470000,2.115349,Hold,61.002930,233472.000000,Hold,-69743.000000,69632.000000,Suck,-2137.500000,2181.818182,Speed,-2130.000000,2181.818182,Speed,Off,On0.000000,0,,,,
05:21:49.742 PM 03/19/2016,Teleop Enabled,11,FALSE,0,NO ERROR,0.304842,1.559246,0.304842,-1.976329,TRUE,FALSE,FALSE,TRUE,TRUE,FALSE,PID,-0.200000,8.200000,-0.870000,TRUE,0.074219,-5.287949,0.000000,-0.062622,0.068283,0.000000,0.048000,0.079000,0.052000,7.310000,-0.770000,2.350000,2.054577,Hold,61.002930,233472.000000,Hold,-69743.000000,69632.000000,Suck,-2145.000000,2181.818182,Speed,-2145.000000,2181.818182,Speed,Off,On0.000000,0,,,,
05:21:49.842 PM 03/19/2016,Teleop Enabled,10,FALSE,0,NO ERROR,0.300989,0.712248,0.300989,-1.302580,TRUE,FALSE,FALSE,TRUE,TRUE,FALSE,PID,-0.200000,8.200000,-0.870000,TRUE,0.070831,-5.282211,0.000000,-0.087021,0.139725,0.000000,-0.156000,0.051000,0.040000,7.310000,-0.830000,2.420000,-0.076518,Hold,61.000977,233472.000000,Hold,-69743.000000,69632.000000,Suck,-2152.500000,2181.818182,Speed,-2152.500000,2181.818182,Speed,Off,On0.000000,0,,,,
05:21:49.942 PM 03/19/2016,Teleop Enabled,10,FALSE,0,NO ERROR,0.263939,0.096250,0.263939,-0.551832,TRUE,FALSE,FALSE,TRUE,TRUE,FALSE,PID,-0.200000,8.200000,-0.870000,TRUE,0.066803,-5.277634,0.000000,-0.056717,0.078842,0.000000,-0.056000,-0.111000,0.578000,5.370000,-1.180000,2.030000,-2.917478,Hold,61.005859,233472.000000,Hold,-69743.000000,69632.000000,Suck,-2137.500000,2181.818182,Speed,-2122.500000,2181.818182,Speed,Off,On0.000000,0,,,,
05:21:50.042 PM 03/19/2016,Teleop Enabled,10,FALSE,0,NO ERROR,0.228126,0.096250,0.228126,-0.551832,TRUE,FALSE,FALSE,TRUE,TRUE,FALSE,PID,-0.200000,8.200000,-0.870000,TRUE,0.061569,-5.273148,0.000000,-0.071854,0.055283,0.000000,0.115000,-0.068000,0.107000,1.890000,-1.080000,2.070000,-2.917478,Hold,61.005615,233472.000000,Hold,-69743.000000,69632.000000,Suck,-2122.500000,2181.818182,Speed,-2115.000000,2181.818182,Speed,Off,On0.000000,0,,,,
