Time,Robot Mode,Loop Time,Error Status,Error Code,Error Source,Left Motor Output,Left Motor Encoder,Right Motor Output,Right Motor Encoder,Is Level,Is Stalled,Ball Detector Photoeye,Vision Enabled,Vision Teleop Control,Vision Auto Control,Vision Current State,Vision X Output,Vision NavX Error,Vision NavX Target,NavX Connection Status,NavX Displacement X,NavX Displacement Y,NavX Displacement Z,NavX Velocity X,NavX Velocity Y,NavX Velocity Z,NavX Acceleration X,NavX Acceleration Y,NavX Acceleration Z,NavX Pitch,NavX Yaw,NavX Roll,Gyro Angle,Roller Arm State,Roller Arm Actual,Roller Arm Desired,Shooter Arm State,Shooter Arm Actual,Shooter Arm Desired,Shooter State,Actual RPM Left,Desired RPM Left,Control Mode Left,Actual RPM Right,Desired RPM Right,Scaler Motor Output,Auto To Run,Auto Current File,Auto File Status,Auto Current Command,Auto Trimmed Command
09:50:30.599 AM 03/20/2016,Teleop Enabled,9,FALSE,0,NO ERROR,-0.000000,0.000000,0.000000,0.000000,TRUE,TRUE,FALSE,FALSE,FALSE,FALSE,Disabled,0.000000,0.000000,0.000000,TRUE,9.160049,3.722733,0.000000,0.000000,0.000000,0.000000,0.007000,-0.002000,0.022000,-0.180000,-0.240000,2.700000,0.755583,ResetBack,0.859863,-0.200000,ResetBack,-29157.000000,-0.300000,Suck,0.000000,2181.818182,Speed,0.000000,2181.818182,Speed,Off,On0.000000,0,,,,
09:50:30.700 AM 03/20/2016,Teleop Enabled,10,FALSE,0,NO ERROR,-0.000000,0.141166,0.000000,0.000000,TRUE,TRUE,FALSE,FALSE,FALSE,FALSE,Disabled,0.000000,0.000000,0.000000,TRUE,9.159744,3.722626,0.000000,0.002548,0.000000,0.000000,0.122000,-0.018000,0.136000,-0.170000,-0.230000,2.640000,0.751125,ResetBack,0.088623,-0.200000,ResetBack,-28678.000000,-0.300000,Suck,0.000000,0.000000,Speed,-15.000000,0.000000,Speed,Off,On0.000000,0,,,,
09:50:30.803 AM 03/20/2016,Teleop Enabled,9,FALSE,0,NO ERROR,-0.000000,0.141166,0.000000,0.000000,TRUE,FALSE,FALSE,FALSE,FALSE,FALSE,Disabled,0.000000,0.000000,0.000000,TRUE,9.160583,3.723099,0.000000,-0.011490,-0.004623,0.000000,-0.008000,0.007000,-0.056000,-0.170000,-0.200000,2.640000,0.744322,ResetBack,-0.002686,-0.200000,ResetBack,-20659.000000,-0.300000,Suck,-412.500000,0.000000,Speed,-480.000000,0.000000,Speed,Off,On0.000000,0,,,,
09:50:30.903 AM 03/20/2016,Teleop Enabled,9,FALSE,0,NO ERROR,-0.000000,0.141166,0.000000,0.000000,TRUE,FALSE,FALSE,FALSE,FALSE,FALSE,Disabled,0.000000,0.000000,0.000000,TRUE,9.159805,3.723099,0.000000,-0.024490,0.001114,0.000000,-0.007000,-0.065000,-0.034000,-0.180000,-0.280000,2.650000,0.743827,Reset,-0.018799,-0.200000,ResetBack,-20659.000000,-0.300000,Suck,-570.000000,2181.818182,Speed,-502.500000,2181.818182,Speed,Off,On0.000000,0,,,,
09:50:31.005 AM 03/20/2016,Teleop Enabled,11,FALSE,0,NO ERROR,-0.000000,0.141166,0.000000,0.000000,TRUE,FALSE,FALSE,FALSE,FALSE,FALSE,Disabled,0.000000,0.000000,0.000000,TRUE,9.159317,3.722931,0.000000,-0.017868,0.000000,0.000000,0.053000,-0.061000,-0.016000,-0.150000,-0.210000,2.690000,0.777942,Hold,-0.018799,0.000000,ResetBack,-9687.000000,-0.300000,Suck,-555.000000,2181.818182,Speed,-330.000000,2181.818182,Speed,Off,On0.000000,0,,,,
09:50:31.106 AM 03/20/2016,Teleop Enabled,10,FALSE,0,NO ERROR,-0.000000,0.141166,0.000000,0.000000,TRUE,FALSE,FALSE,FALSE,FALSE,FALSE,Disabled,0.000000,0.000000,0.000000,TRUE,9.158401,3.722168,0.000000,-0.028458,-0.024521,0.000000,-0.106000,-0.134000,-0.149000,-0.180000,-0.250000,2.580000,0.770913,Hold,0.853760,0.000000,ResetBack,-4402.000000,-0.300000,Suck,-1192.500000,2181.818182,Speed,-915.000000,2181.818182,Speed,Off,On0.000000,0,,,,
09:50:31.207 AM 03/20/2016,Teleop Enabled,11,FALSE,0,NO ERROR,-0.000000,0.141166,0.000000,0.000000,TRUE,FALSE,FALSE,FALSE,FALSE,FALSE,Disabled,0.000000,0.000000,0.000000,TRUE,9.156677,3.721481,0.000000,-0.035141,-0.001846,0.000000,0.120000,0.026000,0.041000,-0.180000,-0.270000,2.700000,0.783981,Hold,0.959961,0.000000,ResetBack,-3157.000000,-0.300000,Suck,-1725.000000,2181.818182,Speed,-1620.000000,2181.818182,Speed,Off,On0.000000,0,,,,
09:50:31.307 AM 03/20/2016,Teleop Enabled,10,FALSE,0,NO ERROR,-0.000000,0.141166,0.000000,0.000000,TRUE,FALSE,FALSE,FALSE,FALSE,FALSE,Disabled,0.000000,0.000000,0.000000,TRUE,9.156021,3.721481,0.000000,-0.014542,-0.010818,0.000000,0.076000,-0.028000,-0.001000,-0.180000,-0.280000,2.730000,0.784377,Hold,0.946777,0.000000,ResetBack,-2575.000000,-0.300000,Suck,-2205.000000,2181.818182,Speed,-2070.000000,2181.818182,Speed,Off,On0.000000,0,,,,
09:50:31.408 AM 03/20/2016,Teleop Enabled,11,FALSE,0,NO ERROR,-0.000000,0.141166,0.000000,0.000000,TRUE,FALSE,FALSE,FALSE,FALSE,FALSE,Disabled,0.000000,0.000000,0.000000,TRUE,9.156647,3.720337,0.000000,0.020782,-0.014023,0.000000,0.052000,0.127000,0.081000,-0.180000,-0.300000,2.720000,0.797531,Hold,0.946777,0.000000,ResetBack,-971.000000,-0.300000,Suck,-2227.500000,2181.818182,Speed,-2295.000000,2181.818182,Speed,Off,On0.000000,0,,,,
09:50:31.509 AM 03/20/2016,Teleop Enabled,10,FALSE,0,NO ERROR,-0.000000,0.141166,0.000000,0.000000,TRUE,FALSE,FALSE,FALSE,FALSE,FALSE,Disabled,0.000000,0.000000,0.000000,TRUE,9.157730,3.720978,0.000000,0.014465,-0.011017,0.000000,0.133000,-0.064000,0.090000,-0.180000,-0.330000,2.700000,0.799424,Hold,0.946777,0.000000,ResetBack,-971.000000,-0.300000,Suck,-2085.000000,2181.818182,Speed,-2115.000000,2181.818182,Speed,Off,On0.000000,0,,,,
09:50:31.610 AM 03/20/2016,Teleop Enabled,11,FALSE,0,NO ERROR,-0.000000,0.141166,0.000000,0.000000,TRUE,FALSE,FALSE,FALSE,FALSE,FALSE,Disabled,0.000000,0.000000,0.000000,TRUE,9.159363,3.719055,0.000000,0.012268,-0.053406,0.000000,-0.095000,0.030000,-0.012000,-0.180000,-0.250000,2.670000,0.785998,Hold,0.946777,0.000000,ResetBack,-474.000000,-0.300000,Suck,-2100.000000,2181.818182,Speed,-2047.500000,2181.818182,Speed,Off,On0.000000,0,,,,
09:50:31.709 AM 03/20/2016,Teleop Enabled,11,FALSE,0,NO ERROR,-0.000000,0.141166,0.000000,0.000000,TRUE,FALSE,FALSE,FALSE,FALSE,FALSE,Disabled,0.000000,0.000000,0.000000,TRUE,9.157318,3.717133,0.000000,-0.083572,-0.027771,0.000000,-0.085000,0.017000,-0.046000,-0.180000,-0.310000,2.680000,0.790318,Hold,0.946777,0.000000,ResetBack,-434.000000,-0.300000,Suck,-2145.000000,2181.818182,Speed,-2130.000000,2181.818182,Speed,Off,On0.000000,0,,,,
09:50:31.809 AM 03/20/2016,Teleop Enabled,11,FALSE,0,NO ERROR,-0.000000,0.141166,0.000000,0.000000,TRUE,FALSE,FALSE,FALSE,FALSE,FALSE,Disabled,0.000000,0.000000,0.000000,TRUE,9.152847,3.716080,0.000000,-0.115753,-0.028336,0.000000,0.089000,0.026000,0.086000,-0.170000,-0.310000,2.700000,0.803386,Hold,0.946777,0.000000,ResetBack,-382.000000,-0.300000,Suck,-2137.500000,2181.818182,Speed,-2152.500000,2181.818182,Speed,Off,On0.000000,0,,,,
09:50:31.909 AM 03/20/2016,Teleop Enabled,10,FALSE,0,NO ERROR,-0.000000,0.141166,0.000000,0.000000,TRUE,FALSE,FALSE,FALSE,FALSE,FALSE,Disabled,0.000000,0.000000,0.000000,TRUE,9.146454,3.715881,0.000000,-0.117722,0.006592,0.000000,-0.058000,0.000000,0.034000,-0.180000,-0.290000,2.690000,0.824696,Hold,0.946777,0.000000,Reset,-382.000000,2.000000,Suck,-2115.000000,2181.818182,Speed,-2115.000000,2181.818182,Speed,Off,On0.000000,0,,,,
09:50:32.009 AM 03/20/2016,Teleop Enabled,11,FALSE,0,NO ERROR,-0.000000,0.141166,0.000000,0.000000,TRUE,FALSE,FALSE,FALSE,FALSE,FALSE,Disabled,0.000000,0.000000,0.000000,TRUE,9.139801,3.715088,0.000000,-0.134933,-0.037857,0.000000,0.042000,-0.053000,0.080000,-0.180000,-0.250000,2.660000,0.827209,Hold,0.946777,0.000000,Hold,-183.000000,2.000000,Suck,-2122.500000,2181.818182,Speed,-2107.500000,2181.818182,Speed,Off,On0.000000,0,,,,
09:50:32.109 AM 03/20/2016,Teleop Enabled,10,FALSE,0,NO ERROR,-0.000000,0.141166,0.000000,0.000000,TRUE,FALSE,FALSE,FALSE,FALSE,FALSE,Disabled,0.000000,0.000000,0.000000,TRUE,9.134399,3.712234,0.000000,-0.093948,-0.067902,0.000000,0.027000,-0.011000,-0.027000,-0.180000,-0.250000,2.590000,0.817163,Hold,0.946777,0.000000,Hold,-242.000000,2.000000,Suck,-2137.500000,2181.818182,Speed,-2130.000000,2181.818182,Speed,Off,On0.000000,0,,,,
09:50:32.209 AM 03/20/2016,Teleop Enabled,11,FALSE,0,NO ERROR,-0.000000,0.141166,0.000000,0.000000,TRUE,FALSE,FALSE,FALSE,FALSE,FALSE,Disabled,0.000000,0.000000,0.000000,TRUE,9.132538,3.711990,0.000000,0.000000,0.024292,0.000000,0.004000,0.047000,0.004000,-0.180000,-0.200000,2.600000,0.820503,Hold,0.946777,0.000000,Hold,-242.000000,2.000000,Suck,-2137.500000,2181.818182,Speed,-2130.000000,2181.818182,Speed,Off,On0.000000,0,,,,
09:50:32.309 AM 03/20/2016,Teleop Enabled,11,FALSE,0,NO ERROR,-0.000000,0.141166,0.000000,0.000000,TRUE,FALSE,FALSE,FALSE,FALSE,FALSE,Disabled,0.000000,0.000000,0.000000,TRUE,9.133148,3.713058,0.000000,0.031799,0.031143,0.000000,0.102000,0.061000,0.113000,-0.180000,-0.220000,2.550000,0.832342,Hold,0.946777,0.000000,Hold,-242.000000,2.000000,Suck,-2130.000000,2181.818182,Speed,-2122.500000,2181.818182,Speed,Off,On0.000000,0,,,,
09:50:32.409 AM 03/20/2016,Teleop Enabled,11,FALSE,0,NO ERROR,-0.000000,0.141166,0.000000,0.000000,TRUE,FALSE,FALSE,FALSE,FALSE,FALSE,Disabled,0.000000,0.000000,0.000000,TRUE,9.136459,3.715546,0.000000,0.072754,0.059097,0.000000,-0.015000,0.099000,0.038000,-0.180000,-0.200000,2.540000,0.826472,Hold,0.946777,0.000000,Hold,-240.000000,2.000000,Suck,-2145.000000,2181.818182,Speed,-2122.500000,2181.818182,Speed,Off,On0.000000,0,,,,
09:50:32.509 AM 03/20/2016,Teleop Enabled,11,FALSE,0,NO ERROR,-0.000000,0.141166,0.000000,0.000000,TRUE,FALSE,FALSE,FALSE,FALSE,FALSE,Disabled,0.000000,0.000000,0.000000,TRUE,9.136124,3.721359,0.000000,-0.011749,0.155258,0.000000,-0.032000,0.066000,-0.003000,-0.180000,-0.200000,2.600000,0.844549,Hold,0.946777,0.000000,Hold,-240.000000,2.000000,Suck,-2145.000000,2181.818182,Speed,-2122.500000,2181.818182,Speed,Off,On0.000000,0,,,,
09:50:32.609 AM 03/20/2016,Teleop Enabled,9,FALSE,0,NO ERROR,-0.000000,0.141166,0.000000,0.000000,TRUE,FALSE,FALSE,FALSE,FALSE,FALSE,Disabled,0.000000,0.000000,0.000000,TRUE,9.135803,3.730453,0.000000,-0.011841,0.192932,0.000000,-0.001000,0.053000,0.049000,-0.180000,-0.220000,2.580000,0.860516,Hold,0.946777,0.000000,Hold,-238.000000,2.000000,Suck,-2130.000000,2181.818182,Speed,-2130.000000,2181.818182,Speed,Off,On0.000000,0,,,,
09:50:32.709 AM 03/20/2016,Teleop Enabled,9,FALSE,0,NO ERROR,-0.000000,0.141166,0.000000,0.000000,TRUE,FALSE,FALSE,FALSE,FALSE,FALSE,Disabled,0.000000,0.000000,0.000000,TRUE,9.133881,3.742447,0.000000,-0.044785,0.186508,0.000000,0.021000,-0.044000,-0.056000,-0.180000,-0.230000,2.640000,0.844518,Hold,0.946777,0.000000,Hold,-238.000000,2.000000,Suck,-2122.500000,2181.818182,Speed,-2122.500000,2181.818182,Speed,Off,On0.000000,0,,,,
09:50:32.809 AM 03/20/2016,Teleop Enabled,9,FALSE,0,NO ERROR,-0.000000,0.141166,0.000000,0.000000,TRUE,FALSE,FALSE,FALSE,FALSE,FALSE,Disabled,0.000000,0.000000,0.000000,TRUE,9.132538,3.749207,0.000000,-0.021698,0.162186,0.000000,-0.037000,-0.098000,-0.062000,-0.180000,-0.260000,2.630000,0.858447,Hold,0.946777,0.000000,Hold,-238.000000,2.000000,Suck,-2130.000000,2181.818182,Speed,-2122.500000,2181.818182,Speed,Off,On0.000000,0,,,,
09:50:32.909 AM 03/20/2016,Teleop Enabled,10,FALSE,0,NO ERROR,-0.000000,0.141166,0.000000,0.000000,TRUE,FALSE,FALSE,FALSE,FALSE,FALSE,Disabled,0.000000,0.000000,0.000000,TRUE,9.130035,3.757156,0.000000,-0.053436,0.105331,0.000000,0.027000,-0.065000,0.015000,-0.180000,-0.290000,2.720000,0.863311,Hold,0.946777,0.000000,Hold,-238.000000,2.000000,Suck,-2145.000000,2181.818182,Speed,-2130.000000,2181.818182,Speed,Off,On0.000000,0,,,,
09:50:33.009 AM 03/20/2016,Teleop Enabled,10,FALSE,0,NO ERROR,-0.000000,0.141166,0.000000,0.000000,TRUE,FALSE,FALSE,FALSE,FALSE,FALSE,Disabled,0.000000,0.000000,0.000000,TRUE,9.127274,3.760132,0.000000,-0.056854,0.024857,0.000000,0.071000,0.033000,0.142000,-0.180000,-0.270000,2.680000,0.866020,Hold,0.946777,0.000000,Hold,-238.000000,2.000000,Suck,-2137.500000,2181.818182,Speed,-2130.000000,2181.818182,Speed,Off,On0.000000,0,,,,
09:50:33.109 AM 03/20/2016,Teleop Enabled,9,FALSE,0,NO ERROR,-0.000000,0.141166,0.000000,0.000000,TRUE,FALSE,FALSE,FALSE,FALSE,FALSE,Disabled,0.000000,0.000000,0.000000,TRUE,9.126831,3.760361,0.000000,0.031555,-0.008270,0.000000,0.043000,-0.004000,-0.056000,-0.180000,-0.270000,2.680000,0.861097,Hold,0.946777,0.000000,Hold,-238.000000,2.000000,Suck,-2137.500000,2181.818182,Speed,-2122.500000,2181.818182,Speed,Off,On0.000000,0,,,,
09:50:33.209 AM 03/20/2016,Teleop Enabled,10,FALSE,0,NO ERROR,-0.000000,0.141166,0.000000,0.000000,TRUE,FALSE,FALSE,FALSE,FALSE,FALSE,Disabled,0.000000,0.000000,0.000000,TRUE,9.127747,3.761139,0.000000,-0.006409,0.046295,0.000000,-0.048000,0.083000,0.105000,-0.180000,-0.290000,2.720000,0.881512,Hold,0.946777,0.000000,Hold,-238.000000,2.000000,Suck,-2145.000000,2181.818182,Speed,-2122.500000,2181.818182,Speed,Off,On0.000000,0,,,,
09:50:33.309 AM 03/20/2016,Teleop Enabled,9,FALSE,0,NO ERROR,-0.000000,0.141166,0.000000,0.000000,TRUE,FALSE,FALSE,FALSE,FALSE,FALSE,Disabled,0.000000,0.000000,0.000000,TRUE,9.126694,3.766037,0.000000,-0.014450,0.140823,0.000000,-0.048000,0.083000,0.105000,-0.180000,-0.290000,2.710000,0.874155,Hold,0.946777,0.000000,Hold,-238.000000,2.000000,Suck,-2145.000000,2181.818182,Speed,-2130.000000,2181.818182,Speed,Off,On0.000000,0,,,,
09:50:33.409 AM 03/20/2016,Teleop Enabled,11,FALSE,0,NO ERROR,-0.000000,0.141166,0.000000,0.000000,TRUE,FALSE,FALSE,FALSE,FALSE,FALSE,Disabled,0.000000,0.000000,0.000000,TRUE,9.127213,3.776871,0.000000,0.023254,0.257767,0.000000,0.060000,0.132000,0.122000,-0.180000,-0.290000,2.710000,0.879649,Hold,0.946777,0.000000,Hold,-238.000000,2.000000,Suck,-2137.500000,2181.818182,Speed,-2122.500000,2181.818182,Speed,Off,On0.000000,0,,,,
09:50:33.510 AM 03/20/2016,Teleop Enabled,10,FALSE,0,NO ERROR,-0.000000,0.141166,0.000000,0.000000,TRUE,FALSE,FALSE,FALSE,FALSE,FALSE,Disabled,0.000000,0.000000,0.000000,TRUE,9.127182,3.788651,0.000000,-0.001053,0.316284,0.000000,0.013000,0.044000,0.112000,-0.180000,-0.280000,2.680000,0.886083,Hold,0.946777,0.000000,Hold,-238.000000,2.000000,Suck,-2152.500000,2181.818182,Speed,-2122.500000,2181.818182,Speed,Off,On0.000000,0,,,,
09:50:33.609 AM 03/20/2016,Teleop Enabled,10,FALSE,0,NO ERROR,-0.000000,0.141166,0.000000,0.000000,TRUE,FALSE,FALSE,FALSE,FALSE,FALSE,Disabled,0.000000,0.000000,0.000000,TRUE,9.128555,3.795410,0.000000,0.024323,0.005798,0.000000,0.031000,-0.004000,0.073000,-0.180000,-0.280000,2.680000,0.875353,Hold,0.946777,0.000000,Hold,-238.000000,2.000000,Suck,-2145.000000,2181.818182,Speed,-2122.500000,2181.818182,Speed,Off,On0.000000,0,,,,
09:50:33.709 AM 03/20/2016,Teleop Enabled,10,FALSE,0,NO ERROR,-0.000000,0.141166,0.000000,0.000000,TRUE,FALSE,FALSE,FALSE,FALSE,FALSE,Disabled,0.000000,0.000000,0.000000,TRUE,9.128983,3.794632,0.000000,-0.006546,-0.029236,0.000000,-0.025000,0.006000,0.044000,-0.180000,-0.250000,2.610000,0.890363,Hold,0.946777,0.000000,Hold,-238.000000,2.000000,Suck,-2145.000000,2181.818182,Speed,-2130.000000,2181.818182,Speed,Off,On0.000000,0,,,,
09:50:33.809 AM 03/20/2016,Teleop Enabled,10,FALSE,0,NO ERROR,-0.000000,0.141166,0.000000,0.000000,TRUE,FALSE,FALSE,FALSE,FALSE,FALSE,Disabled,0.000000,0.000000,0.000000,TRUE,9.128052,3.790665,0.000000,-0.014679,-0.118652,0.000000,0.004000,-0.142000,-0.158000,-0.180000,-0.280000,2.660000,0.912367,Hold,0.946777,0.000000,Hold,-238.000000,2.000000,Suck,-2145.000000,2181.818182,Speed,-2122.500000,2181.818182,Speed,Off,On0.000000,0,,,,
09:50:33.909 AM 03/20/2016,Teleop Enabled,10,FALSE,0,NO ERROR,-0.000000,0.141166,0.000000,0.000000,TRUE,FALSE,FALSE,FALSE,FALSE,FALSE,Disabled,0.000000,0.000000,0.000000,TRUE,9.128052,3.790665,0.000000,-0.014679,-0.118652,0.000000,0.062000,-0.111000,-0.016000,-0.170000,-0.320000,2.630000,0.923504,Hold,0.946777,0.000000,Hold,-238.000000,2.000000,Suck,-2145.000000,2181.818182,Speed,-2122.500000,2181.818182,Speed,Off,On0.000000,0,,,,
09:50:34.010 AM 03/20/2016,Teleop Enabled,10,FALSE,0,NO ERROR,-0.000000,0.141166,0.000000,0.000000,TRUE,FALSE,FALSE,FALSE,FALSE,FALSE,Disabled,0.000000,0.000000,0.000000,TRUE,9.130173,3.781769,0.000000,0.071228,-0.163177,0.000000,-0.038000,-0.040000,0.025000,-0.180000,-0.320000,2.710000,0.907596,Hold,0.946777,0.000000,Hold,-238.000000,2.000000,Suck,-2145.000000,2181.818182,Speed,-2130.000000,2181.818182,Speed,Off,On0.000000,0,,,,
09:50:34.111 AM 03/20/2016,Teleop Enabled,10,FALSE,0,NO ERROR,-0.000000,0.141166,0.000000,0.000000,TRUE,FALSE,FALSE,FALSE,FALSE,FALSE,Disabled,0.000000,0.000000,0.000000,TRUE,9.132019,3.773193,0.000000,-0.006378,-0.173264,0.000000,-0.118000,0.001000,-0.042000,-0.170000,-0.330000,2.690000,0.907596,Hold,0.946777,0.000000,Hold,-238.000000,2.000000,Suck,-2130.000000,2181.818182,Speed,-2130.000000,2181.818182,Speed,Off,On0.000000,0,,,,
09:50:34.211 AM 03/20/2016,Teleop Enabled,10,FALSE,0,NO ERROR,-0.000000,0.141166,0.000000,0.000000,TRUE,FALSE,FALSE,FALSE,FALSE,FALSE,Disabled,0.000000,0.000000,0.000000,TRUE,9.130890,3.764877,0.000000,-0.018158,-0.147980,0.000000,-0.039000,0.084000,0.122000,-0.170000,-0.320000,2.720000,0.901723,Hold,0.946777,0.000000,Hold,-238.000000,2.000000,Suck,-2145.000000,2181.818182,Speed,-2122.500000,2181.818182,Speed,Off,On0.000000,0,,,,
09:50:34.311 AM 03/20/2016,Teleop Enabled,9,FALSE,0,NO ERROR,-0.000000,0.141166,0.000000,0.000000,TRUE,FALSE,FALSE,FALSE,FALSE,FALSE,Disabled,0.000000,0.000000,0.000000,TRUE,9.129883,3.759903,0.000000,-0.023880,-0.112366,0.000000,-0.088000,0.031000,0.058000,-0.170000,-0.310000,2.720000,0.899355,Hold,0.946777,0.000000,Hold,-238.000000,2.000000,Suck,-2152.500000,2181.818182,Speed,-2122.500000,2181.818182,Speed,Off,On0.000000,0,,,,
09:50:34.412 AM 03/20/2016,Teleop Enabled,10,FALSE,0,NO ERROR,-0.000000,0.141166,0.000000,0.000000,TRUE,FALSE,FALSE,FALSE,FALSE,FALSE,Disabled,0.000000,0.000000,0.000000,TRUE,9.127014,3.753677,0.000000,-0.044006,-0.102066,0.000000,0.062000,0.081000,0.106000,-0.170000,-0.310000,2.700000,0.907038,Hold,0.946777,0.000000,Hold,-238.000000,2.000000,Suck,-2145.000000,2181.818182,Speed,-2130.000000,2181.818182,Speed,Off,On0.000000,0,,,,
09:50:34.511 AM 03/20/2016,Teleop Enabled,10,FALSE,0,NO ERROR,-0.000000,0.141166,0.000000,0.000000,TRUE,FALSE,FALSE,FALSE,FALSE,FALSE,Disabled,0.000000,0.000000,0.000000,TRUE,9.126083,3.749268,0.000000,-0.022308,-0.079437,0.000000,0.061000,0.054000,0.090000,-0.170000,-0.290000,2.670000,0.908102,Hold,0.946777,0.000000,Hold,-238.000000,2.000000,Suck,-2152.500000,2181.818182,Speed,-2122.500000,2181.818182,Speed,Off,On0.000000,0,,,,
09:50:34.611 AM 03/20/2016,Teleop Enabled,10,FALSE,0,NO ERROR,-0.212598,0.141166,-0.212598,0.000000,TRUE,FALSE,FALSE,FALSE,FALSE,FALSE,Disabled,0.000000,0.000000,0.000000,TRUE,9.125748,3.746231,0.000000,-0.004059,-0.049149,0.000000,-0.073000,-0.003000,0.001000,-0.170000,-0.230000,2.680000,0.909073,Hold,0.946777,0.000000,Hold,-238.000000,2.000000,Suck,-2152.500000,2181.818182,Speed,-2122.500000,2181.818182,Speed,Off,On0.000000,0,,,,
09:50:34.711 AM 03/20/2016,Teleop Enabled,10,FALSE,0,NO ERROR,-0.244094,0.141166,-0.244094,0.000000,TRUE,FALSE,FALSE,FALSE,FALSE,FALSE,Disabled,0.000000,0.000000,0.000000,TRUE,9.125244,3.743835,0.000000,0.010345,-0.044708,0.000000,0.022000,0.080000,0.053000,-0.170000,-0.260000,2.660000,0.914998,Hold,0.946777,0.000000,Hold,-238.000000,2.000000,Suck,-2145.000000,2181.818182,Speed,-2122.500000,2181.818182,Speed,Off,On0.000000,0,,,,
09:50:34.811 AM 03/20/2016,Teleop Enabled,9,FALSE,0,NO ERROR,-0.244094,-0.384999,-0.244094,-0.243833,TRUE,FALSE,FALSE,FALSE,FALSE,FALSE,Disabled,0.000000,0.000000,0.000000,TRUE,9.128387,3.740433,0.000000,0.084579,-0.057739,0.000000,0.594000,0.254000,0.034000,-0.730000,0.210000,2.690000,0.583280,Hold,0.946777,0.000000,Hold,-238.000000,2.000000,Suck,-2145.000000,2181.818182,Speed,-2122.500000,2181.818182,Speed,Off,On0.000000,0,,,,
09:50:34.911 AM 03/20/2016,Teleop Enabled,9,FALSE,0,NO ERROR,-0.251969,-1.090831,-0.251969,-1.135747,TRUE,FALSE,FALSE,FALSE,FALSE,FALSE,Disabled,0.000000,0.000000,0.000000,TRUE,9.135025,3.740021,0.000000,0.140671,-0.011887,0.000000,0.158000,-0.022000,-0.074000,-0.340000,1.100000,2.680000,0.673268,Hold,0.946777,0.000000,Hold,-238.000000,2.000000,Suck,-2130.000000,2181.818182,Speed,-2115.000000,2181.818182,Speed,Off,On0.000000,0,,,,
09:50:35.011 AM 03/20/2016,Teleop Enabled,9,FALSE,0,NO ERROR,-0.251969,-2.143162,-0.251969,-2.252245,TRUE,FALSE,FALSE,FALSE,FALSE,FALSE,Disabled,0.000000,0.000000,0.000000,TRUE,9.143845,3.740585,0.000000,0.192612,0.034088,0.000000,-0.021000,0.005000,0.034000,-0.260000,0.980000,2.780000,0.894834,Hold,0.946777,0.000000,Hold,-238.000000,2.000000,Suck,-2130.000000,2181.818182,Speed,-2115.000000,2181.818182,Speed,Off,On0.000000,0,,,,
09:50:35.111 AM 03/20/2016,Teleop Enabled,9,FALSE,0,NO ERROR,-0.267717,-3.529158,-0.267717,-3.670325,TRUE,FALSE,FALSE,FALSE,FALSE,FALSE,Disabled,0.000000,0.000000,0.000000,TRUE,9.153931,3.741516,0.000000,0.208405,-0.008011,0.000000,0.035000,-0.041000,0.039000,-0.410000,1.090000,2.740000,0.787971,Hold,0.946777,0.000000,Hold,-238.000000,2.000000,Suck,-2145.000000,2181.818182,Speed,-2115.000000,2181.818182,Speed,Off,On0.000000,0,,,,
09:50:35.211 AM 03/20/2016,Teleop Enabled,11,FALSE,0,NO ERROR,-0.267717,-5.030655,-0.267717,-5.030655,TRUE,FALSE,FALSE,FALSE,FALSE,FALSE,Disabled,0.000000,0.000000,0.000000,TRUE,9.167404,3.738510,0.000000,0.227493,-0.075714,0.000000,-0.027000,-0.084000,-0.016000,-0.500000,1.180000,2.790000,0.714995,Hold,0.946777,0.000000,Hold,-238.000000,2.000000,Suck,-2152.500000,2181.818182,Speed,-2122.500000,2181.818182,Speed,Off,On0.000000,0,,,,
09:50:35.311 AM 03/20/2016,Teleop Enabled,10,FALSE,0,NO ERROR,-0.267717,-6.570651,-0.267717,-6.615568,TRUE,FALSE,FALSE,FALSE,FALSE,FALSE,Disabled,0.000000,0.000000,0.000000,TRUE,9.177750,3.732574,0.000000,0.180923,-0.143082,0.000000,-0.052000,-0.109000,-0.101000,-0.500000,1.090000,2.810000,0.666269,Hold,0.946777,208896.000000,Hold,-238.000000,143360.000000,Suck,-2137.500000,2181.818182,Speed,-2115.000000,2181.818182,Speed,Off,On0.000000,0,,,,
09:50:35.411 AM 03/20/2016,Teleop Enabled,10,FALSE,0,NO ERROR,-0.267717,-8.161981,-0.267717,-8.238981,TRUE,FALSE,FALSE,FALSE,FALSE,FALSE,Disabled,0.000000,0.000000,0.000000,TRUE,9.184509,3.722488,0.000000,0.000000,-0.245193,0.000000,-0.087000,0.064000,0.100000,-0.480000,1.170000,2.780000,0.688212,Hold,4.122070,208896.000000,Hold,-6891.000000,143360.000000,Suck,-2130.000000,2181.818182,Speed,-2115.000000,2181.818182,Speed,Off,On0.000000,0,,,,
09:50:35.511 AM 03/20/2016,Teleop Enabled,11,FALSE,0,NO ERROR,-0.267717,-9.791810,-0.267717,-9.926560,TRUE,FALSE,FALSE,FALSE,FALSE,FALSE,Disabled,0.000000,0.000000,0.000000,TRUE,9.183548,3.708252,0.000000,-0.024414,-0.214386,0.000000,-0.015000,0.000000,-0.272000,-0.360000,1.230000,2.830000,0.746020,Hold,7.586426,208896.000000,Hold,-20316.000000,143360.000000,Suck,-2137.500000,2181.818182,Speed,-2122.500000,2181.818182,Speed,Off,On0.000000,0,,,,
09:50:35.614 AM 03/20/2016,Teleop Enabled,9,FALSE,0,NO ERROR,-0.267717,-11.376723,-0.267717,-11.549973,TRUE,FALSE,FALSE,FALSE,FALSE,FALSE,Disabled,0.000000,0.000000,0.000000,TRUE,9.182892,3.698898,0.000000,-0.004410,-0.157578,0.000000,-0.052000,0.088000,0.125000,-0.320000,1.220000,2.740000,0.837537,Hold,7.586426,208896.000000,Hold,-20316.000000,143360.000000,Suck,-2160.000000,2181.818182,Speed,-2122.500000,2181.818182,Speed,Off,On0.000000,0,,,,
09:50:35.713 AM 03/20/2016,Teleop Enabled,9,FALSE,0,NO ERROR,-0.267717,-12.974470,-0.267717,-13.122053,TRUE,FALSE,FALSE,FALSE,FALSE,FALSE,Disabled,0.000000,0.000000,0.000000,TRUE,9.181503,3.694641,0.000000,-0.051788,-0.076279,0.000000,-0.074000,-0.062000,0.002000,-0.350000,1.240000,2.720000,0.827157,Hold,16.811523,208896.000000,Hold,-31482.000000,143360.000000,Suck,-2160.000000,2181.818182,Speed,-2122.500000,2181.818182,Speed,Off,On0.000000,0,,,,
09:50:35.814 AM 03/20/2016,Teleop Enabled,11,FALSE,0,NO ERROR,-0.275591,-14.552966,-0.275591,-14.668466,TRUE,FALSE,FALSE,FALSE,FALSE,FALSE,Disabled,0.000000,0.000000,0.000000,TRUE,9.178711,3.690063,0.000000,-0.032181,-0.093613,0.000000,0.005000,-0.027000,0.116000,-0.400000,0.820000,2.720000,0.760265,Hold,23.132812,208896.000000,Hold,-42485.000000,143360.000000,Suck,-2152.500000,2181.818182,Speed,-2130.000000,2181.818182,Speed,Off,On0.000000,0,,,,
09:50:35.915 AM 03/20/2016,Teleop Enabled,11,FALSE,0,NO ERROR,-0.314961,-16.214879,-0.314961,-16.279045,TRUE,FALSE,FALSE,FALSE,FALSE,FALSE,Disabled,0.000000,0.000000,0.000000,TRUE,9.177414,3.681870,0.000000,-0.015289,-0.182373,0.000000,0.024000,-0.033000,0.187000,-0.460000,0.940000,2.740000,0.718310,Hold,30.756348,208896.000000,Hold,-55110.000000,143360.000000,Suck,-2145.000000,2181.818182,Speed,-2130.000000,2181.818182,Speed,Off,On0.000000,0,,,,
09:50:36.015 AM 03/20/2016,Teleop Enabled,11,FALSE,0,NO ERROR,-0.385827,-17.953791,-0.385827,-17.928125,TRUE,FALSE,FALSE,FALSE,FALSE,FALSE,Disabled,0.000000,0.000000,0.000000,TRUE,9.176819,3.670212,0.000000,0.005554,-0.275970,0.000000,0.105000,-0.052000,0.184000,-0.670000,1.070000,2.680000,0.530058,Hold,30.756348,208896.000000,Hold,-68088.000000,143360.000000,Suck,-2145.000000,2181.818182,Speed,-2130.000000,2181.818182,Speed,Off,On0.000000,0,,,,
09:50:36.115 AM 03/20/2016,Teleop Enabled,11,FALSE,0,NO ERROR,-0.385827,-20.019953,-0.385827,-19.904453,TRUE,FALSE,FALSE,FALSE,FALSE,FALSE,Disabled,0.000000,0.000000,0.000000,TRUE,9.181274,3.653931,0.000000,0.136459,-0.381073,0.000000,-0.063000,-0.108000,0.313000,-0.870000,0.880000,2.540000,0.346063,Hold,39.391602,208896.000000,Hold,-68088.000000,143360.000000,Suck,-2145.000000,2181.818182,Speed,-2122.500000,2181.818182,Speed,Off,On0.000000,0,,,,
09:50:36.216 AM 03/20/2016,Teleop Enabled,11,FALSE,0,NO ERROR,-0.385827,-22.695697,-0.385827,-22.458281,TRUE,FALSE,FALSE,FALSE,FALSE,FALSE,Disabled,0.000000,0.000000,0.000000,TRUE,9.189209,3.632675,0.000000,0.182434,-0.435226,0.000000,0.039000,-0.069000,0.196000,-1.050000,0.270000,2.440000,0.169412,Hold,49.168457,208896.000000,Hold,-83917.000000,143360.000000,Suck,-2145.000000,2181.818182,Speed,-2122.500000,2181.818182,Speed,Off,On0.000000,0,,,,
09:50:36.317 AM 03/20/2016,Teleop Enabled,9,FALSE,0,NO ERROR,-0.290130,-25.448440,-0.481524,-25.159691,TRUE,FALSE,FALSE,FALSE,FALSE,FALSE,Disabled,0.000000,0.000000,0.000000,TRUE,9.194962,3.610199,0.000000,-0.004700,-0.463730,0.000000,-0.039000,-0.117000,-0.157000,-1.210000,0.200000,2.500000,0.036574,Hold,55.903320,208896.000000,Hold,-100183.000000,143360.000000,Suck,-2137.500000,2181.818182,Speed,-2130.000000,2181.818182,Speed,Off,On0.000000,0,,,,
09:50:36.418 AM 03/20/2016,Teleop Enabled,10,FALSE,0,NO ERROR,-0.219952,-28.368017,-0.551702,-27.655769,TRUE,FALSE,FALSE,FALSE,FALSE,FALSE,Disabled,0.000000,0.000000,0.000000,TRUE,9.192062,3.585251,0.000000,-0.090836,-0.524612,0.000000,-0.067000,-0.068000,0.012000,-1.640000,0.660000,2.350000,-0.322079,Hold,56.985107,208896.000000,Hold,-117861.000000,143360.000000,Suck,-2130.000000,2181.818182,Speed,-2122.500000,2181.818182,Speed,Off,On0.000000,0,,,,
09:50:36.518 AM 03/20/2016,Teleop Enabled,9,FALSE,0,NO ERROR,-0.272181,-31.685426,-0.515221,-29.818180,TRUE,FALSE,FALSE,FALSE,FALSE,FALSE,Disabled,0.000000,0.000000,0.000000,TRUE,9.185593,3.559738,0.000000,-0.171707,-0.503235,0.000000,-0.125000,-0.089000,-0.149000,-3.040000,0.550000,2.270000,-1.589257,Hold,56.566162,208896.000000,Hold,-135749.000000,143360.000000,Suck,-2145.000000,2181.818182,Speed,-2122.500000,2181.818182,Speed,Off,On0.000000,0,,,,
09:50:36.619 AM 03/20/2016,Teleop Enabled,11,FALSE,0,NO ERROR,-0.385827,-35.188918,-0.385827,-31.922842,TRUE,FALSE,FALSE,FALSE,FALSE,FALSE,Disabled,0.000000,0.000000,0.000000,TRUE,9.177490,3.534607,0.000000,-0.158264,-0.473053,0.000000,-0.153000,0.214000,0.183000,-6.480000,0.180000,2.160000,-4.342708,Hold,56.031494,208896.000000,Hold,-135749.000000,143360.000000,Suck,-2145.000000,2181.818182,Speed,-2115.000000,2181.818182,Speed,Off,On0.000000,0,,,,
09:50:36.720 AM 03/20/2016,Teleop Enabled,10,FALSE,0,NO ERROR,-0.417323,-38.268911,-0.417323,-34.431753,TRUE,FALSE,FALSE,FALSE,FALSE,FALSE,Disabled,0.000000,0.000000,0.000000,TRUE,9.166168,3.517136,0.000000,-0.229019,-0.307312,0.000000,0.018000,0.000000,0.008000,-8.270000,0.370000,2.660000,-6.486217,Hold,55.999512,208896.000000,Hold,-143648.000000,143360.000000,Suck,-2137.500000,2181.818182,Speed,-2107.500000,2181.818182,Speed,Off,On0.000000,0,,,,
09:50:36.821 AM 03/20/2016,Teleop Enabled,9,FALSE,0,NO ERROR,-0.312704,-41.105071,-0.537690,-36.985580,TRUE,FALSE,FALSE,FALSE,FALSE,FALSE,Disabled,0.000000,0.000000,0.000000,TRUE,9.154480,3.501526,0.000000,-0.234512,-0.328110,0.000000,-0.033000,-0.025000,0.061000,-8.830000,0.360000,2.600000,-7.283369,Hold,55.855713,208896.000000,Hold,-143356.000000,143360.000000,Suck,-2137.500000,2181.818182,Speed,-2107.500000,2181.818182,Speed,Off,On0.000000,0,,,,
09:50:36.923 AM 03/20/2016,Teleop Enabled,10,FALSE,0,NO ERROR,-0.231006,-44.204313,-0.603639,-39.520158,TRUE,FALSE,FALSE,FALSE,FALSE,FALSE,Disabled,0.000000,0.000000,0.000000,TRUE,9.141739,3.482941,0.000000,-0.270081,-0.408264,0.000000,0.051000,-0.011000,0.139000,-9.610000,0.360000,2.410000,-8.048842,Hold,55.833252,208896.000000,Hold,-143489.000000,143360.000000,Suck,-2130.000000,2181.818182,Speed,-2122.500000,2181.818182,Speed,Off,On0.000000,0,,,,
09:50:37.023 AM 03/20/2016,Teleop Enabled,10,FALSE,0,NO ERROR,-0.256457,-47.925971,-0.593936,-41.682569,TRUE,FALSE,FALSE,FALSE,FALSE,FALSE,Disabled,0.000000,0.000000,0.000000,TRUE,9.129837,3.479263,0.000000,-0.237625,0.019379,0.000000,-0.183000,-0.049000,0.013000,-11.950000,0.430000,2.300000,-10.217736,Hold,55.829590,208896.000000,Hold,-143489.000000,143360.000000,Suck,-2122.500000,2181.818182,Speed,-2122.500000,2181.818182,Speed,Off,On0.000000,0,,,,
09:50:37.123 AM 03/20/2016,Teleop Enabled,9,FALSE,0,NO ERROR,-0.256457,-51.923545,-0.593936,-43.825731,TRUE,FALSE,FALSE,FALSE,FALSE,FALSE,Disabled,0.000000,0.000000,0.000000,TRUE,9.114288,3.480087,0.000000,-0.350937,0.034439,0.000000,0.024000,-0.028000,-0.149000,-15.580000,0.160000,2.220000,-13.685938,Hold,55.763184,208896.000000,Hold,-143489.000000,143360.000000,Suck,-2122.500000,2181.818182,Speed,-2115.000000,2181.818182,Speed,Off,On0.000000,0,,,,
09:50:37.224 AM 03/20/2016,Teleop Enabled,11,FALSE,0,NO ERROR,-0.190836,-55.869786,-0.659557,-45.975309,TRUE,FALSE,FALSE,FALSE,FALSE,FALSE,Disabled,0.000000,0.000000,0.000000,TRUE,9.096390,3.481171,0.000000,-0.374710,0.033295,0.000000,-0.085000,0.054000,-0.052000,-19.220000,0.220000,2.270000,-17.243009,Hold,55.762451,208896.000000,Hold,-143488.000000,143360.000000,Suck,-2152.500000,2181.818182,Speed,-2122.500000,2181.818182,Speed,Off,On0.000000,0,,,,
09:50:37.323 AM 03/20/2016,Teleop Enabled,11,FALSE,0,NO ERROR,-0.143964,-59.944360,-0.706429,-48.054304,TRUE,FALSE,FALSE,FALSE,FALSE,FALSE,Disabled,0.000000,0.000000,0.000000,TRUE,9.076385,3.484222,0.000000,-0.410736,0.078766,0.000000,0.098000,-0.045000,0.017000,-22.970000,0.200000,2.330000,-20.840558,Hold,55.712891,208896.000000,Hold,-143488.000000,143360.000000,Suck,-2152.500000,2181.818182,Speed,-2122.500000,2181.818182,Speed,Off,On0.000000,0,,,,
09:50:37.423 AM 03/20/2016,Teleop Enabled,10,FALSE,0,NO ERROR,-0.183806,-64.346183,-0.666588,-49.831717,TRUE,FALSE,FALSE,FALSE,FALSE,FALSE,Disabled,0.000000,0.000000,0.000000,TRUE,9.051712,3.489075,0.000000,-0.404968,0.075043,0.000000,0.008000,0.002000,-0.005000,-28.000000,-0.050000,2.060000,-25.668581,Hold,55.702881,208896.000000,Hold,-143488.000000,143360.000000,Suck,-2130.000000,2181.818182,Speed,-2115.000000,2181.818182,Speed,Off,On0.000000,0,,,,
09:50:37.527 AM 03/20/2016,Teleop Enabled,11,FALSE,0,NO ERROR,-0.202554,-68.927672,-0.647839,-51.621963,TRUE,FALSE,FALSE,FALSE,FALSE,FALSE,Disabled,0.000000,0.000000,0.000000,TRUE,9.046722,3.494293,0.000000,-0.057770,0.130676,0.000000,0.004000,0.126000,0.058000,-33.600000,0.050000,2.430000,-31.114129,Hold,55.702637,208896.000000,Hold,-143488.000000,143360.000000,Suck,-2122.500000,2181.818182,Speed,-2107.500000,2181.818182,Speed,Off,On0.000000,0,,,,
09:50:37.630 AM 03/20/2016,Teleop Enabled,12,FALSE,0,NO ERROR,-0.202554,-73.297412,-0.647839,-53.514875,TRUE,FALSE,FALSE,FALSE,FALSE,FALSE,Disabled,0.000000,0.000000,0.000000,TRUE,9.042755,3.503784,0.000000,-0.086395,0.235229,0.000000,-0.022000,0.026000,-0.077000,-38.670000,0.280000,2.660000,-36.068573,Hold,55.692383,208896.000000,Hold,-143488.000000,143360.000000,Suck,-2130.000000,2181.818182,Speed,-2107.500000,2181.818182,Speed,Off,On0.000000,0,,,,
09:50:37.730 AM 03/20/2016,Teleop Enabled,10,FALSE,0,NO ERROR,-0.202554,-77.609402,-0.647839,-55.394954,TRUE,FALSE,FALSE,FALSE,FALSE,FALSE,Disabled,0.000000,0.000000,0.000000,TRUE,9.038635,3.517624,0.000000,-0.084915,0.299210,0.000000,-0.009000,0.013000,0.092000,-44.580000,0.150000,2.730000,-40.883830,Hold,55.689941,208896.000000,Hold,-143488.000000,143360.000000,Suck,-2130.000000,2181.818182,Speed,-2115.000000,2181.818182,Speed,Off,On0.000000,0,,,,
09:50:37.830 AM 03/20/2016,Teleop Enabled,9,FALSE,0,NO ERROR,-0.214272,-81.889309,-0.636121,-57.339199,TRUE,FALSE,FALSE,FALSE,FALSE,FALSE,Disabled,0.000000,0.000000,0.000000,TRUE,9.037262,3.533386,0.000000,-0.063950,0.335373,0.000000,-0.074000,-0.059000,0.008000,-48.380000,0.300000,2.730000,-45.528829,Hold,55.689209,208896.000000,Hold,-143488.000000,143360.000000,Suck,-2137.500000,2181.818182,Speed,-2115.000000,2181.818182,Speed,Off,On0.000000,0,,,,
09:50:37.929 AM 03/20/2016,Teleop Enabled,9,FALSE,0,NO ERROR,-0.214272,-86.188465,-0.636121,-59.341195,TRUE,FALSE,FALSE,FALSE,FALSE,FALSE,Disabled,0.000000,0.000000,0.000000,TRUE,9.030289,3.551895,0.000000,-0.165359,0.394501,0.000000,0.039000,-0.006000,-0.100000,-53.840000,0.580000,2.950000,-49.955222,Hold,55.680176,208896.000000,Hold,-143488.000000,143360.000000,Suck,-2145.000000,2181.818182,Speed,-2115.000000,2181.818182,Speed,Off,On0.000000,0,,,,
09:50:38.029 AM 03/20/2016,Teleop Enabled,11,FALSE,0,NO ERROR,-0.251770,-90.487622,-0.598624,-61.246940,TRUE,FALSE,FALSE,FALSE,FALSE,FALSE,Disabled,0.000000,0.000000,0.000000,TRUE,9.023193,3.552170,0.000000,-0.124817,0.025223,0.000000,-0.015000,0.079000,-0.031000,-58.610000,0.430000,2.800000,-54.564233,Hold,55.677979,208896.000000,Hold,-143488.000000,143360.000000,Suck,-2137.500000,2181.818182,Speed,-2115.000000,2181.818182,Speed,Off,On0.000000,0,,,,
09:50:38.129 AM 03/20/2016,Teleop Enabled,11,FALSE,0,NO ERROR,-0.417323,-94.600695,-0.417323,-63.300269,FALSE,FALSE,FALSE,FALSE,FALSE,FALSE,Disabled,0.000000,0.000000,0.000000,TRUE,9.016373,3.554688,0.000000,-0.167480,0.068680,0.000000,-0.014000,-0.006000,-0.137000,-62.830000,0.700000,3.140000,-58.859619,Hold,55.677979,208896.000000,Hold,-143488.000000,143360.000000,Suck,-2145.000000,2181.818182,Speed,-2115.000000,2181.818182,Speed,Off,On0.000000,0,,,,
09:50:38.229 AM 03/20/2016,Teleop Enabled,11,FALSE,0,NO ERROR,-0.425197,-98.149104,-0.425197,-65.918263,FALSE,FALSE,FALSE,FALSE,FALSE,FALSE,Disabled,0.000000,0.000000,0.000000,TRUE,9.003311,3.557648,0.000000,-0.260544,0.030899,0.000000,0.055000,-0.044000,-0.001000,-65.430000,0.600000,3.420000,-61.823362,Hold,55.676758,208896.000000,Hold,-143488.000000,143360.000000,Suck,-2137.500000,2181.818182,Speed,-2115.000000,2181.818182,Speed,Off,On0.000000,0,,,,
09:50:38.329 AM 03/20/2016,Teleop Enabled,11,FALSE,0,NO ERROR,-0.425197,-101.331763,-0.425197,-68.773673,FALSE,FALSE,FALSE,FALSE,FALSE,FALSE,Disabled,0.000000,0.000000,0.000000,TRUE,8.993134,3.560669,0.000000,-0.264481,0.091049,0.000000,0.036000,0.016000,0.139000,-66.150000,0.760000,3.560000,-62.922536,Hold,55.677002,208896.000000,Hold,-143488.000000,143360.000000,Suck,-2145.000000,2181.818182,Speed,-2122.500000,2181.818182,Speed,Off,On0.000000,0,,,,
09:50:38.429 AM 03/20/2016,Teleop Enabled,11,FALSE,0,NO ERROR,-0.493230,-104.347589,-0.341416,-71.744582,FALSE,FALSE,FALSE,FALSE,FALSE,FALSE,Disabled,0.000000,0.000000,0.000000,TRUE,8.979858,3.566574,0.000000,-0.263702,0.125946,0.000000,0.020000,0.001000,0.020000,-66.320000,0.660000,3.510000,-63.115933,Hold,55.672119,208896.000000,Hold,-143488.000000,143360.000000,Suck,-2145.000000,2181.818182,Speed,-2122.500000,2181.818182,Speed,Off,On0.000000,0,,,,
09:50:38.529 AM 03/20/2016,Teleop Enabled,10,FALSE,0,NO ERROR,-0.504879,-107.145249,-0.345514,-74.940075,FALSE,FALSE,FALSE,FALSE,FALSE,FALSE,Disabled,0.000000,0.000000,0.000000,TRUE,8.971954,3.574020,0.000000,-0.021225,0.112061,0.000000,-0.025000,0.039000,0.084000,-65.960000,0.640000,3.550000,-62.749544,Hold,55.673584,208896.000000,Hold,-143488.000000,143360.000000,Suck,-2145.000000,2181.818182,Speed,-2122.500000,2181.818182,Speed,Off,On0.000000,0,,,,
09:50:38.629 AM 03/20/2016,Teleop Enabled,11,FALSE,0,NO ERROR,-0.425197,-109.942910,-0.425197,-78.283150,FALSE,FALSE,FALSE,FALSE,FALSE,FALSE,Disabled,0.000000,0.000000,0.000000,TRUE,8.972229,3.579956,0.000000,0.019012,0.118088,0.000000,-0.005000,-0.164000,0.031000,-65.070000,0.500000,3.540000,-61.895904,Hold,55.673584,208896.000000,Hold,-143488.000000,143360.000000,Suck,-2145.000000,2181.818182,Speed,-2122.500000,2181.818182,Speed,Off,On0.000000,0,,,,
09:50:38.729 AM 03/20/2016,Teleop Enabled,11,FALSE,0,NO ERROR,-0.417323,-112.945903,-0.417323,-81.375976,FALSE,FALSE,FALSE,FALSE,FALSE,FALSE,Disabled,0.000000,0.000000,0.000000,TRUE,8.972458,3.582565,0.000000,0.008881,0.025681,0.000000,0.094000,0.044000,-0.035000,-64.400000,0.190000,3.340000,-61.244462,Hold,55.673584,208896.000000,Hold,-143488.000000,143360.000000,Suck,-2137.500000,2181.818182,Speed,-2115.000000,2181.818182,Speed,Off,On0.000000,0,,,,
09:50:38.830 AM 03/20/2016,Teleop Enabled,10,FALSE,0,NO ERROR,-0.425197,-115.993812,-0.425197,-84.295553,FALSE,FALSE,FALSE,FALSE,FALSE,FALSE,Disabled,0.000000,0.000000,0.000000,TRUE,8.974762,3.585709,0.000000,0.073364,0.092422,0.000000,-0.009000,0.025000,0.152000,-64.400000,0.230000,3.160000,-61.246152,Hold,55.673584,208896.000000,Hold,-143488.000000,143360.000000,Suck,-2145.000000,2181.818182,Speed,-2122.500000,2181.818182,Speed,Off,On0.000000,0,,,,
09:50:38.930 AM 03/20/2016,Teleop Enabled,10,FALSE,0,NO ERROR,-0.352917,-119.028888,-0.481729,-87.215129,FALSE,FALSE,FALSE,FALSE,FALSE,FALSE,Disabled,0.000000,0.000000,0.000000,TRUE,8.977936,3.591080,0.000000,0.044189,0.101776,0.000000,0.001000,0.044000,0.064000,-64.680000,0.370000,3.170000,-61.520128,Hold,55.673584,208896.000000,Hold,-143488.000000,143360.000000,Suck,-2160.000000,2181.818182,Speed,-2122.500000,2181.818182,Speed,Off,On0.000000,0,,,,
09:50:39.029 AM 03/20/2016,Teleop Enabled,10,FALSE,0,NO ERROR,-0.346016,-122.198714,-0.488629,-89.929373,TRUE,FALSE,FALSE,FALSE,FALSE,FALSE,Disabled,0.000000,0.000000,0.000000,TRUE,8.981415,3.594513,0.000000,0.094635,0.032684,0.000000,0.124000,0.017000,0.023000,-65.490000,-0.070000,2.980000,-62.075123,Hold,55.673584,208896.000000,Hold,-143488.000000,143360.000000,Suck,-2145.000000,2181.818182,Speed,-2122.500000,2181.818182,Speed,Off,On0.000000,0,,,,
09:50:39.130 AM 03/20/2016,Teleop Enabled,11,FALSE,0,NO ERROR,-0.346016,-125.471207,-0.488629,-92.508867,TRUE,FALSE,FALSE,FALSE,FALSE,FALSE,Disabled,0.000000,0.000000,0.000000,TRUE,8.987991,3.595474,0.000000,0.125732,0.037186,0.000000,0.018000,0.002000,-0.202000,-66.750000,-0.230000,2.910000,-63.271078,Hold,55.673584,208896.000000,Hold,-143488.000000,143360.000000,Suck,-2137.500000,2181.818182,Speed,-2115.000000,2181.818182,Speed,Off,On0.000000,0,,,,
09:50:39.230 AM 03/20/2016,Teleop Enabled,10,FALSE,0,NO ERROR,-0.346016,-128.737282,-0.488629,-95.120444,TRUE,FALSE,FALSE,FALSE,FALSE,FALSE,Disabled,0.000000,0.000000,0.000000,TRUE,8.993896,3.597137,0.000000,0.093506,0.031723,0.000000,-0.003000,0.020000,-0.120000,-68.000000,-0.210000,2.880000,-64.466923,Hold,55.673584,208896.000000,Hold,-143488.000000,143360.000000,Suck,-2145.000000,2181.818182,Speed,-2115.000000,2181.818182,Speed,Off,On0.000000,0,,,,
09:50:39.330 AM 03/20/2016,Teleop Enabled,10,FALSE,0,NO ERROR,-0.346016,-132.067525,-0.488629,-97.693522,TRUE,FALSE,FALSE,FALSE,FALSE,FALSE,Disabled,0.000000,0.000000,0.000000,TRUE,8.998138,3.599442,0.000000,0.069260,0.052383,0.000000,0.071000,-0.024000,-0.097000,-69.460000,-0.480000,2.870000,-65.851351,Hold,55.673584,208896.000000,Hold,-143488.000000,143360.000000,Suck,-2152.500000,2181.818182,Speed,-2122.500000,2181.818182,Speed,Off,On0.000000,0,,,,
09:50:39.431 AM 03/20/2016,Teleop Enabled,10,FALSE,0,NO ERROR,-0.346016,-135.532516,-0.488629,-100.369265,TRUE,FALSE,FALSE,FALSE,FALSE,FALSE,Disabled,0.000000,0.000000,0.000000,TRUE,9.002075,3.599670,0.000000,0.052933,-0.039993,0.000000,-0.005000,-0.007000,0.031000,-70.870000,-0.480000,2.890000,-67.229359,Hold,55.676025,208896.000000,Hold,-143488.000000,143360.000000,Suck,-2145.000000,2181.818182,Speed,-2122.500000,2181.818182,Speed,Off,On0.000000,0,,,,
09:50:39.532 AM 03/20/2016,Teleop Enabled,10,FALSE,0,NO ERROR,-0.346016,-138.888425,-0.488629,-103.012926,TRUE,FALSE,FALSE,FALSE,FALSE,FALSE,Disabled,0.000000,0.000000,0.000000,TRUE,9.004776,3.598022,0.000000,0.078598,-0.037582,0.000000,-0.059000,0.078000,0.208000,-72.280000,-0.470000,2.830000,-68.589059,Hold,55.674561,208896.000000,Hold,-143488.000000,143360.000000,Suck,-2137.500000,2181.818182,Speed,-2122.500000,2181.818182,Speed,Off,On0.000000,0,,,,
09:50:39.632 AM 03/20/2016,Teleop Enabled,10,FALSE,0,NO ERROR,-0.352917,-142.270001,-0.481729,-105.605253,TRUE,FALSE,FALSE,FALSE,FALSE,FALSE,Disabled,0.000000,0.000000,0.000000,TRUE,9.009003,3.597549,0.000000,0.036987,-0.003815,0.000000,-0.164000,-0.049000,0.021000,-73.830000,-0.740000,2.890000,-70.063748,Hold,55.675293,208896.000000,Hold,-143488.000000,143360.000000,Suck,-2145.000000,2181.818182,Speed,-2115.000000,2181.818182,Speed,Off,On0.000000,0,,,,
09:50:39.732 AM 03/20/2016,Teleop Enabled,10,FALSE,0,NO ERROR,-0.373638,-145.619493,-0.476756,-108.236080,TRUE,FALSE,FALSE,FALSE,FALSE,FALSE,Disabled,0.000000,0.000000,0.000000,TRUE,9.009293,3.596680,0.000000,-0.010178,-0.016800,0.000000,-0.135000,0.008000,0.091000,-75.270000,-0.570000,2.930000,-71.490864,Hold,55.675293,208896.000000,Hold,-143488.000000,143360.000000,Suck,-2152.500000,2181.818182,Speed,-2122.500000,2181.818182,Speed,Off,On0.000000,0,,,,
09:50:39.833 AM 03/20/2016,Teleop Enabled,10,FALSE,0,NO ERROR,-0.417323,-148.840652,-0.417323,-111.078657,FALSE,FALSE,FALSE,FALSE,FALSE,FALSE,Disabled,0.000000,0.000000,0.000000,TRUE,9.006439,3.594467,0.000000,-0.079956,-0.066956,0.000000,-0.135000,0.008000,0.091000,-76.520000,-0.400000,3.010000,-72.760707,Hold,55.675293,208896.000000,Hold,-143488.000000,143360.000000,Suck,-2137.500000,2181.818182,Speed,-2122.500000,2181.818182,Speed,Off,On0.000000,0,,,,
09:50:39.933 AM 03/20/2016,Teleop Enabled,10,FALSE,0,NO ERROR,-0.425197,-151.907811,-0.425197,-113.921234,FALSE,FALSE,FALSE,FALSE,FALSE,FALSE,Disabled,0.000000,0.000000,0.000000,TRUE,9.002380,3.590790,0.000000,-0.081528,-0.085190,0.000000,0.089000,-0.023000,-0.050000,-77.060000,-0.120000,3.070000,-73.464627,Hold,55.645264,208896.000000,Hold,-143488.000000,143360.000000,Suck,-2145.000000,2181.818182,Speed,-2115.000000,2181.818182,Speed,Off,On0.000000,0,,,,
09:50:40.034 AM 03/20/2016,Teleop Enabled,10,FALSE,0,NO ERROR,-0.265435,-154.763221,-0.175510,-116.757394,FALSE,FALSE,FALSE,FALSE,FALSE,FALSE,Disabled,0.000000,0.000000,0.000000,TRUE,9.001038,3.587585,0.000000,-0.049957,-0.059830,0.000000,0.089000,-0.023000,-0.050000,-77.270000,-0.230000,3.030000,-73.666740,Hold,53.680664,208896.000000,Hold,-143488.000000,143360.000000,Suck,-1732.500000,2181.818182,Speed,-2115.000000,2181.818182,Speed,Off,On0.000000,0,,,,
09:50:40.135 AM 03/20/2016,Teleop Enabled,11,FALSE,0,NO ERROR,-0.299213,-156.027302,0.299213,-119.035305,FALSE,FALSE,FALSE,FALSE,FALSE,FALSE,Disabled,0.000000,0.000000,0.000000,TRUE,8.995148,3.579330,0.000000,-0.247025,-0.299377,0.000000,-0.525000,-0.579000,0.296000,-77.020000,-2.110000,3.530000,-73.121359,Hold,53.161133,208896.000000,Hold,-143488.000000,143360.000000,Suck,-1387.500000,2181.818182,Speed,-2070.000000,2181.818182,Speed,Off,On0.000000,0,,,,
09:50:40.236 AM 03/20/2016,Teleop Enabled,10,FALSE,0,NO ERROR,-0.338583,-155.719303,0.338583,-120.742134,FALSE,FALSE,FALSE,FALSE,FALSE,FALSE,Disabled,0.000000,0.000000,0.000000,TRUE,8.976364,3.555679,0.000000,-0.400513,-0.536072,0.000000,-0.525000,-0.579000,0.296000,-72.470000,-3.480000,3.630000,-69.403916,Hold,54.153076,208896.000000,Hold,-143481.000000,143360.000000,Suck,-2055.000000,2181.818182,Speed,-1920.000000,2181.818182,Speed,Off,On0.000000,0,,,,
09:50:40.336 AM 03/20/2016,Teleop Enabled,10,FALSE,0,NO ERROR,-0.267717,-154.885138,0.267717,-122.006215,TRUE,FALSE,FALSE,FALSE,FALSE,FALSE,Disabled,0.000000,0.000000,0.000000,TRUE,8.962662,3.526733,0.000000,-0.130371,-0.597000,0.000000,0.261000,0.164000,-1.088000,-69.110000,-2.430000,2.040000,-65.456721,Hold,55.044189,208896.000000,Hold,-143481.000000,143360.000000,Suck,-2317.500000,2181.818182,Speed,-2115.000000,2181.818182,Speed,Off,On0.000000,0,,,,
09:50:40.436 AM 03/20/2016,Teleop Enabled,10,FALSE,0,NO ERROR,-0.000000,-153.993223,0.000000,-122.943046,FALSE,FALSE,FALSE,FALSE,FALSE,FALSE,Disabled,0.000000,0.000000,0.000000,TRUE,8.947433,3.506546,0.000000,-0.436462,-0.342499,0.000000,0.261000,0.164000,-1.088000,-62.820000,-2.910000,3.460000,-60.176986,Hold,54.744873,208896.000000,Hold,-143479.000000,143360.000000,Suck,-2130.000000,2181.818182,Speed,-2190.000000,2181.818182,Speed,Off,On0.000000,0,,,,
09:50:40.537 AM 03/20/2016,Teleop Enabled,9,FALSE,0,NO ERROR,-0.000000,-153.839224,0.000000,-123.064962,FALSE,FALSE,FALSE,FALSE,FALSE,FALSE,Disabled,0.000000,0.000000,0.000000,TRUE,8.932388,3.483887,0.000000,-0.162918,-0.588043,0.000000,0.024000,-0.003000,0.081000,-62.820000,-2.910000,3.460000,-58.829214,Hold,54.854004,208896.000000,Hold,-143475.000000,143360.000000,Suck,-2077.500000,2181.818182,Speed,-2130.000000,2181.818182,Speed,Off,On0.000000,0,,,,
09:50:40.638 AM 03/20/2016,Teleop Enabled,9,FALSE,0,NO ERROR,-0.000000,-153.948307,0.000000,-122.878879,FALSE,FALSE,FALSE,FALSE,FALSE,FALSE,Disabled,0.000000,0.000000,0.000000,TRUE,8.924103,3.455490,0.000000,-0.204681,-0.509491,0.000000,0.024000,-0.003000,0.081000,-62.090000,-3.090000,1.530000,-60.313652,Hold,54.974854,208896.000000,Hold,-143475.000000,143360.000000,Suck,-2145.000000,2181.818182,Speed,-2115.000000,2181.818182,Speed,Off,On0.000000,0,,,,
09:50:40.739 AM 03/20/2016,Teleop Enabled,11,FALSE,0,NO ERROR,-0.000000,-153.954723,0.000000,-122.853213,FALSE,FALSE,FALSE,FALSE,FALSE,FALSE,Disabled,0.000000,0.000000,0.000000,TRUE,8.914917,3.428192,0.000000,-0.133408,-0.440323,0.000000,0.080000,0.107000,0.018000,-63.650000,-3.010000,2.270000,-60.409920,Hold,54.979492,208896.000000,Hold,-143475.000000,143360.000000,Suck,-2175.000000,2181.818182,Speed,-2145.000000,2181.818182,Speed,Off,On0.000000,0,,,,
09:50:40.838 AM 03/20/2016,Teleop Enabled,10,FALSE,0,NO ERROR,-0.000000,-153.954723,0.000000,-122.853213,TRUE,FALSE,FALSE,FALSE,FALSE,FALSE,Disabled,0.000000,0.000000,0.000000,TRUE,8.907990,3.410156,0.000000,-0.115814,0.000000,0.000000,-0.137000,-0.055000,-0.028000,-63.580000,-2.810000,2.290000,-60.299462,Hold,54.981934,208896.000000,Hold,-143475.000000,143360.000000,Suck,-2137.500000,2181.818182,Speed,-2145.000000,2181.818182,Speed,Off,On0.000000,0,,,,
09:50:40.939 AM 03/20/2016,Teleop Enabled,10,FALSE,0,NO ERROR,-0.000000,-153.954723,0.000000,-122.853213,TRUE,FALSE,FALSE,FALSE,FALSE,FALSE,Disabled,0.000000,0.000000,0.000000,TRUE,8.902573,3.412949,0.000000,-0.090561,0.100494,0.000000,-0.003000,0.013000,0.108000,-63.500000,-2.560000,2.190000,-60.353700,Hold,54.976562,208896.000000,Hold,-143475.000000,143360.000000,Suck,-2137.500000,2181.818182,Speed,-2130.000000,2181.818182,Speed,Off,On0.000000,0,,,,
09:50:41.040 AM 03/20/2016,Teleop Enabled,11,FALSE,0,NO ERROR,-0.000000,-153.954723,0.000000,-122.853213,TRUE,FALSE,FALSE,FALSE,FALSE,FALSE,Disabled,0.000000,0.000000,0.000000,TRUE,8.898758,3.420334,0.000000,-0.083939,0.166229,0.000000,0.081000,0.083000,0.029000,-63.570000,-2.510000,2.330000,-60.364902,Hold,54.979004,208896.000000,Hold,-143475.000000,143360.000000,Suck,-2160.000000,2181.818182,Speed,-2130.000000,2181.818182,Speed,Off,On0.000000,0,,,,
09:50:41.143 AM 03/20/2016,Teleop Enabled,11,FALSE,0,NO ERROR,-0.000000,-153.954723,0.000000,-122.853213,TRUE,FALSE,FALSE,FALSE,FALSE,FALSE,Disabled,0.000000,0.000000,0.000000,TRUE,8.893326,3.427734,0.000000,-0.107132,0.141876,0.000000,-0.048000,-0.042000,-0.123000,-63.570000,-2.380000,2.300000,-60.361222,Hold,54.977539,208896.000000,Hold,-143475.000000,143360.000000,Suck,-2152.500000,2181.818182,Speed,-2137.500000,2181.818182,Speed,Off,On0.000000,0,,,,
09:50:41.243 AM 03/20/2016,Teleop Enabled,11,FALSE,0,NO ERROR,-0.000000,-153.954723,0.000000,-122.853213,TRUE,FALSE,FALSE,FALSE,FALSE,FALSE,Disabled,0.000000,0.000000,0.000000,TRUE,8.886871,3.434692,0.000000,-0.135086,0.144943,0.000000,-0.061000,-0.058000,-0.131000,-63.550000,-2.220000,2.260000,-60.384063,Hold,54.977539,208896.000000,Hold,-143475.000000,143360.000000,Suck,-2145.000000,2181.818182,Speed,-2137.500000,2181.818182,Speed,Off,On0.000000,0,,,,
09:50:41.344 AM 03/20/2016,Teleop Enabled,10,FALSE,0,NO ERROR,-0.000000,-153.954723,0.000000,-122.853213,TRUE,FALSE,FALSE,FALSE,FALSE,FALSE,Disabled,0.000000,0.000000,0.000000,TRUE,8.879242,3.443283,0.000000,-0.153946,0.203506,0.000000,0.007000,0.009000,-0.021000,-63.570000,-2.120000,2.290000,-60.381860,Hold,54.977539,208896.000000,Hold,-143475.000000,143360.000000,Suck,-2145.000000,2181.818182,Speed,-2130.000000,2181.818182,Speed,Off,On0.000000,0,,,,
09:50:41.445 AM 03/20/2016,Teleop Enabled,10,FALSE,0,NO ERROR,-0.000000,-153.954723,0.000000,-122.853213,TRUE,FALSE,FALSE,FALSE,FALSE,FALSE,Disabled,0.000000,0.000000,0.000000,TRUE,8.871536,3.455078,0.000000,-0.162933,0.247192,0.000000,0.038000,0.112000,0.007000,-63.560000,-2.030000,2.300000,-60.378558,Hold,54.977539,208896.000000,Hold,-143475.000000,143360.000000,Suck,-2152.500000,2181.818182,Speed,-2130.000000,2181.818182,Speed,Off,On0.000000,0,,,,
09:50:41.546 AM 03/20/2016,Teleop Enabled,11,FALSE,0,NO ERROR,-0.173228,-153.929057,0.173228,-122.872463,TRUE,FALSE,FALSE,FALSE,FALSE,FALSE,Disabled,0.000000,0.000000,0.000000,TRUE,8.862503,3.454697,0.000000,-0.191956,-0.019745,0.000000,-0.077000,0.000000,0.025000,-63.570000,-1.940000,2.330000,-60.376121,Hold,54.977539,208896.000000,Hold,-143475.000000,143360.000000,Suck,-2137.500000,2181.818182,Speed,-2137.500000,2181.818182,Speed,Off,On0.000000,0,,,,
09:50:41.646 AM 03/20/2016,Teleop Enabled,9,FALSE,0,NO ERROR,-0.555174,-154.204973,-0.326716,-123.526961,TRUE,FALSE,FALSE,FALSE,FALSE,FALSE,Disabled,0.000000,0.000000,0.000000,TRUE,8.852554,3.455811,0.000000,-0.172729,0.089600,0.000000,-0.070000,0.038000,0.155000,-62.820000,-1.250000,2.700000,-59.440551,Hold,54.978760,208896.000000,Hold,-143475.000000,143360.000000,Suck,-2137.500000,2181.818182,Speed,-2137.500000,2181.818182,Speed,Off,On0.000000,0,,,,
09:50:41.747 AM 03/20/2016,Teleop Enabled,11,FALSE,0,NO ERROR,-0.685672,-155.347137,-0.448186,-125.747123,TRUE,FALSE,FALSE,FALSE,FALSE,FALSE,Disabled,0.000000,0.000000,0.000000,TRUE,8.852554,3.455811,0.000000,-0.172729,0.089600,0.000000,0.198000,0.249000,0.106000,-62.820000,-1.250000,2.700000,-57.738030,Hold,55.058105,208896.000000,Hold,-143475.000000,143360.000000,Suck,-2145.000000,2181.818182,Speed,-2115.000000,2181.818182,Speed,Off,On0.000000,0,,,,
09:50:41.847 AM 03/20/2016,Teleop Enabled,11,FALSE,0,NO ERROR,-0.574803,-157.791881,-0.574803,-129.109448,TRUE,FALSE,FALSE,FALSE,FALSE,FALSE,Disabled,0.000000,0.000000,0.000000,TRUE,8.854156,3.473511,0.000000,0.140274,0.462769,0.000000,0.101000,0.368000,-0.082000,-60.660000,1.590000,2.480000,-57.738030,Hold,55.016846,208896.000000,Hold,-143471.000000,143360.000000,Suck,-2122.500000,2181.818182,Speed,-2092.500000,2181.818182,Speed,Off,On0.000000,0,,,,
09:50:41.948 AM 03/20/2016,Teleop Enabled,10,FALSE,0,NO ERROR,-0.614173,-161.244040,-0.614173,-132.709190,TRUE,FALSE,FALSE,FALSE,FALSE,FALSE,Disabled,0.000000,0.000000,0.000000,TRUE,8.861725,3.495636,0.000000,0.225922,0.575821,0.000000,0.102000,-0.064000,0.149000,-58.410000,1.810000,2.570000,-54.849665,Hold,55.017822,208896.000000,Hold,-143469.000000,143360.000000,Suck,-2100.000000,2181.818182,Speed,-2092.500000,2181.818182,Speed,Off,On0.000000,0,,,,
09:50:42.049 AM 03/20/2016,Teleop Enabled,10,FALSE,0,NO ERROR,-0.708661,-165.421280,-0.708661,-136.783763,TRUE,FALSE,FALSE,FALSE,FALSE,FALSE,Disabled,0.000000,0.000000,0.000000,TRUE,8.875763,3.525024,0.000000,0.315826,0.612686,0.000000,0.079000,-0.043000,-0.206000,-57.910000,1.190000,2.340000,-54.849665,Hold,55.135986,208896.000000,Hold,-143469.000000,143360.000000,Suck,-2115.000000,2181.818182,Speed,-2115.000000,2181.818182,Speed,Off,On0.000000,0,,,,
09:50:42.150 AM 03/20/2016,Teleop Enabled,9,FALSE,0,NO ERROR,-0.708661,-165.421280,-0.708661,-136.783763,TRUE,FALSE,FALSE,FALSE,FALSE,FALSE,Disabled,0.000000,0.000000,0.000000,TRUE,8.897461,3.563721,0.000000,0.382538,0.684799,0.000000,0.039000,0.092000,0.016000,-58.180000,2.180000,2.310000,-55.071043,Hold,55.123779,208896.000000,Hold,-143469.000000,143360.000000,Suck,-2130.000000,2181.818182,Speed,-2115.000000,2181.818182,Speed,Off,On0.000000,0,,,,
09:50:42.249 AM 03/20/2016,Teleop Enabled,10,FALSE,0,NO ERROR,-0.708661,-170.131102,-0.708661,-141.384503,TRUE,FALSE,FALSE,FALSE,FALSE,FALSE,Disabled,0.000000,0.000000,0.000000,TRUE,8.916031,3.601028,0.000000,0.381836,0.789963,0.000000,0.192000,0.124000,0.079000,-58.410000,2.570000,2.400000,-55.274997,Hold,55.124268,208896.000000,Hold,-143469.000000,143360.000000,Suck,-2115.000000,2181.818182,Speed,-2100.000000,2181.818182,Speed,Off,On0.000000,0,,,,
09:50:42.349 AM 03/20/2016,Teleop Enabled,10,FALSE,0,NO ERROR,-0.708661,-175.136090,-0.708661,-146.235491,TRUE,FALSE,FALSE,FALSE,FALSE,FALSE,Disabled,0.000000,0.000000,0.000000,TRUE,8.937378,3.642548,0.000000,0.424362,0.834030,0.000000,-0.033000,-0.070000,0.044000,-58.700000,2.140000,2.410000,-55.565835,Hold,55.150635,208896.000000,Hold,-143468.000000,143360.000000,Suck,-2115.000000,2181.818182,Speed,-2107.500000,2181.818182,Speed,Off,On0.000000,0,,,,
09:50:42.455 AM 03/20/2016,Teleop Enabled,9,FALSE,0,NO ERROR,-0.864902,-180.391328,-0.552421,-151.266146,TRUE,FALSE,FALSE,FALSE,FALSE,FALSE,Disabled,0.000000,0.000000,0.000000,TRUE,8.958603,3.682404,0.000000,0.416519,0.758240,0.000000,-0.007000,-0.145000,0.056000,-59.030000,2.270000,2.460000,-55.866070,Hold,55.135498,208896.000000,Hold,-143468.000000,143360.000000,Suck,-2130.000000,2181.818182,Speed,-2115.000000,2181.818182,Speed,Off,On0.000000,0,,,,
09:50:42.555 AM 03/20/2016,Teleop Enabled,10,FALSE,0,NO ERROR,-0.868808,-185.633733,-0.548515,-156.617634,TRUE,FALSE,FALSE,FALSE,FALSE,FALSE,Disabled,0.000000,0.000000,0.000000,TRUE,8.979523,3.719254,0.000000,0.400406,0.763687,0.000000,-0.114000,0.096000,-0.333000,-59.320000,2.410000,2.700000,-56.201940,Hold,55.135498,208896.000000,Hold,-143468.000000,143360.000000,Suck,-2130.000000,2181.818182,Speed,-2115.000000,2181.818182,Speed,Off,On0.000000,0,,,,
09:50:42.655 AM 03/20/2016,Teleop Enabled,11,FALSE,0,NO ERROR,-0.864902,-190.433388,-0.552421,-162.366954,TRUE,FALSE,FALSE,FALSE,FALSE,FALSE,Disabled,0.000000,0.000000,0.000000,TRUE,8.997818,3.759064,0.000000,0.318817,0.808502,0.000000,-0.136000,-0.114000,0.097000,-58.380000,2.320000,2.820000,-55.301436,Hold,55.135742,208896.000000,Hold,-143468.000000,143360.000000,Suck,-2137.500000,2181.818182,Speed,-2107.500000,2181.818182,Speed,Off,On0.000000,0,,,,
09:50:42.756 AM 03/20/2016,Teleop Enabled,10,FALSE,0,NO ERROR,-0.701531,-195.053377,-0.448075,-168.398606,TRUE,FALSE,FALSE,FALSE,FALSE,FALSE,Disabled,0.000000,0.000000,0.000000,TRUE,9.009033,3.798187,0.000000,0.000000,0.769623,0.000000,0.076000,-0.145000,0.062000,-55.380000,2.180000,2.840000,-52.946774,Hold,55.135742,208896.000000,Hold,-143468.000000,143360.000000,Suck,-2130.000000,2181.818182,Speed,-2115.000000,2181.818182,Speed,Off,On0.000000,0,,,,
09:50:42.857 AM 03/20/2016,Teleop Enabled,11,FALSE,0,NO ERROR,-0.314961,-199.570700,0.314961,-174.353259,TRUE,FALSE,FALSE,FALSE,FALSE,FALSE,Disabled,0.000000,0.000000,0.000000,TRUE,9.010361,3.834763,0.000000,0.051224,0.704712,0.000000,0.017000,-0.007000,0.192000,-53.160000,2.100000,2.740000,-50.263011,Hold,55.119873,208896.000000,Hold,-143468.000000,143360.000000,Suck,-2130.000000,2181.818182,Speed,-2122.500000,2181.818182,Speed,Off,On0.000000,0,,,,
09:50:42.958 AM 03/20/2016,Teleop Enabled,11,FALSE,0,NO ERROR,-0.322835,-203.375774,0.322835,-179.595663,TRUE,FALSE,FALSE,FALSE,FALSE,FALSE,Disabled,0.000000,0.000000,0.000000,TRUE,9.013489,3.866989,0.000000,0.053680,0.576340,0.000000,-0.295000,-0.280000,0.008000,-50.160000,0.580000,2.560000,-47.783020,Hold,54.975586,208896.000000,Hold,-143468.000000,143360.000000,Suck,-2145.000000,2181.818182,Speed,-2137.500000,2181.818182,Speed,Off,On0.000000,0,,,,
09:50:43.059 AM 03/20/2016,Teleop Enabled,10,FALSE,0,NO ERROR,-0.322835,-203.824940,0.322835,-182.868156,FALSE,FALSE,FALSE,FALSE,FALSE,FALSE,Disabled,0.000000,0.000000,0.000000,TRUE,9.000717,3.883575,0.000000,-0.519241,0.157043,0.000000,-0.513000,0.034000,-0.512000,-44.950000,-4.370000,3.780000,-43.578255,Hold,55.186035,208896.000000,Hold,-143466.000000,143360.000000,Suck,-2145.000000,2181.818182,Speed,-2107.500000,2181.818182,Speed,Off,On0.000000,0,,,,
09:50:43.160 AM 03/20/2016,Teleop Enabled,10,FALSE,0,NO ERROR,-0.322835,-203.074192,0.322835,-185.300067,FALSE,FALSE,FALSE,FALSE,FALSE,FALSE,Disabled,0.000000,0.000000,0.000000,TRUE,8.967667,3.888611,0.000000,-0.633133,-0.032501,0.000000,0.444000,-0.412000,-0.053000,-38.410000,-3.140000,2.630000,-37.257020,Hold,55.414307,208896.000000,Hold,-143464.000000,143360.000000,Suck,-2115.000000,2181.818182,Speed,-2107.500000,2181.818182,Speed,Off,On0.000000,0,,,,
09:50:43.261 AM 03/20/2016,Teleop Enabled,10,FALSE,0,NO ERROR,-0.000000,-201.688195,0.000000,-186.686063,TRUE,FALSE,FALSE,FALSE,FALSE,FALSE,Disabled,0.000000,0.000000,0.000000,TRUE,8.945877,3.873230,0.000000,-0.423492,-0.383804,0.000000,-0.410000,0.562000,-0.745000,-32.590000,-2.780000,1.720000,-31.730795,Hold,54.901855,208896.000000,Hold,-143448.000000,143360.000000,Suck,-2130.000000,2181.818182,Speed,-2115.000000,2181.818182,Speed,Off,On0.000000,0,,,,
09:50:43.362 AM 03/20/2016,Teleop Enabled,10,FALSE,0,NO ERROR,-0.000000,-200.456198,0.000000,-187.943727,FALSE,FALSE,FALSE,FALSE,FALSE,FALSE,Disabled,0.000000,0.000000,0.000000,TRUE,8.916458,3.869705,0.000000,-0.614899,0.100891,0.000000,0.211000,-0.314000,-0.447000,-26.320000,-3.120000,2.360000,-24.402504,Hold,55.252686,208896.000000,Hold,-143475.000000,143360.000000,Suck,-2152.500000,2181.818182,Speed,-2130.000000,2181.818182,Speed,Off,On0.000000,0,,,,
09:50:43.465 AM 03/20/2016,Teleop Enabled,10,FALSE,0,NO ERROR,-0.000000,-200.282948,0.000000,-188.052810,FALSE,FALSE,FALSE,FALSE,FALSE,FALSE,Disabled,0.000000,0.000000,0.000000,TRUE,8.891907,3.856750,0.000000,-0.434128,-0.444153,0.000000,-0.119000,0.111000,-0.079000,-24.820000,-3.020000,0.440000,-22.905157,Hold,55.241455,208896.000000,Hold,-143475.000000,143360.000000,Suck,-2145.000000,2181.818182,Speed,-2145.000000,2181.818182,Speed,Off,On0.000000,0,,,,
09:50:43.565 AM 03/20/2016,Teleop Enabled,9,FALSE,0,NO ERROR,-0.000000,-200.289365,0.000000,-187.885977,FALSE,FALSE,FALSE,FALSE,FALSE,FALSE,Disabled,0.000000,0.000000,0.000000,TRUE,8.862518,3.839478,0.000000,-0.494507,-0.160248,0.000000,0.204000,-0.068000,-0.019000,-25.590000,-3.240000,1.440000,-23.618148,Hold,55.261475,208896.000000,Hold,-143475.000000,143360.000000,Suck,-2145.000000,2181.818182,Speed,-2137.500000,2181.818182,Speed,Off,On0.000000,0,,,,
09:50:43.665 AM 03/20/2016,Teleop Enabled,9,FALSE,0,NO ERROR,0.196850,-200.353531,-0.196850,-187.885977,TRUE,FALSE,FALSE,FALSE,FALSE,FALSE,Disabled,0.000000,0.000000,0.000000,TRUE,8.840576,3.829300,0.000000,-0.472214,-0.170044,0.000000,-0.203000,0.266000,0.107000,-25.890000,-2.890000,1.380000,-23.919228,Hold,55.252686,208896.000000,Hold,-143474.000000,143360.000000,Suck,-2145.000000,2181.818182,Speed,-2122.500000,2181.818182,Speed,Off,On0.000000,0,,,,
