Time,Robot Mode,Loop Time,Error Status,Error Code,Error Source,Left Motor Output,Left Motor Encoder,Right Motor Output,Right Motor Encoder,Is Level,Is Stalled,Ball Detector Photoeye,Vision Enabled,Vision Teleop Control,Vision Auto Control,Vision Current State,Vision X Output,Vision NavX Error,Vision NavX Target,NavX Connection Status,NavX Displacement X,NavX Displacement Y,NavX Displacement Z,NavX Velocity X,NavX Velocity Y,NavX Velocity Z,NavX Acceleration X,NavX Acceleration Y,NavX Acceleration Z,NavX Pitch,NavX Yaw,NavX Roll,Gyro Angle,Roller Arm State,Roller Arm Actual,Roller Arm Desired,Shooter Arm State,Shooter Arm Actual,Shooter Arm Desired,Shooter State,Actual RPM Left,Desired RPM Left,Control Mode Left,Actual RPM Right,Desired RPM Right,Scaler Motor Output,Auto To Run,Auto Current File,Auto File Status,Auto Current Command,Auto Trimmed Command
05:07:22.905 PM 03/19/2016,Teleop Enabled,10,TRUE,-35007,NetComm_CAN_Send.vi:5830005<APPEND>  <b>Complete call chain:</b>      NetComm_CAN_Send.vi:5830005      WPI_CANTalonSRX_SetParameter.vi      WPI_CANTalonSRX_ConfigPeakClosedLoopOutput.vi      Begin.vi      Robot Main.vi,-0.000000,0.000000,0.000000,0.000000,TRUE,FALSE,TRUE,FALSE,FALSE,FALSE,Disabled,0.062500,-2.562500,12.992500,TRUE,18.348099,19.784973,0.000000,0.000000,0.000000,0.000000,0.001000,0.000000,0.013000,0.000000,-0.170000,1.890000,0.035958,ResetBack,2.158447,-0.200000,ResetBack,4999.000000,-0.300000,LowGoal,0.000000,-1454.545455,Speed,0.000000,-1454.545455,Speed,Off,Off0.000000,0,,,,
05:07:23.005 PM 03/19/2016,Teleop Enabled,11,TRUE,-35007,NetComm_CAN_Send.vi:5830005<APPEND>  <b>Complete call chain:</b>      NetComm_CAN_Send.vi:5830005      WPI_CANTalonSRX_SetParameter.vi      WPI_CANTalonSRX_ConfigPeakClosedLoopOutput.vi      Begin.vi      Robot Main.vi,-0.000000,0.000000,0.000000,0.000000,TRUE,TRUE,TRUE,FALSE,FALSE,FALSE,Disabled,0.062500,-2.562500,12.992500,TRUE,18.348099,19.784973,0.000000,0.000000,0.000000,0.000000,0.000000,-0.002000,0.015000,-0.010000,-0.170000,1.890000,0.031375,ResetBack,2.158447,-0.200000,ResetBack,4999.000000,-0.300000,LowGoal,0.000000,-1454.545455,Speed,0.000000,-1454.545455,Speed,Off,Off0.000000,0,,,,
05:07:23.105 PM 03/19/2016,Teleop Enabled,11,TRUE,-35007,NetComm_CAN_Send.vi:5830005<APPEND>  <b>Complete call chain:</b>      NetComm_CAN_Send.vi:5830005      WPI_CANTalonSRX_SetParameter.vi      WPI_CANTalonSRX_SetPID.vi      ShooterVI.vi      Periodic Tasks.vi      Robot Main.vi,-0.000000,0.000000,0.000000,0.000000,TRUE,TRUE,TRUE,FALSE,FALSE,FALSE,Disabled,0.062500,-2.562500,12.992500,TRUE,18.348099,19.784973,0.000000,0.000000,0.000000,0.000000,-0.001000,0.000000,0.015000,-0.010000,-0.170000,1.880000,0.052454,ResetBack,2.158447,-0.200000,ResetBack,4999.000000,-0.300000,LowGoal,0.000000,-1454.545455,Speed,0.000000,-1454.545455,Speed,Off,Off0.000000,0,,,,
05:07:23.206 PM 03/19/2016,Teleop Enabled,13,TRUE,-35007,NetComm_CAN_Send.vi:5830005<APPEND>  <b>Complete call chain:</b>      NetComm_CAN_Send.vi:5830005      WPI_CANTalonSRX_SetParameter.vi      WPI_CANTalonSRX_SetPID.vi      ShooterVI.vi      Periodic Tasks.vi      Robot Main.vi,-0.000000,0.000000,0.000000,0.000000,TRUE,TRUE,TRUE,FALSE,FALSE,FALSE,Disabled,0.062500,-2.562500,12.992500,TRUE,18.348099,19.784973,0.000000,0.000000,0.000000,0.000000,0.000000,0.001000,0.018000,0.000000,-0.170000,1.880000,0.041600,Reset,2.158447,-0.200000,ResetBack,4999.000000,-0.300000,LowGoal,0.000000,0.000000,Speed,0.000000,0.000000,Speed,Off,Off0.000000,0,,,,
05:07:23.307 PM 03/19/2016,Teleop Enabled,12,TRUE,-35007,NetComm_CAN_Send.vi:5830005<APPEND>  <b>Complete call chain:</b>      NetComm_CAN_Send.vi:5830005      WPI_CANTalonSRX_SetParameter.vi      WPI_CANTalonSRX_SetPID.vi      ShooterVI.vi      Periodic Tasks.vi      Robot Main.vi,-0.000000,0.000000,0.000000,0.000000,TRUE,FALSE,TRUE,FALSE,FALSE,FALSE,Disabled,0.062500,-2.562500,12.992500,TRUE,18.348099,19.784973,0.000000,0.000000,0.000000,0.000000,0.002000,0.000000,0.017000,0.000000,-0.170000,1.880000,0.046499,Hold,2.158447,0.000000,ResetBack,4999.000000,-0.300000,LowGoal,0.000000,0.000000,Speed,0.000000,0.000000,Speed,Off,Off0.000000,0,,,,
05:07:23.408 PM 03/19/2016,Teleop Enabled,12,TRUE,-35007,NetComm_CAN_Send.vi:5830005<APPEND>  <b>Complete call chain:</b>      NetComm_CAN_Send.vi:5830005      WPI_CANTalonSRX_SetParameter.vi      WPI_CANTalonSRX_SetPID.vi      ShooterVI.vi      Periodic Tasks.vi      Robot Main.vi,-0.000000,0.000000,0.000000,0.000000,TRUE,FALSE,TRUE,FALSE,FALSE,FALSE,Disabled,0.062500,-2.562500,12.992500,TRUE,18.348099,19.784973,0.000000,0.000000,0.000000,0.000000,-0.003000,0.000000,0.018000,0.000000,-0.170000,1.880000,0.059598,Hold,2.158447,0.000000,ResetBack,4999.000000,-0.300000,LowGoal,0.000000,-1454.545455,Speed,0.000000,-1454.545455,Speed,Off,Off0.000000,0,,,,
05:07:23.510 PM 03/19/2016,Teleop Enabled,10,TRUE,-35007,NetComm_CAN_Send.vi:5830005<APPEND>  <b>Complete call chain:</b>      NetComm_CAN_Send.vi:5830005      WPI_CANTalonSRX_SetParameter.vi      WPI_CANTalonSRX_SetPID.vi      ShooterVI.vi      Periodic Tasks.vi      Robot Main.vi,-0.000000,0.000000,0.000000,0.000000,TRUE,FALSE,TRUE,FALSE,FALSE,FALSE,Disabled,0.062500,-2.562500,12.992500,TRUE,18.348099,19.784973,0.000000,0.000000,0.000000,0.000000,-0.001000,0.000000,0.012000,0.000000,-0.170000,1.890000,0.063488,Hold,2.158447,0.000000,ResetBack,4999.000000,-0.300000,LowGoal,0.000000,-1454.545455,Speed,0.000000,-1454.545455,Speed,Off,Off0.000000,0,,,,
05:07:23.610 PM 03/19/2016,Teleop Enabled,10,TRUE,-35007,NetComm_CAN_Send.vi:5830005<APPEND>  <b>Complete call chain:</b>      NetComm_CAN_Send.vi:5830005      WPI_CANTalonSRX_SetParameter.vi      WPI_CANTalonSRX_SetPID.vi      ShooterVI.vi      Periodic Tasks.vi      Robot Main.vi,-0.000000,0.000000,0.000000,0.000000,TRUE,FALSE,TRUE,FALSE,FALSE,FALSE,Disabled,0.062500,-2.562500,12.992500,TRUE,18.348099,19.784973,0.000000,0.000000,0.000000,0.000000,0.000000,0.001000,0.012000,0.000000,-0.180000,1.880000,0.071154,Hold,2.158447,0.000000,ResetBack,4999.000000,-0.300000,LowGoal,0.000000,-1454.545455,Speed,0.000000,-1454.545455,Speed,Off,Off0.000000,0,,,,
05:07:23.710 PM 03/19/2016,Teleop Enabled,10,TRUE,-35007,NetComm_CAN_Send.vi:5830005<APPEND>  <b>Complete call chain:</b>      NetComm_CAN_Send.vi:5830005      WPI_CANTalonSRX_SetParameter.vi      WPI_CANTalonSRX_SetPID.vi      ShooterVI.vi      Periodic Tasks.vi      Robot Main.vi,-0.000000,0.000000,0.000000,0.000000,TRUE,FALSE,TRUE,FALSE,FALSE,FALSE,Disabled,0.062500,-2.562500,12.992500,TRUE,18.348099,19.784973,0.000000,0.000000,0.000000,0.000000,0.000000,-0.001000,0.013000,0.000000,-0.170000,1.880000,0.081410,Hold,2.158447,0.000000,ResetBack,4999.000000,-0.300000,LowGoal,0.000000,-1454.545455,Speed,0.000000,-1454.545455,Speed,Off,Off0.000000,0,,,,
05:07:23.811 PM 03/19/2016,Teleop Enabled,11,TRUE,-35007,NetComm_CAN_Send.vi:5830005<APPEND>  <b>Complete call chain:</b>      NetComm_CAN_Send.vi:5830005      WPI_CANTalonSRX_SetParameter.vi      WPI_CANTalonSRX_SetPID.vi      ShooterVI.vi      Periodic Tasks.vi      Robot Main.vi,-0.000000,0.000000,0.000000,0.000000,TRUE,FALSE,TRUE,FALSE,FALSE,FALSE,Disabled,0.062500,-2.562500,12.992500,TRUE,18.348099,19.784973,0.000000,0.000000,0.000000,0.000000,0.000000,0.000000,0.017000,0.000000,-0.170000,1.890000,0.073629,Hold,2.158447,0.000000,ResetBack,4999.000000,-0.300000,LowGoal,0.000000,-1454.545455,Speed,0.000000,-1454.545455,Speed,Off,Off0.000000,0,,,,
05:07:23.911 PM 03/19/2016,Teleop Enabled,9,TRUE,-35007,NetComm_CAN_Send.vi:5830005<APPEND>  <b>Complete call chain:</b>      NetComm_CAN_Send.vi:5830005      WPI_CANTalonSRX_SetParameter.vi      WPI_CANTalonSRX_SetPID.vi      ShooterVI.vi      Periodic Tasks.vi      Robot Main.vi,-0.000000,0.000000,0.000000,0.000000,TRUE,TRUE,TRUE,FALSE,FALSE,FALSE,Disabled,0.062500,-2.562500,12.992500,TRUE,18.348099,19.784973,0.000000,0.000000,0.000000,0.000000,-0.001000,0.002000,0.019000,0.000000,-0.170000,1.890000,0.070979,Hold,2.158447,0.000000,ResetBack,4999.000000,-0.300000,LowGoal,0.000000,-1454.545455,Speed,0.000000,-1454.545455,Speed,Off,Off0.000000,0,,,,
05:07:24.011 PM 03/19/2016,Teleop Enabled,9,TRUE,-35007,NetComm_CAN_Send.vi:5830005<APPEND>  <b>Complete call chain:</b>      NetComm_CAN_Send.vi:5830005      WPI_CANTalonSRX_SetParameter.vi      WPI_CANTalonSRX_SetPID.vi      ShooterVI.vi      Periodic Tasks.vi      Robot Main.vi,-0.000000,0.000000,0.000000,0.000000,TRUE,TRUE,TRUE,FALSE,FALSE,FALSE,Disabled,0.062500,-2.562500,12.992500,TRUE,18.348099,19.784973,0.000000,0.000000,0.000000,0.000000,0.001000,0.000000,0.013000,0.000000,-0.180000,1.890000,0.060500,Hold,2.158447,0.000000,ResetBack,4999.000000,-0.300000,LowGoal,0.000000,0.000000,Speed,0.000000,0.000000,Speed,Off,Off0.000000,0,,,,
05:07:24.111 PM 03/19/2016,Teleop Enabled,9,TRUE,-35007,NetComm_CAN_Send.vi:5830005<APPEND>  <b>Complete call chain:</b>      NetComm_CAN_Send.vi:5830005      WPI_CANTalonSRX_SetParameter.vi      WPI_CANTalonSRX_SetPID.vi      ShooterVI.vi      Periodic Tasks.vi      Robot Main.vi,-0.000000,0.000000,0.000000,0.000000,TRUE,FALSE,TRUE,FALSE,FALSE,FALSE,Disabled,0.062500,-2.562500,12.992500,TRUE,18.348099,19.784973,0.000000,0.000000,0.000000,0.000000,0.002000,0.000000,0.015000,0.000000,-0.180000,1.890000,0.059856,Hold,2.158447,0.000000,ResetBack,4999.000000,-0.300000,LowGoal,0.000000,0.000000,Speed,0.000000,0.000000,Speed,Off,Off0.000000,0,,,,
05:07:24.211 PM 03/19/2016,Teleop Enabled,9,TRUE,-35007,NetComm_CAN_Send.vi:5830005<APPEND>  <b>Complete call chain:</b>      NetComm_CAN_Send.vi:5830005      WPI_CANTalonSRX_SetParameter.vi      WPI_CANTalonSRX_SetPID.vi      ShooterVI.vi      Periodic Tasks.vi      Robot Main.vi,-0.000000,0.000000,0.000000,0.000000,TRUE,FALSE,TRUE,FALSE,FALSE,FALSE,Disabled,0.062500,-2.562500,12.992500,TRUE,18.348099,19.784973,0.000000,0.000000,0.000000,0.000000,-0.002000,0.000000,0.017000,0.000000,-0.180000,1.890000,0.053280,Hold,2.158447,0.000000,Reset,4999.000000,2.000000,LowGoal,0.000000,-1454.545455,Speed,0.000000,-1454.545455,Speed,Off,Off0.000000,0,,,,
05:07:24.311 PM 03/19/2016,Teleop Enabled,9,TRUE,-35007,NetComm_CAN_Send.vi:5830005<APPEND>  <b>Complete call chain:</b>      NetComm_CAN_Send.vi:5830005      WPI_CANTalonSRX_SetParameter.vi      WPI_CANTalonSRX_SetPID.vi      ShooterVI.vi      Periodic Tasks.vi      Robot Main.vi,-0.000000,0.000000,0.000000,0.000000,TRUE,FALSE,TRUE,FALSE,FALSE,FALSE,Disabled,0.062500,-2.562500,12.992500,TRUE,18.348099,19.784973,0.000000,0.000000,0.000000,0.000000,0.001000,0.002000,0.020000,0.000000,-0.170000,1.890000,0.049019,Hold,2.158447,0.000000,Hold,4999.000000,2.000000,LowGoal,0.000000,-1454.545455,Speed,0.000000,-1454.545455,Speed,Off,Off0.000000,0,,,,
05:07:24.411 PM 03/19/2016,Teleop Enabled,10,TRUE,-35007,NetComm_CAN_Send.vi:5830005<APPEND>  <b>Complete call chain:</b>      NetComm_CAN_Send.vi:5830005      WPI_CANTalonSRX_SetParameter.vi      WPI_CANTalonSRX_SetPID.vi      ShooterVI.vi      Periodic Tasks.vi      Robot Main.vi,-0.000000,0.000000,0.000000,0.000000,TRUE,FALSE,TRUE,FALSE,FALSE,FALSE,Disabled,0.062500,-2.562500,12.992500,TRUE,18.348099,19.784973,0.000000,0.000000,0.000000,0.000000,0.000000,-0.002000,0.016000,0.000000,-0.170000,1.890000,0.060630,Hold,2.158447,0.000000,Hold,4999.000000,2.000000,LowGoal,0.000000,-1454.545455,Speed,0.000000,-1454.545455,Speed,Off,Off0.000000,0,,,,
05:07:24.511 PM 03/19/2016,Teleop Enabled,10,TRUE,-35007,NetComm_CAN_Send.vi:5830005<APPEND>  <b>Complete call chain:</b>      NetComm_CAN_Send.vi:5830005      WPI_CANTalonSRX_SetParameter.vi      WPI_CANTalonSRX_SetPID.vi      ShooterVI.vi      Periodic Tasks.vi      Robot Main.vi,-0.000000,0.000000,0.000000,0.000000,TRUE,FALSE,TRUE,FALSE,FALSE,FALSE,Disabled,0.062500,-2.562500,12.992500,TRUE,18.348099,19.784973,0.000000,0.000000,0.000000,0.000000,-0.001000,0.000000,0.017000,0.000000,-0.170000,1.890000,0.042054,Hold,2.158447,0.000000,Hold,4999.000000,2.000000,LowGoal,0.000000,-1454.545455,Speed,0.000000,-1454.545455,Speed,Off,Off0.000000,0,,,,
05:07:24.611 PM 03/19/2016,Teleop Enabled,10,TRUE,-35007,NetComm_CAN_Send.vi:5830005<APPEND>  <b>Complete call chain:</b>      NetComm_CAN_Send.vi:5830005      WPI_CANTalonSRX_SetParameter.vi      WPI_CANTalonSRX_SetPID.vi      ShooterVI.vi      Periodic Tasks.vi      Robot Main.vi,-0.000000,0.000000,0.000000,0.000000,TRUE,FALSE,TRUE,FALSE,FALSE,FALSE,Disabled,0.062500,-2.562500,12.992500,TRUE,18.348099,19.784973,0.000000,0.000000,0.000000,0.000000,0.001000,-0.001000,0.015000,0.000000,-0.170000,1.890000,0.039400,Hold,2.158447,0.000000,Hold,4999.000000,2.000000,LowGoal,0.000000,-1454.545455,Speed,0.000000,-1454.545455,Speed,Off,Off0.000000,0,,,,
05:07:24.711 PM 03/19/2016,Teleop Enabled,9,TRUE,-35007,NetComm_CAN_Send.vi:5830005<APPEND>  <b>Complete call chain:</b>      NetComm_CAN_Send.vi:5830005      WPI_CANTalonSRX_SetParameter.vi      WPI_CANTalonSRX_SetPID.vi      ShooterVI.vi      Periodic Tasks.vi      Robot Main.vi,-0.000000,0.000000,0.000000,0.000000,TRUE,TRUE,TRUE,FALSE,FALSE,FALSE,Disabled,0.062500,-2.562500,12.992500,TRUE,18.348099,19.784973,0.000000,0.000000,0.000000,0.000000,0.000000,0.000000,0.014000,0.000000,-0.170000,1.890000,0.056527,Hold,2.158447,0.000000,Hold,4999.000000,2.000000,LowGoal,0.000000,-1454.545455,Speed,0.000000,-1454.545455,Speed,Off,Off0.000000,0,,,,
05:07:24.811 PM 03/19/2016,Teleop Enabled,10,TRUE,-35007,NetComm_CAN_Send.vi:5830005<APPEND>  <b>Complete call chain:</b>      NetComm_CAN_Send.vi:5830005      WPI_CANTalonSRX_SetParameter.vi      WPI_CANTalonSRX_SetPID.vi      ShooterVI.vi      Periodic Tasks.vi      Robot Main.vi,-0.000000,0.000000,0.000000,0.000000,TRUE,TRUE,TRUE,FALSE,FALSE,FALSE,Disabled,0.062500,-2.562500,12.992500,TRUE,18.348099,19.784973,0.000000,0.000000,0.000000,0.000000,0.000000,0.001000,0.010000,0.000000,-0.170000,1.900000,0.067092,Hold,2.158447,0.000000,Hold,4999.000000,2.000000,LowGoal,0.000000,0.000000,Speed,0.000000,0.000000,Speed,Off,Off0.000000,0,,,,
05:07:24.911 PM 03/19/2016,Teleop Enabled,9,TRUE,-35007,NetComm_CAN_Send.vi:5830005<APPEND>  <b>Complete call chain:</b>      NetComm_CAN_Send.vi:5830005      WPI_CANTalonSRX_SetParameter.vi      WPI_CANTalonSRX_SetPID.vi      ShooterVI.vi      Periodic Tasks.vi      Robot Main.vi,-0.000000,0.000000,0.000000,0.000000,TRUE,FALSE,TRUE,FALSE,FALSE,FALSE,Disabled,0.062500,-2.562500,12.992500,TRUE,18.348099,19.784973,0.000000,0.000000,0.000000,0.000000,0.005000,0.000000,0.015000,0.000000,-0.170000,1.900000,0.056826,Hold,2.158447,0.000000,Hold,4999.000000,2.000000,LowGoal,0.000000,0.000000,Speed,0.000000,0.000000,Speed,Off,Off0.000000,0,,,,
05:07:25.012 PM 03/19/2016,Teleop Enabled,9,TRUE,-35007,NetComm_CAN_Send.vi:5830005<APPEND>  <b>Complete call chain:</b>      NetComm_CAN_Send.vi:5830005      WPI_CANTalonSRX_SetParameter.vi      WPI_CANTalonSRX_SetPID.vi      ShooterVI.vi      Periodic Tasks.vi      Robot Main.vi,-0.000000,0.000000,0.000000,0.000000,TRUE,FALSE,TRUE,FALSE,FALSE,FALSE,Disabled,0.062500,-2.562500,12.992500,TRUE,18.348099,19.784973,0.000000,0.000000,0.000000,0.000000,0.000000,0.001000,0.014000,0.000000,-0.170000,1.890000,0.052633,Hold,2.158447,0.000000,Hold,4999.000000,2.000000,LowGoal,0.000000,-1454.545455,Speed,0.000000,-1454.545455,Speed,Off,Off0.000000,0,,,,
05:07:25.113 PM 03/19/2016,Teleop Enabled,10,TRUE,-35007,NetComm_CAN_Send.vi:5830005<APPEND>  <b>Complete call chain:</b>      NetComm_CAN_Send.vi:5830005      WPI_CANTalonSRX_SetParameter.vi      WPI_CANTalonSRX_SetPID.vi      ShooterVI.vi      Periodic Tasks.vi      Robot Main.vi,-0.000000,0.000000,0.000000,0.000000,TRUE,FALSE,TRUE,FALSE,FALSE,FALSE,Disabled,0.062500,-2.562500,12.992500,TRUE,18.348099,19.784973,0.000000,0.000000,0.000000,0.000000,-0.001000,0.000000,0.017000,0.000000,-0.170000,1.890000,0.059095,Hold,2.158447,0.000000,Hold,4999.000000,2.000000,LowGoal,0.000000,-1454.545455,Speed,0.000000,-1454.545455,Speed,Off,Off0.000000,0,,,,
05:07:25.213 PM 03/19/2016,Teleop Enabled,10,TRUE,-35007,NetComm_CAN_Send.vi:5830005<APPEND>  <b>Complete call chain:</b>      NetComm_CAN_Send.vi:5830005      WPI_CANTalonSRX_SetParameter.vi      WPI_CANTalonSRX_SetPID.vi      ShooterVI.vi      Periodic Tasks.vi      Robot Main.vi,-0.000000,0.000000,0.000000,0.000000,TRUE,FALSE,TRUE,FALSE,FALSE,FALSE,Disabled,0.062500,-2.562500,12.992500,TRUE,18.348099,19.784973,0.000000,0.000000,0.000000,0.000000,-0.002000,-0.001000,0.014000,0.000000,-0.170000,1.890000,0.069226,Hold,2.158447,0.000000,Hold,4999.000000,2.000000,LowGoal,0.000000,-1454.545455,Speed,0.000000,-1454.545455,Speed,Off,Off0.000000,0,,,,
05:07:25.313 PM 03/19/2016,Teleop Enabled,10,TRUE,-35007,NetComm_CAN_Send.vi:5830005<APPEND>  <b>Complete call chain:</b>      NetComm_CAN_Send.vi:5830005      WPI_CANTalonSRX_SetParameter.vi      WPI_CANTalonSRX_SetPID.vi      ShooterVI.vi      Periodic Tasks.vi      Robot Main.vi,-0.000000,0.000000,0.000000,0.000000,TRUE,FALSE,TRUE,FALSE,FALSE,FALSE,Disabled,0.062500,-2.562500,12.992500,TRUE,18.348099,19.784973,0.000000,0.000000,0.000000,0.000000,0.000000,-0.002000,0.019000,0.000000,-0.170000,1.890000,0.065997,Hold,2.158447,0.000000,Hold,4999.000000,2.000000,LowGoal,0.000000,-1454.545455,Speed,0.000000,-1454.545455,Speed,Off,Off0.000000,0,,,,
05:07:25.413 PM 03/19/2016,Teleop Enabled,9,TRUE,-35007,NetComm_CAN_Send.vi:5830005<APPEND>  <b>Complete call chain:</b>      NetComm_CAN_Send.vi:5830005      WPI_CANTalonSRX_SetParameter.vi      WPI_CANTalonSRX_SetPID.vi      ShooterVI.vi      Periodic Tasks.vi      Robot Main.vi,-0.000000,0.000000,0.000000,0.000000,TRUE,FALSE,TRUE,FALSE,FALSE,FALSE,Disabled,0.062500,-2.562500,12.992500,TRUE,18.348099,19.784973,0.000000,0.000000,0.000000,0.000000,-0.001000,0.000000,0.014000,0.000000,-0.170000,1.890000,0.074562,Hold,2.158447,0.000000,Hold,4999.000000,2.000000,LowGoal,0.000000,-1454.545455,Speed,0.000000,-1454.545455,Speed,Off,Off0.000000,0,,,,
05:07:25.513 PM 03/19/2016,Teleop Enabled,9,TRUE,-35007,NetComm_CAN_Send.vi:5830008<APPEND>  <b>Complete call chain:</b>      NetComm_CAN_Send.vi:5830008      WPI_CANTalonSRX_Send.vi      WPI_MotorControlSetOutput.vi      ShooterVI.vi      Periodic Tasks.vi      Robot Main.vi,-0.000000,0.000000,0.000000,0.000000,TRUE,TRUE,TRUE,FALSE,FALSE,FALSE,Disabled,0.062500,-2.562500,12.992500,TRUE,18.348099,19.784973,0.000000,0.000000,0.000000,0.000000,0.000000,0.000000,0.017000,0.000000,-0.170000,1.890000,0.067182,Hold,2.158447,0.000000,Hold,4999.000000,2.000000,LowGoal,0.000000,-1454.545455,Speed,0.000000,-1454.545455,Speed,Off,Off0.000000,0,,,,
05:07:25.613 PM 03/19/2016,Teleop Enabled,10,TRUE,-35007,NetComm_CAN_Send.vi:5830008<APPEND>  <b>Complete call chain:</b>      NetComm_CAN_Send.vi:5830008      WPI_CANTalonSRX_Send.vi      WPI_MotorControlSetOutput.vi      ShooterVI.vi      Periodic Tasks.vi      Robot Main.vi,-0.000000,0.000000,0.000000,0.000000,TRUE,TRUE,TRUE,FALSE,FALSE,FALSE,Disabled,0.062500,-2.562500,12.992500,TRUE,18.348099,19.784973,0.000000,0.000000,0.000000,0.000000,0.001000,0.000000,0.018000,0.000000,-0.170000,1.890000,0.071375,Hold,2.158447,0.000000,Hold,4999.000000,2.000000,LowGoal,0.000000,0.000000,Speed,0.000000,0.000000,Speed,Off,Off0.000000,0,,,,
05:07:25.713 PM 03/19/2016,Teleop Enabled,10,TRUE,-35007,NetComm_CAN_Send.vi:5830008<APPEND>  <b>Complete call chain:</b>      NetComm_CAN_Send.vi:5830008      WPI_CANTalonSRX_Send.vi      WPI_MotorControlSetOutput.vi      ShooterVI.vi      Periodic Tasks.vi      Robot Main.vi,-0.000000,0.000000,0.000000,0.000000,TRUE,FALSE,TRUE,FALSE,FALSE,FALSE,Disabled,0.062500,-2.562500,12.992500,TRUE,18.348099,19.784973,0.000000,0.000000,0.000000,0.000000,0.000000,-0.001000,0.018000,0.000000,-0.170000,1.890000,0.074383,Hold,2.158447,0.000000,Hold,4999.000000,2.000000,LowGoal,0.000000,0.000000,Speed,0.000000,0.000000,Speed,Off,Off0.000000,0,,,,
05:07:25.814 PM 03/19/2016,Teleop Enabled,9,TRUE,-35007,NetComm_CAN_Send.vi:5830008<APPEND>  <b>Complete call chain:</b>      NetComm_CAN_Send.vi:5830008      WPI_CANTalonSRX_Send.vi      WPI_MotorControlSetOutput.vi      ShooterVI.vi      Periodic Tasks.vi      Robot Main.vi,-0.000000,0.000000,0.000000,0.000000,TRUE,FALSE,TRUE,FALSE,FALSE,FALSE,Disabled,0.062500,-2.562500,12.992500,TRUE,18.348099,19.784973,0.000000,0.000000,0.000000,0.000000,0.001000,0.002000,0.014000,0.000000,-0.170000,1.890000,0.081379,Hold,2.158447,0.000000,Hold,4999.000000,2.000000,LowGoal,0.000000,-1454.545455,Speed,0.000000,-1454.545455,Speed,Off,Off0.000000,0,,,,
05:07:25.915 PM 03/19/2016,Teleop Enabled,9,TRUE,-35007,NetComm_CAN_Send.vi:5830008<APPEND>  <b>Complete call chain:</b>      NetComm_CAN_Send.vi:5830008      WPI_CANTalonSRX_Send.vi      WPI_MotorControlSetOutput.vi      ShooterVI.vi      Periodic Tasks.vi      Robot Main.vi,-0.000000,0.000000,0.000000,0.000000,TRUE,FALSE,TRUE,FALSE,FALSE,FALSE,Disabled,0.062500,-2.562500,12.992500,TRUE,18.348099,19.784973,0.000000,0.000000,0.000000,0.000000,0.002000,-0.001000,0.015000,0.000000,-0.170000,1.890000,0.072617,Hold,2.158447,0.000000,Hold,4999.000000,2.000000,LowGoal,0.000000,-1454.545455,Speed,0.000000,-1454.545455,Speed,Off,Off0.000000,0,,,,
05:07:26.016 PM 03/19/2016,Teleop Enabled,10,TRUE,-35007,NetComm_CAN_Send.vi:5830008<APPEND>  <b>Complete call chain:</b>      NetComm_CAN_Send.vi:5830008      WPI_CANTalonSRX_Send.vi      WPI_MotorControlSetOutput.vi      ShooterVI.vi      Periodic Tasks.vi      Robot Main.vi,-0.000000,0.000000,0.000000,0.000000,TRUE,FALSE,TRUE,FALSE,FALSE,FALSE,Disabled,0.062500,-2.562500,12.992500,TRUE,18.348099,19.784973,0.000000,0.000000,0.000000,0.000000,0.000000,0.001000,0.015000,0.000000,-0.170000,1.890000,0.072586,Hold,2.158447,0.000000,Hold,4999.000000,2.000000,LowGoal,0.000000,-1454.545455,Speed,0.000000,-1454.545455,Speed,Off,Off0.000000,0,,,,
05:07:26.116 PM 03/19/2016,Teleop Disabled,9,TRUE,-35007,NetComm_CAN_Send.vi:5830008<APPEND>  <b>Complete call chain:</b>      NetComm_CAN_Send.vi:5830008      WPI_CANTalonSRX_Send.vi      WPI_MotorControlSetOutput.vi      ShooterVI.vi      Periodic Tasks.vi      Robot Main.vi,-0.000000,0.000000,0.000000,0.000000,TRUE,FALSE,TRUE,FALSE,FALSE,FALSE,Disabled,0.062500,-2.562500,12.992500,TRUE,18.348099,19.784973,0.000000,0.000000,0.000000,0.000000,-0.001000,-0.003000,0.016000,0.000000,-0.170000,1.900000,0.092584,Hold,2.158447,0.000000,Hold,4999.000000,2.000000,LowGoal,0.000000,-1454.545455,Speed,0.000000,-1454.545455,Speed,Off,Off0.000000,0,,,,
05:07:26.216 PM 03/19/2016,Teleop Disabled,10,TRUE,-35007,NetComm_CAN_Send.vi:5830008<APPEND>  <b>Complete call chain:</b>      NetComm_CAN_Send.vi:5830008      WPI_CANTalonSRX_Send.vi      WPI_MotorControlSetOutput.vi      ShooterVI.vi      Periodic Tasks.vi      Robot Main.vi,-0.000000,0.000000,0.000000,0.000000,TRUE,FALSE,TRUE,FALSE,FALSE,FALSE,Disabled,0.062500,-2.562500,12.992500,TRUE,18.348099,19.784973,0.000000,0.000000,0.000000,0.000000,0.001000,0.001000,0.015000,-0.010000,-0.170000,1.890000,0.092381,Hold,2.158447,0.000000,Hold,4999.000000,2.000000,LowGoal,0.000000,-1454.545455,Speed,0.000000,-1454.545455,Speed,Off,Off0.000000,0,,,,
05:07:26.318 PM 03/19/2016,Teleop Disabled,10,TRUE,-35007,NetComm_CAN_Send.vi:5830008<APPEND>  <b>Complete call chain:</b>      NetComm_CAN_Send.vi:5830008      WPI_CANTalonSRX_Send.vi      WPI_MotorControlSetOutput.vi      ShooterVI.vi      Periodic Tasks.vi      Robot Main.vi,-0.000000,0.000000,0.000000,0.000000,TRUE,TRUE,TRUE,FALSE,FALSE,FALSE,Disabled,0.062500,-2.562500,12.992500,TRUE,18.348099,19.784973,0.000000,0.000000,0.000000,0.000000,-0.001000,0.000000,0.016000,0.000000,-0.170000,1.890000,0.076335,Hold,2.158447,0.000000,Hold,4999.000000,2.000000,LowGoal,0.000000,-1454.545455,Speed,0.000000,-1454.545455,Speed,Off,Off0.000000,0,,,,
05:07:26.419 PM 03/19/2016,Teleop Disabled,10,TRUE,-35007,NetComm_CAN_Send.vi:5830008<APPEND>  <b>Complete call chain:</b>      NetComm_CAN_Send.vi:5830008      WPI_CANTalonSRX_Send.vi      WPI_MotorControlSetOutput.vi      ShooterVI.vi      Periodic Tasks.vi      Robot Main.vi,-0.000000,0.000000,0.000000,0.000000,TRUE,TRUE,TRUE,FALSE,FALSE,FALSE,Disabled,0.062500,-2.562500,12.992500,TRUE,18.348099,19.784973,0.000000,0.000000,0.000000,0.000000,-0.002000,0.001000,0.015000,0.000000,-0.180000,1.900000,0.081117,Hold,2.158447,0.000000,Hold,4999.000000,2.000000,LowGoal,0.000000,0.000000,Speed,0.000000,0.000000,Speed,Off,Off0.000000,0,,,,
05:07:26.519 PM 03/19/2016,Teleop Disabled,10,TRUE,-35007,NetComm_CAN_Send.vi:5830008<APPEND>  <b>Complete call chain:</b>      NetComm_CAN_Send.vi:5830008      WPI_CANTalonSRX_Send.vi      WPI_MotorControlSetOutput.vi      ShooterVI.vi      Periodic Tasks.vi      Robot Main.vi,-0.000000,0.000000,0.000000,0.000000,TRUE,FALSE,TRUE,FALSE,FALSE,FALSE,Disabled,0.062500,-2.562500,12.992500,TRUE,18.348099,19.784973,0.000000,0.000000,0.000000,0.000000,0.000000,-0.001000,0.015000,0.000000,-0.170000,1.890000,0.090446,Hold,2.158447,0.000000,Hold,4999.000000,2.000000,LowGoal,0.000000,0.000000,Speed,0.000000,0.000000,Speed,Off,Off0.000000,0,,,,
05:07:26.621 PM 03/19/2016,Teleop Disabled,11,TRUE,-35007,NetComm_CAN_Send.vi:5830008<APPEND>  <b>Complete call chain:</b>      NetComm_CAN_Send.vi:5830008      WPI_CANTalonSRX_Send.vi      WPI_MotorControlSetOutput.vi      ShooterVI.vi      Periodic Tasks.vi      Robot Main.vi,-0.000000,0.000000,0.000000,0.000000,TRUE,FALSE,TRUE,FALSE,FALSE,FALSE,Disabled,0.062500,-2.562500,12.992500,TRUE,18.348099,19.784973,0.000000,0.000000,0.000000,0.000000,0.000000,0.000000,0.017000,0.000000,-0.170000,1.890000,0.099845,Hold,2.158447,0.000000,Hold,4999.000000,2.000000,LowGoal,0.000000,-1454.545455,Speed,0.000000,-1454.545455,Speed,Off,Off0.000000,0,,,,
05:07:26.722 PM 03/19/2016,Teleop Disabled,9,TRUE,-35007,NetComm_CAN_Send.vi:5830008<APPEND>  <b>Complete call chain:</b>      NetComm_CAN_Send.vi:5830008      WPI_CANTalonSRX_Send.vi      WPI_MotorControlSetOutput.vi      ShooterVI.vi      Periodic Tasks.vi      Robot Main.vi,-0.000000,0.000000,0.000000,0.000000,TRUE,FALSE,TRUE,FALSE,FALSE,FALSE,Disabled,0.062500,-2.562500,12.992500,TRUE,18.348099,19.784973,0.000000,0.000000,0.000000,0.000000,0.000000,-0.001000,0.015000,0.000000,-0.170000,1.890000,0.097004,Hold,2.158447,0.000000,Hold,4999.000000,2.000000,LowGoal,0.000000,-1454.545455,Speed,0.000000,-1454.545455,Speed,Off,Off0.000000,0,,,,
05:07:26.824 PM 03/19/2016,Teleop Disabled,10,TRUE,-35007,NetComm_CAN_Send.vi:5830008<APPEND>  <b>Complete call chain:</b>      NetComm_CAN_Send.vi:5830008      WPI_CANTalonSRX_Send.vi      WPI_MotorControlSetOutput.vi      ShooterVI.vi      Periodic Tasks.vi      Robot Main.vi,-0.000000,0.000000,0.000000,0.000000,TRUE,FALSE,TRUE,FALSE,FALSE,FALSE,Disabled,0.062500,-2.562500,12.992500,TRUE,18.348099,19.784973,0.000000,0.000000,0.000000,0.000000,-0.001000,-0.003000,0.017000,0.000000,-0.170000,1.900000,0.091865,Hold,2.158447,0.000000,Hold,4999.000000,2.000000,LowGoal,0.000000,-1454.545455,Speed,0.000000,-1454.545455,Speed,Off,Off0.000000,0,,,,
05:07:26.925 PM 03/19/2016,Teleop Disabled,10,TRUE,-35007,NetComm_CAN_Send.vi:5830008<APPEND>  <b>Complete call chain:</b>      NetComm_CAN_Send.vi:5830008      WPI_CANTalonSRX_Send.vi      WPI_MotorControlSetOutput.vi      ShooterVI.vi      Periodic Tasks.vi      Robot Main.vi,-0.000000,0.000000,0.000000,0.000000,TRUE,FALSE,TRUE,FALSE,FALSE,FALSE,Disabled,0.062500,-2.562500,12.992500,TRUE,18.348099,19.784973,0.000000,0.000000,0.000000,0.000000,-0.001000,-0.001000,0.016000,0.000000,-0.170000,1.900000,0.093644,Hold,2.158447,0.000000,Hold,4999.000000,2.000000,LowGoal,0.000000,-1454.545455,Speed,0.000000,-1454.545455,Speed,Off,Off0.000000,0,,,,
05:07:27.026 PM 03/19/2016,Teleop Disabled,11,TRUE,-35007,NetComm_CAN_Send.vi:5830008<APPEND>  <b>Complete call chain:</b>      NetComm_CAN_Send.vi:5830008      WPI_CANTalonSRX_Send.vi      WPI_MotorControlSetOutput.vi      ShooterVI.vi      Periodic Tasks.vi      Robot Main.vi,-0.000000,0.000000,0.000000,0.000000,TRUE,FALSE,TRUE,FALSE,FALSE,FALSE,Disabled,0.062500,-2.562500,12.992500,TRUE,18.348099,19.784973,0.000000,0.000000,0.000000,0.000000,0.000000,-0.002000,0.017000,0.000000,-0.170000,1.900000,0.100440,Hold,2.158447,0.000000,Hold,4999.000000,2.000000,LowGoal,0.000000,-1454.545455,Speed,0.000000,-1454.545455,Speed,Off,Off0.000000,0,,,,
05:07:27.127 PM 03/19/2016,Teleop Disabled,8,TRUE,-35007,NetComm_CAN_Send.vi:5830008<APPEND>  <b>Complete call chain:</b>      NetComm_CAN_Send.vi:5830008      WPI_CANTalonSRX_Send.vi      WPI_MotorControlSetOutput.vi      ShooterVI.vi      Periodic Tasks.vi      Robot Main.vi,-0.000000,0.000000,0.000000,0.000000,TRUE,TRUE,TRUE,FALSE,FALSE,FALSE,Disabled,0.062500,-2.562500,12.992500,TRUE,18.348099,19.784973,0.000000,0.000000,0.000000,0.000000,0.000000,-0.002000,0.017000,0.000000,-0.170000,1.890000,0.100788,Hold,2.158447,0.000000,Hold,4999.000000,2.000000,LowGoal,0.000000,-1454.545455,Speed,0.000000,-1454.545455,Speed,Off,Off0.000000,0,,,,
05:07:27.227 PM 03/19/2016,Teleop Disabled,11,TRUE,-35007,NetComm_CAN_Send.vi:5830008<APPEND>  <b>Complete call chain:</b>      NetComm_CAN_Send.vi:5830008      WPI_CANTalonSRX_Send.vi      WPI_MotorControlSetOutput.vi      ShooterVI.vi      Periodic Tasks.vi      Robot Main.vi,-0.000000,0.000000,0.000000,0.000000,TRUE,TRUE,TRUE,FALSE,FALSE,FALSE,Disabled,0.062500,-2.562500,12.992500,TRUE,18.348099,19.784973,0.000000,0.000000,0.000000,0.000000,0.000000,0.000000,0.013000,-0.010000,-0.170000,1.890000,0.107322,Hold,2.158447,0.000000,Hold,4999.000000,2.000000,LowGoal,0.000000,0.000000,Speed,0.000000,0.000000,Speed,Off,Off0.000000,0,,,,
05:07:27.327 PM 03/19/2016,Teleop Disabled,9,TRUE,-35007,NetComm_CAN_Send.vi:5830008<APPEND>  <b>Complete call chain:</b>      NetComm_CAN_Send.vi:5830008      WPI_CANTalonSRX_Send.vi      WPI_MotorControlSetOutput.vi      ShooterVI.vi      Periodic Tasks.vi      Robot Main.vi,-0.000000,0.000000,0.000000,0.000000,TRUE,FALSE,TRUE,FALSE,FALSE,FALSE,Disabled,0.062500,-2.562500,12.992500,TRUE,18.348099,19.784973,0.000000,0.000000,0.000000,0.000000,0.000000,0.000000,0.013000,-0.010000,-0.170000,1.890000,0.094657,Hold,2.158447,0.000000,Hold,4999.000000,2.000000,LowGoal,0.000000,0.000000,Speed,0.000000,0.000000,Speed,Off,Off0.000000,0,,,,
05:07:27.427 PM 03/19/2016,Teleop Disabled,10,TRUE,-35007,NetComm_CAN_Send.vi:5830008<APPEND>  <b>Complete call chain:</b>      NetComm_CAN_Send.vi:5830008      WPI_CANTalonSRX_Send.vi      WPI_MotorControlSetOutput.vi      ShooterVI.vi      Periodic Tasks.vi      Robot Main.vi,-0.000000,0.000000,0.000000,0.000000,TRUE,FALSE,TRUE,FALSE,FALSE,FALSE,Disabled,0.062500,-2.562500,12.992500,TRUE,18.348099,19.784973,0.000000,0.000000,0.000000,0.000000,0.000000,-0.003000,0.016000,-0.010000,-0.170000,1.890000,0.083035,Hold,2.158447,0.000000,Hold,4999.000000,2.000000,LowGoal,0.000000,-1454.545455,Speed,0.000000,-1454.545455,Speed,Off,Off0.000000,0,,,,
05:07:27.527 PM 03/19/2016,Teleop Disabled,11,TRUE,-35007,NetComm_CAN_Send.vi:5830008<APPEND>  <b>Complete call chain:</b>      NetComm_CAN_Send.vi:5830008      WPI_CANTalonSRX_Send.vi      WPI_MotorControlSetOutput.vi      ShooterVI.vi      Periodic Tasks.vi      Robot Main.vi,-0.000000,0.000000,0.000000,0.000000,TRUE,FALSE,TRUE,FALSE,FALSE,FALSE,Disabled,0.062500,-2.562500,12.992500,TRUE,18.348099,19.784973,0.000000,0.000000,0.000000,0.000000,-0.003000,0.001000,0.015000,-0.010000,-0.170000,1.890000,0.072869,Hold,2.158447,0.000000,Hold,4999.000000,2.000000,LowGoal,0.000000,-1454.545455,Speed,0.000000,-1454.545455,Speed,Off,Off0.000000,0,,,,
05:07:27.627 PM 03/19/2016,Teleop Disabled,10,TRUE,-35007,NetComm_CAN_Send.vi:5830008<APPEND>  <b>Complete call chain:</b>      NetComm_CAN_Send.vi:5830008      WPI_CANTalonSRX_Send.vi      WPI_MotorControlSetOutput.vi      ShooterVI.vi      Periodic Tasks.vi      Robot Main.vi,-0.000000,0.000000,0.000000,0.000000,TRUE,FALSE,TRUE,FALSE,FALSE,FALSE,Disabled,0.062500,-2.562500,12.992500,TRUE,18.348099,19.784973,0.000000,0.000000,0.000000,0.000000,0.002000,0.001000,0.014000,-0.010000,-0.170000,1.890000,0.070779,Hold,2.158447,0.000000,Hold,4999.000000,2.000000,LowGoal,0.000000,-1454.545455,Speed,0.000000,-1454.545455,Speed,Off,Off0.000000,0,,,,
05:07:27.728 PM 03/19/2016,Teleop Disabled,11,TRUE,-35007,NetComm_CAN_Send.vi:5830008<APPEND>  <b>Complete call chain:</b>      NetComm_CAN_Send.vi:5830008      WPI_CANTalonSRX_Send.vi      WPI_MotorControlSetOutput.vi      ShooterVI.vi      Periodic Tasks.vi      Robot Main.vi,-0.000000,0.000000,0.000000,0.000000,TRUE,FALSE,TRUE,FALSE,FALSE,FALSE,Disabled,0.062500,-2.562500,12.992500,TRUE,18.348099,19.784973,0.000000,0.000000,0.000000,0.000000,0.000000,-0.001000,0.017000,-0.010000,-0.170000,1.890000,0.070779,Hold,2.158447,0.000000,Hold,4999.000000,2.000000,LowGoal,0.000000,-1454.545455,Speed,0.000000,-1454.545455,Speed,Off,Off0.000000,0,,,,
05:07:27.829 PM 03/19/2016,Teleop Disabled,10,TRUE,-35007,NetComm_CAN_Send.vi:5830008<APPEND>  <b>Complete call chain:</b>      NetComm_CAN_Send.vi:5830008      WPI_CANTalonSRX_Send.vi      WPI_MotorControlSetOutput.vi      ShooterVI.vi      Periodic Tasks.vi      Robot Main.vi,-0.000000,0.000000,0.000000,0.000000,TRUE,FALSE,TRUE,FALSE,FALSE,FALSE,Disabled,0.062500,-2.562500,12.992500,TRUE,18.348099,19.784973,0.000000,0.000000,0.000000,0.000000,-0.001000,0.000000,0.018000,-0.010000,-0.170000,1.900000,0.076277,Hold,2.158447,0.000000,Hold,4999.000000,2.000000,LowGoal,0.000000,-1454.545455,Speed,0.000000,-1454.545455,Speed,Off,Off0.000000,0,,,,
05:07:27.929 PM 03/19/2016,Teleop Disabled,10,TRUE,-35007,NetComm_CAN_Send.vi:5830008<APPEND>  <b>Complete call chain:</b>      NetComm_CAN_Send.vi:5830008      WPI_CANTalonSRX_Send.vi      WPI_MotorControlSetOutput.vi      ShooterVI.vi      Periodic Tasks.vi      Robot Main.vi,-0.000000,0.000000,0.000000,0.000000,TRUE,TRUE,TRUE,FALSE,FALSE,FALSE,Disabled,0.062500,-2.562500,12.992500,TRUE,18.348099,19.784973,0.000000,0.000000,0.000000,0.000000,-0.001000,0.000000,0.017000,-0.010000,-0.170000,1.900000,0.075189,Hold,2.158447,0.000000,Hold,4999.000000,2.000000,LowGoal,0.000000,-1454.545455,Speed,0.000000,-1454.545455,Speed,Off,Off0.000000,0,,,,
05:07:28.029 PM 03/19/2016,Teleop Disabled,10,TRUE,-35007,NetComm_CAN_Send.vi:5830008<APPEND>  <b>Complete call chain:</b>      NetComm_CAN_Send.vi:5830008      WPI_CANTalonSRX_Send.vi      WPI_MotorControlSetOutput.vi      ShooterVI.vi      Periodic Tasks.vi      Robot Main.vi,-0.000000,0.000000,0.000000,0.000000,TRUE,TRUE,TRUE,FALSE,FALSE,FALSE,Disabled,0.062500,-2.562500,12.992500,TRUE,18.348099,19.784973,0.000000,0.000000,0.000000,0.000000,-0.001000,0.000000,0.016000,-0.010000,-0.170000,1.900000,0.057969,Hold,2.158447,0.000000,Hold,4999.000000,2.000000,LowGoal,0.000000,0.000000,Speed,0.000000,0.000000,Speed,Off,Off0.000000,0,,,,
05:07:28.130 PM 03/19/2016,Teleop Disabled,10,TRUE,-35007,NetComm_CAN_Send.vi:5830008<APPEND>  <b>Complete call chain:</b>      NetComm_CAN_Send.vi:5830008      WPI_CANTalonSRX_Send.vi      WPI_MotorControlSetOutput.vi      ShooterVI.vi      Periodic Tasks.vi      Robot Main.vi,-0.000000,0.000000,0.000000,0.000000,TRUE,FALSE,TRUE,FALSE,FALSE,FALSE,Disabled,0.062500,-2.562500,12.992500,TRUE,18.348099,19.784973,0.000000,0.000000,0.000000,0.000000,0.002000,0.000000,0.016000,-0.010000,-0.170000,1.900000,0.056227,Hold,2.158447,0.000000,Hold,4999.000000,2.000000,LowGoal,0.000000,0.000000,Speed,0.000000,0.000000,Speed,Off,Off0.000000,0,,,,
05:07:28.232 PM 03/19/2016,Teleop Disabled,10,TRUE,-35007,NetComm_CAN_Send.vi:5830008<APPEND>  <b>Complete call chain:</b>      NetComm_CAN_Send.vi:5830008      WPI_CANTalonSRX_Send.vi      WPI_MotorControlSetOutput.vi      ShooterVI.vi      Periodic Tasks.vi      Robot Main.vi,-0.000000,0.000000,0.000000,0.000000,TRUE,FALSE,TRUE,FALSE,FALSE,FALSE,Disabled,0.062500,-2.562500,12.992500,TRUE,18.348099,19.784973,0.000000,0.000000,0.000000,0.000000,0.000000,-0.003000,0.015000,-0.020000,-0.170000,1.890000,0.057955,Hold,2.158447,0.000000,Hold,4999.000000,2.000000,LowGoal,0.000000,-1454.545455,Speed,0.000000,-1454.545455,Speed,Off,Off0.000000,0,,,,
05:07:28.333 PM 03/19/2016,Teleop Disabled,11,TRUE,-35007,NetComm_CAN_Send.vi:5830008<APPEND>  <b>Complete call chain:</b>      NetComm_CAN_Send.vi:5830008      WPI_CANTalonSRX_Send.vi      WPI_MotorControlSetOutput.vi      ShooterVI.vi      Periodic Tasks.vi      Robot Main.vi,-0.000000,0.000000,0.000000,0.000000,TRUE,FALSE,TRUE,FALSE,FALSE,FALSE,Disabled,0.062500,-2.562500,12.992500,TRUE,18.348099,19.784973,0.000000,0.000000,0.000000,0.000000,-0.001000,0.000000,0.013000,-0.020000,-0.170000,1.890000,0.062259,Hold,2.158447,0.000000,Hold,4999.000000,2.000000,LowGoal,0.000000,-1454.545455,Speed,0.000000,-1454.545455,Speed,Off,Off0.000000,0,,,,
05:07:28.433 PM 03/19/2016,Teleop Disabled,11,TRUE,-35007,NetComm_CAN_Send.vi:5830008<APPEND>  <b>Complete call chain:</b>      NetComm_CAN_Send.vi:5830008      WPI_CANTalonSRX_Send.vi      WPI_MotorControlSetOutput.vi      ShooterVI.vi      Periodic Tasks.vi      Robot Main.vi,-0.000000,0.000000,0.000000,0.000000,TRUE,FALSE,TRUE,FALSE,FALSE,FALSE,Disabled,0.062500,-2.562500,12.992500,TRUE,18.348099,19.784973,0.000000,0.000000,0.000000,0.000000,0.000000,0.000000,0.014000,-0.020000,-0.170000,1.890000,0.071450,Hold,2.158447,0.000000,Hold,4999.000000,2.000000,LowGoal,0.000000,-1454.545455,Speed,0.000000,-1454.545455,Speed,Off,Off0.000000,0,,,,
05:07:28.534 PM 03/19/2016,Teleop Disabled,10,TRUE,-35007,NetComm_CAN_Send.vi:5830008<APPEND>  <b>Complete call chain:</b>      NetComm_CAN_Send.vi:5830008      WPI_CANTalonSRX_Send.vi      WPI_MotorControlSetOutput.vi      ShooterVI.vi      Periodic Tasks.vi      Robot Main.vi,-0.000000,0.000000,0.000000,0.000000,TRUE,FALSE,TRUE,FALSE,FALSE,FALSE,Disabled,0.062500,-2.562500,12.992500,TRUE,18.348099,19.784973,0.000000,0.000000,0.000000,0.000000,0.000000,0.001000,0.016000,-0.020000,-0.170000,1.880000,0.065195,Hold,2.158447,0.000000,Hold,4999.000000,2.000000,LowGoal,0.000000,-1454.545455,Speed,0.000000,-1454.545455,Speed,Off,Off0.000000,0,,,,
05:07:28.635 PM 03/19/2016,Teleop Disabled,9,TRUE,-35007,NetComm_CAN_Send.vi:5830008<APPEND>  <b>Complete call chain:</b>      NetComm_CAN_Send.vi:5830008      WPI_CANTalonSRX_Send.vi      WPI_MotorControlSetOutput.vi      ShooterVI.vi      Periodic Tasks.vi      Robot Main.vi,-0.000000,0.000000,0.000000,0.000000,TRUE,FALSE,TRUE,FALSE,FALSE,FALSE,Disabled,0.062500,-2.562500,12.992500,TRUE,18.348099,19.784973,0.000000,0.000000,0.000000,0.000000,0.000000,0.000000,0.016000,-0.020000,-0.170000,1.880000,0.061642,Hold,2.158447,0.000000,Hold,4999.000000,2.000000,LowGoal,0.000000,-1454.545455,Speed,0.000000,-1454.545455,Speed,Off,Off0.000000,0,,,,
05:07:28.736 PM 03/19/2016,Teleop Disabled,10,TRUE,-35007,NetComm_CAN_Send.vi:5830008<APPEND>  <b>Complete call chain:</b>      NetComm_CAN_Send.vi:5830008      WPI_CANTalonSRX_Send.vi      WPI_MotorControlSetOutput.vi      ShooterVI.vi      Periodic Tasks.vi      Robot Main.vi,-0.000000,0.000000,0.000000,0.000000,TRUE,TRUE,TRUE,FALSE,FALSE,FALSE,Disabled,0.062500,-2.562500,12.992500,TRUE,18.348099,19.784973,0.000000,0.000000,0.000000,0.000000,0.001000,0.000000,0.015000,-0.010000,-0.170000,1.880000,0.069726,Hold,2.158447,0.000000,Hold,4999.000000,2.000000,LowGoal,0.000000,-1454.545455,Speed,0.000000,-1454.545455,Speed,Off,Off0.000000,0,,,,
05:07:28.838 PM 03/19/2016,Teleop Disabled,10,TRUE,-35007,NetComm_CAN_Send.vi:5830008<APPEND>  <b>Complete call chain:</b>      NetComm_CAN_Send.vi:5830008      WPI_CANTalonSRX_Send.vi      WPI_MotorControlSetOutput.vi      ShooterVI.vi      Periodic Tasks.vi      Robot Main.vi,-0.000000,0.000000,0.000000,0.000000,TRUE,TRUE,TRUE,FALSE,FALSE,FALSE,Disabled,0.062500,-2.562500,12.992500,TRUE,18.348099,19.784973,0.000000,0.000000,0.000000,0.000000,0.000000,-0.001000,0.013000,-0.020000,-0.170000,1.880000,0.060290,Hold,2.158447,0.000000,Hold,4999.000000,2.000000,LowGoal,0.000000,0.000000,Speed,0.000000,0.000000,Speed,Off,Off0.000000,0,,,,
05:07:28.938 PM 03/19/2016,Teleop Disabled,10,TRUE,-35007,NetComm_CAN_Send.vi:5830008<APPEND>  <b>Complete call chain:</b>      NetComm_CAN_Send.vi:5830008      WPI_CANTalonSRX_Send.vi      WPI_MotorControlSetOutput.vi      ShooterVI.vi      Periodic Tasks.vi      Robot Main.vi,-0.000000,0.000000,0.000000,0.000000,TRUE,FALSE,TRUE,FALSE,FALSE,FALSE,Disabled,0.062500,-2.562500,12.992500,TRUE,18.348099,19.784973,0.000000,0.000000,0.000000,0.000000,0.000000,0.000000,0.014000,-0.020000,-0.170000,1.890000,0.066390,Hold,2.158447,0.000000,Hold,4999.000000,2.000000,LowGoal,0.000000,0.000000,Speed,0.000000,0.000000,Speed,Off,Off0.000000,0,,,,
05:07:29.041 PM 03/19/2016,Teleop Disabled,12,TRUE,-35007,NetComm_CAN_Send.vi:5830008<APPEND>  <b>Complete call chain:</b>      NetComm_CAN_Send.vi:5830008      WPI_CANTalonSRX_Send.vi      WPI_MotorControlSetOutput.vi      ShooterVI.vi      Periodic Tasks.vi      Robot Main.vi,-0.000000,0.000000,0.000000,0.000000,TRUE,FALSE,TRUE,FALSE,FALSE,FALSE,Disabled,0.062500,-2.562500,12.992500,TRUE,18.348099,19.784973,0.000000,0.000000,0.000000,0.000000,-0.002000,0.000000,0.019000,-0.010000,-0.170000,1.880000,0.058692,Hold,2.158447,0.000000,Hold,4999.000000,2.000000,LowGoal,0.000000,-1454.545455,Speed,0.000000,-1454.545455,Speed,Off,Off0.000000,0,,,,
05:07:29.141 PM 03/19/2016,Teleop Disabled,10,TRUE,-35007,NetComm_CAN_Send.vi:5830008<APPEND>  <b>Complete call chain:</b>      NetComm_CAN_Send.vi:5830008      WPI_CANTalonSRX_Send.vi      WPI_MotorControlSetOutput.vi      ShooterVI.vi      Periodic Tasks.vi      Robot Main.vi,-0.000000,0.000000,0.000000,0.000000,TRUE,FALSE,TRUE,FALSE,FALSE,FALSE,Disabled,0.062500,-2.562500,12.992500,TRUE,18.348099,19.784973,0.000000,0.000000,0.000000,0.000000,0.001000,0.000000,0.020000,-0.010000,-0.170000,1.880000,0.056399,Hold,2.158447,0.000000,Hold,4999.000000,2.000000,LowGoal,0.000000,-1454.545455,Speed,0.000000,-1454.545455,Speed,Off,Off0.000000,0,,,,
05:07:29.243 PM 03/19/2016,Teleop Disabled,10,TRUE,-35007,NetComm_CAN_Send.vi:5830008<APPEND>  <b>Complete call chain:</b>      NetComm_CAN_Send.vi:5830008      WPI_CANTalonSRX_Send.vi      WPI_MotorControlSetOutput.vi      ShooterVI.vi      Periodic Tasks.vi      Robot Main.vi,-0.000000,0.000000,0.000000,0.000000,TRUE,FALSE,TRUE,FALSE,FALSE,FALSE,Disabled,0.062500,-2.562500,12.992500,TRUE,18.348099,19.784973,0.000000,0.000000,0.000000,0.000000,0.002000,0.000000,0.018000,-0.020000,-0.170000,1.880000,0.055291,Hold,2.158447,0.000000,Hold,4999.000000,2.000000,LowGoal,0.000000,-1454.545455,Speed,0.000000,-1454.545455,Speed,Off,Off0.000000,0,,,,
05:07:29.344 PM 03/19/2016,Teleop Disabled,10,TRUE,-35007,NetComm_CAN_Send.vi:5830008<APPEND>  <b>Complete call chain:</b>      NetComm_CAN_Send.vi:5830008      WPI_CANTalonSRX_Send.vi      WPI_MotorControlSetOutput.vi      ShooterVI.vi      Periodic Tasks.vi      Robot Main.vi,-0.000000,0.000000,0.000000,0.000000,TRUE,FALSE,TRUE,FALSE,FALSE,FALSE,Disabled,0.062500,-2.562500,12.992500,TRUE,18.348099,19.784973,0.000000,0.000000,0.000000,0.000000,0.000000,0.001000,0.018000,-0.020000,-0.170000,1.880000,0.062138,Hold,2.158447,0.000000,Hold,4999.000000,2.000000,LowGoal,0.000000,-1454.545455,Speed,0.000000,-1454.545455,Speed,Off,Off0.000000,0,,,,
05:07:29.445 PM 03/19/2016,Teleop Disabled,11,TRUE,-35007,NetComm_CAN_Send.vi:5830008<APPEND>  <b>Complete call chain:</b>      NetComm_CAN_Send.vi:5830008      WPI_CANTalonSRX_Send.vi      WPI_MotorControlSetOutput.vi      ShooterVI.vi      Periodic Tasks.vi      Robot Main.vi,-0.000000,0.000000,0.000000,0.000000,TRUE,FALSE,TRUE,FALSE,FALSE,FALSE,Disabled,0.062500,-2.562500,12.992500,TRUE,18.348099,19.784973,0.000000,0.000000,0.000000,0.000000,0.000000,0.000000,0.018000,-0.010000,-0.170000,1.880000,0.068758,Hold,2.158447,0.000000,Hold,4999.000000,2.000000,LowGoal,0.000000,-1454.545455,Speed,0.000000,-1454.545455,Speed,Off,Off0.000000,0,,,,
05:07:29.545 PM 03/19/2016,Teleop Disabled,11,TRUE,-35007,NetComm_CAN_Send.vi:5830008<APPEND>  <b>Complete call chain:</b>      NetComm_CAN_Send.vi:5830008      WPI_CANTalonSRX_Send.vi      WPI_MotorControlSetOutput.vi      ShooterVI.vi      Periodic Tasks.vi      Robot Main.vi,-0.000000,0.000000,0.000000,0.000000,TRUE,TRUE,TRUE,FALSE,FALSE,FALSE,Disabled,0.062500,-2.562500,12.992500,TRUE,18.348099,19.784973,0.000000,0.000000,0.000000,0.000000,-0.002000,0.001000,0.017000,-0.010000,-0.170000,1.880000,0.068262,Hold,2.158447,0.000000,Hold,4999.000000,2.000000,LowGoal,0.000000,-1454.545455,Speed,0.000000,-1454.545455,Speed,Off,Off0.000000,0,,,,
05:07:29.645 PM 03/19/2016,Teleop Disabled,10,TRUE,-35007,NetComm_CAN_Send.vi:5830008<APPEND>  <b>Complete call chain:</b>      NetComm_CAN_Send.vi:5830008      WPI_CANTalonSRX_Send.vi      WPI_MotorControlSetOutput.vi      ShooterVI.vi      Periodic Tasks.vi      Robot Main.vi,-0.000000,0.000000,0.000000,0.000000,TRUE,TRUE,TRUE,FALSE,FALSE,FALSE,Disabled,0.062500,-2.562500,12.992500,TRUE,18.348099,19.784973,0.000000,0.000000,0.000000,0.000000,-0.001000,0.000000,0.019000,-0.020000,-0.170000,1.880000,0.083813,Hold,2.158447,0.000000,Hold,4999.000000,2.000000,LowGoal,0.000000,-1454.545455,Speed,0.000000,-1454.545455,Speed,Off,Off0.000000,0,,,,
05:07:29.746 PM 03/19/2016,Teleop Disabled,11,TRUE,-35007,NetComm_CAN_Send.vi:5830008<APPEND>  <b>Complete call chain:</b>      NetComm_CAN_Send.vi:5830008      WPI_CANTalonSRX_Send.vi      WPI_MotorControlSetOutput.vi      ShooterVI.vi      Periodic Tasks.vi      Robot Main.vi,-0.000000,0.000000,0.000000,0.000000,TRUE,TRUE,TRUE,FALSE,FALSE,FALSE,Disabled,0.062500,-2.562500,12.992500,TRUE,18.348099,19.784973,0.000000,0.000000,0.000000,0.000000,0.000000,-0.002000,0.019000,-0.010000,-0.170000,1.880000,0.090202,Hold,2.158447,0.000000,Hold,4999.000000,2.000000,LowGoal,0.000000,0.000000,Speed,0.000000,0.000000,Speed,Off,Off0.000000,0,,,,
05:07:29.846 PM 03/19/2016,Teleop Disabled,10,TRUE,-35007,NetComm_CAN_Send.vi:5830008<APPEND>  <b>Complete call chain:</b>      NetComm_CAN_Send.vi:5830008      WPI_CANTalonSRX_Send.vi      WPI_MotorControlSetOutput.vi      ShooterVI.vi      Periodic Tasks.vi      Robot Main.vi,-0.000000,0.000000,0.000000,0.000000,TRUE,FALSE,TRUE,FALSE,FALSE,FALSE,Disabled,0.062500,-2.562500,12.992500,TRUE,18.348099,19.784973,0.000000,0.000000,0.000000,0.000000,0.000000,0.000000,0.017000,-0.020000,-0.160000,1.870000,0.088395,Hold,2.158447,0.000000,Hold,4999.000000,2.000000,LowGoal,0.000000,0.000000,Speed,0.000000,0.000000,Speed,Off,Off0.000000,0,,,,
05:07:29.946 PM 03/19/2016,Teleop Disabled,11,TRUE,-35007,NetComm_CAN_Send.vi:5830008<APPEND>  <b>Complete call chain:</b>      NetComm_CAN_Send.vi:5830008      WPI_CANTalonSRX_Send.vi      WPI_MotorControlSetOutput.vi      ShooterVI.vi      Periodic Tasks.vi      Robot Main.vi,-0.000000,0.000000,0.000000,0.000000,TRUE,FALSE,TRUE,FALSE,FALSE,FALSE,Disabled,0.062500,-2.562500,12.992500,TRUE,18.348099,19.784973,0.000000,0.000000,0.000000,0.000000,0.000000,0.000000,0.015000,-0.010000,-0.160000,1.870000,0.080725,Hold,2.158447,0.000000,Hold,4999.000000,2.000000,LowGoal,0.000000,-1454.545455,Speed,0.000000,-1454.545455,Speed,Off,Off0.000000,0,,,,
05:07:30.046 PM 03/19/2016,Teleop Disabled,11,TRUE,-35007,NetComm_CAN_Send.vi:5830008<APPEND>  <b>Complete call chain:</b>      NetComm_CAN_Send.vi:5830008      WPI_CANTalonSRX_Send.vi      WPI_MotorControlSetOutput.vi      ShooterVI.vi      Periodic Tasks.vi      Robot Main.vi,-0.000000,0.000000,0.000000,0.000000,TRUE,FALSE,TRUE,FALSE,FALSE,FALSE,Disabled,0.062500,-2.562500,12.992500,TRUE,18.348099,19.784973,0.000000,0.000000,0.000000,0.000000,-0.001000,0.000000,0.017000,-0.010000,-0.160000,1.870000,0.083971,Hold,2.158447,0.000000,Hold,4999.000000,2.000000,LowGoal,0.000000,-1454.545455,Speed,0.000000,-1454.545455,Speed,Off,Off0.000000,0,,,,
05:07:30.146 PM 03/19/2016,Teleop Disabled,11,TRUE,-35007,NetComm_CAN_Send.vi:5830008<APPEND>  <b>Complete call chain:</b>      NetComm_CAN_Send.vi:5830008      WPI_CANTalonSRX_Send.vi      WPI_MotorControlSetOutput.vi      ShooterVI.vi      Periodic Tasks.vi      Robot Main.vi,-0.000000,0.000000,0.000000,0.000000,TRUE,FALSE,TRUE,FALSE,FALSE,FALSE,Disabled,0.062500,-2.562500,12.992500,TRUE,18.348099,19.784973,0.000000,0.000000,0.000000,0.000000,0.000000,0.001000,0.020000,-0.010000,-0.160000,1.880000,0.078384,Hold,2.158447,0.000000,Hold,4999.000000,2.000000,LowGoal,0.000000,-1454.545455,Speed,0.000000,-1454.545455,Speed,Off,Off0.000000,0,,,,
05:07:30.246 PM 03/19/2016,Teleop Disabled,10,TRUE,-35007,NetComm_CAN_Send.vi:5830008<APPEND>  <b>Complete call chain:</b>      NetComm_CAN_Send.vi:5830008      WPI_CANTalonSRX_Send.vi      WPI_MotorControlSetOutput.vi      ShooterVI.vi      Periodic Tasks.vi      Robot Main.vi,-0.000000,0.000000,0.000000,0.000000,TRUE,FALSE,TRUE,FALSE,FALSE,FALSE,Disabled,0.062500,-2.562500,12.992500,TRUE,18.348099,19.784973,0.000000,0.000000,0.000000,0.000000,0.000000,0.000000,0.018000,-0.010000,-0.160000,1.870000,0.088598,Hold,2.158447,0.000000,Hold,4999.000000,2.000000,LowGoal,0.000000,-1454.545455,Speed,0.000000,-1454.545455,Speed,Off,Off0.000000,0,,,,
05:07:30.346 PM 03/19/2016,Teleop Disabled,10,TRUE,-35007,NetComm_CAN_Send.vi:5830008<APPEND>  <b>Complete call chain:</b>      NetComm_CAN_Send.vi:5830008      WPI_CANTalonSRX_Send.vi      WPI_MotorControlSetOutput.vi      ShooterVI.vi      Periodic Tasks.vi      Robot Main.vi,-0.000000,0.000000,0.000000,0.000000,TRUE,FALSE,TRUE,FALSE,FALSE,FALSE,Disabled,0.062500,-2.562500,12.992500,TRUE,18.348099,19.784973,0.000000,0.000000,0.000000,0.000000,0.003000,0.000000,0.017000,-0.010000,-0.160000,1.880000,0.085279,Hold,2.158447,0.000000,Hold,4999.000000,2.000000,LowGoal,0.000000,-1454.545455,Speed,0.000000,-1454.545455,Speed,Off,Off0.000000,0,,,,
05:07:30.446 PM 03/19/2016,Teleop Disabled,10,TRUE,-35007,NetComm_CAN_Send.vi:5830008<APPEND>  <b>Complete call chain:</b>      NetComm_CAN_Send.vi:5830008      WPI_CANTalonSRX_Send.vi      WPI_MotorControlSetOutput.vi      ShooterVI.vi      Periodic Tasks.vi      Robot Main.vi,-0.000000,0.000000,0.000000,0.000000,TRUE,TRUE,TRUE,FALSE,FALSE,FALSE,Disabled,0.062500,-2.562500,12.992500,TRUE,18.348099,19.784973,0.000000,0.000000,0.000000,0.000000,0.002000,0.000000,0.017000,-0.010000,-0.150000,1.880000,0.085152,Hold,2.158447,0.000000,Hold,4999.000000,2.000000,LowGoal,0.000000,-1454.545455,Speed,0.000000,-1454.545455,Speed,Off,Off0.000000,0,,,,
05:07:30.547 PM 03/19/2016,Teleop Disabled,10,TRUE,-35007,NetComm_CAN_Send.vi:5830008<APPEND>  <b>Complete call chain:</b>      NetComm_CAN_Send.vi:5830008      WPI_CANTalonSRX_Send.vi      WPI_MotorControlSetOutput.vi      ShooterVI.vi      Periodic Tasks.vi      Robot Main.vi,-0.000000,0.000000,0.000000,0.000000,TRUE,TRUE,TRUE,FALSE,FALSE,FALSE,Disabled,0.062500,-2.562500,12.992500,TRUE,18.348099,19.784973,0.000000,0.000000,0.000000,0.000000,0.001000,0.000000,0.015000,-0.010000,-0.150000,1.880000,0.076439,Hold,2.158447,0.000000,Hold,4999.000000,2.000000,LowGoal,0.000000,0.000000,Speed,0.000000,0.000000,Speed,Off,Off0.000000,0,,,,
05:07:30.647 PM 03/19/2016,Teleop Disabled,10,TRUE,-35007,NetComm_CAN_Send.vi:5830008<APPEND>  <b>Complete call chain:</b>      NetComm_CAN_Send.vi:5830008      WPI_CANTalonSRX_Send.vi      WPI_MotorControlSetOutput.vi      ShooterVI.vi      Periodic Tasks.vi      Robot Main.vi,-0.000000,0.000000,0.000000,0.000000,TRUE,FALSE,TRUE,FALSE,FALSE,FALSE,Disabled,0.062500,-2.562500,12.992500,TRUE,18.348099,19.784973,0.000000,0.000000,0.000000,0.000000,-0.001000,0.000000,0.016000,-0.010000,-0.150000,1.880000,0.069664,Hold,2.158447,0.000000,Hold,4999.000000,2.000000,LowGoal,0.000000,0.000000,Speed,0.000000,0.000000,Speed,Off,Off0.000000,0,,,,
05:07:30.747 PM 03/19/2016,Teleop Disabled,10,TRUE,-35007,NetComm_CAN_Send.vi:5830008<APPEND>  <b>Complete call chain:</b>      NetComm_CAN_Send.vi:5830008      WPI_CANTalonSRX_Send.vi      WPI_MotorControlSetOutput.vi      ShooterVI.vi      Periodic Tasks.vi      Robot Main.vi,-0.000000,0.000000,0.000000,0.000000,TRUE,FALSE,TRUE,FALSE,FALSE,FALSE,Disabled,0.062500,-2.562500,12.992500,TRUE,18.348099,19.784973,0.000000,0.000000,0.000000,0.000000,0.001000,-0.002000,0.011000,-0.010000,-0.150000,1.880000,0.073712,Hold,2.158447,0.000000,Hold,4999.000000,2.000000,LowGoal,0.000000,-1454.545455,Speed,0.000000,-1454.545455,Speed,Off,Off0.000000,0,,,,
05:07:30.847 PM 03/19/2016,Teleop Disabled,10,TRUE,-35007,NetComm_CAN_Send.vi:5830008<APPEND>  <b>Complete call chain:</b>      NetComm_CAN_Send.vi:5830008      WPI_CANTalonSRX_Send.vi      WPI_MotorControlSetOutput.vi      ShooterVI.vi      Periodic Tasks.vi      Robot Main.vi,-0.000000,0.000000,0.000000,0.000000,TRUE,FALSE,TRUE,FALSE,FALSE,FALSE,Disabled,0.062500,-2.562500,12.992500,TRUE,18.348099,19.784973,0.000000,0.000000,0.000000,0.000000,0.000000,-0.002000,0.017000,-0.020000,-0.150000,1.880000,0.091069,Hold,2.158447,0.000000,Hold,4999.000000,2.000000,LowGoal,0.000000,-1454.545455,Speed,0.000000,-1454.545455,Speed,Off,Off0.000000,0,,,,
05:07:30.947 PM 03/19/2016,Teleop Disabled,10,TRUE,-35007,NetComm_CAN_Send.vi:5830008<APPEND>  <b>Complete call chain:</b>      NetComm_CAN_Send.vi:5830008      WPI_CANTalonSRX_Send.vi      WPI_MotorControlSetOutput.vi      ShooterVI.vi      Periodic Tasks.vi      Robot Main.vi,-0.000000,0.000000,0.000000,0.000000,TRUE,FALSE,TRUE,FALSE,FALSE,FALSE,Disabled,0.062500,-2.562500,12.992500,TRUE,18.348099,19.784973,0.000000,0.000000,0.000000,0.000000,0.000000,0.000000,0.016000,-0.010000,-0.150000,1.880000,0.091631,Hold,2.158447,0.000000,Hold,4999.000000,2.000000,LowGoal,0.000000,-1454.545455,Speed,0.000000,-1454.545455,Speed,Off,Off0.000000,0,,,,
05:07:31.047 PM 03/19/2016,Teleop Disabled,10,TRUE,-35007,NetComm_CAN_Send.vi:5830008<APPEND>  <b>Complete call chain:</b>      NetComm_CAN_Send.vi:5830008      WPI_CANTalonSRX_Send.vi      WPI_MotorControlSetOutput.vi      ShooterVI.vi      Periodic Tasks.vi      Robot Main.vi,-0.000000,0.000000,0.000000,0.000000,TRUE,FALSE,TRUE,FALSE,FALSE,FALSE,Disabled,0.062500,-2.562500,12.992500,TRUE,18.348099,19.784973,0.000000,0.000000,0.000000,0.000000,-0.001000,-0.002000,0.017000,-0.010000,-0.150000,1.880000,0.109838,Hold,2.158447,0.000000,Hold,4999.000000,2.000000,LowGoal,0.000000,-1454.545455,Speed,0.000000,-1454.545455,Speed,Off,Off0.000000,0,,,,
05:07:31.147 PM 03/19/2016,Teleop Disabled,10,TRUE,-35007,NetComm_CAN_Send.vi:5830008<APPEND>  <b>Complete call chain:</b>      NetComm_CAN_Send.vi:5830008      WPI_CANTalonSRX_Send.vi      WPI_MotorControlSetOutput.vi      ShooterVI.vi      Periodic Tasks.vi      Robot Main.vi,-0.000000,0.000000,0.000000,0.000000,TRUE,FALSE,TRUE,FALSE,FALSE,FALSE,Disabled,0.062500,-2.562500,12.992500,TRUE,18.348099,19.784973,0.000000,0.000000,0.000000,0.000000,0.000000,-0.001000,0.014000,-0.010000,-0.150000,1.880000,0.106771,Hold,2.158447,0.000000,Hold,4999.000000,2.000000,LowGoal,0.000000,-1454.545455,Speed,0.000000,-1454.545455,Speed,Off,Off0.000000,0,,,,
05:07:31.247 PM 03/19/2016,Teleop Disabled,10,TRUE,-35007,NetComm_CAN_Send.vi:5830008<APPEND>  <b>Complete call chain:</b>      NetComm_CAN_Send.vi:5830008      WPI_CANTalonSRX_Send.vi      WPI_MotorControlSetOutput.vi      ShooterVI.vi      Periodic Tasks.vi      Robot Main.vi,-0.000000,0.000000,0.000000,0.000000,TRUE,TRUE,TRUE,FALSE,FALSE,FALSE,Disabled,0.062500,-2.562500,12.992500,TRUE,18.348099,19.784973,0.000000,0.000000,0.000000,0.000000,0.000000,0.000000,0.014000,-0.010000,-0.150000,1.880000,0.094206,Hold,2.158447,0.000000,Hold,4999.000000,2.000000,LowGoal,0.000000,-1454.545455,Speed,0.000000,-1454.545455,Speed,Off,Off0.000000,0,,,,
05:07:31.347 PM 03/19/2016,Teleop Disabled,10,TRUE,-35007,NetComm_CAN_Send.vi:5830008<APPEND>  <b>Complete call chain:</b>      NetComm_CAN_Send.vi:5830008      WPI_CANTalonSRX_Send.vi      WPI_MotorControlSetOutput.vi      ShooterVI.vi      Periodic Tasks.vi      Robot Main.vi,-0.000000,0.000000,0.000000,0.000000,TRUE,TRUE,TRUE,FALSE,FALSE,FALSE,Disabled,0.062500,-2.562500,12.992500,TRUE,18.348099,19.784973,0.000000,0.000000,0.000000,0.000000,0.000000,0.000000,0.018000,-0.010000,-0.150000,1.880000,0.098443,Hold,2.158447,0.000000,Hold,4999.000000,2.000000,LowGoal,0.000000,0.000000,Speed,0.000000,0.000000,Speed,Off,Off0.000000,0,,,,
05:07:31.447 PM 03/19/2016,Teleop Disabled,10,TRUE,-35007,NetComm_CAN_Send.vi:5830008<APPEND>  <b>Complete call chain:</b>      NetComm_CAN_Send.vi:5830008      WPI_CANTalonSRX_Send.vi      WPI_MotorControlSetOutput.vi      ShooterVI.vi      Periodic Tasks.vi      Robot Main.vi,-0.000000,0.000000,0.000000,0.000000,TRUE,FALSE,TRUE,FALSE,FALSE,FALSE,Disabled,0.062500,-2.562500,12.992500,TRUE,18.348099,19.784973,0.000000,0.000000,0.000000,0.000000,0.002000,0.000000,0.019000,-0.010000,-0.150000,1.880000,0.104791,Hold,2.158447,0.000000,Hold,4999.000000,2.000000,LowGoal,0.000000,0.000000,Speed,0.000000,0.000000,Speed,Off,Off0.000000,0,,,,
05:07:31.547 PM 03/19/2016,Teleop Disabled,10,TRUE,-35007,NetComm_CAN_Send.vi:5830008<APPEND>  <b>Complete call chain:</b>      NetComm_CAN_Send.vi:5830008      WPI_CANTalonSRX_Send.vi      WPI_MotorControlSetOutput.vi      ShooterVI.vi      Periodic Tasks.vi      Robot Main.vi,-0.000000,0.000000,0.000000,0.000000,TRUE,FALSE,TRUE,FALSE,FALSE,FALSE,Disabled,0.062500,-2.562500,12.992500,TRUE,18.348099,19.784973,0.000000,0.000000,0.000000,0.000000,0.000000,0.002000,0.018000,-0.010000,-0.150000,1.880000,0.117016,Hold,2.158447,0.000000,Hold,4999.000000,2.000000,LowGoal,0.000000,-1454.545455,Speed,0.000000,-1454.545455,Speed,Off,Off0.000000,0,,,,
05:07:31.647 PM 03/19/2016,Teleop Disabled,10,TRUE,-35007,NetComm_CAN_Send.vi:5830008<APPEND>  <b>Complete call chain:</b>      NetComm_CAN_Send.vi:5830008      WPI_CANTalonSRX_Send.vi      WPI_MotorControlSetOutput.vi      ShooterVI.vi      Periodic Tasks.vi      Robot Main.vi,-0.000000,0.000000,0.000000,0.000000,TRUE,FALSE,TRUE,FALSE,FALSE,FALSE,Disabled,0.062500,-2.562500,12.992500,TRUE,18.348099,19.784973,0.000000,0.000000,0.000000,0.000000,-0.002000,-0.001000,0.016000,-0.010000,-0.150000,1.880000,0.098822,Hold,2.158447,0.000000,Hold,4999.000000,2.000000,LowGoal,0.000000,-1454.545455,Speed,0.000000,-1454.545455,Speed,Off,Off0.000000,0,,,,
05:07:31.747 PM 03/19/2016,Teleop Disabled,10,TRUE,-35007,NetComm_CAN_Send.vi:5830008<APPEND>  <b>Complete call chain:</b>      NetComm_CAN_Send.vi:5830008      WPI_CANTalonSRX_Send.vi      WPI_MotorControlSetOutput.vi      ShooterVI.vi      Periodic Tasks.vi      Robot Main.vi,-0.000000,0.000000,0.000000,0.000000,TRUE,FALSE,TRUE,FALSE,FALSE,FALSE,Disabled,0.062500,-2.562500,12.992500,TRUE,18.348099,19.784973,0.000000,0.000000,0.000000,0.000000,-0.002000,-0.001000,0.016000,-0.010000,-0.150000,1.880000,0.095710,Hold,2.158447,0.000000,Hold,4999.000000,2.000000,LowGoal,0.000000,-1454.545455,Speed,0.000000,-1454.545455,Speed,Off,Off0.000000,0,,,,
05:07:31.848 PM 03/19/2016,Teleop Disabled,11,TRUE,-35007,NetComm_CAN_Send.vi:5830008<APPEND>  <b>Complete call chain:</b>      NetComm_CAN_Send.vi:5830008      WPI_CANTalonSRX_Send.vi      WPI_MotorControlSetOutput.vi      ShooterVI.vi      Periodic Tasks.vi      Robot Main.vi,-0.000000,0.000000,0.000000,0.000000,TRUE,FALSE,TRUE,FALSE,FALSE,FALSE,Disabled,0.062500,-2.562500,12.992500,TRUE,18.348099,19.784973,0.000000,0.000000,0.000000,0.000000,-0.003000,0.000000,0.018000,-0.020000,-0.150000,1.880000,0.090477,Hold,2.158447,0.000000,Hold,4999.000000,2.000000,LowGoal,0.000000,-1454.545455,Speed,0.000000,-1454.545455,Speed,Off,Off0.000000,0,,,,
05:07:31.948 PM 03/19/2016,Teleop Disabled,11,TRUE,-35007,NetComm_CAN_Send.vi:5830005<APPEND>  <b>Complete call chain:</b>      NetComm_CAN_Send.vi:5830005      WPI_CANTalonSRX_SetParameter.vi      WPI_CANTalonSRX_SetSensorPosition.vi      ShooterVI.vi      Periodic Tasks.vi      Robot Main.vi,-0.000000,0.000000,0.000000,0.000000,TRUE,FALSE,TRUE,FALSE,FALSE,FALSE,Disabled,0.062500,-2.562500,12.992500,TRUE,18.348099,19.784973,0.000000,0.000000,0.000000,0.000000,0.000000,0.000000,0.014000,-0.020000,-0.150000,1.880000,0.081361,Hold,2.158447,0.000000,Hold,4999.000000,2.000000,LowGoal,0.000000,-1454.545455,Speed,0.000000,-1454.545455,Speed,Off,Off0.000000,0,,,,
