Time,Robot Mode,Loop Time,Error Status,Error Code,Error Source,Left Motor Output,Left Motor Encoder,Right Motor Output,Right Motor Encoder,Is Level,Is Stalled,Ball Detector Photoeye,Vision Enabled,Vision Teleop Control,Vision Auto Control,Vision Current State,Vision X Output,Vision NavX Error,Vision NavX Target,NavX Connection Status,NavX Displacement X,NavX Displacement Y,NavX Displacement Z,NavX Velocity X,NavX Velocity Y,NavX Velocity Z,NavX Acceleration X,NavX Acceleration Y,NavX Acceleration Z,NavX Pitch,NavX Yaw,NavX Roll,Gyro Angle,Roller Arm State,Roller Arm Actual,Roller Arm Desired,Shooter Arm State,Shooter Arm Actual,Shooter Arm Desired,Shooter State,Actual RPM Left,Desired RPM Left,Control Mode Left,Actual RPM Right,Desired RPM Right,Scaler Motor Output,Auto To Run,Auto Current File,Auto File Status,Auto Current Command,Auto Trimmed Command
05:18:41.894 PM 03/19/2016,Teleop Enabled,11,FALSE,0,NO ERROR,-0.000000,0.000000,0.000000,0.000000,TRUE,FALSE,FALSE,FALSE,FALSE,FALSE,Disabled,0.000000,0.000000,0.000000,TRUE,-0.006042,-0.009262,0.000000,0.000000,0.000000,0.000000,0.000000,0.002000,0.018000,-0.150000,-0.210000,2.350000,0.396569,ResetBack,0.000000,-0.200000,ResetBack,147465.000000,-0.300000,Suck,0.000000,2181.818182,Speed,0.000000,2181.818182,Speed,Off,On0.000000,0,,,,
05:18:41.995 PM 03/19/2016,Teleop Enabled,10,FALSE,0,NO ERROR,-0.000000,0.000000,0.000000,0.000000,TRUE,FALSE,FALSE,FALSE,FALSE,FALSE,Disabled,0.000000,0.000000,0.000000,TRUE,-0.006042,-0.009262,0.000000,0.000000,0.000000,0.000000,-0.004000,0.053000,0.001000,-0.150000,-0.210000,2.340000,0.396569,ResetBack,-0.939453,-0.200000,ResetBack,151078.000000,-0.300000,Suck,-270.000000,2181.818182,Speed,-210.000000,2181.818182,Speed,Off,On0.000000,0,,,,
05:18:42.095 PM 03/19/2016,Teleop Enabled,10,FALSE,0,NO ERROR,-0.000000,-0.006417,0.000000,0.051333,TRUE,FALSE,FALSE,FALSE,FALSE,FALSE,Disabled,0.000000,0.000000,0.000000,TRUE,-0.005386,-0.009766,0.000000,0.013306,-0.023651,0.000000,-0.047000,0.000000,0.168000,-0.180000,-0.230000,2.300000,0.357069,ResetBack,-0.955322,-0.200000,ResetBack,158224.000000,-0.300000,Suck,-1080.000000,2181.818182,Speed,-1050.000000,2181.818182,Speed,Off,On0.000000,0,,,,
05:18:42.198 PM 03/19/2016,Teleop Enabled,10,FALSE,0,NO ERROR,-0.000000,0.025667,0.000000,0.128333,TRUE,FALSE,FALSE,FALSE,FALSE,FALSE,Disabled,0.000000,0.000000,0.000000,TRUE,-0.004700,-0.012039,0.000000,-0.009338,-0.056366,0.000000,-0.170000,0.033000,-0.067000,-0.200000,-0.270000,2.300000,0.323952,ResetBack,-0.955322,-0.200000,ResetBack,158224.000000,-0.300000,Suck,-1755.000000,2181.818182,Speed,-1770.000000,2181.818182,Speed,Off,On0.000000,0,,,,
05:18:42.301 PM 03/19/2016,Teleop Enabled,10,FALSE,0,NO ERROR,-0.000000,0.025667,0.000000,0.128333,TRUE,FALSE,FALSE,FALSE,FALSE,FALSE,Disabled,0.000000,0.000000,0.000000,TRUE,-0.003906,-0.014297,0.000000,0.000000,-0.050247,0.000000,0.009000,-0.040000,-0.034000,-0.150000,-0.130000,2.280000,0.371559,Reset,-1.095215,0.000000,ResetBack,163558.000000,-0.300000,Suck,-2235.000000,2181.818182,Speed,-2272.500000,2181.818182,Speed,Off,On0.000000,0,,,,
05:18:42.402 PM 03/19/2016,Teleop Enabled,9,FALSE,0,NO ERROR,-0.000000,0.025667,0.000000,0.128333,TRUE,FALSE,FALSE,FALSE,FALSE,FALSE,Disabled,0.000000,0.000000,0.000000,TRUE,-0.002869,-0.020798,0.000000,0.044952,-0.216644,0.000000,0.110000,-0.210000,-0.172000,-0.230000,-0.200000,2.330000,0.274055,Hold,-1.095215,0.000000,ResetBack,166133.000000,-0.300000,Suck,-2265.000000,2181.818182,Speed,-2272.500000,2181.818182,Speed,Off,On0.000000,0,,,,
05:18:42.501 PM 03/19/2016,Teleop Enabled,10,FALSE,0,NO ERROR,-0.000000,0.025667,0.000000,0.128333,TRUE,FALSE,FALSE,FALSE,FALSE,FALSE,Disabled,0.000000,0.000000,0.000000,TRUE,0.000397,-0.031143,0.000000,0.089752,-0.241501,0.000000,-0.032000,0.040000,0.198000,-0.240000,-0.200000,2.300000,0.226310,Hold,0.955322,0.000000,ResetBack,167445.000000,-0.300000,Suck,-2085.000000,2181.818182,Speed,-2137.500000,2181.818182,Speed,Off,On0.000000,0,,,,
05:18:42.605 PM 03/19/2016,Teleop Enabled,9,FALSE,0,NO ERROR,-0.000000,0.025667,0.000000,0.128333,TRUE,FALSE,FALSE,FALSE,FALSE,FALSE,Disabled,0.000000,0.000000,0.000000,TRUE,0.005600,-0.043076,0.000000,0.075043,-0.205200,0.000000,0.036000,-0.154000,-0.128000,-0.230000,-0.180000,2.310000,0.221064,Hold,0.955322,0.000000,ResetBack,167494.000000,-0.300000,Suck,-2070.000000,2181.818182,Speed,-2085.000000,2181.818182,Speed,Off,On0.000000,0,,,,
05:18:42.703 PM 03/19/2016,Teleop Enabled,10,FALSE,0,NO ERROR,-0.000000,0.025667,0.000000,0.128333,TRUE,FALSE,FALSE,FALSE,FALSE,FALSE,Disabled,0.000000,0.000000,0.000000,TRUE,0.009537,-0.055893,0.000000,0.072922,-0.278885,0.000000,-0.006000,-0.025000,-0.050000,-0.230000,-0.180000,2.300000,0.204144,Hold,0.936035,0.000000,ResetBack,167510.000000,-0.300000,Suck,-2145.000000,2181.818182,Speed,-2152.500000,2181.818182,Speed,Off,On0.000000,0,,,,
05:18:42.803 PM 03/19/2016,Teleop Enabled,9,FALSE,0,NO ERROR,-0.000000,0.025667,0.000000,0.128333,TRUE,FALSE,FALSE,FALSE,FALSE,FALSE,Disabled,0.000000,0.000000,0.000000,TRUE,0.012589,-0.071365,0.000000,0.000000,-0.338837,0.000000,0.007000,-0.083000,-0.061000,-0.230000,-0.170000,2.370000,0.200037,Hold,0.936035,0.000000,ResetBack,167510.000000,-0.300000,Suck,-2152.500000,2181.818182,Speed,-2160.000000,2181.818182,Speed,Off,On0.000000,0,,,,
05:18:42.905 PM 03/19/2016,Teleop Enabled,11,FALSE,0,NO ERROR,-0.000000,0.025667,0.000000,0.128333,TRUE,FALSE,FALSE,FALSE,FALSE,FALSE,Disabled,0.000000,0.000000,0.000000,TRUE,0.012955,-0.086456,0.000000,0.000000,-0.401810,0.000000,0.004000,-0.040000,-0.082000,-0.240000,-0.110000,2.340000,0.205176,Hold,0.936035,0.000000,ResetBack,167516.000000,-0.300000,Suck,-2122.500000,2181.818182,Speed,-2137.500000,2181.818182,Speed,Off,On0.000000,0,,,,
05:18:43.004 PM 03/19/2016,Teleop Enabled,9,FALSE,0,NO ERROR,-0.000000,0.025667,0.000000,0.128333,TRUE,FALSE,FALSE,FALSE,FALSE,FALSE,Disabled,0.000000,0.000000,0.000000,TRUE,0.013092,-0.107971,0.000000,0.000000,-0.439636,0.000000,0.000000,0.000000,0.053000,-0.230000,-0.150000,2.310000,0.204426,Hold,0.936035,0.000000,ResetBack,167517.000000,-0.300000,Suck,-2122.500000,2181.818182,Speed,-2145.000000,2181.818182,Speed,Off,On0.000000,0,,,,
05:18:43.106 PM 03/19/2016,Teleop Enabled,12,FALSE,0,NO ERROR,-0.000000,0.025667,0.000000,0.128333,TRUE,FALSE,FALSE,FALSE,FALSE,FALSE,Disabled,0.000000,0.000000,0.000000,TRUE,0.013062,-0.128799,0.000000,-0.000931,-0.394196,0.000000,-0.006000,0.067000,0.087000,-0.230000,-0.180000,2.340000,0.183185,Hold,0.936035,0.000000,ResetBack,167544.000000,-0.300000,Suck,-2130.000000,2181.818182,Speed,-2152.500000,2181.818182,Speed,Off,On0.000000,0,,,,
05:18:43.206 PM 03/19/2016,Teleop Enabled,11,FALSE,0,NO ERROR,-0.000000,0.025667,0.000000,0.128333,TRUE,FALSE,FALSE,FALSE,FALSE,FALSE,Disabled,0.000000,0.000000,0.000000,TRUE,0.012650,-0.149536,0.000000,-0.013977,-0.312958,0.000000,-0.024000,0.056000,0.078000,-0.240000,-0.180000,2.350000,0.166782,Hold,0.936035,0.000000,Reset,167544.000000,2.000000,Suck,-2130.000000,2181.818182,Speed,-2152.500000,2181.818182,Speed,Off,On0.000000,0,,,,
05:18:43.306 PM 03/19/2016,Teleop Enabled,8,FALSE,0,NO ERROR,-0.000000,0.025667,0.000000,0.128333,TRUE,FALSE,FALSE,FALSE,FALSE,FALSE,Disabled,0.000000,0.000000,0.000000,TRUE,0.011475,-0.160706,0.000000,-0.041855,-0.261292,0.000000,-0.023000,0.040000,0.070000,-0.240000,-0.130000,2.290000,0.134890,Hold,0.936035,0.000000,Hold,167546.000000,2.000000,Suck,-2130.000000,2181.818182,Speed,-2145.000000,2181.818182,Speed,Off,On0.000000,0,,,,
05:18:43.406 PM 03/19/2016,Teleop Enabled,10,FALSE,0,NO ERROR,-0.000000,0.025667,0.000000,0.128333,TRUE,FALSE,FALSE,FALSE,FALSE,FALSE,Disabled,0.000000,0.000000,0.000000,TRUE,0.008636,-0.165756,0.000000,-0.066177,-0.002838,0.000000,-0.049000,0.026000,-0.033000,-0.240000,-0.180000,2.260000,0.115298,Hold,0.936035,0.000000,Hold,-188.000000,2.000000,Suck,-2122.500000,2181.818182,Speed,-2145.000000,2181.818182,Speed,Off,On0.000000,0,,,,
05:18:43.507 PM 03/19/2016,Teleop Enabled,12,FALSE,0,NO ERROR,-0.000000,0.025667,0.000000,0.128333,TRUE,FALSE,FALSE,FALSE,FALSE,FALSE,Disabled,0.000000,0.000000,0.000000,TRUE,0.002792,-0.166718,0.000000,-0.083008,-0.025177,0.000000,-0.015000,-0.032000,0.107000,-0.240000,-0.170000,2.280000,0.102130,Hold,0.936035,0.000000,Hold,-188.000000,2.000000,Suck,-2122.500000,2181.818182,Speed,-2145.000000,2181.818182,Speed,Off,On0.000000,0,,,,
05:18:43.608 PM 03/19/2016,Teleop Enabled,11,FALSE,0,NO ERROR,-0.000000,0.025667,0.000000,0.128333,TRUE,FALSE,FALSE,FALSE,FALSE,FALSE,Disabled,0.000000,0.000000,0.000000,TRUE,-0.001053,-0.170044,0.000000,-0.001358,-0.073883,0.000000,-0.021000,-0.052000,0.038000,-0.240000,-0.180000,2.230000,0.107425,Hold,0.936035,0.000000,Hold,-188.000000,2.000000,Suck,-2130.000000,2181.818182,Speed,-2145.000000,2181.818182,Speed,Off,On0.000000,0,,,,
05:18:43.709 PM 03/19/2016,Teleop Enabled,11,FALSE,0,NO ERROR,-0.000000,0.025667,0.000000,0.128333,TRUE,FALSE,FALSE,FALSE,FALSE,FALSE,Disabled,0.000000,0.000000,0.000000,TRUE,-0.001114,-0.172989,0.000000,-0.011978,-0.062469,0.000000,-0.054000,0.064000,0.101000,-0.240000,-0.200000,2.250000,0.109794,Hold,0.936035,0.000000,Hold,-188.000000,2.000000,Suck,-2122.500000,2181.818182,Speed,-2145.000000,2181.818182,Speed,Off,On0.000000,0,,,,
05:18:43.809 PM 03/19/2016,Teleop Enabled,10,FALSE,0,NO ERROR,-0.000000,0.025667,0.000000,0.128333,TRUE,FALSE,FALSE,FALSE,FALSE,FALSE,Disabled,0.000000,0.000000,0.000000,TRUE,-0.001373,-0.174393,0.000000,0.008682,0.005814,0.000000,-0.010000,0.037000,0.138000,-0.250000,-0.140000,2.300000,0.093345,Hold,0.936035,0.000000,Hold,-188.000000,2.000000,Suck,-2137.500000,2181.818182,Speed,-2145.000000,2181.818182,Speed,Off,On0.000000,0,,,,
05:18:43.909 PM 03/19/2016,Teleop Enabled,9,FALSE,0,NO ERROR,-0.000000,0.025667,0.000000,0.128333,TRUE,FALSE,FALSE,FALSE,FALSE,FALSE,Disabled,0.000000,0.000000,0.000000,TRUE,-0.000595,-0.174011,0.000000,0.031372,0.003967,0.000000,0.037000,0.021000,0.155000,-0.250000,-0.150000,2.280000,0.095830,Hold,0.936035,0.000000,Hold,-188.000000,2.000000,Suck,-2137.500000,2181.818182,Speed,-2145.000000,2181.818182,Speed,Off,On0.000000,0,,,,
05:18:44.010 PM 03/19/2016,Teleop Enabled,11,FALSE,0,NO ERROR,-0.000000,0.025667,0.000000,0.128333,TRUE,FALSE,FALSE,FALSE,FALSE,FALSE,Disabled,0.000000,0.000000,0.000000,TRUE,0.002548,-0.172531,0.000000,0.073822,0.034607,0.000000,0.075000,-0.020000,-0.093000,-0.250000,-0.180000,2.360000,0.090205,Hold,0.936035,0.000000,Hold,-188.000000,2.000000,Suck,-2122.500000,2181.818182,Speed,-2137.500000,2181.818182,Speed,Off,On0.000000,0,,,,
05:18:44.111 PM 03/19/2016,Teleop Enabled,10,FALSE,0,NO ERROR,-0.000000,0.025667,0.000000,0.128333,TRUE,FALSE,FALSE,FALSE,FALSE,FALSE,Disabled,0.000000,0.000000,0.000000,TRUE,0.006119,-0.171570,0.000000,0.091736,0.020218,0.000000,0.035000,-0.002000,-0.108000,-0.250000,-0.200000,2.330000,0.090140,Hold,0.936035,0.000000,Hold,-188.000000,2.000000,Suck,-2130.000000,2181.818182,Speed,-2145.000000,2181.818182,Speed,Off,On0.000000,0,,,,
05:18:44.211 PM 03/19/2016,Teleop Enabled,11,FALSE,0,NO ERROR,-0.000000,0.025667,0.000000,0.128333,TRUE,FALSE,FALSE,FALSE,FALSE,FALSE,Disabled,0.000000,0.000000,0.000000,TRUE,0.012650,-0.171936,0.000000,0.098251,-0.023422,0.000000,-0.001000,0.055000,0.039000,-0.250000,-0.190000,2.300000,0.091317,Hold,0.936035,0.000000,Hold,-188.000000,2.000000,Suck,-2130.000000,2181.818182,Speed,-2145.000000,2181.818182,Speed,Off,On0.000000,0,,,,
05:18:44.312 PM 03/19/2016,Teleop Enabled,10,FALSE,0,NO ERROR,-0.000000,0.025667,0.000000,0.128333,TRUE,FALSE,FALSE,FALSE,FALSE,FALSE,Disabled,0.000000,0.000000,0.000000,TRUE,0.015625,-0.172791,0.000000,0.060135,-0.030060,0.000000,-0.001000,-0.073000,-0.122000,-0.250000,-0.240000,2.340000,0.087858,Hold,0.936035,0.000000,Hold,-188.000000,2.000000,Suck,-2130.000000,2181.818182,Speed,-2145.000000,2181.818182,Speed,Off,On0.000000,0,,,,
05:18:44.412 PM 03/19/2016,Teleop Enabled,10,FALSE,0,NO ERROR,-0.000000,0.025667,0.000000,0.128333,TRUE,FALSE,FALSE,FALSE,FALSE,FALSE,Disabled,0.000000,0.000000,0.000000,TRUE,0.018112,-0.177292,0.000000,0.021988,-0.089371,0.000000,-0.032000,0.086000,0.111000,-0.240000,-0.210000,2.360000,0.088253,Hold,0.936035,0.000000,Hold,-188.000000,2.000000,Suck,-2122.500000,2181.818182,Speed,-2145.000000,2181.818182,Speed,Off,On0.000000,0,,,,
05:18:44.513 PM 03/19/2016,Teleop Enabled,10,FALSE,0,NO ERROR,-0.000000,0.025667,0.000000,0.128333,TRUE,FALSE,FALSE,FALSE,FALSE,FALSE,Disabled,0.000000,0.000000,0.000000,TRUE,0.018051,-0.180481,0.000000,-0.018417,-0.075851,0.000000,-0.066000,0.038000,0.127000,-0.240000,-0.220000,2.320000,0.064861,Hold,0.936035,0.000000,Hold,-188.000000,2.000000,Suck,-2130.000000,2181.818182,Speed,-2145.000000,2181.818182,Speed,Off,On0.000000,0,,,,
05:18:44.613 PM 03/19/2016,Teleop Enabled,10,FALSE,0,NO ERROR,-0.000000,0.025667,0.000000,0.128333,TRUE,FALSE,FALSE,FALSE,FALSE,FALSE,Disabled,0.000000,0.000000,0.000000,TRUE,0.015884,-0.183365,0.000000,-0.055344,-0.046783,0.000000,-0.024000,0.011000,0.003000,-0.250000,-0.260000,2.330000,0.053893,Hold,0.936035,0.000000,Hold,-188.000000,2.000000,Suck,-2145.000000,2181.818182,Speed,-2145.000000,2181.818182,Speed,Off,On0.000000,0,,,,
05:18:44.713 PM 03/19/2016,Teleop Enabled,11,FALSE,0,NO ERROR,-0.000000,0.025667,0.000000,0.128333,TRUE,FALSE,FALSE,FALSE,FALSE,FALSE,Disabled,0.000000,0.000000,0.000000,TRUE,0.013840,-0.184982,0.000000,-0.020828,-0.016068,0.000000,0.082000,0.068000,0.120000,-0.250000,-0.190000,2.300000,0.047673,Hold,0.936035,0.000000,Hold,-188.000000,2.000000,Suck,-2137.500000,2181.818182,Speed,-2145.000000,2181.818182,Speed,Off,On0.000000,0,,,,
05:18:44.814 PM 03/19/2016,Teleop Enabled,10,FALSE,0,NO ERROR,-0.000000,0.025667,0.000000,0.128333,TRUE,FALSE,FALSE,FALSE,FALSE,FALSE,Disabled,0.000000,0.000000,0.000000,TRUE,0.013977,-0.184845,0.000000,0.009125,0.014023,0.000000,0.013000,0.016000,0.091000,-0.250000,-0.190000,2.240000,0.049686,Hold,0.936035,0.000000,Hold,-189.000000,2.000000,Suck,-2122.500000,2181.818182,Speed,-2137.500000,2181.818182,Speed,Off,On0.000000,0,,,,
05:18:44.914 PM 03/19/2016,Teleop Enabled,10,FALSE,0,NO ERROR,-0.000000,0.025667,0.000000,0.128333,TRUE,FALSE,FALSE,FALSE,FALSE,FALSE,Disabled,0.000000,0.000000,0.000000,TRUE,0.014465,-0.182632,0.000000,0.016434,0.068710,0.000000,0.039000,0.019000,0.035000,-0.250000,-0.200000,2.310000,0.057797,Hold,0.936035,0.000000,Hold,-189.000000,2.000000,Suck,-2130.000000,2181.818182,Speed,-2145.000000,2181.818182,Speed,Off,On0.000000,0,,,,
05:18:45.014 PM 03/19/2016,Teleop Enabled,9,FALSE,0,NO ERROR,-0.000000,0.025667,0.000000,0.128333,TRUE,FALSE,FALSE,FALSE,FALSE,FALSE,Disabled,0.000000,0.000000,0.000000,TRUE,0.015060,-0.180313,0.000000,0.011612,-0.004059,0.000000,-0.026000,-0.025000,0.082000,-0.250000,-0.160000,2.290000,0.064837,Hold,0.936035,0.000000,Hold,-189.000000,2.000000,Suck,-2145.000000,2181.818182,Speed,-2145.000000,2181.818182,Speed,Off,On0.000000,0,,,,
05:18:45.115 PM 03/19/2016,Teleop Enabled,10,FALSE,0,NO ERROR,-0.000000,0.025667,0.000000,0.128333,TRUE,FALSE,FALSE,FALSE,FALSE,FALSE,Disabled,0.000000,0.000000,0.000000,TRUE,0.016556,-0.181793,0.000000,0.037445,-0.046402,0.000000,0.032000,-0.036000,-0.091000,-0.250000,-0.240000,2.280000,0.055952,Hold,0.936035,0.000000,Hold,-189.000000,2.000000,Suck,-2137.500000,2181.818182,Speed,-2145.000000,2181.818182,Speed,Off,On0.000000,0,,,,
05:18:45.215 PM 03/19/2016,Teleop Enabled,10,FALSE,0,NO ERROR,-0.000000,0.025667,0.000000,0.128333,TRUE,FALSE,FALSE,FALSE,FALSE,FALSE,Disabled,0.000000,0.000000,0.000000,TRUE,0.020401,-0.186783,0.000000,0.086838,-0.113754,0.000000,0.027000,-0.127000,-0.038000,-0.250000,-0.250000,2.330000,0.044223,Hold,0.936035,0.000000,Hold,-189.000000,2.000000,Suck,-2130.000000,2181.818182,Speed,-2137.500000,2181.818182,Speed,Off,On0.000000,0,,,,
05:18:45.317 PM 03/19/2016,Teleop Enabled,11,FALSE,0,NO ERROR,-0.000000,0.025667,0.000000,0.128333,TRUE,FALSE,FALSE,FALSE,FALSE,FALSE,Disabled,0.000000,0.000000,0.000000,TRUE,0.023407,-0.193512,0.000000,0.000000,-0.202179,0.000000,-0.008000,-0.080000,-0.148000,-0.250000,-0.200000,2.330000,0.030246,Hold,0.936035,0.000000,Hold,-189.000000,2.000000,Suck,-2145.000000,2181.818182,Speed,-2145.000000,2181.818182,Speed,Off,On0.000000,0,,,,
05:18:45.418 PM 03/19/2016,Teleop Enabled,10,FALSE,0,NO ERROR,-0.000000,0.025667,0.000000,0.128333,TRUE,FALSE,FALSE,FALSE,FALSE,FALSE,Disabled,0.000000,0.000000,0.000000,TRUE,0.022751,-0.205612,0.000000,-0.028290,-0.257568,0.000000,-0.053000,-0.021000,0.000000,-0.250000,-0.220000,2.290000,0.032209,Hold,0.936035,0.000000,Hold,-189.000000,2.000000,Suck,-2137.500000,2181.818182,Speed,-2145.000000,2181.818182,Speed,Off,On0.000000,0,,,,
05:18:45.519 PM 03/19/2016,Teleop Enabled,10,FALSE,0,NO ERROR,-0.000000,0.025667,0.000000,0.128333,TRUE,FALSE,FALSE,FALSE,FALSE,FALSE,Disabled,0.000000,0.000000,0.000000,TRUE,0.019409,-0.218903,0.000000,-0.095139,-0.269897,0.000000,-0.003000,0.008000,0.065000,-0.250000,-0.220000,2.310000,0.024015,Hold,0.936035,0.000000,Hold,-189.000000,2.000000,Suck,-2137.500000,2181.818182,Speed,-2145.000000,2181.818182,Speed,Off,On0.000000,0,,,,
05:18:45.619 PM 03/19/2016,Teleop Enabled,9,FALSE,0,NO ERROR,-0.000000,0.025667,0.000000,0.128333,TRUE,FALSE,FALSE,FALSE,FALSE,FALSE,Disabled,0.000000,0.000000,0.000000,TRUE,0.013870,-0.229752,0.000000,-0.122070,0.000000,0.000000,-0.067000,0.089000,0.110000,-0.250000,-0.200000,2.280000,0.002444,Hold,0.936035,0.000000,Hold,-189.000000,2.000000,Suck,-2145.000000,2181.818182,Speed,-2137.500000,2181.818182,Speed,Off,On0.000000,0,,,,
05:18:45.720 PM 03/19/2016,Teleop Enabled,10,FALSE,0,NO ERROR,-0.000000,0.025667,0.000000,0.128333,TRUE,FALSE,FALSE,FALSE,FALSE,FALSE,Disabled,0.000000,0.000000,0.000000,TRUE,0.005478,-0.226089,0.000000,-0.137222,0.107361,0.000000,-0.004000,0.091000,0.016000,-0.250000,-0.210000,2.300000,-0.007174,Hold,0.936035,0.000000,Hold,-189.000000,2.000000,Suck,-2137.500000,2181.818182,Speed,-2145.000000,2181.818182,Speed,Off,On0.000000,0,,,,
05:18:45.820 PM 03/19/2016,Teleop Enabled,10,FALSE,0,NO ERROR,-0.000000,0.025667,0.000000,0.128333,TRUE,FALSE,FALSE,FALSE,FALSE,FALSE,Disabled,0.000000,0.000000,0.000000,TRUE,-0.001190,-0.218750,0.000000,-0.123886,0.178253,0.000000,0.086000,0.040000,0.090000,-0.250000,-0.220000,2.340000,-0.017560,Hold,0.936035,0.000000,Hold,-190.000000,2.000000,Suck,-2130.000000,2181.818182,Speed,-2145.000000,2181.818182,Speed,Off,On0.000000,0,,,,
05:18:45.920 PM 03/19/2016,Teleop Enabled,10,FALSE,0,NO ERROR,-0.000000,0.025667,0.000000,0.128333,TRUE,FALSE,FALSE,FALSE,FALSE,FALSE,Disabled,0.000000,0.000000,0.000000,TRUE,-0.003387,-0.207901,0.000000,0.000000,0.236755,0.000000,-0.032000,0.089000,0.115000,-0.250000,-0.170000,2.280000,-0.017437,Hold,0.936035,0.000000,Hold,-190.000000,2.000000,Suck,-2145.000000,2181.818182,Speed,-2145.000000,2181.818182,Speed,Off,On0.000000,0,,,,
05:18:46.020 PM 03/19/2016,Teleop Enabled,10,FALSE,0,NO ERROR,-0.000000,0.025667,0.000000,0.128333,TRUE,FALSE,FALSE,FALSE,FALSE,FALSE,Disabled,0.000000,0.000000,0.000000,TRUE,-0.003204,-0.194748,0.000000,0.009750,0.272171,0.000000,0.036000,-0.026000,0.076000,-0.250000,-0.170000,2.250000,-0.026219,Hold,0.936035,0.000000,Hold,-191.000000,2.000000,Suck,-2145.000000,2181.818182,Speed,-2160.000000,2181.818182,Speed,Off,On0.000000,0,,,,
05:18:46.120 PM 03/19/2016,Teleop Enabled,11,FALSE,0,NO ERROR,-0.000000,0.025667,0.000000,0.128333,TRUE,FALSE,FALSE,FALSE,FALSE,FALSE,Disabled,0.000000,0.000000,0.000000,TRUE,-0.002457,-0.181519,0.000000,0.019516,0.259262,0.000000,0.011000,-0.014000,-0.085000,-0.250000,-0.200000,2.270000,-0.030205,Hold,0.936035,0.000000,Hold,-191.000000,2.000000,Suck,-2137.500000,2181.818182,Speed,-2145.000000,2181.818182,Speed,Off,On0.000000,0,,,,
05:18:46.220 PM 03/19/2016,Teleop Enabled,10,FALSE,0,NO ERROR,-0.000000,0.025667,0.000000,0.128333,TRUE,FALSE,FALSE,FALSE,FALSE,FALSE,Disabled,0.000000,0.000000,0.000000,TRUE,-0.002106,-0.169189,0.000000,0.008820,0.223053,0.000000,-0.011000,-0.088000,-0.068000,-0.250000,-0.170000,2.280000,-0.023461,Hold,0.936035,0.000000,Hold,-191.000000,2.000000,Suck,-2137.500000,2181.818182,Speed,-2130.000000,2181.818182,Speed,Off,On0.000000,0,,,,
05:18:46.321 PM 03/19/2016,Teleop Enabled,11,FALSE,0,NO ERROR,-0.000000,0.025667,0.000000,0.128333,TRUE,FALSE,FALSE,FALSE,FALSE,FALSE,Disabled,0.000000,0.000000,0.000000,TRUE,-0.001511,-0.159531,0.000000,0.021637,0.124939,0.000000,0.089000,-0.045000,-0.015000,-0.250000,-0.210000,2.270000,-0.016882,Hold,0.936035,0.000000,Hold,-191.000000,2.000000,Suck,-2145.000000,2181.818182,Speed,-2130.000000,2181.818182,Speed,Off,On0.000000,0,,,,
05:18:46.421 PM 03/19/2016,Teleop Enabled,11,FALSE,0,NO ERROR,-0.000000,0.025667,0.000000,0.128333,TRUE,FALSE,FALSE,FALSE,FALSE,FALSE,Disabled,0.000000,0.000000,0.000000,TRUE,0.000458,-0.156052,0.000000,0.059631,0.070786,0.000000,0.020000,-0.056000,-0.016000,-0.260000,-0.210000,2.340000,-0.004324,Hold,0.936035,0.000000,Hold,-191.000000,2.000000,Suck,-2145.000000,2181.818182,Speed,-2137.500000,2181.818182,Speed,Off,On0.000000,0,,,,
05:18:46.520 PM 03/19/2016,Teleop Enabled,9,FALSE,0,NO ERROR,-0.000000,0.025667,0.000000,0.128333,TRUE,FALSE,FALSE,FALSE,FALSE,FALSE,Disabled,0.000000,0.000000,0.000000,TRUE,0.003891,-0.155182,0.000000,0.074493,-0.019882,0.000000,-0.071000,0.007000,-0.037000,-0.260000,-0.200000,2.280000,-0.010951,Hold,0.936035,0.000000,Hold,-191.000000,2.000000,Suck,-2130.000000,2181.818182,Speed,-2137.500000,2181.818182,Speed,Off,On0.000000,0,,,,
05:18:46.620 PM 03/19/2016,Teleop Enabled,10,FALSE,0,NO ERROR,-0.000000,0.025667,0.000000,0.128333,TRUE,FALSE,FALSE,FALSE,FALSE,FALSE,Disabled,0.000000,0.000000,0.000000,TRUE,0.006042,-0.155823,0.000000,0.021317,-0.002121,0.000000,-0.035000,0.019000,0.000000,-0.250000,-0.230000,2.270000,-0.021389,Hold,0.936035,0.000000,Hold,-191.000000,2.000000,Suck,-2130.000000,2181.818182,Speed,-2137.500000,2181.818182,Speed,Off,On0.000000,0,,,,
05:18:46.720 PM 03/19/2016,Teleop Enabled,9,FALSE,0,NO ERROR,-0.000000,0.025667,0.000000,0.128333,TRUE,FALSE,FALSE,FALSE,FALSE,FALSE,Disabled,0.000000,0.000000,0.000000,TRUE,0.006866,-0.155869,0.000000,0.018723,0.015076,0.000000,-0.035000,0.019000,0.000000,-0.260000,-0.180000,2.260000,-0.015743,Hold,0.936035,0.000000,Hold,-191.000000,2.000000,Suck,-2145.000000,2181.818182,Speed,-2137.500000,2181.818182,Speed,Off,On0.000000,0,,,,
05:18:46.820 PM 03/19/2016,Teleop Enabled,10,FALSE,0,NO ERROR,-0.000000,0.025667,0.000000,0.128333,TRUE,FALSE,FALSE,FALSE,FALSE,FALSE,Disabled,0.000000,0.000000,0.000000,TRUE,0.006973,-0.153244,0.000000,-0.010056,0.092056,0.000000,0.031000,-0.003000,0.065000,-0.260000,-0.200000,2.260000,-0.029455,Hold,0.936035,0.000000,Hold,-192.000000,2.000000,Suck,-2145.000000,2181.818182,Speed,-2130.000000,2181.818182,Speed,Off,On0.000000,0,,,,
05:18:46.921 PM 03/19/2016,Teleop Enabled,10,FALSE,0,NO ERROR,-0.000000,0.025667,0.000000,0.128333,TRUE,FALSE,FALSE,FALSE,FALSE,FALSE,Disabled,0.000000,0.000000,0.000000,TRUE,0.006882,-0.146805,0.000000,0.002075,0.165939,0.000000,0.029000,0.057000,0.091000,-0.260000,-0.210000,2.280000,-0.025375,Hold,0.936035,0.000000,Hold,-192.000000,2.000000,Suck,-2137.500000,2181.818182,Speed,-2137.500000,2181.818182,Speed,Off,On0.000000,0,,,,
05:18:47.020 PM 03/19/2016,Teleop Enabled,9,FALSE,0,NO ERROR,-0.000000,0.025667,0.000000,0.128333,TRUE,FALSE,FALSE,FALSE,FALSE,FALSE,Disabled,0.000000,0.000000,0.000000,TRUE,0.007553,-0.136810,0.000000,0.018997,0.213348,0.000000,0.029000,0.083000,0.164000,-0.260000,-0.220000,2.250000,-0.036364,Hold,0.936035,0.000000,Hold,-192.000000,2.000000,Suck,-2137.500000,2181.818182,Speed,-2137.500000,2181.818182,Speed,Off,On0.000000,0,,,,
05:18:47.120 PM 03/19/2016,Teleop Enabled,9,FALSE,0,NO ERROR,-0.000000,0.025667,0.000000,0.128333,TRUE,FALSE,FALSE,FALSE,FALSE,FALSE,Disabled,0.000000,0.000000,0.000000,TRUE,0.008713,-0.122635,0.000000,0.013763,0.245560,0.000000,0.029000,0.083000,0.164000,-0.250000,-0.260000,2.310000,-0.033324,Hold,0.936035,0.000000,Hold,-193.000000,2.000000,Suck,-2145.000000,2181.818182,Speed,-2137.500000,2181.818182,Speed,Off,On0.000000,0,,,,
05:18:47.221 PM 03/19/2016,Teleop Enabled,11,FALSE,0,NO ERROR,-0.000000,0.025667,0.000000,0.128333,TRUE,FALSE,FALSE,FALSE,FALSE,FALSE,Disabled,0.000000,0.000000,0.000000,TRUE,0.009140,-0.120422,0.000000,0.019150,-0.019608,0.000000,0.009000,-0.082000,-0.102000,-0.260000,-0.240000,2.310000,-0.050127,Hold,0.936035,0.000000,Hold,-193.000000,2.000000,Suck,-2130.000000,2181.818182,Speed,-2137.500000,2181.818182,Speed,Off,On0.000000,0,,,,
05:18:47.320 PM 03/19/2016,Teleop Enabled,10,FALSE,0,NO ERROR,-0.000000,0.025667,0.000000,0.128333,TRUE,FALSE,FALSE,FALSE,FALSE,FALSE,Disabled,0.000000,0.000000,0.000000,TRUE,0.009811,-0.124039,0.000000,0.018280,-0.094315,0.000000,0.009000,-0.082000,-0.102000,-0.250000,-0.260000,2.270000,-0.057050,Hold,0.936035,0.000000,Hold,-193.000000,2.000000,Suck,-2130.000000,2181.818182,Speed,-2137.500000,2181.818182,Speed,Off,On0.000000,0,,,,
05:18:47.420 PM 03/19/2016,Teleop Enabled,8,FALSE,0,NO ERROR,-0.000000,0.025667,0.000000,0.128333,TRUE,FALSE,FALSE,FALSE,FALSE,FALSE,Disabled,0.000000,0.000000,0.000000,TRUE,0.012207,-0.131424,0.000000,0.068192,-0.169189,0.000000,-0.004000,0.013000,-0.046000,-0.260000,-0.260000,2.290000,-0.070672,Hold,0.936035,0.000000,Hold,-194.000000,2.000000,Suck,-2137.500000,2181.818182,Speed,-2137.500000,2181.818182,Speed,Off,On0.000000,0,,,,
05:18:47.520 PM 03/19/2016,Teleop Enabled,9,FALSE,0,NO ERROR,-0.000000,0.025667,0.000000,0.128333,TRUE,FALSE,FALSE,FALSE,FALSE,FALSE,Disabled,0.000000,0.000000,0.000000,TRUE,0.015488,-0.141846,0.000000,0.063004,-0.245972,0.000000,-0.004000,0.013000,-0.046000,-0.250000,-0.200000,2.260000,-0.089575,Hold,0.936035,0.000000,Hold,-194.000000,2.000000,Suck,-2137.500000,2181.818182,Speed,-2137.500000,2181.818182,Speed,Off,On0.000000,0,,,,
05:18:47.620 PM 03/19/2016,Teleop Enabled,9,FALSE,0,NO ERROR,-0.000000,0.025667,0.000000,0.128333,TRUE,FALSE,FALSE,FALSE,FALSE,FALSE,Disabled,0.000000,0.000000,0.000000,TRUE,0.016830,-0.153793,0.000000,-0.006454,-0.219467,0.000000,-0.036000,-0.031000,-0.088000,-0.260000,-0.260000,2.320000,-0.098158,Hold,0.936035,0.000000,Hold,-194.000000,2.000000,Suck,-2137.500000,2181.818182,Speed,-2137.500000,2181.818182,Speed,Off,On0.000000,0,,,,
05:18:47.720 PM 03/19/2016,Teleop Enabled,11,FALSE,0,NO ERROR,-0.000000,0.025667,0.000000,0.128333,TRUE,FALSE,FALSE,FALSE,FALSE,FALSE,Disabled,0.000000,0.000000,0.000000,TRUE,0.015976,-0.155991,0.000000,-0.022751,-0.001602,0.000000,-0.052000,0.004000,0.083000,-0.260000,-0.260000,2.320000,-0.093999,Hold,0.936035,0.000000,Hold,-194.000000,2.000000,Suck,-2130.000000,2181.818182,Speed,-2137.500000,2181.818182,Speed,Off,On0.000000,0,,,,
05:18:47.821 PM 03/19/2016,Teleop Enabled,9,FALSE,0,NO ERROR,-0.000000,0.025667,0.000000,0.128333,TRUE,FALSE,FALSE,FALSE,FALSE,FALSE,Disabled,0.000000,0.000000,0.000000,TRUE,0.014145,-0.153366,0.000000,-0.041153,0.087799,0.000000,-0.052000,0.129000,0.128000,-0.250000,-0.260000,2.300000,-0.091190,Hold,0.936035,0.000000,Hold,-194.000000,2.000000,Suck,-2130.000000,2181.818182,Speed,-2137.500000,2181.818182,Speed,Off,On0.000000,0,,,,
05:18:47.921 PM 03/19/2016,Teleop Enabled,10,FALSE,0,NO ERROR,-0.000000,0.025667,0.000000,0.128333,TRUE,FALSE,FALSE,FALSE,FALSE,FALSE,Disabled,0.000000,0.000000,0.000000,TRUE,0.012421,-0.146683,0.000000,-0.027512,0.163300,0.000000,0.007000,0.118000,0.087000,-0.250000,-0.260000,2.300000,-0.092426,Hold,0.936035,0.000000,Hold,-194.000000,2.000000,Suck,-2137.500000,2181.818182,Speed,-2137.500000,2181.818182,Speed,Off,On0.000000,0,,,,
05:18:48.022 PM 03/19/2016,Teleop Enabled,1,FALSE,0,NO ERROR,-0.000000,0.025667,0.000000,0.128333,TRUE,FALSE,FALSE,FALSE,FALSE,FALSE,Disabled,0.000000,0.000000,0.000000,TRUE,0.011154,-0.136780,0.000000,-0.012573,0.208084,0.000000,0.004000,0.007000,0.074000,-0.260000,-0.220000,2.300000,-0.107996,Hold,0.936035,0.000000,Hold,-194.000000,2.000000,Suck,-2152.500000,2181.818182,Speed,-2137.500000,2181.818182,Speed,Off,On0.000000,0,,,,
05:18:48.122 PM 03/19/2016,Teleop Enabled,11,FALSE,0,NO ERROR,-0.000000,0.025667,0.000000,0.128333,TRUE,FALSE,FALSE,FALSE,FALSE,FALSE,Disabled,0.000000,0.000000,0.000000,TRUE,0.011307,-0.128296,0.000000,0.000000,-0.003693,0.000000,0.004000,0.007000,0.074000,-0.260000,-0.240000,2.340000,-0.115085,Hold,0.936035,0.000000,Hold,-194.000000,2.000000,Suck,-2145.000000,2181.818182,Speed,-2130.000000,2181.818182,Speed,Off,On0.000000,0,,,,
05:18:48.224 PM 03/19/2016,Teleop Enabled,9,FALSE,0,NO ERROR,-0.000000,0.025667,0.000000,0.128333,TRUE,FALSE,FALSE,FALSE,FALSE,FALSE,Disabled,0.000000,0.000000,0.000000,TRUE,0.011871,-0.129059,0.000000,0.020142,-0.027100,0.000000,-0.001000,-0.039000,0.049000,-0.260000,-0.220000,2.320000,-0.122738,Hold,0.936035,0.000000,Hold,-194.000000,2.000000,Suck,-2137.500000,2181.818182,Speed,-2137.500000,2181.818182,Speed,Off,On0.000000,0,,,,
05:18:48.324 PM 03/19/2016,Teleop Enabled,9,FALSE,0,NO ERROR,-0.000000,0.025667,0.000000,0.128333,TRUE,FALSE,FALSE,FALSE,FALSE,FALSE,Disabled,0.000000,0.000000,0.000000,TRUE,0.013138,-0.131393,0.000000,0.027267,-0.066101,0.000000,0.037000,-0.013000,-0.058000,-0.270000,-0.270000,2.320000,-0.128703,Hold,0.936035,0.000000,Hold,-194.000000,2.000000,Suck,-2137.500000,2181.818182,Speed,-2137.500000,2181.818182,Speed,Off,On0.000000,0,,,,
05:18:48.425 PM 03/19/2016,Teleop Enabled,10,FALSE,0,NO ERROR,-0.000000,0.025667,0.000000,0.128333,TRUE,FALSE,FALSE,FALSE,FALSE,FALSE,Disabled,0.000000,0.000000,0.000000,TRUE,0.015823,-0.137085,0.000000,0.073120,-0.140381,0.000000,0.015000,-0.107000,-0.156000,-0.270000,-0.300000,2.380000,-0.140997,Hold,0.936035,0.000000,Hold,-194.000000,2.000000,Suck,-2145.000000,2181.818182,Speed,-2145.000000,2181.818182,Speed,Off,On0.000000,0,,,,
05:18:48.527 PM 03/19/2016,Teleop Enabled,9,FALSE,0,NO ERROR,-0.000000,0.025667,0.000000,0.128333,TRUE,FALSE,FALSE,FALSE,FALSE,FALSE,Disabled,0.000000,0.000000,0.000000,TRUE,0.020386,-0.146698,0.000000,0.098587,-0.219330,0.000000,-0.066000,0.000000,0.035000,-0.260000,-0.260000,2.360000,-0.138291,Hold,0.936035,0.000000,Hold,-194.000000,2.000000,Suck,-2145.000000,2181.818182,Speed,-2130.000000,2181.818182,Speed,Off,On0.000000,0,,,,
05:18:48.626 PM 03/19/2016,Teleop Enabled,10,FALSE,0,NO ERROR,-0.000000,0.025667,0.000000,0.128333,TRUE,FALSE,FALSE,FALSE,FALSE,FALSE,Disabled,0.000000,0.000000,0.000000,TRUE,0.023758,-0.158356,0.000000,0.040604,-0.239044,0.000000,-0.072000,-0.064000,-0.023000,-0.260000,-0.280000,2.370000,-0.140677,Hold,0.936035,0.000000,Hold,-195.000000,2.000000,Suck,-2145.000000,2181.818182,Speed,-2137.500000,2181.818182,Speed,Off,On0.000000,0,,,,
05:18:48.727 PM 03/19/2016,Teleop Enabled,11,FALSE,0,NO ERROR,-0.000000,0.025667,0.000000,0.128333,TRUE,FALSE,FALSE,FALSE,FALSE,FALSE,Disabled,0.000000,0.000000,0.000000,TRUE,0.024628,-0.170258,0.000000,0.005692,-0.231796,0.000000,-0.019000,0.009000,0.114000,-0.270000,-0.240000,2.390000,-0.158771,Hold,0.936035,0.000000,Hold,-195.000000,2.000000,Suck,-2130.000000,2181.818182,Speed,-2137.500000,2181.818182,Speed,Off,On0.000000,0,,,,
05:18:48.828 PM 03/19/2016,Teleop Enabled,10,FALSE,0,NO ERROR,-0.000000,0.025667,0.000000,0.128333,TRUE,FALSE,FALSE,FALSE,FALSE,FALSE,Disabled,0.000000,0.000000,0.000000,TRUE,0.024338,-0.172073,0.000000,-0.015823,0.029617,0.000000,-0.019000,0.009000,0.114000,-0.270000,-0.240000,2.390000,-0.154530,Hold,0.936035,0.000000,Hold,-195.000000,2.000000,Suck,-2137.500000,2181.818182,Speed,-2137.500000,2181.818182,Speed,Off,On0.000000,0,,,,
05:18:48.929 PM 03/19/2016,Teleop Enabled,10,FALSE,0,NO ERROR,-0.000000,0.025667,0.000000,0.128333,TRUE,FALSE,FALSE,FALSE,FALSE,FALSE,Disabled,0.000000,0.000000,0.000000,TRUE,0.023041,-0.168045,0.000000,-0.030243,0.108841,0.000000,-0.038000,0.063000,0.044000,-0.270000,-0.280000,2.370000,-0.173051,Hold,0.936035,0.000000,Hold,-195.000000,2.000000,Suck,-2145.000000,2181.818182,Speed,-2137.500000,2181.818182,Speed,Off,On0.000000,0,,,,
05:18:49.028 PM 03/19/2016,Teleop Enabled,10,FALSE,0,NO ERROR,-0.000000,0.025667,0.000000,0.128333,TRUE,FALSE,FALSE,FALSE,FALSE,FALSE,Disabled,0.000000,0.000000,0.000000,TRUE,0.022690,-0.161102,0.000000,0.013535,0.152634,0.000000,0.040000,-0.054000,0.056000,-0.270000,-0.260000,2.320000,-0.165924,Hold,0.936035,0.000000,Hold,-195.000000,2.000000,Suck,-2145.000000,2181.818182,Speed,-2137.500000,2181.818182,Speed,Off,On0.000000,0,,,,
05:18:49.129 PM 03/19/2016,Teleop Enabled,9,FALSE,0,NO ERROR,-0.000000,0.025667,0.000000,0.128333,TRUE,FALSE,FALSE,FALSE,FALSE,FALSE,Disabled,0.000000,0.000000,0.000000,TRUE,0.023315,-0.150589,0.000000,-0.002411,0.197113,0.000000,0.040000,-0.054000,0.056000,-0.270000,-0.260000,2.320000,-0.185199,Hold,0.936035,0.000000,Hold,-195.000000,2.000000,Suck,-2145.000000,2181.818182,Speed,-2130.000000,2181.818182,Speed,Off,On0.000000,0,,,,
05:18:49.229 PM 03/19/2016,Teleop Enabled,11,FALSE,0,NO ERROR,-0.000000,0.025667,0.000000,0.128333,TRUE,FALSE,FALSE,FALSE,FALSE,FALSE,Disabled,0.000000,0.000000,0.000000,TRUE,0.022583,-0.146545,0.000000,-0.018829,-0.003448,0.000000,-0.020000,0.046000,0.071000,-0.270000,-0.290000,2.360000,-0.205245,Hold,0.936035,0.000000,Hold,-195.000000,2.000000,Suck,-2145.000000,2181.818182,Speed,-2137.500000,2181.818182,Speed,Off,On0.000000,0,,,,
05:18:49.330 PM 03/19/2016,Teleop Enabled,11,FALSE,0,NO ERROR,-0.000000,0.025667,0.000000,0.128333,TRUE,FALSE,FALSE,FALSE,FALSE,FALSE,Disabled,0.000000,0.000000,0.000000,TRUE,0.021713,-0.147736,0.000000,-0.011505,-0.044327,0.000000,-0.028000,-0.036000,-0.046000,-0.270000,-0.260000,2.340000,-0.196904,Hold,0.936035,0.000000,Hold,-195.000000,2.000000,Suck,-2137.500000,2181.818182,Speed,-2137.500000,2181.818182,Speed,Off,On0.000000,0,,,,
05:18:49.432 PM 03/19/2016,Teleop Enabled,9,FALSE,0,NO ERROR,-0.000000,0.025667,0.000000,0.128333,TRUE,FALSE,FALSE,FALSE,FALSE,FALSE,Disabled,0.000000,0.000000,0.000000,TRUE,0.022781,-0.149551,0.000000,0.049515,-0.001831,0.000000,0.049000,-0.038000,0.003000,-0.270000,-0.300000,2.340000,-0.200901,Hold,0.936035,0.000000,Hold,-195.000000,2.000000,Suck,-2145.000000,2181.818182,Speed,-2137.500000,2181.818182,Speed,Off,On0.000000,0,,,,
05:18:49.532 PM 03/19/2016,Teleop Enabled,12,FALSE,0,NO ERROR,-0.000000,0.025667,0.000000,0.128333,TRUE,FALSE,FALSE,FALSE,FALSE,FALSE,Disabled,0.000000,0.000000,0.000000,TRUE,0.022781,-0.149551,0.000000,0.049515,-0.001831,0.000000,0.021000,-0.022000,-0.124000,-0.270000,-0.280000,2.410000,-0.221136,Hold,0.936035,0.000000,Hold,-195.000000,2.000000,Suck,-2160.000000,2181.818182,Speed,-2130.000000,2181.818182,Speed,Off,On0.000000,0,,,,
05:18:49.633 PM 03/19/2016,Teleop Enabled,9,FALSE,0,NO ERROR,-0.000000,0.025667,0.000000,0.128333,TRUE,FALSE,FALSE,FALSE,FALSE,FALSE,Disabled,0.000000,0.000000,0.000000,TRUE,0.029617,-0.154327,0.000000,0.055176,-0.090637,0.000000,0.008000,-0.061000,-0.085000,-0.270000,-0.280000,2.410000,-0.210698,Hold,0.936035,0.000000,Hold,-195.000000,2.000000,Suck,-2137.500000,2181.818182,Speed,-2130.000000,2181.818182,Speed,Off,On0.000000,0,,,,
05:18:49.735 PM 03/19/2016,Teleop Enabled,10,FALSE,0,NO ERROR,-0.000000,0.025667,0.000000,0.128333,TRUE,FALSE,FALSE,FALSE,FALSE,FALSE,Disabled,0.000000,0.000000,0.000000,TRUE,0.031403,-0.159332,0.000000,0.035095,-0.114426,0.000000,-0.061000,0.040000,0.018000,-0.270000,-0.290000,2.460000,-0.210117,Hold,0.936035,0.000000,Hold,-195.000000,2.000000,Suck,-2122.500000,2181.818182,Speed,-2137.500000,2181.818182,Speed,Off,On0.000000,0,,,,
05:18:49.834 PM 03/19/2016,Teleop Enabled,11,FALSE,0,NO ERROR,-0.000000,0.025667,0.000000,0.128333,TRUE,FALSE,FALSE,FALSE,FALSE,FALSE,Disabled,0.000000,0.000000,0.000000,TRUE,0.031479,-0.164474,0.000000,-0.026871,-0.090958,0.000000,-0.001000,0.040000,0.139000,-0.270000,-0.300000,2.470000,-0.210478,Hold,0.936035,0.000000,Hold,-195.000000,2.000000,Suck,-2130.000000,2181.818182,Speed,-2137.500000,2181.818182,Speed,Off,On0.000000,0,,,,
05:18:49.935 PM 03/19/2016,Teleop Enabled,10,FALSE,0,NO ERROR,-0.000000,0.025667,0.000000,0.128333,TRUE,FALSE,FALSE,FALSE,FALSE,FALSE,Disabled,0.000000,0.000000,0.000000,TRUE,0.031204,-0.168274,0.000000,0.000000,-0.071381,0.000000,-0.001000,0.040000,0.139000,-0.270000,-0.300000,2.470000,-0.218320,Hold,0.936035,0.000000,Hold,-195.000000,2.000000,Suck,-2152.500000,2181.818182,Speed,-2130.000000,2181.818182,Speed,Off,On0.000000,0,,,,
05:18:50.036 PM 03/19/2016,Teleop Enabled,10,FALSE,0,NO ERROR,-0.000000,0.025667,0.000000,0.128333,TRUE,FALSE,FALSE,FALSE,FALSE,FALSE,Disabled,0.000000,0.000000,0.000000,TRUE,0.031189,-0.170822,0.000000,0.009644,-0.034897,0.000000,0.057000,0.056000,0.114000,-0.270000,-0.260000,2.430000,-0.208474,Hold,0.936035,0.000000,Hold,-195.000000,2.000000,Suck,-2152.500000,2181.818182,Speed,-2137.500000,2181.818182,Speed,Off,On0.000000,0,,,,
05:18:50.136 PM 03/19/2016,Teleop Enabled,11,FALSE,0,NO ERROR,-0.000000,0.025667,0.000000,0.128333,TRUE,FALSE,FALSE,FALSE,FALSE,FALSE,Disabled,0.000000,0.000000,0.000000,TRUE,0.033005,-0.171005,0.000000,0.038086,0.023819,0.000000,0.057000,0.056000,0.114000,-0.270000,-0.270000,2.390000,-0.235922,Hold,0.936035,0.000000,Hold,-195.000000,2.000000,Suck,-2130.000000,2181.818182,Speed,-2145.000000,2181.818182,Speed,Off,On0.000000,0,,,,
05:18:50.238 PM 03/19/2016,Teleop Enabled,10,FALSE,0,NO ERROR,-0.000000,0.025667,0.000000,0.128333,TRUE,FALSE,FALSE,FALSE,FALSE,FALSE,Disabled,0.000000,0.000000,0.000000,TRUE,0.033005,-0.171005,0.000000,0.038086,0.023819,0.000000,0.000000,0.059000,0.063000,-0.270000,-0.250000,2.380000,-0.242008,Hold,0.936035,0.000000,Hold,-195.000000,2.000000,Suck,-2130.000000,2181.818182,Speed,-2137.500000,2181.818182,Speed,Off,On0.000000,0,,,,
05:18:50.339 PM 03/19/2016,Teleop Enabled,9,FALSE,0,NO ERROR,-0.000000,0.025667,0.000000,0.128333,TRUE,FALSE,FALSE,FALSE,FALSE,FALSE,Disabled,0.000000,0.000000,0.000000,TRUE,0.033325,-0.167603,0.000000,-0.005081,-0.005432,0.000000,0.016000,0.060000,0.138000,-0.270000,-0.230000,2.370000,-0.252646,Hold,0.936035,0.000000,Hold,-195.000000,2.000000,Suck,-2145.000000,2181.818182,Speed,-2137.500000,2181.818182,Speed,Off,On0.000000,0,,,,
05:18:50.440 PM 03/19/2016,Teleop Enabled,10,FALSE,0,NO ERROR,-0.000000,0.025667,0.000000,0.128333,TRUE,FALSE,FALSE,FALSE,FALSE,FALSE,Disabled,0.000000,0.000000,0.000000,TRUE,0.034088,-0.167831,0.000000,0.032211,-0.003983,0.000000,0.048000,0.002000,-0.026000,-0.270000,-0.250000,2.420000,-0.238845,Hold,0.936035,0.000000,Hold,-195.000000,2.000000,Suck,-2145.000000,2181.818182,Speed,-2145.000000,2181.818182,Speed,Off,On0.000000,0,,,,
05:18:50.540 PM 03/19/2016,Teleop Enabled,9,FALSE,0,NO ERROR,-0.000000,0.025667,0.000000,0.128333,TRUE,FALSE,FALSE,FALSE,FALSE,FALSE,Disabled,0.000000,0.000000,0.000000,TRUE,0.034088,-0.167831,0.000000,0.032211,-0.003983,0.000000,0.027000,-0.032000,0.056000,-0.280000,-0.230000,2.410000,-0.248783,Hold,0.936035,0.000000,Hold,-195.000000,2.000000,Suck,-2137.500000,2181.818182,Speed,-2137.500000,2181.818182,Speed,Off,On0.000000,0,,,,
05:18:50.641 PM 03/19/2016,Teleop Enabled,10,FALSE,0,NO ERROR,-0.000000,0.025667,0.000000,0.128333,TRUE,FALSE,FALSE,FALSE,FALSE,FALSE,Disabled,0.000000,0.000000,0.000000,TRUE,0.037247,-0.169846,0.000000,0.061981,-0.059067,0.000000,0.007000,-0.065000,-0.175000,-0.280000,-0.240000,2.410000,-0.242039,Hold,0.936035,0.000000,Hold,-195.000000,2.000000,Suck,-2145.000000,2181.818182,Speed,-2137.500000,2181.818182,Speed,Off,On0.000000,0,,,,
05:18:50.741 PM 03/19/2016,Teleop Enabled,10,FALSE,0,NO ERROR,-0.000000,0.025667,0.000000,0.128333,TRUE,FALSE,FALSE,FALSE,FALSE,FALSE,Disabled,0.000000,0.000000,0.000000,TRUE,0.039566,-0.173630,0.000000,0.031708,-0.081177,0.000000,-0.042000,-0.043000,-0.027000,-0.280000,-0.280000,2.430000,-0.262667,Hold,0.936035,0.000000,Hold,-195.000000,2.000000,Suck,-2145.000000,2181.818182,Speed,-2145.000000,2181.818182,Speed,Off,On0.000000,0,,,,
05:18:50.842 PM 03/19/2016,Teleop Enabled,10,FALSE,0,NO ERROR,-0.000000,0.025667,0.000000,0.128333,TRUE,FALSE,FALSE,FALSE,FALSE,FALSE,Disabled,0.000000,0.000000,0.000000,TRUE,0.040176,-0.179703,0.000000,0.000854,-0.153580,0.000000,-0.018000,-0.107000,-0.152000,-0.290000,-0.250000,2.410000,-0.272716,Hold,0.936035,0.000000,Hold,-195.000000,2.000000,Suck,-2145.000000,2181.818182,Speed,-2137.500000,2181.818182,Speed,Off,On0.000000,0,,,,
05:18:50.944 PM 03/19/2016,Teleop Enabled,11,FALSE,0,NO ERROR,-0.000000,0.025667,0.000000,0.128333,TRUE,FALSE,FALSE,FALSE,FALSE,FALSE,Disabled,0.000000,0.000000,0.000000,TRUE,0.039597,-0.187775,0.000000,0.000000,-0.157486,0.000000,-0.101000,0.015000,0.034000,-0.280000,-0.230000,2.390000,-0.272716,Hold,0.936035,0.000000,Hold,-195.000000,2.000000,Suck,-2137.500000,2181.818182,Speed,-2145.000000,2181.818182,Speed,Off,On0.000000,0,,,,
05:18:51.045 PM 03/19/2016,Teleop Enabled,10,FALSE,0,NO ERROR,-0.000000,0.025667,0.000000,0.128333,TRUE,FALSE,FALSE,FALSE,FALSE,FALSE,Disabled,0.000000,0.000000,0.000000,TRUE,0.038010,-0.187363,0.000000,-0.055969,0.024368,0.000000,-0.057000,0.036000,0.086000,-0.290000,-0.260000,2.430000,-0.279288,Hold,0.936035,0.000000,Hold,-195.000000,2.000000,Suck,-2145.000000,2181.818182,Speed,-2145.000000,2181.818182,Speed,Off,On0.000000,0,,,,
05:18:51.147 PM 03/19/2016,Teleop Enabled,9,FALSE,0,NO ERROR,-0.000000,0.025667,0.000000,0.128333,TRUE,FALSE,FALSE,FALSE,FALSE,FALSE,Disabled,0.000000,0.000000,0.000000,TRUE,0.036545,-0.185883,0.000000,-0.004593,0.023346,0.000000,0.025000,-0.019000,0.090000,-0.290000,-0.220000,2.400000,-0.279260,Hold,0.936035,0.000000,Hold,-195.000000,2.000000,Suck,-2145.000000,2181.818182,Speed,-2137.500000,2181.818182,Speed,Off,On0.000000,0,,,,
05:18:51.246 PM 03/19/2016,Teleop Enabled,11,FALSE,0,NO ERROR,-0.000000,0.025667,0.000000,0.128333,TRUE,FALSE,FALSE,FALSE,FALSE,FALSE,Disabled,0.000000,0.000000,0.000000,TRUE,0.036713,-0.183701,0.000000,0.017944,0.069733,0.000000,0.011000,0.060000,0.045000,-0.290000,-0.240000,2.440000,-0.311104,Hold,0.936035,0.000000,Hold,-195.000000,2.000000,Suck,-2137.500000,2181.818182,Speed,-2130.000000,2181.818182,Speed,Off,On0.000000,0,,,,
05:18:51.347 PM 03/19/2016,Teleop Enabled,10,FALSE,0,NO ERROR,-0.000000,0.025667,0.000000,0.128333,TRUE,FALSE,FALSE,FALSE,FALSE,FALSE,Disabled,0.000000,0.000000,0.000000,TRUE,0.038956,-0.181061,0.000000,0.060989,0.008789,0.000000,-0.018000,0.109000,0.096000,-0.290000,-0.210000,2.420000,-0.285161,Hold,0.936035,0.000000,Hold,-195.000000,2.000000,Suck,-2137.500000,2181.818182,Speed,-2152.500000,2181.818182,Speed,Off,On0.000000,0,,,,
05:18:51.448 PM 03/19/2016,Teleop Enabled,10,FALSE,0,NO ERROR,-0.000000,0.025667,0.000000,0.128333,TRUE,FALSE,FALSE,FALSE,FALSE,FALSE,Disabled,0.000000,0.000000,0.000000,TRUE,0.042068,-0.178696,0.000000,0.058029,0.061493,0.000000,-0.019000,0.085000,0.085000,-0.290000,-0.190000,2.430000,-0.297437,Hold,0.936035,0.000000,Hold,-195.000000,2.000000,Suck,-2145.000000,2181.818182,Speed,-2152.500000,2181.818182,Speed,Off,On0.000000,0,,,,
05:18:51.548 PM 03/19/2016,Teleop Enabled,11,FALSE,0,NO ERROR,-0.000000,0.025667,0.000000,0.128333,TRUE,FALSE,FALSE,FALSE,FALSE,FALSE,Disabled,0.000000,0.000000,0.000000,TRUE,0.042389,-0.174805,0.000000,-0.007721,0.073090,0.000000,-0.044000,0.049000,-0.008000,-0.280000,-0.230000,2.410000,-0.302504,Hold,0.936035,0.000000,Hold,-195.000000,2.000000,Suck,-2145.000000,2181.818182,Speed,-2137.500000,2181.818182,Speed,Off,On0.000000,0,,,,
05:18:51.649 PM 03/19/2016,Teleop Enabled,10,FALSE,0,NO ERROR,-0.000000,0.025667,0.000000,0.128333,TRUE,FALSE,FALSE,FALSE,FALSE,FALSE,Disabled,0.000000,0.000000,0.000000,TRUE,0.042252,-0.171570,0.000000,0.016312,0.055237,0.000000,0.030000,0.025000,0.073000,-0.280000,-0.210000,2.440000,-0.315376,Hold,0.936035,0.000000,Hold,-195.000000,2.000000,Suck,-2137.500000,2181.818182,Speed,-2137.500000,2181.818182,Speed,Off,On0.000000,0,,,,
05:18:51.750 PM 03/19/2016,Teleop Enabled,9,FALSE,0,NO ERROR,-0.000000,0.025667,0.000000,0.128333,TRUE,FALSE,FALSE,FALSE,FALSE,FALSE,Disabled,0.000000,0.000000,0.000000,TRUE,0.045593,-0.169235,0.000000,0.084732,0.020767,0.000000,-0.019000,-0.027000,-0.180000,-0.280000,-0.210000,2.440000,-0.322606,Hold,0.936035,0.000000,HighGoal,-195.000000,69632.000000,Suck,-2145.000000,2181.818182,Speed,-2145.000000,2181.818182,Speed,Off,On0.000000,0,,,,
05:18:51.850 PM 03/19/2016,Teleop Enabled,9,FALSE,0,NO ERROR,-0.000000,0.025667,0.000000,0.128333,TRUE,FALSE,FALSE,FALSE,FALSE,FALSE,Disabled,0.000000,0.000000,0.000000,TRUE,0.050323,-0.170059,0.000000,0.098358,-0.037811,0.000000,0.021000,-0.045000,-0.077000,-0.280000,-0.190000,2.460000,-0.330592,Hold,0.936035,0.000000,Hold,-195.000000,69632.000000,Suck,-2137.500000,2181.818182,Speed,-2145.000000,2181.818182,Speed,Off,On0.000000,0,,,,
05:18:51.951 PM 03/19/2016,Teleop Enabled,10,FALSE,0,NO ERROR,-0.000000,0.025667,0.000000,0.128333,TRUE,FALSE,FALSE,FALSE,FALSE,FALSE,Disabled,0.000000,0.000000,0.000000,TRUE,0.053436,-0.172958,0.000000,0.006409,-0.065979,0.000000,0.061000,0.011000,0.017000,-0.300000,-0.230000,2.420000,-0.348180,Hold,0.936035,0.000000,HighGoal,-11576.000000,69632.000000,Suck,-2137.500000,2181.818182,Speed,-2167.500000,2181.818182,Speed,Off,On0.000000,0,,,,
05:18:52.050 PM 03/19/2016,Teleop Enabled,11,FALSE,0,NO ERROR,-0.000000,0.025667,0.000000,0.128333,TRUE,FALSE,FALSE,FALSE,FALSE,FALSE,Disabled,0.000000,0.000000,0.000000,TRUE,0.053024,-0.173645,0.000000,-0.035828,0.004623,0.000000,-0.060000,-0.011000,0.099000,-0.300000,-0.180000,2.400000,-0.338101,Hold,0.936035,0.000000,Hold,-25473.000000,69632.000000,Suck,-2152.500000,2181.818182,Speed,-2152.500000,2181.818182,Speed,Off,On0.000000,0,,,,
05:18:52.150 PM 03/19/2016,Teleop Enabled,10,FALSE,0,NO ERROR,-0.000000,0.038500,0.000000,0.128333,TRUE,FALSE,FALSE,FALSE,FALSE,FALSE,Disabled,0.000000,0.000000,0.000000,TRUE,0.050140,-0.173569,0.000000,-0.062393,-0.008316,0.000000,-0.006000,-0.001000,0.072000,-0.210000,-0.060000,2.360000,-0.234476,Hold,0.936035,0.000000,Hold,-36436.000000,69632.000000,Suck,-2145.000000,2181.818182,Speed,-2145.000000,2181.818182,Speed,Off,On0.000000,0,,,,
05:18:52.250 PM 03/19/2016,Teleop Enabled,9,FALSE,0,NO ERROR,-0.000000,0.038500,0.000000,0.128333,TRUE,FALSE,FALSE,FALSE,FALSE,FALSE,Disabled,0.000000,0.000000,0.000000,TRUE,0.046280,-0.173065,0.000000,-0.093262,0.036896,0.000000,-0.063000,0.085000,0.076000,-0.330000,-0.160000,2.370000,-0.355148,Hold,0.936035,0.000000,Hold,-49307.000000,69632.000000,Suck,-2145.000000,2181.818182,Speed,-2152.500000,2181.818182,Speed,Off,On0.000000,0,,,,
05:18:52.350 PM 03/19/2016,Teleop Enabled,9,FALSE,0,NO ERROR,-0.000000,0.038500,0.000000,0.128333,TRUE,FALSE,FALSE,FALSE,FALSE,FALSE,Disabled,0.000000,0.000000,0.000000,TRUE,0.040665,-0.167542,0.000000,-0.118500,0.172333,0.000000,0.043000,0.133000,0.220000,-0.260000,-0.160000,2.320000,-0.349809,Hold,0.936035,0.000000,Hold,-62821.000000,69632.000000,Suck,-2145.000000,2181.818182,Speed,-2152.500000,2181.818182,Speed,Off,On0.000000,0,,,,
05:18:52.451 PM 03/19/2016,Teleop Enabled,10,FALSE,0,NO ERROR,-0.000000,0.038500,0.000000,0.128333,TRUE,FALSE,FALSE,FALSE,FALSE,FALSE,Disabled,0.000000,0.000000,0.000000,TRUE,0.036026,-0.155396,0.000000,-0.068466,0.293854,0.000000,0.011000,0.239000,0.082000,-0.230000,-0.190000,2.300000,-0.319328,Hold,0.936035,0.000000,Hold,-70994.000000,69632.000000,Suck,-2145.000000,2181.818182,Speed,-2152.500000,2181.818182,Speed,Off,On0.000000,0,,,,
05:18:52.551 PM 03/19/2016,Teleop Enabled,10,FALSE,0,NO ERROR,-0.000000,-0.160416,0.000000,0.083416,TRUE,FALSE,FALSE,FALSE,FALSE,FALSE,Disabled,0.000000,0.000000,0.000000,TRUE,0.032120,-0.131516,0.000000,-0.096039,0.434784,0.000000,-0.074000,0.081000,-0.159000,-0.860000,-0.570000,2.120000,-0.814103,Hold,0.936035,0.000000,Hold,-70994.000000,69632.000000,Suck,-2145.000000,2181.818182,Speed,-2145.000000,2181.818182,Speed,Off,On0.000000,0,,,,
05:18:52.651 PM 03/19/2016,Teleop Enabled,10,FALSE,0,NO ERROR,-0.000000,-0.166833,0.000000,0.070583,TRUE,FALSE,FALSE,FALSE,FALSE,FALSE,Disabled,0.000000,0.000000,0.000000,TRUE,0.027039,-0.112366,0.000000,-0.134293,0.473770,0.000000,-0.020000,-0.118000,-0.110000,-0.810000,-0.570000,2.390000,-0.990018,Hold,0.936035,0.000000,Hold,-69642.000000,69632.000000,Suck,-2137.500000,2181.818182,Speed,-2137.500000,2181.818182,Speed,Off,On0.000000,0,,,,
05:18:52.752 PM 03/19/2016,Teleop Enabled,10,FALSE,0,NO ERROR,-0.000000,-0.019250,0.000000,0.077000,TRUE,FALSE,FALSE,FALSE,FALSE,FALSE,Disabled,0.000000,0.000000,0.000000,TRUE,0.021317,-0.094177,0.000000,-0.066010,0.290665,0.000000,0.183000,-0.220000,-0.211000,-0.490000,-0.500000,2.430000,-0.614287,Hold,0.936035,0.000000,Hold,-69720.000000,69632.000000,Suck,-2152.500000,2181.818182,Speed,-2152.500000,2181.818182,Speed,Off,On0.000000,0,,,,
05:18:52.852 PM 03/19/2016,Teleop Enabled,10,FALSE,0,NO ERROR,-0.000000,-0.044917,0.000000,0.077000,TRUE,FALSE,FALSE,FALSE,FALSE,FALSE,Disabled,0.000000,0.000000,0.000000,TRUE,0.022064,-0.083832,0.000000,0.051010,0.162155,0.000000,-0.103000,-0.028000,0.113000,-0.660000,-0.300000,2.390000,-0.773594,Hold,0.936035,0.000000,Hold,-69687.000000,69632.000000,Suck,-2152.500000,2181.818182,Speed,-2152.500000,2181.818182,Speed,Off,On0.000000,0,,,,
05:18:52.952 PM 03/19/2016,Teleop Enabled,9,FALSE,0,NO ERROR,-0.000000,-0.038500,0.000000,0.077000,TRUE,FALSE,FALSE,FALSE,FALSE,FALSE,Disabled,0.000000,0.000000,0.000000,TRUE,0.023773,-0.076691,0.000000,0.048981,0.116135,0.000000,0.087000,-0.126000,-0.046000,-0.570000,-0.420000,2.390000,-0.738742,Hold,0.936035,0.000000,Hold,-69693.000000,69632.000000,Suck,-2145.000000,2181.818182,Speed,-2152.500000,2181.818182,Speed,Off,On0.000000,0,,,,
05:18:53.053 PM 03/19/2016,Teleop Enabled,9,FALSE,0,NO ERROR,-0.283465,-0.038500,0.283465,0.077000,TRUE,FALSE,FALSE,FALSE,FALSE,FALSE,Disabled,0.000000,0.000000,0.000000,TRUE,0.028549,-0.075333,0.000000,0.111481,-0.024521,0.000000,0.059000,-0.121000,-0.241000,-0.660000,-0.370000,2.420000,-0.794122,Hold,0.936035,0.000000,Hold,-69694.000000,69632.000000,Suck,-2137.500000,2181.818182,Speed,-2152.500000,2181.818182,Speed,Off,On0.000000,0,,,,
05:18:53.154 PM 03/19/2016,Teleop Enabled,9,FALSE,0,NO ERROR,-0.464567,0.032083,0.464567,-0.372166,TRUE,FALSE,FALSE,FALSE,FALSE,FALSE,Disabled,0.000000,0.000000,0.000000,TRUE,0.037079,-0.080353,0.000000,0.179825,-0.118896,0.000000,0.799000,-0.013000,-0.249000,-0.570000,-0.420000,2.440000,-0.764809,Hold,0.936035,0.000000,Hold,-69694.000000,69632.000000,Suck,-2137.500000,2181.818182,Speed,-2145.000000,2181.818182,Speed,Off,On0.000000,0,,,,
05:18:53.255 PM 03/19/2016,Teleop Enabled,10,FALSE,0,NO ERROR,-0.480315,1.052331,0.480315,-1.860829,FALSE,FALSE,FALSE,FALSE,FALSE,FALSE,Disabled,0.000000,0.000000,0.000000,TRUE,0.055328,-0.089035,0.000000,0.389481,-0.117722,0.000000,0.021000,0.098000,-0.029000,2.670000,0.480000,3.230000,3.126907,Hold,0.936279,0.000000,Hold,-69694.000000,69632.000000,Suck,-2137.500000,2181.818182,Speed,-2130.000000,2181.818182,Speed,Off,On0.000000,0,,,,
05:18:53.355 PM 03/19/2016,Teleop Enabled,10,FALSE,0,NO ERROR,-0.582677,3.079993,0.582677,-4.273490,FALSE,FALSE,FALSE,FALSE,FALSE,FALSE,Disabled,0.000000,0.000000,0.000000,TRUE,0.075058,-0.090942,0.000000,0.397141,-0.063828,0.000000,0.055000,0.249000,0.831000,11.370000,0.380000,3.280000,11.756233,Hold,0.936279,0.000000,Hold,-69766.000000,69632.000000,Suck,-2107.500000,2181.818182,Speed,-2107.500000,2181.818182,Speed,Off,On0.000000,0,,,,
05:18:53.456 PM 03/19/2016,Teleop Enabled,10,FALSE,0,NO ERROR,-0.582677,5.781403,0.582677,-7.237983,FALSE,FALSE,FALSE,FALSE,FALSE,FALSE,Disabled,0.000000,0.000000,0.000000,TRUE,0.097015,-0.094543,0.000000,0.507599,-0.066269,0.000000,0.328000,0.079000,-0.152000,24.720000,0.800000,3.620000,22.472369,Hold,0.936279,0.000000,Hold,-69782.000000,69632.000000,Suck,-2115.000000,2181.818182,Speed,-2122.500000,2181.818182,Speed,Off,On0.000000,0,,,,
05:18:53.557 PM 03/19/2016,Teleop Enabled,10,FALSE,0,NO ERROR,-0.582677,9.259228,0.582677,-10.773558,FALSE,FALSE,FALSE,FALSE,FALSE,FALSE,Disabled,0.000000,0.000000,0.000000,TRUE,0.130936,-0.094574,0.000000,0.768143,0.026855,0.000000,0.059000,-0.164000,-0.133000,39.070000,0.270000,3.970000,36.249183,Hold,0.936279,0.000000,Hold,-69742.000000,69632.000000,Suck,-2130.000000,2181.818182,Speed,-2122.500000,2181.818182,Speed,Off,On0.000000,0,,,,
05:18:53.658 PM 03/19/2016,Teleop Enabled,5,FALSE,0,NO ERROR,-0.598425,12.852553,0.598425,-14.482383,FALSE,FALSE,FALSE,FALSE,FALSE,FALSE,Disabled,0.000000,0.000000,0.000000,TRUE,0.170319,-0.097717,0.000000,0.759491,-0.140396,0.000000,-0.154000,-0.166000,0.247000,51.070000,0.390000,3.740000,50.796198,Hold,0.936279,0.000000,Hold,-69742.000000,69632.000000,Suck,-2130.000000,2181.818182,Speed,-2130.000000,2181.818182,Speed,Off,On0.000000,0,,,,
05:18:53.759 PM 03/19/2016,Teleop Enabled,10,FALSE,0,NO ERROR,-0.598425,16.426628,0.598425,-18.011541,FALSE,FALSE,FALSE,FALSE,FALSE,FALSE,Disabled,0.000000,0.000000,0.000000,TRUE,0.204208,-0.109283,0.000000,0.666672,-0.283737,0.000000,-0.129000,-0.197000,-0.140000,68.680000,0.180000,3.730000,64.996223,Hold,0.936279,0.000000,Hold,-69742.000000,69632.000000,Suck,-2122.500000,2181.818182,Speed,-2130.000000,2181.818182,Speed,Off,On0.000000,0,,,,
05:18:53.860 PM 03/19/2016,Teleop Enabled,11,FALSE,0,NO ERROR,-0.330709,20.000703,0.330709,-21.502200,FALSE,FALSE,FALSE,FALSE,FALSE,FALSE,Disabled,0.000000,0.000000,0.000000,TRUE,0.233673,-0.129089,0.000000,0.503326,-0.485611,0.000000,-0.327000,-0.169000,-0.044000,80.360000,0.330000,3.370000,79.154759,Hold,0.936279,0.000000,Hold,-69742.000000,69632.000000,Suck,-2122.500000,2181.818182,Speed,-2115.000000,2181.818182,Speed,Off,On0.000000,0,,,,
05:18:53.960 PM 03/19/2016,Teleop Enabled,10,FALSE,0,NO ERROR,-0.000000,23.151279,0.000000,-24.569359,FALSE,FALSE,FALSE,FALSE,FALSE,FALSE,Disabled,0.000000,0.000000,0.000000,TRUE,0.250320,-0.156876,0.000000,0.249390,-0.544327,0.000000,-0.298000,0.087000,-0.094000,97.200000,-0.060000,3.040000,92.859875,Hold,0.936279,0.000000,Hold,-69742.000000,69632.000000,Suck,-2122.500000,2181.818182,Speed,-2122.500000,2181.818182,Speed,Off,On0.000000,0,,,,
05:18:54.060 PM 03/19/2016,Teleop Enabled,10,FALSE,0,NO ERROR,-0.000000,24.408943,0.000000,-25.647357,TRUE,FALSE,FALSE,FALSE,FALSE,FALSE,Disabled,0.000000,0.000000,0.000000,TRUE,0.256088,-0.179642,0.000000,-0.000916,-0.315704,0.000000,0.044000,0.133000,0.373000,104.410000,-1.000000,1.610000,100.677409,Hold,0.936279,0.000000,Hold,-69742.000000,69632.000000,Suck,-2145.000000,2181.818182,Speed,-2160.000000,2181.818182,Speed,Off,On0.000000,0,,,,
05:18:54.161 PM 03/19/2016,Teleop Enabled,10,FALSE,0,NO ERROR,0.370079,24.537276,0.370079,-25.570357,TRUE,FALSE,FALSE,FALSE,FALSE,FALSE,Disabled,0.000000,0.000000,0.000000,TRUE,0.257187,-0.189804,0.000000,0.084900,-0.189880,0.000000,0.179000,-0.013000,0.251000,104.410000,-1.210000,1.680000,100.792700,Hold,0.936279,0.000000,Hold,-69710.000000,69632.000000,Suck,-2145.000000,2181.818182,Speed,-2160.000000,2181.818182,Speed,Off,On0.000000,0,,,,
05:18:54.261 PM 03/19/2016,Teleop Enabled,11,FALSE,0,NO ERROR,0.472441,25.403524,0.472441,-24.697692,FALSE,FALSE,FALSE,FALSE,FALSE,FALSE,Disabled,0.000000,0.000000,0.000000,TRUE,0.264938,-0.184769,0.000000,0.161804,0.292694,0.000000,0.239000,0.121000,0.486000,103.820000,-3.200000,1.780000,100.217593,Hold,0.936279,0.000000,Hold,-69712.000000,69632.000000,Suck,-2137.500000,2181.818182,Speed,-2130.000000,2181.818182,Speed,Off,On0.000000,0,,,,
05:18:54.361 PM 03/19/2016,Teleop Enabled,9,FALSE,0,NO ERROR,0.480315,27.476102,0.480315,-22.625114,FALSE,FALSE,FALSE,FALSE,FALSE,FALSE,Disabled,0.000000,0.000000,0.000000,TRUE,0.279083,-0.165161,0.000000,0.358826,0.447449,0.000000,0.141000,0.142000,-0.185000,103.820000,-5.240000,1.700000,100.181549,Hold,0.936279,0.000000,Hold,-69811.000000,69632.000000,Suck,-2122.500000,2181.818182,Speed,-2107.500000,2181.818182,Speed,Off,On0.000000,0,,,,
05:18:54.461 PM 03/19/2016,Teleop Enabled,10,FALSE,0,NO ERROR,0.480315,30.222429,0.480315,-19.923703,FALSE,FALSE,FALSE,FALSE,FALSE,FALSE,Disabled,0.000000,0.000000,0.000000,TRUE,0.300110,-0.139801,0.000000,0.425247,0.551788,0.000000,-0.218000,0.342000,0.428000,104.000000,-3.800000,1.750000,100.243247,Hold,0.936279,0.000000,Hold,-69811.000000,69632.000000,Suck,-2115.000000,2181.818182,Speed,-2122.500000,2181.818182,Speed,Off,On0.000000,0,,,,
05:18:54.562 PM 03/19/2016,Teleop Enabled,11,FALSE,0,NO ERROR,0.480315,33.687421,0.480315,-16.510045,FALSE,FALSE,FALSE,FALSE,FALSE,FALSE,Disabled,0.000000,0.000000,0.000000,TRUE,0.320618,-0.112427,0.000000,0.391327,0.535751,0.000000,-0.247000,-0.063000,-0.046000,104.200000,-4.260000,1.900000,100.404248,Hold,0.936279,0.000000,Hold,-69721.000000,69632.000000,Suck,-2130.000000,2181.818182,Speed,-2130.000000,2181.818182,Speed,Off,On0.000000,0,,,,
05:18:54.663 PM 03/19/2016,Teleop Enabled,10,FALSE,0,NO ERROR,0.472441,37.152413,0.472441,-13.064303,FALSE,FALSE,FALSE,FALSE,FALSE,FALSE,Disabled,0.000000,0.000000,0.000000,TRUE,0.335114,-0.086533,0.000000,0.229523,0.507751,0.000000,0.058000,0.021000,-0.347000,104.350000,-4.030000,1.910000,100.521588,Hold,0.936279,0.000000,Hold,-69776.000000,69632.000000,Suck,-2137.500000,2181.818182,Speed,-2145.000000,2181.818182,Speed,Off,On0.000000,0,,,,
05:18:54.764 PM 03/19/2016,Teleop Enabled,10,FALSE,0,NO ERROR,0.480315,40.662322,0.480315,-9.503061,FALSE,FALSE,FALSE,FALSE,FALSE,FALSE,Disabled,0.000000,0.000000,0.000000,TRUE,0.345093,-0.061707,0.000000,0.162033,0.499466,0.000000,-0.075000,-0.100000,-0.020000,104.340000,-3.600000,1.950000,100.472683,Hold,0.936279,0.000000,Hold,-69776.000000,69632.000000,Suck,-2130.000000,2181.818182,Speed,-2130.000000,2181.818182,Speed,Off,On0.000000,0,,,,
05:18:54.865 PM 03/19/2016,Teleop Enabled,9,FALSE,0,NO ERROR,0.480315,44.268480,0.480315,-5.794236,FALSE,FALSE,FALSE,FALSE,FALSE,FALSE,Disabled,0.000000,0.000000,0.000000,TRUE,0.350494,-0.038864,0.000000,0.068100,0.418686,0.000000,-0.092000,-0.006000,-0.141000,104.330000,-3.640000,2.010000,100.452520,Hold,0.936279,0.000000,Hold,-69683.000000,69632.000000,Suck,-2137.500000,2181.818182,Speed,-2130.000000,2181.818182,Speed,Off,On0.000000,0,,,,
05:18:54.965 PM 03/19/2016,Teleop Enabled,10,FALSE,0,NO ERROR,0.456693,47.951638,0.456693,-2.277911,FALSE,FALSE,FALSE,FALSE,FALSE,FALSE,Disabled,0.000000,0.000000,0.000000,TRUE,0.351715,-0.019302,0.000000,0.009583,0.374771,0.000000,0.006000,-0.094000,0.099000,104.460000,-3.320000,2.040000,100.556172,Hold,0.936279,0.000000,Hold,-69683.000000,69632.000000,Suck,-2145.000000,2181.818182,Speed,-2137.500000,2181.818182,Speed,Off,On0.000000,0,,,,
05:18:55.068 PM 03/19/2016,Teleop Enabled,12,FALSE,0,NO ERROR,-0.000000,51.538546,0.000000,1.251247,TRUE,FALSE,FALSE,FALSE,FALSE,FALSE,Disabled,0.000000,0.000000,0.000000,TRUE,0.351974,-0.001877,0.000000,0.010681,0.335785,0.000000,-0.006000,-0.074000,0.015000,104.580000,-2.940000,2.010000,100.652519,Hold,0.936279,0.000000,Hold,-69685.000000,69632.000000,Suck,-2137.500000,2181.818182,Speed,-2137.500000,2181.818182,Speed,Off,On0.000000,0,,,,
05:18:55.169 PM 03/19/2016,Teleop Enabled,10,FALSE,0,NO ERROR,-0.000000,53.656041,0.000000,3.253242,TRUE,FALSE,FALSE,FALSE,FALSE,FALSE,Disabled,0.000000,0.000000,0.000000,TRUE,0.352600,0.007080,0.000000,-0.043594,-0.138596,0.000000,0.055000,-0.453000,0.676000,104.770000,0.870000,2.020000,100.778310,Hold,0.936279,0.000000,Hold,-69686.000000,69632.000000,Suck,-2137.500000,2181.818182,Speed,-2145.000000,2181.818182,Speed,Off,On0.000000,0,,,,
05:18:55.269 PM 03/19/2016,Teleop Enabled,11,FALSE,0,NO ERROR,0.212598,54.541539,-0.212598,4.074574,TRUE,FALSE,FALSE,FALSE,FALSE,FALSE,Disabled,0.000000,0.000000,0.000000,TRUE,0.348846,-0.013672,0.000000,-0.076691,-0.523346,0.000000,0.100000,-0.119000,0.794000,105.010000,2.140000,2.180000,101.092182,Hold,0.936279,0.000000,Hold,-69676.000000,69632.000000,Suck,-2137.500000,2181.818182,Speed,-2145.000000,2181.818182,Speed,Off,On0.000000,0,,,,
05:18:55.370 PM 03/19/2016,Teleop Enabled,11,FALSE,0,NO ERROR,0.220472,54.464539,-0.220472,4.793239,TRUE,FALSE,FALSE,FALSE,FALSE,FALSE,Disabled,0.000000,0.000000,0.000000,TRUE,0.346542,-0.042542,0.000000,-0.006149,-0.638657,0.000000,0.204000,0.129000,0.083000,104.610000,1.230000,2.020000,100.774358,Hold,0.936279,0.000000,Hold,-69676.000000,69632.000000,Suck,-2137.500000,2181.818182,Speed,-2137.500000,2181.818182,Speed,Off,On0.000000,0,,,,
