Time,Robot Mode,Loop Time,Error Status,Error Code,Error Source,Left Motor Output,Left Motor Encoder,Right Motor Output,Right Motor Encoder,Is Level,Is Stalled,Ball Detector Photoeye,Vision Enabled,Vision Teleop Control,Vision Auto Control,Vision Current State,Vision X Output,Vision NavX Error,Vision NavX Target,NavX Connection Status,NavX Displacement X,NavX Displacement Y,NavX Displacement Z,NavX Velocity X,NavX Velocity Y,NavX Velocity Z,NavX Acceleration X,NavX Acceleration Y,NavX Acceleration Z,NavX Pitch,NavX Yaw,NavX Roll,Gyro Angle,Roller Arm State,Roller Arm Actual,Roller Arm Desired,Shooter Arm State,Shooter Arm Actual,Shooter Arm Desired,Shooter State,Actual RPM Left,Desired RPM Left,Control Mode Left,Actual RPM Right,Desired RPM Right,Scaler Motor Output,Auto To Run,Auto Current File,Auto File Status,Auto Current Command,Auto Trimmed Command
04:14:39.046 PM 03/19/2016,Teleop Enabled,11,FALSE,0,NO ERROR,-0.000000,-0.128333,0.000000,-0.089833,TRUE,FALSE,FALSE,FALSE,FALSE,FALSE,Disabled,0.000000,-0.000000,-2.840000,TRUE,-4.684433,-1.709839,0.000000,0.000000,0.000000,0.000000,0.000000,0.001000,0.020000,-0.760000,-0.190000,2.400000,-0.109353,ResetBack,71.117432,-0.200000,ResetBack,-143315.000000,-0.300000,Suck,0.000000,0.000000,Speed,0.000000,0.000000,Speed,Off,On0.000000,0,,,,
04:14:39.144 PM 03/19/2016,Teleop Enabled,10,FALSE,0,NO ERROR,-0.000000,-0.128333,0.000000,-0.089833,TRUE,FALSE,FALSE,FALSE,FALSE,FALSE,Disabled,0.000000,-0.000000,-2.840000,TRUE,-4.684448,-1.710037,0.000000,0.001129,-0.014038,0.000000,-0.016000,0.015000,0.027000,-0.770000,-0.290000,2.400000,-0.109353,ResetBack,70.158936,-0.200000,ResetBack,-143315.000000,-0.300000,Suck,-75.000000,2181.818182,Speed,0.000000,2181.818182,Speed,Off,On0.000000,0,,,,
04:14:39.245 PM 03/19/2016,Teleop Enabled,11,FALSE,0,NO ERROR,-0.000000,-0.121916,0.000000,-0.044917,TRUE,FALSE,FALSE,FALSE,FALSE,FALSE,Disabled,0.000000,-0.000000,-2.840000,TRUE,-4.685776,-1.711121,0.000000,-0.039581,-0.024963,0.000000,0.087000,0.025000,0.008000,-0.780000,-0.280000,2.410000,-0.117973,ResetBack,70.080078,-0.200000,ResetBack,-137122.000000,-0.300000,Suck,-855.000000,2181.818182,Speed,-90.000000,2181.818182,Speed,Off,On0.000000,0,,,,
04:14:39.345 PM 03/19/2016,Teleop Enabled,9,FALSE,0,NO ERROR,-0.000000,-0.121916,0.000000,-0.038500,TRUE,FALSE,FALSE,FALSE,FALSE,FALSE,Disabled,0.000000,-0.000000,-2.840000,TRUE,-4.686234,-1.712646,0.000000,0.002426,-0.035156,0.000000,0.035000,0.000000,0.037000,-0.790000,-0.300000,2.410000,-0.126745,Reset,70.079834,-0.200000,ResetBack,-128923.000000,-0.300000,Suck,-855.000000,2181.818182,Speed,-892.500000,2181.818182,Speed,Off,On0.000000,0,,,,
04:14:39.446 PM 03/19/2016,Teleop Enabled,10,FALSE,0,NO ERROR,-0.000000,-0.109083,0.000000,0.012833,TRUE,FALSE,FALSE,FALSE,FALSE,FALSE,Disabled,0.000000,-0.000000,-2.840000,TRUE,-4.685944,-1.712631,0.000000,0.020157,-0.002335,0.000000,0.021000,-0.008000,0.047000,-0.860000,-0.430000,2.410000,-0.185427,Hold,70.000488,0.000000,ResetBack,-128923.000000,-0.300000,Suck,-1515.000000,2181.818182,Speed,-1695.000000,2181.818182,Speed,Off,On0.000000,0,,,,
04:14:39.545 PM 03/19/2016,Teleop Enabled,11,FALSE,0,NO ERROR,-0.000000,-0.109083,0.000000,0.038500,TRUE,FALSE,FALSE,FALSE,FALSE,FALSE,Disabled,0.000000,-0.000000,-2.840000,TRUE,-4.683701,-1.714310,0.000000,0.049698,-0.045700,0.000000,-0.175000,0.187000,0.006000,-0.830000,-0.310000,2.430000,-0.159728,Hold,0.582275,0.000000,ResetBack,-124659.000000,-0.300000,Suck,-2152.500000,2181.818182,Speed,-2250.000000,2181.818182,Speed,Off,On0.000000,0,,,,
04:14:39.645 PM 03/19/2016,Teleop Enabled,10,FALSE,0,NO ERROR,-0.000000,-0.109083,0.000000,0.038500,TRUE,FALSE,FALSE,FALSE,FALSE,FALSE,Disabled,0.000000,-0.000000,-2.840000,TRUE,-4.681961,-1.712692,0.000000,0.047668,0.052307,0.000000,0.075000,0.025000,-0.007000,-0.840000,-0.360000,2.430000,-0.178331,Hold,0.945557,0.000000,ResetBack,-119217.000000,-0.300000,Suck,-2317.500000,2181.818182,Speed,-2317.500000,2181.818182,Speed,Off,On0.000000,0,,,,
04:14:39.746 PM 03/19/2016,Teleop Enabled,9,FALSE,0,NO ERROR,-0.000000,-0.109083,0.000000,0.038500,TRUE,FALSE,FALSE,FALSE,FALSE,FALSE,Disabled,0.000000,-0.000000,-2.840000,TRUE,-4.678864,-1.709503,0.000000,0.055679,0.078354,0.000000,-0.046000,0.036000,0.035000,-0.840000,-0.290000,2.400000,-0.175681,Hold,0.945557,0.000000,ResetBack,-112764.000000,-0.300000,Suck,-2115.000000,2181.818182,Speed,-2130.000000,2181.818182,Speed,Off,On0.000000,0,,,,
04:14:39.846 PM 03/19/2016,Teleop Enabled,10,FALSE,0,NO ERROR,-0.000000,-0.109083,0.000000,0.038500,TRUE,FALSE,FALSE,FALSE,FALSE,FALSE,Disabled,0.000000,-0.000000,-2.840000,TRUE,-4.675491,-1.706818,0.000000,0.105957,0.000000,0.000000,-0.031000,0.017000,0.072000,-0.840000,-0.320000,2.440000,-0.176159,Hold,0.945557,0.000000,ResetBack,-106037.000000,-0.300000,Suck,-2077.500000,2181.818182,Speed,-2077.500000,2181.818182,Speed,Off,On0.000000,0,,,,
04:14:39.947 PM 03/19/2016,Teleop Enabled,9,FALSE,0,NO ERROR,-0.000000,-0.109083,0.000000,0.038500,TRUE,FALSE,FALSE,FALSE,FALSE,FALSE,Disabled,0.000000,-0.000000,-2.840000,TRUE,-4.671387,-1.706406,0.000000,0.000000,0.013824,0.000000,-0.012000,-0.052000,0.051000,-0.840000,-0.330000,2.460000,-0.180032,Hold,0.945557,0.000000,ResetBack,-99315.000000,-0.300000,Suck,-2167.500000,2181.818182,Speed,-2145.000000,2181.818182,Speed,Off,On0.000000,0,,,,
04:14:40.047 PM 03/19/2016,Teleop Enabled,10,FALSE,0,NO ERROR,-0.000000,-0.109083,0.000000,0.038500,TRUE,FALSE,FALSE,FALSE,FALSE,FALSE,Disabled,0.000000,-0.000000,-2.840000,TRUE,-4.672501,-1.706604,0.000000,-0.046356,-0.016663,0.000000,-0.024000,-0.041000,-0.032000,-0.840000,-0.310000,2.460000,-0.179337,Hold,0.945557,0.000000,ResetBack,-92118.000000,-0.300000,Suck,-2167.500000,2181.818182,Speed,-2160.000000,2181.818182,Speed,Off,On0.000000,0,,,,
04:14:40.146 PM 03/19/2016,Teleop Enabled,10,FALSE,0,NO ERROR,-0.000000,-0.109083,0.000000,0.038500,TRUE,FALSE,FALSE,FALSE,FALSE,FALSE,Disabled,0.000000,-0.000000,-2.840000,TRUE,-4.674408,-1.708282,0.000000,-0.043167,-0.051666,0.000000,0.033000,0.004000,0.104000,-0.830000,-0.330000,2.480000,-0.179278,Hold,0.945557,0.000000,ResetBack,-92118.000000,-0.300000,Suck,-2122.500000,2181.818182,Speed,-2130.000000,2181.818182,Speed,Off,On0.000000,0,,,,
04:14:40.246 PM 03/19/2016,Teleop Enabled,9,FALSE,0,NO ERROR,-0.000000,-0.109083,0.000000,0.038500,TRUE,FALSE,FALSE,FALSE,FALSE,FALSE,Disabled,0.000000,-0.000000,-2.840000,TRUE,-4.675552,-1.708466,0.000000,0.009109,-0.017776,0.000000,-0.030000,-0.119000,-0.055000,-0.840000,-0.250000,2.550000,-0.184876,Hold,0.945557,0.000000,ResetBack,-84698.000000,-0.300000,Suck,-2137.500000,2181.818182,Speed,-2137.500000,2181.818182,Speed,Off,On0.000000,0,,,,
04:14:40.347 PM 03/19/2016,Teleop Enabled,10,FALSE,0,NO ERROR,-0.000000,-0.109083,0.000000,0.038500,TRUE,FALSE,FALSE,FALSE,FALSE,FALSE,Disabled,0.000000,-0.000000,-2.840000,TRUE,-4.675858,-1.711487,0.000000,-0.008652,-0.084930,0.000000,-0.057000,0.005000,-0.083000,-0.840000,-0.250000,2.500000,-0.176617,Hold,0.945557,0.000000,Reset,-77079.000000,2.000000,Suck,-2152.500000,2181.818182,Speed,-2145.000000,2181.818182,Speed,Off,On0.000000,0,,,,
04:14:40.448 PM 03/19/2016,Teleop Enabled,10,FALSE,0,NO ERROR,-0.000000,-0.109083,0.000000,0.038500,TRUE,FALSE,FALSE,FALSE,FALSE,FALSE,Disabled,0.000000,-0.000000,-2.840000,TRUE,-4.679596,-1.716446,0.000000,-0.102554,-0.075272,0.000000,0.005000,0.064000,-0.007000,-0.830000,-0.190000,2.500000,-0.183884,Hold,0.945557,0.000000,Hold,319.000000,2.000000,Suck,-2145.000000,2181.818182,Speed,-2137.500000,2181.818182,Speed,Off,On0.000000,0,,,,
04:14:40.548 PM 03/19/2016,Teleop Enabled,10,FALSE,0,NO ERROR,-0.000000,-0.096250,0.000000,0.070583,TRUE,FALSE,FALSE,FALSE,FALSE,FALSE,Disabled,0.000000,-0.000000,-2.840000,TRUE,-4.683304,-1.718979,0.000000,-0.076111,-0.046432,0.000000,0.070000,0.076000,0.030000,-0.830000,-0.260000,2.480000,-0.156072,Hold,0.945557,0.000000,Hold,156.000000,2.000000,Suck,-2137.500000,2181.818182,Speed,-2137.500000,2181.818182,Speed,Off,On0.000000,0,,,,
04:14:40.648 PM 03/19/2016,Teleop Enabled,9,FALSE,0,NO ERROR,-0.000000,-0.115500,0.000000,-0.006417,TRUE,FALSE,FALSE,FALSE,FALSE,FALSE,Disabled,0.000000,-0.000000,-2.840000,TRUE,-4.685028,-1.719437,0.000000,-0.027344,0.013031,0.000000,-0.063000,0.031000,0.026000,-0.830000,-0.170000,2.480000,-0.199927,Hold,0.945557,0.000000,Hold,-102.000000,2.000000,Suck,-2145.000000,2181.818182,Speed,-2137.500000,2181.818182,Speed,Off,On0.000000,0,,,,
04:14:40.748 PM 03/19/2016,Teleop Enabled,10,FALSE,0,NO ERROR,-0.000000,-0.109083,0.000000,0.012833,TRUE,FALSE,FALSE,FALSE,FALSE,FALSE,Disabled,0.000000,-0.000000,-2.840000,TRUE,-4.686646,-1.718338,0.000000,0.005188,0.012680,0.000000,0.043000,0.000000,-0.032000,-0.830000,-0.290000,2.500000,-0.177436,Hold,0.945557,0.000000,Hold,-82.000000,2.000000,Suck,-2145.000000,2181.818182,Speed,-2137.500000,2181.818182,Speed,Off,On0.000000,0,,,,
04:14:40.848 PM 03/19/2016,Teleop Enabled,11,FALSE,0,NO ERROR,-0.000000,-0.109083,0.000000,0.012833,TRUE,FALSE,FALSE,FALSE,FALSE,FALSE,Disabled,0.000000,-0.000000,-2.840000,TRUE,-4.687531,-1.718414,0.000000,-0.023972,-0.013626,0.000000,0.036000,-0.092000,-0.032000,-0.860000,-0.270000,2.490000,-0.198112,Hold,0.945557,0.000000,Hold,-82.000000,2.000000,Suck,-2137.500000,2181.818182,Speed,-2137.500000,2181.818182,Speed,Off,On0.000000,0,,,,
04:14:40.948 PM 03/19/2016,Teleop Enabled,10,FALSE,0,NO ERROR,-0.000000,-0.109083,0.000000,0.012833,TRUE,FALSE,FALSE,FALSE,FALSE,FALSE,Disabled,0.000000,-0.000000,-2.840000,TRUE,-4.687897,-1.720764,0.000000,-0.001404,-0.089676,0.000000,-0.013000,-0.061000,0.062000,-0.830000,-0.250000,2.490000,-0.167002,Hold,0.945557,0.000000,Hold,-82.000000,2.000000,Suck,-2145.000000,2181.818182,Speed,-2137.500000,2181.818182,Speed,Off,On0.000000,0,,,,
04:14:41.048 PM 03/19/2016,Teleop Enabled,10,FALSE,0,NO ERROR,-0.000000,-0.109083,0.000000,0.012833,TRUE,FALSE,FALSE,FALSE,FALSE,FALSE,Disabled,0.000000,-0.000000,-2.840000,TRUE,-4.688904,-1.726974,0.000000,-0.043106,-0.142365,0.000000,0.044000,-0.122000,0.088000,-0.840000,-0.280000,2.560000,-0.189843,Hold,0.945557,0.000000,Hold,-82.000000,2.000000,Suck,-2152.500000,2181.818182,Speed,-2160.000000,2181.818182,Speed,Off,On0.000000,0,,,,
04:14:41.148 PM 03/19/2016,Teleop Enabled,11,FALSE,0,NO ERROR,-0.000000,-0.109083,0.000000,0.012833,TRUE,FALSE,FALSE,FALSE,FALSE,FALSE,Disabled,0.000000,-0.000000,-2.840000,TRUE,-4.690170,-1.735901,0.000000,-0.014771,-0.200455,0.000000,-0.013000,-0.047000,0.083000,-0.840000,-0.200000,2.550000,-0.186046,Hold,0.945557,0.000000,Hold,-82.000000,2.000000,Suck,-2145.000000,2181.818182,Speed,-2152.500000,2181.818182,Speed,Off,On0.000000,0,,,,
04:14:41.249 PM 03/19/2016,Teleop Enabled,11,FALSE,0,NO ERROR,-0.000000,-0.109083,0.000000,0.012833,TRUE,FALSE,FALSE,FALSE,FALSE,FALSE,Disabled,0.000000,-0.000000,-2.840000,TRUE,-4.691605,-1.750214,0.000000,-0.022629,-0.267090,0.000000,-0.001000,-0.072000,0.088000,-0.840000,-0.230000,2.500000,-0.170555,Hold,0.945557,0.000000,Hold,-82.000000,2.000000,Suck,-2137.500000,2181.818182,Speed,-2145.000000,2181.818182,Speed,Off,On0.000000,0,,,,
04:14:41.349 PM 03/19/2016,Teleop Enabled,10,FALSE,0,NO ERROR,-0.000000,-0.109083,0.000000,0.012833,TRUE,FALSE,FALSE,FALSE,FALSE,FALSE,Disabled,0.000000,-0.000000,-2.840000,TRUE,-4.692108,-1.762192,0.000000,-0.015884,0.000000,0.000000,-0.018000,0.003000,0.146000,-0.840000,-0.240000,2.490000,-0.175522,Hold,0.945557,0.000000,Hold,-82.000000,2.000000,Suck,-2152.500000,2181.818182,Speed,-2152.500000,2181.818182,Speed,Off,On0.000000,0,,,,
04:14:41.449 PM 03/19/2016,Teleop Enabled,11,FALSE,0,NO ERROR,-0.000000,-0.109083,0.000000,0.012833,TRUE,FALSE,FALSE,FALSE,FALSE,FALSE,Disabled,0.000000,-0.000000,-2.840000,TRUE,-4.692383,-1.762848,0.000000,0.014557,-0.026581,0.000000,-0.002000,-0.051000,0.054000,-0.840000,-0.290000,2.530000,-0.164585,Hold,0.945557,0.000000,Hold,-82.000000,2.000000,Suck,-2145.000000,2181.818182,Speed,-2160.000000,2181.818182,Speed,Off,On0.000000,0,,,,
04:14:41.549 PM 03/19/2016,Teleop Enabled,10,FALSE,0,NO ERROR,-0.000000,-0.109083,0.000000,0.012833,TRUE,FALSE,FALSE,FALSE,FALSE,FALSE,Disabled,0.000000,-0.000000,-2.840000,TRUE,-4.691849,-1.765686,0.000000,0.011047,-0.082214,0.000000,0.005000,-0.096000,0.005000,-0.840000,-0.260000,2.570000,-0.162819,Hold,0.945557,0.000000,Hold,-82.000000,2.000000,Suck,-2137.500000,2181.818182,Speed,-2160.000000,2181.818182,Speed,Off,On0.000000,0,,,,
04:14:41.649 PM 03/19/2016,Teleop Enabled,9,FALSE,0,NO ERROR,-0.000000,-0.109083,0.000000,0.012833,TRUE,FALSE,FALSE,FALSE,FALSE,FALSE,Disabled,0.000000,-0.000000,-2.840000,TRUE,-4.692123,-1.772781,0.000000,-0.010712,-0.186890,0.000000,-0.061000,-0.043000,-0.025000,-0.850000,-0.260000,2.500000,-0.152340,Hold,0.945557,0.000000,Hold,-82.000000,2.000000,Suck,-2145.000000,2181.818182,Speed,-2145.000000,2181.818182,Speed,Off,On0.000000,0,,,,
04:14:41.749 PM 03/19/2016,Teleop Enabled,10,FALSE,0,NO ERROR,-0.000000,-0.109083,0.000000,0.012833,TRUE,FALSE,FALSE,FALSE,FALSE,FALSE,Disabled,0.000000,-0.000000,-2.840000,TRUE,-4.694443,-1.783447,0.000000,-0.077850,-0.213058,0.000000,-0.094000,0.017000,0.039000,-0.850000,-0.280000,2.530000,-0.156027,Hold,0.945557,0.000000,Hold,-82.000000,2.000000,Suck,-2152.500000,2181.818182,Speed,-2137.500000,2181.818182,Speed,Off,On0.000000,0,,,,
04:14:41.849 PM 03/19/2016,Teleop Enabled,10,FALSE,0,NO ERROR,-0.000000,-0.109083,0.000000,0.012833,TRUE,FALSE,FALSE,FALSE,FALSE,FALSE,Disabled,0.000000,-0.000000,-2.840000,TRUE,-4.699219,-1.792999,0.000000,-0.095062,-0.170670,0.000000,0.100000,0.105000,0.040000,-0.850000,-0.270000,2.490000,-0.168231,Hold,0.945557,0.000000,Hold,-82.000000,2.000000,Suck,-2137.500000,2181.818182,Speed,-2130.000000,2181.818182,Speed,Off,On0.000000,0,,,,
04:14:41.949 PM 03/19/2016,Teleop Enabled,11,FALSE,0,NO ERROR,-0.000000,-0.109083,0.000000,0.012833,TRUE,FALSE,FALSE,FALSE,FALSE,FALSE,Disabled,0.000000,-0.000000,-2.840000,TRUE,-4.702057,-1.798752,0.000000,0.000000,-0.078201,0.000000,0.007000,0.005000,-0.071000,-0.850000,-0.260000,2.480000,-0.180211,Hold,0.945557,0.000000,Hold,-82.000000,2.000000,Suck,-2145.000000,2181.818182,Speed,-2145.000000,2181.818182,Speed,Off,On0.000000,0,,,,
04:14:42.049 PM 03/19/2016,Teleop Enabled,9,FALSE,0,NO ERROR,-0.000000,-0.109083,0.000000,0.012833,TRUE,FALSE,FALSE,FALSE,FALSE,FALSE,Disabled,0.000000,-0.000000,-2.840000,TRUE,-4.703293,-1.800812,0.000000,-0.027206,0.003876,0.000000,-0.060000,0.058000,-0.032000,-0.850000,-0.260000,2.500000,-0.181932,Hold,0.945557,0.000000,Hold,-82.000000,2.000000,Suck,-2152.500000,2181.818182,Speed,-2137.500000,2181.818182,Speed,Off,On0.000000,0,,,,
04:14:42.149 PM 03/19/2016,Teleop Enabled,10,FALSE,0,NO ERROR,-0.000000,-0.109083,0.000000,0.012833,TRUE,FALSE,FALSE,FALSE,FALSE,FALSE,Disabled,0.000000,-0.000000,-2.840000,TRUE,-4.705093,-1.800171,0.000000,-0.035370,0.003174,0.000000,0.052000,-0.067000,0.005000,-0.850000,-0.270000,2.500000,-0.190219,Hold,0.945557,0.000000,Hold,-82.000000,2.000000,Suck,-2137.500000,2181.818182,Speed,-2137.500000,2181.818182,Speed,Off,On0.000000,0,,,,
04:14:42.249 PM 03/19/2016,Teleop Enabled,10,FALSE,0,NO ERROR,-0.000000,-0.109083,0.000000,0.012833,TRUE,FALSE,FALSE,FALSE,FALSE,FALSE,Disabled,0.000000,-0.000000,-2.840000,TRUE,-4.705551,-1.801956,0.000000,0.003418,-0.059921,0.000000,0.004000,-0.076000,0.033000,-0.860000,-0.280000,2.490000,-0.186387,Hold,0.945557,0.000000,Hold,-82.000000,2.000000,Suck,-2152.500000,2181.818182,Speed,-2137.500000,2181.818182,Speed,Off,On0.000000,0,,,,
04:14:42.349 PM 03/19/2016,Teleop Enabled,10,FALSE,0,NO ERROR,-0.000000,-0.109083,0.000000,0.012833,TRUE,FALSE,FALSE,FALSE,FALSE,FALSE,Disabled,0.000000,-0.000000,-2.840000,TRUE,-4.705154,-1.806656,0.000000,0.016632,-0.120544,0.000000,-0.014000,-0.040000,0.018000,-0.860000,-0.250000,2.480000,-0.187609,Hold,0.945557,0.000000,Hold,-82.000000,2.000000,Suck,-2160.000000,2181.818182,Speed,-2145.000000,2181.818182,Speed,Off,On0.000000,0,,,,
04:14:42.449 PM 03/19/2016,Teleop Enabled,10,FALSE,0,NO ERROR,-0.000000,-0.109083,0.000000,0.012833,TRUE,FALSE,FALSE,FALSE,FALSE,FALSE,Disabled,0.000000,-0.000000,-2.840000,TRUE,-4.704453,-1.812866,0.000000,0.016174,-0.174881,0.000000,0.070000,-0.054000,0.134000,-0.860000,-0.260000,2.440000,-0.194064,Hold,0.945557,0.000000,Hold,-82.000000,2.000000,Suck,-2152.500000,2181.818182,Speed,-2137.500000,2181.818182,Speed,Off,On0.000000,0,,,,
04:14:42.549 PM 03/19/2016,Teleop Enabled,9,FALSE,0,NO ERROR,-0.000000,-0.109083,0.000000,0.012833,TRUE,FALSE,FALSE,FALSE,FALSE,FALSE,Disabled,0.000000,-0.000000,-2.840000,TRUE,-4.702454,-1.825394,0.000000,0.052124,-0.220200,0.000000,0.069000,-0.036000,0.092000,-0.860000,-0.260000,2.400000,-0.198357,Hold,0.945557,0.000000,Hold,-82.000000,2.000000,Suck,-2152.500000,2181.818182,Speed,-2137.500000,2181.818182,Speed,Off,On0.000000,0,,,,
04:14:42.649 PM 03/19/2016,Teleop Enabled,11,FALSE,0,NO ERROR,-0.000000,-0.109083,0.000000,0.012833,TRUE,FALSE,FALSE,FALSE,FALSE,FALSE,Disabled,0.000000,-0.000000,-2.840000,TRUE,-4.698898,-1.836502,0.000000,0.074142,-0.218262,0.000000,-0.020000,0.074000,-0.018000,-0.860000,-0.260000,2.390000,-0.179915,Hold,0.945557,0.000000,Hold,-82.000000,2.000000,Suck,-2152.500000,2181.818182,Speed,-2145.000000,2181.818182,Speed,Off,On0.000000,0,,,,
04:14:42.751 PM 03/19/2016,Teleop Enabled,10,FALSE,0,NO ERROR,-0.000000,-0.109083,0.000000,0.012833,TRUE,FALSE,FALSE,FALSE,FALSE,FALSE,Disabled,0.000000,-0.000000,-2.840000,TRUE,-4.695526,-1.846222,0.000000,0.058716,-0.172791,0.000000,-0.014000,0.086000,-0.054000,-0.860000,-0.250000,2.370000,-0.188842,Hold,0.945557,0.000000,Hold,-82.000000,2.000000,Suck,-2152.500000,2181.818182,Speed,-2137.500000,2181.818182,Speed,Off,On0.000000,0,,,,
04:14:42.851 PM 03/19/2016,Teleop Enabled,10,FALSE,0,NO ERROR,-0.000000,-0.109083,0.000000,0.012833,TRUE,FALSE,FALSE,FALSE,FALSE,FALSE,Disabled,0.000000,-0.000000,-2.840000,TRUE,-4.693436,-1.851303,0.000000,0.037643,-0.053497,0.000000,-0.016000,0.100000,-0.080000,-0.860000,-0.280000,2.430000,-0.179158,Hold,0.945557,0.000000,Hold,-82.000000,2.000000,Suck,-2152.500000,2181.818182,Speed,-2137.500000,2181.818182,Speed,Off,On0.000000,0,,,,
04:14:42.952 PM 03/19/2016,Teleop Enabled,10,FALSE,0,NO ERROR,-0.000000,-0.109083,0.000000,0.012833,TRUE,FALSE,FALSE,FALSE,FALSE,FALSE,Disabled,0.000000,-0.000000,-2.840000,TRUE,-4.692612,-1.850189,0.000000,0.032684,0.072098,0.000000,-0.007000,0.134000,-0.050000,-0.870000,-0.250000,2.380000,-0.159752,Hold,0.945557,0.000000,Hold,-82.000000,2.000000,Suck,-2160.000000,2181.818182,Speed,-2137.500000,2181.818182,Speed,Off,On0.000000,0,,,,
04:14:43.051 PM 03/19/2016,Teleop Enabled,10,FALSE,0,NO ERROR,-0.000000,-0.109083,0.000000,0.012833,TRUE,FALSE,FALSE,FALSE,FALSE,FALSE,Disabled,0.000000,-0.000000,-2.840000,TRUE,-4.691681,-1.842834,0.000000,0.003922,0.185501,0.000000,-0.014000,0.014000,-0.038000,-0.870000,-0.250000,2.400000,-0.160385,Hold,0.945557,0.000000,Hold,-82.000000,2.000000,Suck,-2145.000000,2181.818182,Speed,-2137.500000,2181.818182,Speed,Off,On0.000000,0,,,,
04:14:43.152 PM 03/19/2016,Teleop Enabled,10,FALSE,0,NO ERROR,-0.000000,-0.109083,0.000000,0.012833,TRUE,FALSE,FALSE,FALSE,FALSE,FALSE,Disabled,0.000000,-0.000000,-2.840000,TRUE,-4.692184,-1.838837,0.000000,-0.026520,0.006577,0.000000,-0.091000,-0.030000,0.003000,-0.870000,-0.280000,2.380000,-0.144154,Hold,0.945557,0.000000,Hold,-82.000000,2.000000,Suck,-2145.000000,2181.818182,Speed,-2137.500000,2181.818182,Speed,Off,On0.000000,0,,,,
04:14:43.253 PM 03/19/2016,Teleop Enabled,10,FALSE,0,NO ERROR,-0.000000,-0.109083,0.000000,0.012833,TRUE,FALSE,FALSE,FALSE,FALSE,FALSE,Disabled,0.000000,-0.000000,-2.840000,TRUE,-4.695114,-1.838974,0.000000,-0.059418,-0.027252,0.000000,-0.023000,-0.082000,0.098000,-0.870000,-0.300000,2.410000,-0.147448,Hold,0.945557,0.000000,Hold,-82.000000,2.000000,Suck,-2152.500000,2181.818182,Speed,-2137.500000,2181.818182,Speed,Off,On0.000000,0,,,,
04:14:43.354 PM 03/19/2016,Teleop Enabled,9,FALSE,0,NO ERROR,-0.000000,-0.109083,0.000000,0.012833,TRUE,FALSE,FALSE,FALSE,FALSE,FALSE,Disabled,0.000000,-0.000000,-2.840000,TRUE,-4.697876,-1.844299,0.000000,-0.058167,-0.170120,0.000000,0.011000,-0.167000,0.071000,-0.870000,-0.260000,2.420000,-0.155411,Hold,0.945557,0.000000,Hold,-82.000000,2.000000,Suck,-2152.500000,2181.818182,Speed,-2137.500000,2181.818182,Speed,Off,On0.000000,0,,,,
04:14:43.454 PM 03/19/2016,Teleop Enabled,10,FALSE,0,NO ERROR,-0.000000,-0.109083,0.000000,0.012833,TRUE,FALSE,FALSE,FALSE,FALSE,FALSE,Disabled,0.000000,-0.000000,-2.840000,TRUE,-4.700928,-1.857391,0.000000,-0.062881,-0.320145,0.000000,-0.039000,-0.135000,0.047000,-0.870000,-0.240000,2.380000,-0.168021,Hold,0.945557,0.000000,Hold,-82.000000,2.000000,Suck,-2152.500000,2181.818182,Speed,-2137.500000,2181.818182,Speed,Off,On0.000000,0,,,,
04:14:43.555 PM 03/19/2016,Teleop Enabled,9,FALSE,0,NO ERROR,-0.000000,-0.109083,0.000000,0.012833,TRUE,FALSE,FALSE,FALSE,FALSE,FALSE,Disabled,0.000000,-0.000000,-2.840000,TRUE,-4.706528,-1.882553,0.000000,-0.112030,-0.478439,0.000000,-0.040000,-0.114000,-0.016000,-0.870000,-0.280000,2.400000,-0.179739,Hold,0.945557,0.000000,Hold,-82.000000,2.000000,Suck,-2152.500000,2181.818182,Speed,-2145.000000,2181.818182,Speed,Off,On0.000000,0,,,,
04:14:43.656 PM 03/19/2016,Teleop Enabled,10,FALSE,0,NO ERROR,-0.000000,-0.109083,0.000000,0.012833,TRUE,FALSE,FALSE,FALSE,FALSE,FALSE,Disabled,0.000000,-0.000000,-2.840000,TRUE,-4.711700,-1.908127,0.000000,-0.105347,-0.536255,0.000000,0.010000,-0.053000,-0.051000,-0.880000,-0.270000,2.420000,-0.168830,Hold,0.945557,0.000000,Hold,-82.000000,2.000000,Suck,-2152.500000,2181.818182,Speed,-2137.500000,2181.818182,Speed,Off,On0.000000,0,,,,
04:14:43.758 PM 03/19/2016,Teleop Enabled,10,FALSE,0,NO ERROR,-0.000000,-0.109083,0.000000,0.012833,TRUE,FALSE,FALSE,FALSE,FALSE,FALSE,Disabled,0.000000,-0.000000,-2.840000,TRUE,-4.712814,-1.936752,0.000000,-0.000519,-0.586212,0.000000,0.000000,-0.042000,-0.103000,-0.880000,-0.250000,2.430000,-0.173040,Hold,0.945557,0.000000,Hold,-82.000000,2.000000,Suck,-2152.500000,2181.818182,Speed,-2137.500000,2181.818182,Speed,Off,On0.000000,0,,,,
04:14:43.859 PM 03/19/2016,Teleop Disabled,10,FALSE,0,NO ERROR,-0.000000,-0.109083,0.000000,0.012833,TRUE,FALSE,FALSE,FALSE,FALSE,FALSE,Disabled,0.000000,-0.000000,-2.840000,TRUE,-4.713150,-1.964645,0.000000,-0.018799,-0.529999,0.000000,0.056000,0.135000,-0.044000,-0.880000,-0.220000,2.340000,-0.176269,Hold,0.945557,0.000000,Hold,-82.000000,2.000000,Suck,-2130.000000,2181.818182,Speed,-2115.000000,2181.818182,Speed,Off,On0.000000,0,,,,
04:14:43.959 PM 03/19/2016,Teleop Disabled,11,FALSE,0,NO ERROR,-0.000000,-0.109083,0.000000,0.012833,TRUE,FALSE,FALSE,FALSE,FALSE,FALSE,Disabled,0.000000,-0.000000,-2.840000,TRUE,-4.712921,-1.988007,0.000000,0.026321,-0.437851,0.000000,0.042000,-0.001000,0.031000,-0.880000,-0.210000,2.370000,-0.175519,Hold,0.945557,0.000000,Hold,-87.000000,2.000000,Suck,-1972.500000,2181.818182,Speed,-1950.000000,2181.818182,Speed,Off,On0.000000,0,,,,
04:14:44.060 PM 03/19/2016,Teleop Disabled,10,FALSE,0,NO ERROR,-0.000000,-0.109083,0.000000,0.012833,TRUE,FALSE,FALSE,FALSE,FALSE,FALSE,Disabled,0.000000,-0.000000,-2.840000,TRUE,-4.712234,-2.010925,0.000000,0.008011,-0.464401,0.000000,0.005000,0.013000,0.019000,-0.880000,-0.210000,2.350000,-0.162231,Hold,0.945557,0.000000,Hold,-95.000000,2.000000,Suck,-1770.000000,2181.818182,Speed,-1755.000000,2181.818182,Speed,Off,On0.000000,0,,,,
04:14:44.161 PM 03/19/2016,Teleop Disabled,11,FALSE,0,NO ERROR,-0.000000,-0.109083,0.000000,0.012833,TRUE,FALSE,FALSE,FALSE,FALSE,FALSE,Disabled,0.000000,-0.000000,-2.840000,TRUE,-4.711441,-2.033798,0.000000,0.013733,-0.453323,0.000000,0.008000,0.055000,-0.001000,-0.880000,-0.210000,2.380000,-0.150216,Hold,0.945557,0.000000,Hold,-263.000000,2.000000,Suck,-1582.500000,2181.818182,Speed,-1755.000000,2181.818182,Speed,Off,On0.000000,0,,,,
04:14:44.262 PM 03/19/2016,Teleop Disabled,10,FALSE,0,NO ERROR,-0.000000,-0.109083,0.000000,0.012833,TRUE,FALSE,FALSE,FALSE,FALSE,FALSE,Disabled,0.000000,-0.000000,-2.840000,TRUE,-4.711227,-2.055603,0.000000,0.000000,-0.437820,0.000000,-0.001000,0.016000,0.049000,-0.880000,-0.210000,2.380000,-0.146584,Hold,0.945557,0.000000,Hold,-840.000000,2.000000,Suck,-1582.500000,2181.818182,Speed,-1567.500000,2181.818182,Speed,Off,On0.000000,0,,,,
04:14:44.362 PM 03/19/2016,Teleop Disabled,10,FALSE,0,NO ERROR,-0.000000,-0.109083,0.000000,0.006417,TRUE,FALSE,FALSE,FALSE,FALSE,FALSE,Disabled,0.000000,-0.000000,-2.840000,TRUE,-4.710693,-2.077621,0.000000,0.019638,-0.446198,0.000000,0.003000,-0.039000,-0.002000,-0.890000,-0.210000,2.370000,-0.141110,Hold,0.945557,0.000000,Hold,-840.000000,2.000000,Suck,-1387.500000,2181.818182,Speed,-1380.000000,2181.818182,Speed,Off,On0.000000,0,,,,
04:14:44.465 PM 03/19/2016,Teleop Disabled,10,FALSE,0,NO ERROR,-0.000000,-0.109083,0.000000,0.006417,TRUE,FALSE,FALSE,FALSE,FALSE,FALSE,Disabled,0.000000,-0.000000,-2.840000,TRUE,-4.709976,-2.100159,0.000000,0.023865,-0.449387,0.000000,-0.002000,0.039000,0.008000,-0.880000,-0.200000,2.340000,-0.135107,Hold,0.945557,0.000000,Hold,-1900.000000,2.000000,Suck,-1215.000000,2181.818182,Speed,-1237.500000,2181.818182,Speed,Off,On0.000000,0,,,,
04:14:44.564 PM 03/19/2016,Teleop Disabled,10,FALSE,0,NO ERROR,-0.000000,-0.109083,0.000000,0.006417,TRUE,FALSE,FALSE,FALSE,FALSE,FALSE,Disabled,0.000000,-0.000000,-2.840000,TRUE,-4.709946,-2.123123,0.000000,-0.008163,-0.470810,0.000000,-0.013000,-0.003000,0.042000,-0.880000,-0.220000,2.360000,-0.128442,Hold,0.945557,0.000000,Hold,-3166.000000,2.000000,Suck,-1080.000000,2181.818182,Speed,-1020.000000,2181.818182,Speed,Off,On0.000000,0,,,,
04:14:44.664 PM 03/19/2016,Teleop Disabled,11,FALSE,0,NO ERROR,-0.000000,-0.109083,0.000000,0.006417,TRUE,FALSE,FALSE,FALSE,FALSE,FALSE,Disabled,0.000000,-0.000000,-2.840000,TRUE,-4.710663,-2.151001,0.000000,-0.012421,-0.455795,0.000000,-0.024000,0.009000,0.041000,-0.890000,-0.230000,2.380000,-0.118875,Hold,0.945557,0.000000,Hold,-5151.000000,2.000000,Suck,-915.000000,2181.818182,Speed,-892.500000,2181.818182,Speed,Off,On0.000000,0,,,,
04:14:44.764 PM 03/19/2016,Teleop Disabled,10,FALSE,0,NO ERROR,-0.000000,-0.109083,0.000000,0.006417,TRUE,FALSE,FALSE,FALSE,FALSE,FALSE,Disabled,0.000000,-0.000000,-2.840000,TRUE,-4.711166,-2.174210,0.000000,-0.010361,-0.466934,0.000000,-0.045000,-0.062000,0.021000,-0.890000,-0.240000,2.390000,-0.130132,Hold,0.945557,0.000000,Hold,-7871.000000,2.000000,Suck,-757.500000,2181.818182,Speed,-735.000000,2181.818182,Speed,Off,On0.000000,0,,,,
04:14:44.864 PM 03/19/2016,Teleop Disabled,10,FALSE,0,NO ERROR,-0.000000,-0.109083,0.000000,0.006417,TRUE,FALSE,FALSE,FALSE,FALSE,FALSE,Disabled,0.000000,-0.000000,-2.840000,TRUE,-4.711716,-2.183624,0.000000,-0.010605,-0.004730,0.000000,-0.020000,-0.032000,0.014000,-0.890000,-0.230000,2.400000,-0.125120,Hold,0.945557,0.000000,Hold,-11435.000000,2.000000,Suck,-615.000000,2181.818182,Speed,-592.500000,2181.818182,Speed,Off,On0.000000,0,,,,
04:14:44.964 PM 03/19/2016,Teleop Disabled,11,FALSE,0,NO ERROR,-0.000000,-0.109083,0.000000,0.006417,TRUE,FALSE,FALSE,FALSE,FALSE,FALSE,Disabled,0.000000,-0.000000,-2.840000,TRUE,-4.712204,-2.184814,0.000000,-0.002747,-0.029449,0.000000,-0.021000,-0.024000,0.001000,-0.890000,-0.240000,2.400000,-0.135733,Hold,0.945557,0.000000,Hold,-11435.000000,2.000000,Suck,-465.000000,2181.818182,Speed,-450.000000,2181.818182,Speed,Off,On0.000000,0,,,,
04:14:45.064 PM 03/19/2016,Teleop Disabled,10,FALSE,0,NO ERROR,-0.000000,-0.109083,0.000000,0.006417,TRUE,FALSE,FALSE,FALSE,FALSE,FALSE,Disabled,0.000000,-0.000000,-2.840000,TRUE,-4.712112,-2.185410,0.000000,0.004990,0.003662,0.000000,-0.021000,-0.024000,0.001000,-0.890000,-0.240000,2.400000,-0.147448,Hold,0.945557,0.000000,Hold,-16049.000000,2.000000,Suck,-345.000000,2181.818182,Speed,-330.000000,2181.818182,Speed,Off,On0.000000,0,,,,
04:14:45.164 PM 03/19/2016,Teleop Disabled,9,FALSE,0,NO ERROR,-0.000000,-0.109083,0.000000,0.006417,TRUE,FALSE,FALSE,FALSE,FALSE,FALSE,Disabled,0.000000,-0.000000,-2.840000,TRUE,-4.712265,-2.185379,0.000000,-0.006714,0.000000,0.000000,-0.003000,0.006000,0.020000,-0.890000,-0.250000,2.400000,-0.153875,Hold,0.945557,0.000000,Hold,-21921.000000,2.000000,Suck,-217.500000,2181.818182,Speed,-217.500000,2181.818182,Speed,Off,On0.000000,0,,,,
04:14:45.264 PM 03/19/2016,Teleop Disabled,9,FALSE,0,NO ERROR,-0.000000,-0.109083,0.000000,0.006417,TRUE,FALSE,FALSE,FALSE,FALSE,FALSE,Disabled,0.000000,-0.000000,-2.840000,TRUE,-4.712265,-2.185379,0.000000,0.000000,0.000000,0.000000,0.002000,-0.008000,0.011000,-0.900000,-0.250000,2.400000,-0.146815,Hold,0.945557,0.000000,Hold,-29371.000000,2.000000,Suck,-150.000000,2181.818182,Speed,-105.000000,2181.818182,Speed,Off,On0.000000,0,,,,
04:14:45.364 PM 03/19/2016,Teleop Disabled,10,FALSE,0,NO ERROR,-0.000000,-0.109083,0.000000,0.006417,TRUE,FALSE,FALSE,FALSE,FALSE,FALSE,Disabled,0.000000,-0.000000,-2.840000,TRUE,-4.712265,-2.185379,0.000000,0.000000,0.000000,0.000000,-0.011000,0.009000,0.020000,-0.900000,-0.250000,2.400000,-0.144384,Hold,0.945557,0.000000,Hold,-38432.000000,2.000000,Suck,-67.500000,2181.818182,Speed,-30.000000,2181.818182,Speed,Off,On0.000000,0,,,,
04:14:45.464 PM 03/19/2016,Teleop Disabled,10,FALSE,0,NO ERROR,-0.000000,-0.109083,0.000000,0.006417,TRUE,FALSE,FALSE,FALSE,FALSE,FALSE,Disabled,0.000000,-0.000000,-2.840000,TRUE,-4.712265,-2.185379,0.000000,0.000000,0.000000,0.000000,0.010000,-0.006000,0.025000,-0.900000,-0.260000,2.390000,-0.150040,Hold,0.945557,0.000000,Hold,-48976.000000,2.000000,Suck,0.000000,2181.818182,Speed,0.000000,2181.818182,Speed,Off,On0.000000,0,,,,
04:14:45.564 PM 03/19/2016,Teleop Disabled,10,FALSE,0,NO ERROR,-0.000000,-0.128333,0.000000,-0.077000,TRUE,FALSE,FALSE,FALSE,FALSE,FALSE,Disabled,0.000000,-0.000000,-2.840000,TRUE,-4.710236,-2.185898,0.000000,0.045044,-0.015244,0.000000,0.167000,-0.002000,0.045000,-0.900000,-0.250000,2.410000,-0.159060,Hold,0.945557,0.000000,Hold,-61011.000000,2.000000,Suck,0.000000,2181.818182,Speed,0.000000,2181.818182,Speed,Off,On0.000000,0,,,,
04:14:45.664 PM 03/19/2016,Teleop Disabled,10,FALSE,0,NO ERROR,-0.000000,-0.128333,0.000000,-0.089833,TRUE,FALSE,FALSE,FALSE,FALSE,FALSE,Disabled,0.000000,-0.000000,-2.840000,TRUE,-4.708542,-2.186661,0.000000,0.041397,-0.017944,0.000000,-0.091000,0.008000,0.233000,-0.880000,-0.220000,2.330000,-0.178325,Hold,0.946533,0.000000,Hold,-61011.000000,2.000000,Suck,0.000000,2181.818182,Speed,0.000000,2181.818182,Speed,Off,On0.000000,0,,,,
04:14:45.765 PM 03/19/2016,Teleop Disabled,11,FALSE,0,NO ERROR,-0.000000,-0.128333,0.000000,-0.089833,TRUE,TRUE,FALSE,FALSE,FALSE,FALSE,Disabled,0.000000,-0.000000,-2.840000,TRUE,-4.707443,-2.186920,0.000000,0.024643,-0.009689,0.000000,-0.061000,0.056000,0.108000,-0.880000,-0.220000,2.330000,-0.155263,Hold,0.946533,0.000000,Hold,-68916.000000,2.000000,Suck,0.000000,2181.818182,Speed,0.000000,2181.818182,Speed,Off,On0.000000,0,,,,
04:14:45.865 PM 03/19/2016,Teleop Disabled,10,FALSE,0,NO ERROR,-0.000000,-0.128333,0.000000,-0.089833,TRUE,TRUE,FALSE,FALSE,FALSE,FALSE,Disabled,0.000000,-0.000000,-2.840000,TRUE,-4.706863,-2.187012,0.000000,-0.001755,0.000000,0.000000,0.043000,0.014000,-0.007000,-0.890000,-0.230000,2.350000,-0.136205,Hold,0.946289,0.000000,Hold,-70895.000000,2.000000,Suck,0.000000,0.000000,Speed,0.000000,0.000000,Speed,Off,On0.000000,0,,,,
04:14:45.965 PM 03/19/2016,Teleop Disabled,9,FALSE,0,NO ERROR,-0.000000,-0.128333,0.000000,-0.089833,TRUE,FALSE,FALSE,FALSE,FALSE,FALSE,Disabled,0.000000,-0.000000,-2.840000,TRUE,-4.706863,-2.187012,0.000000,-0.001755,0.000000,0.000000,0.020000,0.000000,-0.003000,-0.890000,-0.250000,2.380000,-0.132260,Hold,0.946289,0.000000,Hold,-70895.000000,2.000000,Suck,0.000000,0.000000,Speed,0.000000,0.000000,Speed,Off,On0.000000,0,,,,
04:14:46.066 PM 03/19/2016,Teleop Disabled,10,FALSE,0,NO ERROR,-0.000000,-0.128333,0.000000,-0.089833,TRUE,FALSE,FALSE,FALSE,FALSE,FALSE,Disabled,0.000000,-0.000000,-2.840000,TRUE,-4.707077,-2.187012,0.000000,-0.007111,0.000000,0.000000,0.017000,0.000000,0.007000,-0.890000,-0.240000,2.390000,-0.141234,Hold,0.946289,0.000000,Hold,-70895.000000,2.000000,Suck,0.000000,2181.818182,Speed,0.000000,2181.818182,Speed,Off,On0.000000,0,,,,
04:14:46.167 PM 03/19/2016,Teleop Disabled,9,FALSE,0,NO ERROR,-0.000000,-0.128333,0.000000,-0.089833,TRUE,FALSE,FALSE,FALSE,FALSE,FALSE,Disabled,0.000000,-0.000000,-2.840000,TRUE,-4.707108,-2.187012,0.000000,0.000000,0.000000,0.000000,0.011000,0.003000,0.016000,-0.900000,-0.220000,2.380000,-0.141234,Hold,0.946289,0.000000,Hold,-70895.000000,2.000000,Suck,0.000000,2181.818182,Speed,0.000000,2181.818182,Speed,Off,On0.000000,0,,,,
04:14:46.267 PM 03/19/2016,Teleop Disabled,10,FALSE,0,NO ERROR,-0.000000,-0.128333,0.000000,-0.089833,TRUE,FALSE,FALSE,FALSE,FALSE,FALSE,Disabled,0.000000,-0.000000,-2.840000,TRUE,-4.707108,-2.187012,0.000000,0.000000,0.000000,0.000000,0.004000,0.006000,0.014000,-0.900000,-0.220000,2.380000,-0.135830,Hold,0.946289,0.000000,Hold,-70895.000000,2.000000,Suck,0.000000,2181.818182,Speed,0.000000,2181.818182,Speed,Off,On0.000000,0,,,,
04:14:46.367 PM 03/19/2016,Teleop Disabled,10,FALSE,0,NO ERROR,-0.000000,-0.128333,0.000000,-0.089833,TRUE,FALSE,FALSE,FALSE,FALSE,FALSE,Disabled,0.000000,-0.000000,-2.840000,TRUE,-4.707108,-2.187012,0.000000,0.000000,0.000000,0.000000,0.001000,0.009000,0.019000,-0.900000,-0.220000,2.390000,-0.126438,Hold,0.946289,0.000000,Hold,-70895.000000,2.000000,Suck,0.000000,2181.818182,Speed,0.000000,2181.818182,Speed,Off,On0.000000,0,,,,
04:14:46.467 PM 03/19/2016,Teleop Disabled,9,FALSE,0,NO ERROR,-0.000000,-0.128333,0.000000,-0.089833,TRUE,FALSE,FALSE,FALSE,FALSE,FALSE,Disabled,0.000000,-0.000000,-2.840000,TRUE,-4.707108,-2.187012,0.000000,0.000000,0.000000,0.000000,-0.003000,0.005000,0.018000,-0.900000,-0.220000,2.390000,-0.132129,Hold,0.946289,0.000000,Hold,-70895.000000,2.000000,Suck,0.000000,2181.818182,Speed,0.000000,2181.818182,Speed,Off,On0.000000,0,,,,
04:14:46.567 PM 03/19/2016,Teleop Disabled,9,FALSE,0,NO ERROR,-0.000000,-0.128333,0.000000,-0.089833,TRUE,TRUE,FALSE,FALSE,FALSE,FALSE,Disabled,0.000000,-0.000000,-2.840000,TRUE,-4.707108,-2.187012,0.000000,0.000000,0.000000,0.000000,-0.001000,0.005000,0.020000,-0.900000,-0.220000,2.390000,-0.125051,Hold,0.946289,0.000000,Hold,-70895.000000,2.000000,Suck,0.000000,2181.818182,Speed,0.000000,2181.818182,Speed,Off,On0.000000,0,,,,
04:14:46.667 PM 03/19/2016,Teleop Disabled,10,FALSE,0,NO ERROR,-0.000000,-0.128333,0.000000,-0.089833,TRUE,TRUE,FALSE,FALSE,FALSE,FALSE,Disabled,0.000000,-0.000000,-2.840000,TRUE,-4.707108,-2.187012,0.000000,0.000000,0.000000,0.000000,-0.004000,0.006000,0.019000,-0.900000,-0.220000,2.390000,-0.114675,Hold,0.946289,0.000000,Hold,-70895.000000,2.000000,Suck,0.000000,0.000000,Speed,0.000000,0.000000,Speed,Off,On0.000000,0,,,,
04:14:46.767 PM 03/19/2016,Teleop Disabled,10,FALSE,0,NO ERROR,-0.000000,-0.128333,0.000000,-0.089833,TRUE,FALSE,FALSE,FALSE,FALSE,FALSE,Disabled,0.000000,-0.000000,-2.840000,TRUE,-4.707108,-2.187012,0.000000,0.000000,0.000000,0.000000,-0.001000,0.000000,0.020000,-0.900000,-0.220000,2.390000,-0.113384,Hold,0.946289,0.000000,Hold,-70895.000000,2.000000,Suck,0.000000,0.000000,Speed,0.000000,0.000000,Speed,Off,On0.000000,0,,,,
04:14:46.867 PM 03/19/2016,Teleop Disabled,9,FALSE,0,NO ERROR,-0.000000,-0.128333,0.000000,-0.089833,TRUE,FALSE,FALSE,FALSE,FALSE,FALSE,Disabled,0.000000,-0.000000,-2.840000,TRUE,-4.707108,-2.187012,0.000000,0.000000,0.000000,0.000000,-0.002000,0.000000,0.016000,-0.900000,-0.230000,2.400000,-0.130032,Hold,0.946289,0.000000,Hold,-70895.000000,2.000000,Suck,0.000000,2181.818182,Speed,0.000000,2181.818182,Speed,Off,On0.000000,0,,,,
04:14:46.967 PM 03/19/2016,Teleop Disabled,10,FALSE,0,NO ERROR,-0.000000,-0.128333,0.000000,-0.089833,TRUE,FALSE,FALSE,FALSE,FALSE,FALSE,Disabled,0.000000,-0.000000,-2.840000,TRUE,-4.707108,-2.187012,0.000000,0.000000,0.000000,0.000000,0.000000,0.001000,0.018000,-0.900000,-0.230000,2.400000,-0.126318,Hold,0.946289,0.000000,Hold,-70895.000000,2.000000,Suck,0.000000,2181.818182,Speed,0.000000,2181.818182,Speed,Off,On0.000000,0,,,,
04:14:47.068 PM 03/19/2016,Teleop Disabled,10,FALSE,0,NO ERROR,-0.000000,-0.128333,0.000000,-0.089833,TRUE,FALSE,FALSE,FALSE,FALSE,FALSE,Disabled,0.000000,-0.000000,-2.840000,TRUE,-4.707108,-2.187012,0.000000,0.000000,0.000000,0.000000,0.003000,0.000000,0.021000,-0.900000,-0.230000,2.400000,-0.131819,Hold,0.946289,0.000000,Hold,-70895.000000,2.000000,Suck,0.000000,2181.818182,Speed,0.000000,2181.818182,Speed,Off,On0.000000,0,,,,
04:14:47.168 PM 03/19/2016,Teleop Disabled,9,FALSE,0,NO ERROR,-0.000000,-0.128333,0.000000,-0.089833,TRUE,FALSE,FALSE,FALSE,FALSE,FALSE,Disabled,0.000000,-0.000000,-2.840000,TRUE,-4.707108,-2.187012,0.000000,0.000000,0.000000,0.000000,0.000000,0.000000,0.019000,-0.900000,-0.230000,2.400000,-0.121343,Hold,0.946289,0.000000,Hold,-70895.000000,2.000000,Suck,0.000000,2181.818182,Speed,0.000000,2181.818182,Speed,Off,On0.000000,0,,,,
04:14:47.268 PM 03/19/2016,Teleop Disabled,10,FALSE,0,NO ERROR,-0.000000,-0.128333,0.000000,-0.089833,TRUE,FALSE,FALSE,FALSE,FALSE,FALSE,Disabled,0.000000,-0.000000,-2.840000,TRUE,-4.707108,-2.187012,0.000000,0.000000,0.000000,0.000000,0.001000,0.000000,0.019000,-0.900000,-0.230000,2.400000,-0.113542,Hold,0.946289,0.000000,Hold,-70895.000000,2.000000,Suck,0.000000,2181.818182,Speed,0.000000,2181.818182,Speed,Off,On0.000000,0,,,,
04:14:47.368 PM 03/19/2016,Teleop Disabled,11,FALSE,0,NO ERROR,-0.000000,-0.128333,0.000000,-0.089833,TRUE,TRUE,FALSE,FALSE,FALSE,FALSE,Disabled,0.000000,-0.000000,-2.840000,TRUE,-4.706146,-2.186798,0.000000,0.023727,0.000000,0.000000,-0.012000,0.008000,0.028000,-0.890000,-0.200000,2.400000,-0.099094,Hold,0.946533,0.000000,Hold,-70895.000000,2.000000,Suck,0.000000,2181.818182,Speed,0.000000,2181.818182,Speed,Off,On0.000000,0,,,,
04:14:47.468 PM 03/19/2016,Teleop Disabled,11,FALSE,0,NO ERROR,-0.000000,-0.128333,0.000000,-0.089833,TRUE,TRUE,FALSE,FALSE,FALSE,FALSE,Disabled,0.000000,-0.000000,-2.840000,TRUE,-4.705750,-2.186798,0.000000,0.000000,0.000000,0.000000,0.007000,0.003000,0.011000,-0.880000,-0.220000,2.410000,-0.090594,Hold,0.946533,0.000000,Hold,-70895.000000,2.000000,Suck,0.000000,0.000000,Speed,0.000000,0.000000,Speed,Off,On0.000000,0,,,,
04:14:47.568 PM 03/19/2016,Teleop Disabled,10,FALSE,0,NO ERROR,-0.000000,-0.128333,0.000000,-0.089833,TRUE,FALSE,FALSE,FALSE,FALSE,FALSE,Disabled,0.000000,-0.000000,-2.840000,TRUE,-4.705856,-2.186798,0.000000,-0.006256,0.000000,0.000000,0.000000,0.125000,0.024000,-0.890000,-0.260000,2.390000,-0.105797,Hold,0.946533,0.000000,Hold,-70895.000000,2.000000,Suck,0.000000,0.000000,Speed,0.000000,0.000000,Speed,Off,On0.000000,0,,,,
04:14:47.668 PM 03/19/2016,Teleop Disabled,10,FALSE,0,NO ERROR,-0.000000,-0.128333,0.000000,-0.096250,TRUE,FALSE,FALSE,FALSE,FALSE,FALSE,Disabled,0.000000,-0.000000,-2.840000,TRUE,-4.706558,-2.185837,0.000000,-0.017578,0.010529,0.000000,0.021000,0.033000,0.053000,-0.870000,-0.230000,2.380000,-0.087055,Hold,0.946533,0.000000,Hold,-70895.000000,2.000000,Suck,0.000000,2181.818182,Speed,0.000000,2181.818182,Speed,Off,On0.000000,0,,,,
04:14:47.769 PM 03/19/2016,Teleop Disabled,10,FALSE,0,NO ERROR,-0.000000,-0.128333,0.000000,-0.096250,TRUE,FALSE,FALSE,FALSE,FALSE,FALSE,Disabled,0.000000,-0.000000,-2.840000,TRUE,-4.706894,-2.184738,0.000000,0.002548,0.023361,0.000000,0.011000,-0.019000,0.025000,-0.890000,-0.220000,2.380000,-0.111477,Hold,0.946533,0.000000,Hold,-70895.000000,2.000000,Suck,0.000000,2181.818182,Speed,0.000000,2181.818182,Speed,Off,On0.000000,0,,,,
04:14:47.869 PM 03/19/2016,Teleop Disabled,10,FALSE,0,NO ERROR,-0.000000,-0.128333,0.000000,-0.096250,TRUE,FALSE,FALSE,FALSE,FALSE,FALSE,Disabled,0.000000,-0.000000,-2.840000,TRUE,-4.706772,-2.184357,0.000000,0.000000,0.008163,0.000000,-0.007000,-0.025000,0.012000,-0.890000,-0.250000,2.410000,-0.121942,Hold,0.946533,0.000000,Hold,-70895.000000,2.000000,Suck,0.000000,2181.818182,Speed,0.000000,2181.818182,Speed,Off,On0.000000,0,,,,
04:14:47.970 PM 03/19/2016,Teleop Disabled,10,FALSE,0,NO ERROR,-0.000000,-0.128333,0.000000,-0.096250,TRUE,FALSE,FALSE,FALSE,FALSE,FALSE,Disabled,0.000000,-0.000000,-2.840000,TRUE,-4.706772,-2.184113,0.000000,0.000000,0.009979,0.000000,-0.009000,-0.021000,0.017000,-0.890000,-0.220000,2.410000,-0.133692,Hold,0.946533,0.000000,Hold,-70895.000000,2.000000,Suck,0.000000,2181.818182,Speed,0.000000,2181.818182,Speed,Off,On0.000000,0,,,,
04:14:48.071 PM 03/19/2016,Teleop Disabled,10,FALSE,0,NO ERROR,-0.000000,-0.128333,0.000000,-0.096250,TRUE,FALSE,FALSE,FALSE,FALSE,FALSE,Disabled,0.000000,-0.000000,-2.840000,TRUE,-4.706772,-2.183945,0.000000,0.000000,0.000000,0.000000,0.007000,-0.003000,0.018000,-0.900000,-0.230000,2.420000,-0.130518,Hold,0.946533,0.000000,Hold,-70895.000000,2.000000,Suck,0.000000,2181.818182,Speed,0.000000,2181.818182,Speed,Off,On0.000000,0,,,,
04:14:48.171 PM 03/19/2016,Teleop Disabled,9,FALSE,0,NO ERROR,-0.000000,-0.128333,0.000000,-0.096250,TRUE,TRUE,FALSE,FALSE,FALSE,FALSE,Disabled,0.000000,-0.000000,-2.840000,TRUE,-4.706772,-2.183945,0.000000,0.000000,0.000000,0.000000,-0.001000,0.001000,0.018000,-0.900000,-0.240000,2.420000,-0.117257,Hold,0.946533,0.000000,Hold,-70895.000000,2.000000,Suck,0.000000,2181.818182,Speed,0.000000,2181.818182,Speed,Off,On0.000000,0,,,,
04:14:48.272 PM 03/19/2016,Teleop Disabled,11,FALSE,0,NO ERROR,-0.000000,-0.128333,0.000000,-0.096250,TRUE,TRUE,FALSE,FALSE,FALSE,FALSE,Disabled,0.000000,-0.000000,-2.840000,TRUE,-4.706772,-2.183945,0.000000,0.000000,0.000000,0.000000,0.000000,0.002000,0.019000,-0.900000,-0.220000,2.410000,-0.116868,Hold,0.946533,0.000000,Hold,-70895.000000,2.000000,Suck,0.000000,2181.818182,Speed,0.000000,2181.818182,Speed,Off,On0.000000,0,,,,
04:14:48.372 PM 03/19/2016,Teleop Disabled,10,FALSE,0,NO ERROR,-0.000000,-0.128333,0.000000,-0.096250,TRUE,FALSE,FALSE,FALSE,FALSE,FALSE,Disabled,0.000000,-0.000000,-2.840000,TRUE,-4.706772,-2.183945,0.000000,0.000000,0.000000,0.000000,0.004000,0.003000,0.018000,-0.900000,-0.220000,2.410000,-0.116427,Hold,0.946533,0.000000,Hold,-70895.000000,2.000000,Suck,0.000000,0.000000,Speed,0.000000,0.000000,Speed,Off,On0.000000,0,,,,
04:14:48.474 PM 03/19/2016,Teleop Disabled,10,FALSE,0,NO ERROR,-0.000000,-0.128333,0.000000,-0.096250,TRUE,FALSE,FALSE,FALSE,FALSE,FALSE,Disabled,0.000000,-0.000000,-2.840000,TRUE,-4.706772,-2.183945,0.000000,0.000000,0.000000,0.000000,0.000000,0.002000,0.018000,-0.900000,-0.230000,2.410000,-0.116341,Hold,0.946533,0.000000,Hold,-70895.000000,2.000000,Suck,0.000000,2181.818182,Speed,0.000000,2181.818182,Speed,Off,On0.000000,0,,,,
04:14:48.574 PM 03/19/2016,Teleop Disabled,9,FALSE,0,NO ERROR,-0.000000,-0.128333,0.000000,-0.096250,TRUE,FALSE,FALSE,FALSE,FALSE,FALSE,Disabled,0.000000,-0.000000,-2.840000,TRUE,-4.706772,-2.183945,0.000000,0.000000,0.000000,0.000000,0.000000,0.006000,0.014000,-0.910000,-0.220000,2.410000,-0.119436,Hold,0.946533,0.000000,Hold,-70895.000000,2.000000,Suck,0.000000,2181.818182,Speed,0.000000,2181.818182,Speed,Off,On0.000000,0,,,,
04:14:48.675 PM 03/19/2016,Teleop Disabled,9,FALSE,0,NO ERROR,-0.000000,-0.128333,0.000000,-0.096250,TRUE,FALSE,FALSE,FALSE,FALSE,FALSE,Disabled,0.000000,-0.000000,-2.840000,TRUE,-4.706772,-2.183945,0.000000,0.000000,0.000000,0.000000,0.002000,0.002000,0.015000,-0.910000,-0.220000,2.410000,-0.115150,Hold,0.946533,0.000000,Hold,-70895.000000,2.000000,Suck,0.000000,2181.818182,Speed,0.000000,2181.818182,Speed,Off,On0.000000,0,,,,
04:14:48.776 PM 03/19/2016,Teleop Disabled,10,FALSE,0,NO ERROR,-0.000000,-0.128333,0.000000,-0.096250,TRUE,FALSE,FALSE,FALSE,FALSE,FALSE,Disabled,0.000000,-0.000000,-2.840000,TRUE,-4.706772,-2.183945,0.000000,0.000000,0.000000,0.000000,0.000000,0.003000,0.013000,-0.910000,-0.220000,2.410000,-0.112785,Hold,0.946533,0.000000,Hold,-70895.000000,2.000000,Suck,0.000000,2181.818182,Speed,0.000000,2181.818182,Speed,Off,On0.000000,0,,,,
04:14:48.877 PM 03/19/2016,Teleop Disabled,11,FALSE,0,NO ERROR,-0.000000,-0.128333,0.000000,-0.096250,TRUE,FALSE,FALSE,FALSE,FALSE,FALSE,Disabled,0.000000,-0.000000,-2.840000,TRUE,-4.706772,-2.183945,0.000000,0.000000,0.000000,0.000000,0.000000,0.003000,0.017000,-0.910000,-0.220000,2.410000,-0.112031,Hold,0.946533,0.000000,Hold,-70895.000000,2.000000,Suck,0.000000,2181.818182,Speed,0.000000,2181.818182,Speed,Off,On0.000000,0,,,,
04:14:48.978 PM 03/19/2016,Teleop Disabled,10,FALSE,0,NO ERROR,-0.000000,-0.128333,0.000000,-0.096250,TRUE,FALSE,FALSE,FALSE,FALSE,FALSE,Disabled,0.000000,-0.000000,-2.840000,TRUE,-4.706772,-2.183945,0.000000,0.000000,0.000000,0.000000,-0.001000,-0.001000,0.014000,-0.910000,-0.220000,2.410000,-0.099507,Hold,0.946533,0.000000,Hold,-70895.000000,2.000000,Suck,0.000000,2181.818182,Speed,0.000000,2181.818182,Speed,Off,On0.000000,0,,,,
04:14:49.079 PM 03/19/2016,Teleop Disabled,9,FALSE,0,NO ERROR,-0.000000,-0.128333,0.000000,-0.096250,TRUE,TRUE,FALSE,FALSE,FALSE,FALSE,Disabled,0.000000,-0.000000,-2.840000,TRUE,-4.706772,-2.183945,0.000000,0.000000,0.000000,0.000000,0.000000,0.001000,0.019000,-0.910000,-0.230000,2.410000,-0.103370,Hold,0.946533,0.000000,Hold,-70895.000000,2.000000,Suck,0.000000,2181.818182,Speed,0.000000,2181.818182,Speed,Off,On0.000000,0,,,,
04:14:49.179 PM 03/19/2016,Teleop Disabled,8,FALSE,0,NO ERROR,-0.000000,-0.128333,0.000000,-0.096250,TRUE,TRUE,FALSE,FALSE,FALSE,FALSE,Disabled,0.000000,-0.000000,-2.840000,TRUE,-4.706772,-2.183945,0.000000,0.000000,0.000000,0.000000,0.000000,0.002000,0.011000,-0.910000,-0.230000,2.410000,-0.124335,Hold,0.946533,0.000000,Hold,-70895.000000,2.000000,Suck,0.000000,0.000000,Speed,0.000000,0.000000,Speed,Off,On0.000000,0,,,,
04:14:49.280 PM 03/19/2016,Teleop Disabled,10,FALSE,0,NO ERROR,-0.000000,-0.128333,0.000000,-0.096250,TRUE,FALSE,FALSE,FALSE,FALSE,FALSE,Disabled,0.000000,-0.000000,-2.840000,TRUE,-4.706772,-2.183945,0.000000,0.000000,0.000000,0.000000,0.000000,0.001000,0.014000,-0.910000,-0.240000,2.420000,-0.127839,Hold,0.946533,0.000000,Hold,-70895.000000,2.000000,Suck,0.000000,0.000000,Speed,0.000000,0.000000,Speed,Off,On0.000000,0,,,,
04:14:49.381 PM 03/19/2016,Teleop Disabled,10,FALSE,0,NO ERROR,-0.000000,-0.128333,0.000000,-0.096250,TRUE,FALSE,FALSE,FALSE,FALSE,FALSE,Disabled,0.000000,-0.000000,-2.840000,TRUE,-4.706772,-2.183945,0.000000,0.000000,0.000000,0.000000,0.000000,0.000000,0.014000,-0.910000,-0.240000,2.420000,-0.120713,Hold,0.946533,0.000000,Hold,-70895.000000,2.000000,Suck,0.000000,2181.818182,Speed,0.000000,2181.818182,Speed,Off,On0.000000,0,,,,
04:14:49.482 PM 03/19/2016,Teleop Disabled,10,FALSE,0,NO ERROR,-0.000000,-0.128333,0.000000,-0.096250,TRUE,FALSE,FALSE,FALSE,FALSE,FALSE,Disabled,0.000000,-0.000000,-2.840000,TRUE,-4.706772,-2.183945,0.000000,0.000000,0.000000,0.000000,0.000000,0.001000,0.012000,-0.910000,-0.240000,2.430000,-0.127275,Hold,0.946533,0.000000,Hold,-70895.000000,2.000000,Suck,0.000000,2181.818182,Speed,0.000000,2181.818182,Speed,Off,On0.000000,0,,,,
04:14:49.583 PM 03/19/2016,Teleop Disabled,10,FALSE,0,NO ERROR,-0.000000,-0.128333,0.000000,-0.096250,TRUE,FALSE,FALSE,FALSE,FALSE,FALSE,Disabled,0.000000,-0.000000,-2.840000,TRUE,-4.706772,-2.183945,0.000000,0.000000,0.000000,0.000000,0.002000,0.002000,0.016000,-0.910000,-0.240000,2.420000,-0.119977,Hold,0.946533,0.000000,Hold,-70895.000000,2.000000,Suck,0.000000,2181.818182,Speed,0.000000,2181.818182,Speed,Off,On0.000000,0,,,,
04:14:49.684 PM 03/19/2016,Teleop Disabled,10,FALSE,0,NO ERROR,-0.000000,-0.128333,0.000000,-0.096250,TRUE,FALSE,FALSE,FALSE,FALSE,FALSE,Disabled,0.000000,-0.000000,-2.840000,TRUE,-4.706772,-2.183945,0.000000,0.000000,0.000000,0.000000,0.000000,0.000000,0.013000,-0.910000,-0.240000,2.430000,-0.130927,Hold,0.946533,0.000000,Hold,-70895.000000,2.000000,Suck,0.000000,2181.818182,Speed,0.000000,2181.818182,Speed,Off,On0.000000,0,,,,
04:14:49.785 PM 03/19/2016,Teleop Disabled,10,FALSE,0,NO ERROR,-0.000000,-0.128333,0.000000,-0.096250,TRUE,FALSE,FALSE,FALSE,FALSE,FALSE,Disabled,0.000000,-0.000000,-2.840000,TRUE,-4.706772,-2.183945,0.000000,0.000000,0.000000,0.000000,0.000000,0.000000,0.019000,-0.910000,-0.240000,2.430000,-0.145916,Hold,0.946533,0.000000,Hold,-70895.000000,2.000000,Suck,0.000000,2181.818182,Speed,0.000000,2181.818182,Speed,Off,On0.000000,0,,,,
04:14:49.885 PM 03/19/2016,Teleop Disabled,10,FALSE,0,NO ERROR,-0.000000,-0.128333,0.000000,-0.096250,TRUE,TRUE,FALSE,FALSE,FALSE,FALSE,Disabled,0.000000,-0.000000,-2.840000,TRUE,-4.706772,-2.183945,0.000000,0.000000,0.000000,0.000000,0.000000,0.000000,0.018000,-0.910000,-0.240000,2.430000,-0.152894,Hold,0.946533,0.000000,Hold,-70895.000000,2.000000,Suck,0.000000,2181.818182,Speed,0.000000,2181.818182,Speed,Off,On0.000000,0,,,,
04:14:49.985 PM 03/19/2016,Teleop Disabled,11,FALSE,0,NO ERROR,-0.000000,-0.128333,0.000000,-0.096250,TRUE,TRUE,FALSE,FALSE,FALSE,FALSE,Disabled,0.000000,-0.000000,-2.840000,TRUE,-4.706772,-2.183945,0.000000,0.000000,0.000000,0.000000,-0.001000,0.000000,0.022000,-0.910000,-0.240000,2.420000,-0.173928,Hold,0.946533,0.000000,Hold,-70895.000000,2.000000,Suck,0.000000,0.000000,Speed,0.000000,0.000000,Speed,Off,On0.000000,0,,,,
04:14:50.085 PM 03/19/2016,Teleop Disabled,11,FALSE,0,NO ERROR,-0.000000,-0.128333,0.000000,-0.096250,TRUE,FALSE,FALSE,FALSE,FALSE,FALSE,Disabled,0.000000,-0.000000,-2.840000,TRUE,-4.706772,-2.183945,0.000000,0.000000,0.000000,0.000000,-0.001000,-0.001000,0.019000,-0.910000,-0.250000,2.420000,-0.168882,Hold,0.946533,0.000000,Hold,-70895.000000,2.000000,Suck,0.000000,0.000000,Speed,0.000000,0.000000,Speed,Off,On0.000000,0,,,,
04:14:50.185 PM 03/19/2016,Teleop Disabled,10,FALSE,0,NO ERROR,-0.000000,-0.128333,0.000000,-0.096250,TRUE,FALSE,FALSE,FALSE,FALSE,FALSE,Disabled,0.000000,-0.000000,-2.840000,TRUE,-4.706772,-2.183945,0.000000,0.000000,0.000000,0.000000,-0.002000,0.000000,0.012000,-0.920000,-0.250000,2.420000,-0.156516,Hold,0.946533,0.000000,Hold,-70895.000000,2.000000,Suck,0.000000,2181.818182,Speed,0.000000,2181.818182,Speed,Off,On0.000000,0,,,,
04:14:50.285 PM 03/19/2016,Teleop Disabled,10,FALSE,0,NO ERROR,-0.000000,-0.128333,0.000000,-0.096250,TRUE,FALSE,FALSE,FALSE,FALSE,FALSE,Disabled,0.000000,-0.000000,-2.840000,TRUE,-4.706772,-2.183945,0.000000,0.000000,0.000000,0.000000,-0.002000,-0.003000,0.014000,-0.920000,-0.250000,2.420000,-0.154196,Hold,0.946533,0.000000,Hold,-70895.000000,2.000000,Suck,0.000000,2181.818182,Speed,0.000000,2181.818182,Speed,Off,On0.000000,0,,,,
04:14:50.385 PM 03/19/2016,Teleop Disabled,11,FALSE,0,NO ERROR,-0.000000,-0.128333,0.000000,-0.096250,TRUE,FALSE,FALSE,FALSE,FALSE,FALSE,Disabled,0.000000,-0.000000,-2.840000,TRUE,-4.706772,-2.183945,0.000000,0.000000,0.000000,0.000000,-0.001000,0.000000,0.020000,-0.920000,-0.250000,2.410000,-0.148261,Hold,0.946533,0.000000,Hold,-70895.000000,2.000000,Suck,0.000000,2181.818182,Speed,0.000000,2181.818182,Speed,Off,On0.000000,0,,,,
04:14:50.485 PM 03/19/2016,Teleop Disabled,10,FALSE,0,NO ERROR,-0.000000,-0.128333,0.000000,-0.096250,TRUE,FALSE,FALSE,FALSE,FALSE,FALSE,Disabled,0.000000,-0.000000,-2.840000,TRUE,-4.706772,-2.183945,0.000000,0.000000,0.000000,0.000000,0.001000,-0.001000,0.019000,-0.920000,-0.240000,2.410000,-0.158668,Hold,0.946533,0.000000,Hold,-70895.000000,2.000000,Suck,0.000000,2181.818182,Speed,0.000000,2181.818182,Speed,Off,On0.000000,0,,,,
04:14:50.585 PM 03/19/2016,Teleop Disabled,9,FALSE,0,NO ERROR,-0.000000,-0.128333,0.000000,-0.096250,TRUE,FALSE,FALSE,FALSE,FALSE,FALSE,Disabled,0.000000,-0.000000,-2.840000,TRUE,-4.706772,-2.183945,0.000000,0.000000,0.000000,0.000000,0.000000,-0.001000,0.019000,-0.930000,-0.240000,2.410000,-0.164747,Hold,0.946533,0.000000,Hold,-70895.000000,2.000000,Suck,0.000000,2181.818182,Speed,0.000000,2181.818182,Speed,Off,On0.000000,0,,,,
04:14:50.685 PM 03/19/2016,Teleop Disabled,10,FALSE,0,NO ERROR,-0.000000,-0.128333,0.000000,-0.096250,TRUE,TRUE,FALSE,FALSE,FALSE,FALSE,Disabled,0.000000,-0.000000,-2.840000,TRUE,-4.706772,-2.183945,0.000000,0.000000,0.000000,0.000000,0.000000,0.000000,0.018000,-0.930000,-0.240000,2.410000,-0.157204,Hold,0.946533,0.000000,Hold,-70895.000000,2.000000,Suck,0.000000,2181.818182,Speed,0.000000,2181.818182,Speed,Off,On0.000000,0,,,,
04:14:50.785 PM 03/19/2016,Teleop Disabled,10,FALSE,0,NO ERROR,-0.000000,-0.128333,0.000000,-0.096250,TRUE,TRUE,FALSE,FALSE,FALSE,FALSE,Disabled,0.000000,-0.000000,-2.840000,TRUE,-4.706772,-2.183945,0.000000,0.000000,0.000000,0.000000,0.000000,-0.002000,0.019000,-0.930000,-0.250000,2.410000,-0.153724,Hold,0.946533,0.000000,Hold,-70895.000000,2.000000,Suck,0.000000,0.000000,Speed,0.000000,0.000000,Speed,Off,On0.000000,0,,,,
04:14:50.885 PM 03/19/2016,Teleop Disabled,10,FALSE,0,NO ERROR,-0.000000,-0.128333,0.000000,-0.096250,TRUE,FALSE,FALSE,FALSE,FALSE,FALSE,Disabled,0.000000,-0.000000,-2.840000,TRUE,-4.706772,-2.183945,0.000000,0.000000,0.000000,0.000000,0.001000,0.001000,0.019000,-0.930000,-0.250000,2.410000,-0.143785,Hold,0.946533,0.000000,Hold,-70895.000000,2.000000,Suck,0.000000,0.000000,Speed,0.000000,0.000000,Speed,Off,On0.000000,0,,,,
04:14:50.985 PM 03/19/2016,Teleop Disabled,10,FALSE,0,NO ERROR,-0.000000,-0.128333,0.000000,-0.096250,TRUE,FALSE,FALSE,FALSE,FALSE,FALSE,Disabled,0.000000,-0.000000,-2.840000,TRUE,-4.706772,-2.183945,0.000000,0.000000,0.000000,0.000000,0.001000,-0.002000,0.019000,-0.930000,-0.250000,2.410000,-0.144612,Hold,0.946533,0.000000,Hold,-70895.000000,2.000000,Suck,0.000000,2181.818182,Speed,0.000000,2181.818182,Speed,Off,On0.000000,0,,,,
04:14:51.085 PM 03/19/2016,Teleop Disabled,10,FALSE,0,NO ERROR,-0.000000,-0.128333,0.000000,-0.096250,TRUE,FALSE,FALSE,FALSE,FALSE,FALSE,Disabled,0.000000,-0.000000,-2.840000,TRUE,-4.706772,-2.183945,0.000000,0.000000,0.000000,0.000000,0.000000,-0.002000,0.018000,-0.930000,-0.250000,2.410000,-0.141871,Hold,0.946533,0.000000,Hold,-70895.000000,2.000000,Suck,0.000000,2181.818182,Speed,0.000000,2181.818182,Speed,Off,On0.000000,0,,,,
04:14:51.185 PM 03/19/2016,Teleop Disabled,9,FALSE,0,NO ERROR,-0.000000,-0.128333,0.000000,-0.096250,TRUE,FALSE,FALSE,FALSE,FALSE,FALSE,Disabled,0.000000,-0.000000,-2.840000,TRUE,-4.706772,-2.183945,0.000000,0.000000,0.000000,0.000000,0.001000,0.000000,0.017000,-0.930000,-0.250000,2.410000,-0.152054,Hold,0.946533,0.000000,Hold,-70895.000000,2.000000,Suck,0.000000,2181.818182,Speed,0.000000,2181.818182,Speed,Off,On0.000000,0,,,,
04:14:51.285 PM 03/19/2016,Teleop Disabled,10,FALSE,0,NO ERROR,-0.000000,-0.128333,0.000000,-0.096250,TRUE,FALSE,FALSE,FALSE,FALSE,FALSE,Disabled,0.000000,-0.000000,-2.840000,TRUE,-4.706772,-2.183945,0.000000,0.000000,0.000000,0.000000,0.003000,0.000000,0.020000,-0.930000,-0.250000,2.400000,-0.134239,Hold,0.946533,0.000000,Hold,-70895.000000,2.000000,Suck,0.000000,2181.818182,Speed,0.000000,2181.818182,Speed,Off,On0.000000,0,,,,
04:14:51.385 PM 03/19/2016,Teleop Disabled,10,FALSE,0,NO ERROR,-0.000000,-0.128333,0.000000,-0.096250,TRUE,FALSE,FALSE,FALSE,FALSE,FALSE,Disabled,0.000000,-0.000000,-2.840000,TRUE,-4.706772,-2.183945,0.000000,0.000000,0.000000,0.000000,-0.001000,0.003000,0.018000,-0.930000,-0.250000,2.400000,-0.131750,Hold,0.946533,0.000000,Hold,-70895.000000,2.000000,Suck,0.000000,2181.818182,Speed,0.000000,2181.818182,Speed,Off,On0.000000,0,,,,
04:14:51.486 PM 03/19/2016,Teleop Disabled,10,FALSE,0,NO ERROR,-0.000000,-0.128333,0.000000,-0.096250,TRUE,TRUE,FALSE,FALSE,FALSE,FALSE,Disabled,0.000000,-0.000000,-2.840000,TRUE,-4.706772,-2.183945,0.000000,0.000000,0.000000,0.000000,0.001000,-0.003000,0.014000,-0.930000,-0.250000,2.410000,-0.130969,Hold,0.946533,0.000000,Hold,-70895.000000,2.000000,Suck,0.000000,2181.818182,Speed,0.000000,2181.818182,Speed,Off,On0.000000,0,,,,
04:14:51.586 PM 03/19/2016,Teleop Disabled,10,FALSE,0,NO ERROR,-0.000000,-0.128333,0.000000,-0.096250,TRUE,TRUE,FALSE,FALSE,FALSE,FALSE,Disabled,0.000000,-0.000000,-2.840000,TRUE,-4.706772,-2.183945,0.000000,0.000000,0.000000,0.000000,0.000000,0.000000,0.019000,-0.930000,-0.250000,2.400000,-0.132132,Hold,0.946533,0.000000,Hold,-70895.000000,2.000000,Suck,0.000000,0.000000,Speed,0.000000,0.000000,Speed,Off,On0.000000,0,,,,
04:14:51.686 PM 03/19/2016,Teleop Disabled,11,FALSE,0,NO ERROR,-0.000000,-0.128333,0.000000,-0.096250,TRUE,FALSE,FALSE,FALSE,FALSE,FALSE,Disabled,0.000000,-0.000000,-2.840000,TRUE,-4.706772,-2.183945,0.000000,0.000000,0.000000,0.000000,0.000000,0.000000,0.019000,-0.940000,-0.250000,2.400000,-0.152929,Hold,0.946533,0.000000,Hold,-70895.000000,2.000000,Suck,0.000000,0.000000,Speed,0.000000,0.000000,Speed,Off,On0.000000,0,,,,
04:14:51.786 PM 03/19/2016,Teleop Disabled,9,FALSE,0,NO ERROR,-0.000000,-0.128333,0.000000,-0.096250,TRUE,FALSE,FALSE,FALSE,FALSE,FALSE,Disabled,0.000000,-0.000000,-2.840000,TRUE,-4.706772,-2.183945,0.000000,0.000000,0.000000,0.000000,0.000000,0.001000,0.018000,-0.940000,-0.250000,2.400000,-0.145076,Hold,0.946533,0.000000,Hold,-70895.000000,2.000000,Suck,0.000000,2181.818182,Speed,0.000000,2181.818182,Speed,Off,On0.000000,0,,,,
04:14:51.886 PM 03/19/2016,Teleop Disabled,11,FALSE,0,NO ERROR,-0.000000,-0.128333,0.000000,-0.096250,TRUE,FALSE,FALSE,FALSE,FALSE,FALSE,Disabled,0.000000,-0.000000,-2.840000,TRUE,-4.706772,-2.183945,0.000000,0.000000,0.000000,0.000000,-0.001000,0.001000,0.017000,-0.940000,-0.240000,2.400000,-0.145018,Hold,0.946533,0.000000,Hold,-70895.000000,2.000000,Suck,0.000000,2181.818182,Speed,0.000000,2181.818182,Speed,Off,On0.000000,0,,,,
04:14:51.986 PM 03/19/2016,Teleop Disabled,11,FALSE,0,NO ERROR,-0.000000,-0.128333,0.000000,-0.096250,TRUE,FALSE,FALSE,FALSE,FALSE,FALSE,Disabled,0.000000,-0.000000,-2.840000,TRUE,-4.706772,-2.183945,0.000000,0.000000,0.000000,0.000000,0.000000,0.000000,0.018000,-0.940000,-0.250000,2.400000,-0.141059,Hold,0.946533,0.000000,Hold,-70895.000000,2.000000,Suck,0.000000,2181.818182,Speed,0.000000,2181.818182,Speed,Off,On0.000000,0,,,,
04:14:52.086 PM 03/19/2016,Teleop Disabled,10,FALSE,0,NO ERROR,-0.000000,-0.128333,0.000000,-0.096250,TRUE,FALSE,FALSE,FALSE,FALSE,FALSE,Disabled,0.000000,-0.000000,-2.840000,TRUE,-4.706772,-2.183945,0.000000,0.000000,0.000000,0.000000,0.000000,0.000000,0.018000,-0.940000,-0.250000,2.400000,-0.146343,Hold,0.946533,0.000000,Hold,-70895.000000,2.000000,Suck,0.000000,2181.818182,Speed,0.000000,2181.818182,Speed,Off,On0.000000,0,,,,
04:14:52.186 PM 03/19/2016,Teleop Disabled,10,FALSE,0,NO ERROR,-0.000000,-0.128333,0.000000,-0.096250,TRUE,FALSE,FALSE,FALSE,FALSE,FALSE,Disabled,0.000000,-0.000000,-2.840000,TRUE,-4.706772,-2.183945,0.000000,0.000000,0.000000,0.000000,0.000000,0.000000,0.017000,-0.940000,-0.240000,2.390000,-0.133375,Hold,0.946533,0.000000,Hold,-70895.000000,2.000000,Suck,0.000000,2181.818182,Speed,0.000000,2181.818182,Speed,Off,On0.000000,0,,,,
04:14:52.287 PM 03/19/2016,Teleop Disabled,10,FALSE,0,NO ERROR,-0.000000,-0.147583,0.000000,-0.154000,TRUE,TRUE,FALSE,FALSE,FALSE,FALSE,Disabled,0.000000,-0.000000,-2.840000,TRUE,-4.706390,-2.184174,0.000000,0.012512,0.000000,0.000000,0.002000,0.014000,0.030000,-0.940000,-0.240000,2.390000,-0.073877,Hold,0.946777,0.000000,Hold,-70895.000000,2.000000,Suck,0.000000,2181.818182,Speed,0.000000,2181.818182,Speed,Off,On0.000000,0,,,,
04:14:52.389 PM 03/19/2016,Teleop Disabled,13,FALSE,0,NO ERROR,-0.000000,-0.173250,0.000000,-0.154000,TRUE,TRUE,FALSE,FALSE,FALSE,FALSE,Disabled,0.000000,-0.000000,-2.840000,TRUE,-4.706390,-2.184174,0.000000,0.012512,0.000000,0.000000,0.008000,-0.007000,0.033000,-0.890000,-0.140000,2.390000,-0.111594,Hold,0.968994,0.000000,Hold,-70895.000000,2.000000,Suck,0.000000,0.000000,Speed,0.000000,0.000000,Speed,Off,On0.000000,0,,,,
04:14:52.489 PM 03/19/2016,Teleop Disabled,9,FALSE,0,NO ERROR,-0.000000,-0.173250,0.000000,-0.154000,TRUE,FALSE,FALSE,FALSE,FALSE,FALSE,Disabled,0.000000,-0.000000,-2.840000,TRUE,-4.707443,-2.185471,0.000000,-0.014526,-0.017715,0.000000,-0.032000,-0.011000,0.042000,-0.910000,-0.230000,2.420000,-0.124121,Hold,0.968994,0.000000,Hold,-70895.000000,2.000000,Suck,0.000000,0.000000,Speed,0.000000,0.000000,Speed,Off,On0.000000,0,,,,
