Time,Robot Mode,Loop Time,Error Status,Error Code,Error Source,Left Motor Output,Left Motor Encoder,Right Motor Output,Right Motor Encoder,Is Level,Is Stalled,Ball Detector Photoeye,Vision Enabled,Vision Teleop Control,Vision Auto Control,Vision Current State,Vision X Output,Vision NavX Error,Vision NavX Target,NavX Connection Status,NavX Displacement X,NavX Displacement Y,NavX Displacement Z,NavX Velocity X,NavX Velocity Y,NavX Velocity Z,NavX Acceleration X,NavX Acceleration Y,NavX Acceleration Z,NavX Pitch,NavX Yaw,NavX Roll,Gyro Angle,Roller Arm State,Roller Arm Actual,Roller Arm Desired,Shooter Arm State,Shooter Arm Actual,Shooter Arm Desired,Shooter State,Actual RPM Left,Desired RPM Left,Control Mode Left,Actual RPM Right,Desired RPM Right,Scaler Motor Output,Auto To Run,Auto Current File,Auto File Status,Auto Current Command,Auto Trimmed Command
04:36:34.533 PM 03/19/2016,Teleop Disabled,12,FALSE,0,NO ERROR,-0.000000,-0.051333,0.000000,-0.314416,TRUE,FALSE,TRUE,FALSE,FALSE,FALSE,Suspended,0.175000,-7.175000,7.575000,TRUE,-25.728668,6.998489,0.000000,0.000000,0.000000,0.000000,0.000000,0.000000,0.019000,0.260000,-0.330000,2.460000,-0.146787,Hold,1.079834,0.000000,Hold,-67075.000000,69632.000000,HighGoal,0.000000,-3272.727273,Speed,0.000000,-3272.727273,Speed,Off,Off0.000000,0,,,,
04:36:34.643 PM 03/19/2016,Teleop Disabled,10,FALSE,0,NO ERROR,-0.000000,0.000000,0.000000,0.000000,TRUE,TRUE,TRUE,FALSE,FALSE,FALSE,Suspended,0.175000,-7.175000,7.575000,TRUE,-25.719727,7.009003,0.000000,0.000000,0.000000,0.000000,0.002000,-0.001000,0.014000,0.000000,-0.300000,2.420000,0.001608,ResetBack,-68.614990,-0.200000,ResetBack,64138.000000,-0.300000,Empty,0.000000,0.000000,Speed,0.000000,0.000000,Speed,Off,Off0.000000,0,,,,
04:36:34.742 PM 03/19/2016,Teleop Disabled,10,FALSE,0,NO ERROR,-0.000000,0.000000,0.000000,0.000000,TRUE,FALSE,TRUE,FALSE,FALSE,FALSE,Suspended,0.175000,-7.175000,7.575000,TRUE,-25.719727,7.009003,0.000000,0.000000,0.000000,0.000000,0.001000,-0.002000,0.017000,0.000000,-0.300000,2.420000,-0.005178,ResetBack,-68.614990,-0.200000,ResetBack,64138.000000,-0.300000,Empty,0.000000,0.000000,Speed,0.000000,0.000000,Speed,Off,Off0.000000,0,,,,
04:36:34.843 PM 03/19/2016,Teleop Disabled,11,FALSE,0,NO ERROR,-0.000000,0.000000,0.000000,0.000000,TRUE,FALSE,TRUE,FALSE,FALSE,FALSE,Suspended,0.175000,-7.175000,7.575000,TRUE,-25.719727,7.009003,0.000000,0.000000,0.000000,0.000000,0.000000,0.000000,0.015000,0.000000,-0.290000,2.420000,0.002981,ResetBack,-68.614990,-0.200000,ResetBack,64138.000000,-0.300000,Empty,0.000000,0.000000,Speed,0.000000,0.000000,Speed,Off,Off0.000000,0,,,,
04:36:34.944 PM 03/19/2016,Teleop Disabled,10,FALSE,0,NO ERROR,-0.000000,0.000000,0.000000,0.000000,TRUE,FALSE,TRUE,FALSE,FALSE,FALSE,Suspended,0.175000,-7.175000,7.575000,TRUE,-25.719727,7.009003,0.000000,0.000000,0.000000,0.000000,-0.002000,0.001000,0.014000,0.000000,-0.300000,2.420000,0.003849,ResetBack,-68.614990,-0.200000,ResetBack,64138.000000,-0.300000,Empty,0.000000,0.000000,Speed,0.000000,0.000000,Speed,Off,Off0.000000,0,,,,
04:36:35.044 PM 03/19/2016,Teleop Disabled,9,FALSE,0,NO ERROR,-0.000000,0.000000,0.000000,0.000000,TRUE,FALSE,TRUE,FALSE,FALSE,FALSE,Suspended,0.175000,-7.175000,7.575000,TRUE,-25.719727,7.009003,0.000000,0.000000,0.000000,0.000000,-0.002000,-0.001000,0.017000,0.000000,-0.290000,2.420000,0.001725,ResetBack,-68.614990,-0.200000,ResetBack,64138.000000,-0.300000,Empty,0.000000,0.000000,Speed,0.000000,0.000000,Speed,Off,Off0.000000,0,,,,
04:36:35.145 PM 03/19/2016,Teleop Disabled,10,FALSE,0,NO ERROR,-0.000000,0.000000,0.000000,0.000000,TRUE,FALSE,TRUE,FALSE,FALSE,FALSE,Suspended,0.175000,-7.175000,7.575000,TRUE,-25.719727,7.009003,0.000000,0.000000,0.000000,0.000000,0.000000,0.002000,0.021000,0.000000,-0.300000,2.420000,-0.006723,ResetBack,-68.614990,-0.200000,ResetBack,64138.000000,-0.300000,Empty,0.000000,0.000000,Speed,0.000000,0.000000,Speed,Off,Off0.000000,0,,,,
04:36:35.245 PM 03/19/2016,Teleop Disabled,10,FALSE,0,NO ERROR,-0.000000,0.000000,0.000000,0.000000,TRUE,FALSE,TRUE,FALSE,FALSE,FALSE,Suspended,0.175000,-7.175000,7.575000,TRUE,-25.719727,7.009003,0.000000,0.000000,0.000000,0.000000,0.000000,0.000000,0.017000,0.000000,-0.300000,2.420000,-0.006723,ResetBack,-68.614990,-0.200000,ResetBack,64138.000000,-0.300000,Empty,0.000000,0.000000,Speed,0.000000,0.000000,Speed,Off,Off0.000000,0,,,,
04:36:35.346 PM 03/19/2016,Teleop Disabled,10,FALSE,0,NO ERROR,-0.000000,0.000000,0.000000,0.000000,TRUE,FALSE,TRUE,FALSE,FALSE,FALSE,Suspended,0.175000,-7.175000,7.575000,TRUE,-25.719727,7.009003,0.000000,0.000000,0.000000,0.000000,-0.001000,0.001000,0.014000,0.000000,-0.300000,2.420000,-0.008582,ResetBack,-68.614990,-0.200000,ResetBack,64138.000000,-0.300000,Empty,0.000000,0.000000,Speed,0.000000,0.000000,Speed,Off,Off0.000000,0,,,,
04:36:35.445 PM 03/19/2016,Teleop Disabled,10,FALSE,0,NO ERROR,-0.000000,0.000000,0.000000,0.000000,TRUE,FALSE,TRUE,FALSE,FALSE,FALSE,Suspended,0.175000,-7.175000,7.575000,TRUE,-25.719727,7.009003,0.000000,0.000000,0.000000,0.000000,0.001000,-0.001000,0.017000,0.000000,-0.300000,2.420000,0.017137,ResetBack,-68.614990,-0.200000,ResetBack,64138.000000,-0.300000,Empty,0.000000,0.000000,Speed,0.000000,0.000000,Speed,Off,Off0.000000,0,,,,
04:36:35.545 PM 03/19/2016,Teleop Disabled,10,FALSE,0,NO ERROR,-0.000000,0.000000,0.000000,0.000000,TRUE,FALSE,TRUE,FALSE,FALSE,FALSE,Suspended,0.175000,-7.175000,7.575000,TRUE,-25.719727,7.009003,0.000000,0.000000,0.000000,0.000000,0.000000,0.000000,0.017000,0.000000,-0.300000,2.420000,0.001604,ResetBack,-68.614990,-0.200000,ResetBack,64138.000000,-0.300000,Empty,0.000000,0.000000,Speed,0.000000,0.000000,Speed,Off,Off0.000000,0,,,,
04:36:35.645 PM 03/19/2016,Teleop Disabled,10,FALSE,0,NO ERROR,-0.000000,0.000000,0.000000,0.000000,TRUE,FALSE,TRUE,FALSE,FALSE,FALSE,Suspended,0.175000,-7.175000,7.575000,TRUE,-25.719727,7.009003,0.000000,0.000000,0.000000,0.000000,0.000000,0.001000,0.017000,0.000000,-0.300000,2.420000,0.002097,ResetBack,-68.614990,-0.200000,ResetBack,64138.000000,-0.300000,Empty,0.000000,0.000000,Speed,0.000000,0.000000,Speed,Off,Off0.000000,0,,,,
04:36:35.745 PM 03/19/2016,Teleop Disabled,10,FALSE,0,NO ERROR,-0.000000,0.000000,0.000000,0.000000,TRUE,FALSE,TRUE,FALSE,FALSE,FALSE,Suspended,0.175000,-7.175000,7.575000,TRUE,-25.719727,7.009003,0.000000,0.000000,0.000000,0.000000,-0.001000,0.001000,0.016000,0.000000,-0.300000,2.420000,-0.009402,ResetBack,-68.614990,-0.200000,ResetBack,64138.000000,-0.300000,Empty,0.000000,0.000000,Speed,0.000000,0.000000,Speed,Off,Off0.000000,0,,,,
04:36:35.845 PM 03/19/2016,Teleop Disabled,10,FALSE,0,NO ERROR,-0.000000,0.000000,0.000000,0.000000,TRUE,FALSE,TRUE,FALSE,FALSE,FALSE,Suspended,0.175000,-7.175000,7.575000,TRUE,-25.719727,7.009003,0.000000,0.000000,0.000000,0.000000,0.000000,0.000000,0.017000,0.000000,-0.300000,2.420000,-0.007470,ResetBack,-68.614990,-0.200000,ResetBack,64138.000000,-0.300000,Suck,0.000000,2181.818182,Speed,0.000000,2181.818182,Speed,Off,Off0.000000,0,,,,
04:36:35.946 PM 03/19/2016,Teleop Disabled,9,FALSE,0,NO ERROR,-0.000000,0.000000,0.000000,0.000000,TRUE,FALSE,TRUE,FALSE,FALSE,FALSE,Suspended,0.175000,-7.175000,7.575000,TRUE,-25.719727,7.009003,0.000000,0.000000,0.000000,0.000000,-0.001000,0.000000,0.019000,0.000000,-0.300000,2.420000,-0.005057,ResetBack,-68.614990,-0.200000,ResetBack,64138.000000,-0.300000,Hold,0.000000,0.000000,Speed,0.000000,0.000000,Speed,Off,Off0.000000,0,,,,
04:36:36.045 PM 03/19/2016,Teleop Disabled,10,FALSE,0,NO ERROR,-0.000000,0.000000,0.000000,0.000000,TRUE,FALSE,TRUE,FALSE,FALSE,FALSE,Suspended,0.175000,-7.175000,7.575000,TRUE,-25.719727,7.009003,0.000000,0.000000,0.000000,0.000000,0.001000,-0.002000,0.017000,0.000000,-0.300000,2.420000,-0.007278,ResetBack,-68.614990,-0.200000,ResetBack,64138.000000,-0.300000,Hold,0.000000,0.000000,Speed,0.000000,0.000000,Speed,Off,Off0.000000,0,,,,
04:36:36.145 PM 03/19/2016,Teleop Disabled,10,FALSE,0,NO ERROR,-0.000000,0.000000,0.000000,0.000000,TRUE,FALSE,TRUE,FALSE,FALSE,FALSE,Suspended,0.175000,-7.175000,7.575000,TRUE,-25.719727,7.009003,0.000000,0.000000,0.000000,0.000000,0.000000,0.001000,0.016000,0.000000,-0.300000,2.420000,-0.020917,ResetBack,-68.614990,-0.200000,ResetBack,64138.000000,-0.300000,Hold,0.000000,0.000000,Speed,0.000000,0.000000,Speed,Off,Off0.000000,0,,,,
04:36:36.246 PM 03/19/2016,Teleop Disabled,10,FALSE,0,NO ERROR,-0.000000,0.000000,0.000000,0.000000,TRUE,FALSE,TRUE,FALSE,FALSE,FALSE,Suspended,0.175000,-7.175000,7.575000,TRUE,-25.719727,7.009003,0.000000,0.000000,0.000000,0.000000,0.001000,0.000000,0.017000,0.000000,-0.300000,2.420000,-0.030432,ResetBack,-68.614990,-0.200000,ResetBack,64138.000000,-0.300000,Hold,0.000000,0.000000,Speed,0.000000,0.000000,Speed,Off,Off0.000000,0,,,,
04:36:36.346 PM 03/19/2016,Teleop Disabled,10,FALSE,0,NO ERROR,-0.000000,0.000000,0.000000,0.000000,TRUE,FALSE,TRUE,FALSE,FALSE,FALSE,Suspended,0.175000,-7.175000,7.575000,TRUE,-25.719727,7.009003,0.000000,0.000000,0.000000,0.000000,0.001000,0.000000,0.016000,0.000000,-0.300000,2.420000,-0.027344,ResetBack,-68.614990,-0.200000,ResetBack,64138.000000,-0.300000,Hold,0.000000,0.000000,Speed,0.000000,0.000000,Speed,Off,Off0.000000,0,,,,
04:36:36.446 PM 03/19/2016,Teleop Disabled,10,FALSE,0,NO ERROR,-0.000000,0.000000,0.000000,0.000000,TRUE,FALSE,TRUE,FALSE,FALSE,FALSE,Suspended,0.175000,-7.175000,7.575000,TRUE,-25.719727,7.009003,0.000000,0.000000,0.000000,0.000000,0.000000,0.000000,0.018000,0.000000,-0.290000,2.420000,-0.015598,ResetBack,-68.614990,-0.200000,ResetBack,64138.000000,-0.300000,Hold,0.000000,0.000000,Speed,0.000000,0.000000,Speed,Off,Off0.000000,0,,,,
04:36:36.546 PM 03/19/2016,Teleop Disabled,10,FALSE,0,NO ERROR,-0.000000,0.000000,0.000000,0.000000,TRUE,FALSE,TRUE,FALSE,FALSE,FALSE,Suspended,0.175000,-7.175000,7.575000,TRUE,-25.719727,7.009003,0.000000,0.000000,0.000000,0.000000,0.001000,0.003000,0.017000,0.000000,-0.300000,2.420000,-0.004468,ResetBack,-68.614990,-0.200000,ResetBack,64138.000000,-0.300000,Hold,0.000000,0.000000,Speed,0.000000,0.000000,Speed,Off,Off0.000000,0,,,,
04:36:36.647 PM 03/19/2016,Teleop Disabled,10,FALSE,0,NO ERROR,-0.000000,0.000000,0.000000,0.000000,TRUE,FALSE,TRUE,FALSE,FALSE,FALSE,Suspended,0.175000,-7.175000,7.575000,TRUE,-25.719727,7.009003,0.000000,0.000000,0.000000,0.000000,-0.001000,0.000000,0.017000,0.000000,-0.290000,2.430000,-0.005728,ResetBack,-68.614990,-0.200000,ResetBack,64138.000000,-0.300000,Hold,0.000000,0.000000,Speed,0.000000,0.000000,Speed,Off,Off0.000000,0,,,,
04:36:36.746 PM 03/19/2016,Teleop Disabled,10,FALSE,0,NO ERROR,-0.000000,0.000000,0.000000,0.000000,TRUE,FALSE,TRUE,FALSE,FALSE,FALSE,Suspended,0.175000,-7.175000,7.575000,TRUE,-25.719727,7.009003,0.000000,0.000000,0.000000,0.000000,0.000000,0.000000,0.016000,0.000000,-0.290000,2.430000,-0.004696,ResetBack,-68.614990,-0.200000,ResetBack,64138.000000,-0.300000,Hold,0.000000,0.000000,Speed,0.000000,0.000000,Speed,Off,Off0.000000,0,,,,
04:36:36.846 PM 03/19/2016,Teleop Disabled,10,FALSE,0,NO ERROR,-0.000000,0.000000,0.000000,0.000000,TRUE,FALSE,TRUE,FALSE,FALSE,FALSE,Suspended,0.175000,-7.175000,7.575000,TRUE,-25.719727,7.009003,0.000000,0.000000,0.000000,0.000000,0.002000,-0.001000,0.014000,0.000000,-0.290000,2.430000,-0.019137,ResetBack,-68.614990,-0.200000,ResetBack,64138.000000,-0.300000,Hold,0.000000,0.000000,Speed,0.000000,0.000000,Speed,Off,Off0.000000,0,,,,
04:36:36.946 PM 03/19/2016,Teleop Disabled,11,FALSE,0,NO ERROR,-0.000000,0.000000,0.000000,0.000000,TRUE,FALSE,TRUE,FALSE,FALSE,FALSE,Suspended,0.175000,-7.175000,7.575000,TRUE,-25.719727,7.009003,0.000000,0.000000,0.000000,0.000000,-0.001000,0.000000,0.019000,0.000000,-0.290000,2.420000,-0.014228,ResetBack,-68.614990,-0.200000,ResetBack,64138.000000,-0.300000,Hold,0.000000,0.000000,Speed,0.000000,0.000000,Speed,Off,Off0.000000,0,,,,
04:36:37.047 PM 03/19/2016,Teleop Disabled,10,FALSE,0,NO ERROR,-0.000000,0.000000,0.000000,0.000000,TRUE,FALSE,TRUE,FALSE,FALSE,FALSE,Suspended,0.175000,-7.175000,7.575000,TRUE,-25.719727,7.009003,0.000000,0.000000,0.000000,0.000000,0.000000,-0.001000,0.016000,0.000000,-0.290000,2.420000,-0.015034,ResetBack,-68.614990,-0.200000,ResetBack,64138.000000,-0.300000,Hold,0.000000,0.000000,Speed,0.000000,0.000000,Speed,Off,Off0.000000,0,,,,
04:36:37.147 PM 03/19/2016,Teleop Disabled,10,FALSE,0,NO ERROR,-0.000000,0.000000,0.000000,0.000000,TRUE,FALSE,TRUE,FALSE,FALSE,FALSE,Suspended,0.175000,-7.175000,7.575000,TRUE,-25.719727,7.009003,0.000000,0.000000,0.000000,0.000000,0.000000,-0.001000,0.015000,0.000000,-0.290000,2.420000,-0.008696,ResetBack,-68.614990,-0.200000,ResetBack,64138.000000,-0.300000,LowGoal,0.000000,-1454.545455,Speed,0.000000,-1454.545455,Speed,Off,Off0.000000,0,,,,
04:36:37.246 PM 03/19/2016,Teleop Disabled,10,FALSE,0,NO ERROR,-0.000000,0.000000,0.000000,0.000000,TRUE,FALSE,TRUE,FALSE,FALSE,FALSE,Suspended,0.175000,-7.175000,7.575000,TRUE,-25.719727,7.009003,0.000000,0.000000,0.000000,0.000000,-0.001000,0.002000,0.019000,0.000000,-0.290000,2.420000,-0.004486,ResetBack,-68.614990,-0.200000,ResetBack,64138.000000,-0.300000,LowGoal,0.000000,-1454.545455,Speed,0.000000,-1454.545455,Speed,Off,Off0.000000,0,,,,
04:36:37.347 PM 03/19/2016,Teleop Disabled,7,FALSE,0,NO ERROR,-0.000000,0.000000,0.000000,0.000000,TRUE,FALSE,TRUE,FALSE,FALSE,FALSE,Suspended,0.175000,-7.175000,7.575000,TRUE,-25.719727,7.009003,0.000000,0.000000,0.000000,0.000000,0.000000,0.001000,0.019000,-0.010000,-0.280000,2.430000,-0.022924,ResetBack,-68.614990,-0.200000,ResetBack,64138.000000,-0.300000,LowGoal,0.000000,-1454.545455,Speed,0.000000,-1454.545455,Speed,Off,Off0.000000,0,,,,
04:36:37.448 PM 03/19/2016,Teleop Enabled,10,FALSE,0,NO ERROR,-0.000000,-0.006417,0.000000,0.000000,TRUE,FALSE,TRUE,FALSE,FALSE,FALSE,Suspended,0.175000,-7.175000,7.575000,TRUE,-25.719650,7.009094,0.000000,0.005157,0.006134,0.000000,0.009000,0.012000,0.008000,0.000000,-0.290000,2.420000,-0.031413,ResetBack,-69.103760,-0.200000,ResetBack,64629.000000,-0.300000,LowGoal,7.500000,-1454.545455,Speed,15.000000,-1454.545455,Speed,Off,Off0.000000,0,,,,
04:36:37.549 PM 03/19/2016,Teleop Enabled,10,FALSE,0,NO ERROR,-0.000000,-0.012833,0.000000,0.000000,TRUE,FALSE,TRUE,FALSE,FALSE,FALSE,Suspended,0.175000,-7.175000,7.575000,TRUE,-25.719620,7.009033,0.000000,-0.001465,-0.007446,0.000000,-0.029000,-0.001000,0.036000,-0.020000,-0.270000,2.410000,-0.053828,ResetBack,-69.103760,-0.200000,ResetBack,69894.000000,-0.300000,LowGoal,420.000000,-1454.545455,Speed,480.000000,-1454.545455,Speed,Off,Off0.000000,0,,,,
04:36:37.649 PM 03/19/2016,Teleop Enabled,11,FALSE,0,NO ERROR,-0.000000,-0.006417,0.000000,0.012833,TRUE,FALSE,TRUE,FALSE,FALSE,FALSE,Suspended,0.175000,-7.175000,7.575000,TRUE,-25.720642,7.008820,0.000000,-0.011597,-0.011261,0.000000,0.020000,-0.026000,0.069000,0.010000,-0.320000,2.440000,-0.025231,ResetBack,-69.106445,-0.200000,ResetBack,74922.000000,-0.300000,LowGoal,1057.500000,-1454.545455,Speed,1147.500000,-1454.545455,Speed,Off,Off0.000000,0,,,,
04:36:37.749 PM 03/19/2016,Teleop Enabled,10,FALSE,0,NO ERROR,-0.000000,-0.006417,0.000000,0.012833,TRUE,FALSE,TRUE,FALSE,FALSE,FALSE,Suspended,0.175000,-7.175000,7.575000,TRUE,-25.721512,7.008408,0.000000,-0.025604,0.002106,0.000000,-0.009000,-0.031000,-0.014000,-0.020000,-0.280000,2.440000,-0.057749,Reset,-69.140625,0.000000,ResetBack,79118.000000,-0.300000,LowGoal,1477.500000,-1454.545455,Speed,1147.500000,-1454.545455,Speed,Off,Off0.000000,0,,,,
04:36:37.849 PM 03/19/2016,Teleop Enabled,12,FALSE,0,NO ERROR,-0.000000,-0.006417,0.000000,0.012833,TRUE,FALSE,TRUE,FALSE,FALSE,FALSE,Suspended,0.175000,-7.175000,7.575000,TRUE,-25.721817,7.008530,0.000000,-0.009995,0.005997,0.000000,-0.024000,-0.011000,-0.005000,-0.040000,-0.340000,2.470000,-0.096199,Hold,-69.140625,0.000000,ResetBack,79118.000000,-0.300000,LowGoal,1477.500000,-1454.545455,Speed,1507.500000,-1454.545455,Speed,Off,Off0.000000,0,,,,
04:36:37.949 PM 03/19/2016,Teleop Enabled,10,FALSE,0,NO ERROR,-0.000000,-0.006417,0.000000,0.012833,TRUE,FALSE,TRUE,FALSE,FALSE,FALSE,Suspended,0.175000,-7.175000,7.575000,TRUE,-25.722687,7.008301,0.000000,-0.018967,-0.012405,0.000000,0.029000,0.046000,0.039000,-0.020000,-0.360000,2.440000,-0.083689,Hold,0.759033,0.000000,ResetBack,81049.000000,-0.300000,LowGoal,1357.500000,-1454.545455,Speed,1380.000000,-1454.545455,Speed,Off,Off0.000000,0,,,,
04:36:38.050 PM 03/19/2016,Teleop Enabled,10,FALSE,0,NO ERROR,-0.000000,-0.006417,0.000000,0.012833,TRUE,FALSE,TRUE,FALSE,FALSE,FALSE,Suspended,0.175000,-7.175000,7.575000,TRUE,-25.723145,7.007935,0.000000,0.000000,-0.007263,0.000000,0.005000,-0.049000,-0.055000,-0.020000,-0.330000,2.450000,-0.075733,Hold,0.874756,0.000000,ResetBack,81750.000000,-0.300000,LowGoal,1350.000000,-1454.545455,Speed,1350.000000,-1454.545455,Speed,Off,Off0.000000,0,,,,
04:36:38.151 PM 03/19/2016,Teleop Enabled,10,FALSE,0,NO ERROR,-0.000000,-0.006417,0.000000,0.012833,TRUE,FALSE,TRUE,FALSE,FALSE,FALSE,Suspended,0.175000,-7.175000,7.575000,TRUE,-25.723404,7.007431,0.000000,0.000000,-0.004318,0.000000,-0.001000,0.005000,-0.037000,-0.030000,-0.340000,2.470000,-0.083348,Hold,0.874756,0.000000,ResetBack,81750.000000,-0.300000,LowGoal,1395.000000,-1454.545455,Speed,1387.500000,-1454.545455,Speed,Off,Off0.000000,0,,,,
04:36:38.250 PM 03/19/2016,Teleop Enabled,10,FALSE,0,NO ERROR,-0.000000,-0.006417,0.000000,0.012833,TRUE,FALSE,TRUE,FALSE,FALSE,FALSE,Suspended,0.175000,-7.175000,7.575000,TRUE,-25.723312,7.007568,0.000000,0.002167,-0.001114,0.000000,0.006000,0.002000,0.054000,-0.010000,-0.350000,2.470000,-0.066063,Hold,0.874756,0.000000,ResetBack,81750.000000,-0.300000,LowGoal,1395.000000,-1454.545455,Speed,1402.500000,-1454.545455,Speed,Off,Off0.000000,0,,,,
04:36:38.351 PM 03/19/2016,Teleop Enabled,10,FALSE,0,NO ERROR,-0.000000,-0.006417,0.000000,0.012833,TRUE,FALSE,TRUE,FALSE,FALSE,FALSE,Suspended,0.175000,-7.175000,7.575000,TRUE,-25.723434,7.007217,0.000000,-0.006912,-0.005005,0.000000,0.026000,-0.014000,0.074000,-0.020000,-0.370000,2.490000,-0.068194,Hold,0.874756,0.000000,ResetBack,81750.000000,-0.300000,LowGoal,1387.500000,-1454.545455,Speed,1395.000000,-1454.545455,Speed,Off,Off0.000000,0,,,,
04:36:38.454 PM 03/19/2016,Teleop Enabled,10,FALSE,0,NO ERROR,-0.000000,-0.006417,0.000000,0.012833,TRUE,FALSE,TRUE,FALSE,FALSE,FALSE,Suspended,0.175000,-7.175000,7.575000,TRUE,-25.723495,7.006958,0.000000,-0.001266,-0.010986,0.000000,-0.020000,-0.002000,0.076000,-0.020000,-0.320000,2.460000,-0.075740,Hold,0.874756,0.000000,ResetBack,81750.000000,-0.300000,LowGoal,1380.000000,-1454.545455,Speed,1380.000000,-1454.545455,Speed,Off,Off0.000000,0,,,,
04:36:38.554 PM 03/19/2016,Teleop Enabled,9,FALSE,0,NO ERROR,-0.000000,-0.006417,0.000000,0.012833,TRUE,FALSE,TRUE,FALSE,FALSE,FALSE,Suspended,0.175000,-7.175000,7.575000,TRUE,-25.723709,7.006409,0.000000,-0.008759,-0.011139,0.000000,0.072000,-0.034000,0.088000,-0.020000,-0.330000,2.440000,-0.086918,Hold,0.874756,0.000000,ResetBack,81750.000000,-0.300000,LowGoal,1395.000000,-1454.545455,Speed,1387.500000,-1454.545455,Speed,Off,Off0.000000,0,,,,
04:36:38.654 PM 03/19/2016,Teleop Enabled,10,FALSE,0,NO ERROR,-0.000000,-0.006417,0.000000,0.012833,TRUE,FALSE,TRUE,FALSE,FALSE,FALSE,Suspended,0.175000,-7.175000,7.575000,TRUE,-25.723343,7.005585,0.000000,0.005600,-0.022385,0.000000,-0.029000,0.051000,0.114000,-0.020000,-0.310000,2.420000,-0.099593,Hold,0.874756,0.000000,Reset,81754.000000,2.000000,LowGoal,1395.000000,-1454.545455,Speed,1387.500000,-1454.545455,Speed,Off,Off0.000000,0,,,,
04:36:38.753 PM 03/19/2016,Teleop Enabled,10,FALSE,0,NO ERROR,-0.000000,-0.006417,0.000000,0.012833,TRUE,FALSE,TRUE,FALSE,FALSE,FALSE,Suspended,0.175000,-7.175000,7.575000,TRUE,-25.723007,7.004745,0.000000,0.002686,-0.018097,0.000000,0.015000,-0.025000,0.015000,-0.020000,-0.290000,2.370000,-0.088808,Hold,0.874756,0.000000,Hold,81754.000000,2.000000,LowGoal,1387.500000,-1454.545455,Speed,1387.500000,-1454.545455,Speed,Off,Off0.000000,0,,,,
04:36:38.854 PM 03/19/2016,Teleop Enabled,10,FALSE,0,NO ERROR,-0.000000,-0.006417,0.000000,0.012833,TRUE,FALSE,TRUE,FALSE,FALSE,FALSE,Suspended,0.175000,-7.175000,7.575000,TRUE,-25.722931,7.003830,0.000000,0.004684,-0.025345,0.000000,-0.028000,-0.064000,-0.119000,-0.020000,-0.290000,2.400000,-0.110630,Hold,0.874756,0.000000,Hold,-358.000000,2.000000,LowGoal,1387.500000,-1454.545455,Speed,1387.500000,-1454.545455,Speed,Off,Off0.000000,0,,,,
04:36:38.956 PM 03/19/2016,Teleop Enabled,10,FALSE,0,NO ERROR,-0.000000,-0.006417,0.000000,0.012833,TRUE,FALSE,TRUE,FALSE,FALSE,FALSE,Suspended,0.175000,-7.175000,7.575000,TRUE,-25.722977,7.002411,0.000000,0.002762,-0.024078,0.000000,-0.046000,0.014000,-0.007000,-0.020000,-0.280000,2.410000,-0.126803,Hold,0.874756,0.000000,Hold,-239.000000,2.000000,LowGoal,1387.500000,-1454.545455,Speed,1387.500000,-1454.545455,Speed,Off,Off0.000000,0,,,,
04:36:39.056 PM 03/19/2016,Teleop Enabled,10,FALSE,0,NO ERROR,-0.000000,-0.006417,0.000000,0.012833,TRUE,FALSE,TRUE,FALSE,FALSE,FALSE,Suspended,0.175000,-7.175000,7.575000,TRUE,-25.723114,7.002441,0.000000,-0.002792,0.003891,0.000000,-0.026000,-0.017000,0.050000,-0.030000,-0.290000,2.420000,-0.115959,Hold,0.874756,0.000000,Hold,-235.000000,2.000000,LowGoal,1387.500000,-1454.545455,Speed,1387.500000,-1454.545455,Speed,Off,Off0.000000,0,,,,
04:36:39.157 PM 03/19/2016,Teleop Enabled,10,FALSE,0,NO ERROR,-0.000000,-0.006417,0.000000,0.012833,TRUE,FALSE,TRUE,FALSE,FALSE,FALSE,Suspended,0.175000,-7.175000,7.575000,TRUE,-25.723495,7.002716,0.000000,-0.012909,0.006638,0.000000,-0.012000,0.000000,0.065000,-0.030000,-0.300000,2.450000,-0.105886,Hold,0.874756,0.000000,Hold,-234.000000,2.000000,LowGoal,1395.000000,-1454.545455,Speed,1395.000000,-1454.545455,Speed,Off,Off0.000000,0,,,,
04:36:39.257 PM 03/19/2016,Teleop Enabled,10,FALSE,0,NO ERROR,-0.000000,-0.006417,0.000000,0.012833,TRUE,FALSE,TRUE,FALSE,FALSE,FALSE,Suspended,0.175000,-7.175000,7.575000,TRUE,-25.723755,7.002838,0.000000,0.000000,-0.001785,0.000000,0.024000,0.016000,0.004000,-0.030000,-0.330000,2.460000,-0.101449,Hold,0.874756,0.000000,Hold,-234.000000,2.000000,LowGoal,1395.000000,-1454.545455,Speed,1395.000000,-1454.545455,Speed,Off,Off0.000000,0,,,,
04:36:39.358 PM 03/19/2016,Teleop Enabled,10,FALSE,0,NO ERROR,-0.000000,-0.006417,0.000000,0.012833,TRUE,FALSE,TRUE,FALSE,FALSE,FALSE,Suspended,0.175000,-7.175000,7.575000,TRUE,-25.723404,7.003006,0.000000,0.008835,0.006973,0.000000,0.003000,-0.043000,-0.092000,-0.030000,-0.290000,2.430000,-0.107432,Hold,0.874756,0.000000,Hold,-234.000000,2.000000,LowGoal,1387.500000,-1454.545455,Speed,1380.000000,-1454.545455,Speed,Off,Off0.000000,0,,,,
04:36:39.458 PM 03/19/2016,Teleop Enabled,10,FALSE,0,NO ERROR,-0.000000,-0.006417,0.000000,0.012833,TRUE,FALSE,TRUE,FALSE,FALSE,FALSE,Suspended,0.175000,-7.175000,7.575000,TRUE,-25.723404,7.003067,0.000000,0.000000,0.000000,0.000000,-0.054000,-0.009000,-0.115000,-0.030000,-0.290000,2.440000,-0.124958,Hold,0.874756,0.000000,Hold,-234.000000,2.000000,LowGoal,1395.000000,-1454.545455,Speed,1380.000000,-1454.545455,Speed,Off,Off0.000000,0,,,,
04:36:39.560 PM 03/19/2016,Teleop Enabled,12,FALSE,0,NO ERROR,-0.000000,-0.006417,0.000000,0.012833,TRUE,FALSE,TRUE,FALSE,FALSE,FALSE,Suspended,0.175000,-7.175000,7.575000,TRUE,-25.724121,7.003113,0.000000,-0.011978,0.003815,0.000000,0.018000,0.007000,0.003000,-0.030000,-0.250000,2.450000,-0.135788,Hold,0.874756,0.000000,Hold,-233.000000,2.000000,LowGoal,1395.000000,-1454.545455,Speed,1380.000000,-1454.545455,Speed,Off,Off0.000000,0,,,,
04:36:39.661 PM 03/19/2016,Teleop Enabled,10,FALSE,0,NO ERROR,-0.000000,-0.006417,0.000000,0.012833,TRUE,FALSE,TRUE,FALSE,FALSE,FALSE,Suspended,0.175000,-7.175000,7.575000,TRUE,-25.724655,7.003265,0.000000,-0.018066,0.003235,0.000000,0.057000,0.000000,0.069000,-0.030000,-0.270000,2.450000,-0.151142,Hold,0.874756,0.000000,Hold,-233.000000,2.000000,LowGoal,1387.500000,-1454.545455,Speed,1380.000000,-1454.545455,Speed,Off,Off0.000000,0,,,,
04:36:39.762 PM 03/19/2016,Teleop Enabled,12,FALSE,0,NO ERROR,-0.000000,-0.006417,0.000000,0.012833,TRUE,FALSE,TRUE,FALSE,FALSE,FALSE,Suspended,0.175000,-7.175000,7.575000,TRUE,-25.725311,7.004364,0.000000,-0.006042,0.024124,0.000000,-0.041000,0.006000,0.048000,-0.030000,-0.200000,2.410000,-0.157748,Hold,0.874756,0.000000,Hold,-233.000000,2.000000,LowGoal,1395.000000,-1454.545455,Speed,1372.500000,-1454.545455,Speed,Off,Off0.000000,0,,,,
04:36:39.863 PM 03/19/2016,Teleop Enabled,10,FALSE,0,NO ERROR,-0.000000,-0.006417,0.000000,0.012833,TRUE,FALSE,TRUE,FALSE,FALSE,FALSE,Suspended,0.175000,-7.175000,7.575000,TRUE,-25.725525,7.004089,0.000000,-0.005249,0.000000,0.000000,-0.029000,0.017000,-0.051000,-0.030000,-0.230000,2.390000,-0.158172,Hold,0.874756,0.000000,Hold,-233.000000,2.000000,LowGoal,1387.500000,-1454.545455,Speed,1372.500000,-1454.545455,Speed,Off,Off0.000000,0,,,,
04:36:39.962 PM 03/19/2016,Teleop Enabled,9,FALSE,0,NO ERROR,-0.000000,-0.006417,0.000000,0.012833,TRUE,FALSE,TRUE,FALSE,FALSE,FALSE,Suspended,0.175000,-7.175000,7.575000,TRUE,-25.725464,7.004181,0.000000,0.000946,0.006561,0.000000,-0.037000,-0.011000,0.028000,-0.030000,-0.220000,2.370000,-0.163701,Hold,0.874756,0.000000,Hold,-233.000000,2.000000,LowGoal,1387.500000,-1454.545455,Speed,1380.000000,-1454.545455,Speed,Off,Off0.000000,0,,,,
04:36:40.064 PM 03/19/2016,Teleop Enabled,10,FALSE,0,NO ERROR,-0.000000,-0.006417,0.000000,0.012833,TRUE,FALSE,TRUE,FALSE,FALSE,FALSE,Suspended,0.175000,-7.175000,7.575000,TRUE,-25.725159,7.004318,0.000000,0.020554,-0.006073,0.000000,-0.039000,0.014000,0.028000,-0.040000,-0.200000,2.350000,-0.164816,Hold,0.874756,0.000000,Hold,-232.000000,2.000000,LowGoal,1395.000000,-1454.545455,Speed,1372.500000,-1454.545455,Speed,Off,Off0.000000,0,,,,
04:36:40.163 PM 03/19/2016,Teleop Enabled,9,FALSE,0,NO ERROR,-0.000000,-0.006417,0.000000,0.012833,TRUE,FALSE,TRUE,FALSE,FALSE,FALSE,Suspended,0.175000,-7.175000,7.575000,TRUE,-25.724518,7.003983,0.000000,0.013794,-0.005508,0.000000,0.001000,-0.023000,-0.059000,-0.040000,-0.200000,2.390000,-0.148581,Hold,0.874756,0.000000,Hold,-232.000000,2.000000,LowGoal,1395.000000,-1454.545455,Speed,1380.000000,-1454.545455,Speed,Off,Off0.000000,0,,,,
04:36:40.264 PM 03/19/2016,Teleop Enabled,10,FALSE,0,NO ERROR,-0.000000,-0.006417,0.000000,0.012833,TRUE,FALSE,TRUE,FALSE,FALSE,FALSE,Suspended,0.175000,-7.175000,7.575000,TRUE,-25.724304,7.003616,0.000000,0.008347,-0.005737,0.000000,0.001000,-0.023000,-0.059000,-0.040000,-0.190000,2.400000,-0.155235,Hold,0.874756,0.000000,Hold,-232.000000,2.000000,LowGoal,1387.500000,-1454.545455,Speed,1387.500000,-1454.545455,Speed,Off,Off0.000000,0,,,,
04:36:40.364 PM 03/19/2016,Teleop Enabled,10,FALSE,0,NO ERROR,-0.000000,-0.006417,0.000000,0.012833,TRUE,FALSE,TRUE,FALSE,FALSE,FALSE,Suspended,0.175000,-7.175000,7.575000,TRUE,-25.723984,7.003601,0.000000,0.000687,0.002182,0.000000,-0.003000,0.057000,0.147000,-0.030000,-0.210000,2.400000,-0.150536,Hold,0.874756,0.000000,Hold,-231.000000,2.000000,LowGoal,1395.000000,-1454.545455,Speed,1387.500000,-1454.545455,Speed,Off,Off0.000000,0,,,,
04:36:40.465 PM 03/19/2016,Teleop Enabled,10,FALSE,0,NO ERROR,-0.000000,-0.006417,0.000000,0.012833,TRUE,FALSE,TRUE,FALSE,FALSE,FALSE,Suspended,0.175000,-7.175000,7.575000,TRUE,-25.723694,7.003891,0.000000,0.002090,0.006805,0.000000,0.062000,-0.033000,0.049000,-0.040000,-0.210000,2.380000,-0.138873,Hold,0.874756,0.000000,Hold,-231.000000,2.000000,LowGoal,1395.000000,-1454.545455,Speed,1387.500000,-1454.545455,Speed,Off,Off0.000000,0,,,,
04:36:40.565 PM 03/19/2016,Teleop Enabled,10,FALSE,0,NO ERROR,-0.000000,-0.006417,0.000000,0.012833,TRUE,FALSE,TRUE,FALSE,FALSE,FALSE,Suspended,0.175000,-7.175000,7.575000,TRUE,-25.723679,7.004608,0.000000,-0.011963,0.020599,0.000000,-0.003000,-0.026000,0.023000,-0.040000,-0.220000,2.400000,-0.148942,Hold,0.874756,0.000000,Hold,-231.000000,2.000000,LowGoal,1395.000000,-1454.545455,Speed,1387.500000,-1454.545455,Speed,Off,Off0.000000,0,,,,
04:36:40.665 PM 03/19/2016,Teleop Enabled,10,FALSE,0,NO ERROR,-0.000000,-0.006417,0.000000,0.012833,TRUE,FALSE,TRUE,FALSE,FALSE,FALSE,Suspended,0.175000,-7.175000,7.575000,TRUE,-25.723862,7.004990,0.000000,-0.007736,0.003876,0.000000,-0.010000,0.005000,-0.031000,-0.040000,-0.230000,2.420000,-0.152257,Hold,0.874756,0.000000,Hold,-230.000000,2.000000,LowGoal,1395.000000,-1454.545455,Speed,1387.500000,-1454.545455,Speed,Off,Off0.000000,0,,,,
04:36:40.764 PM 03/19/2016,Teleop Enabled,9,FALSE,0,NO ERROR,-0.000000,-0.006417,0.000000,0.012833,TRUE,FALSE,TRUE,FALSE,FALSE,FALSE,Suspended,0.175000,-7.175000,7.575000,TRUE,-25.724594,7.005234,0.000000,-0.021591,0.000000,0.000000,-0.010000,0.005000,-0.031000,-0.040000,-0.230000,2.420000,-0.154705,Hold,0.874756,0.000000,Hold,-230.000000,2.000000,LowGoal,1395.000000,-1454.545455,Speed,1395.000000,-1454.545455,Speed,Off,Off0.000000,0,,,,
04:36:40.865 PM 03/19/2016,Teleop Enabled,10,FALSE,0,NO ERROR,-0.000000,-0.006417,0.000000,0.012833,TRUE,FALSE,TRUE,FALSE,FALSE,FALSE,Suspended,0.175000,-7.175000,7.575000,TRUE,-25.724930,7.004532,0.000000,0.002487,-0.014923,0.000000,-0.012000,0.036000,0.034000,-0.040000,-0.260000,2.420000,-0.155122,Hold,0.874756,0.000000,Hold,-230.000000,2.000000,LowGoal,1395.000000,-1454.545455,Speed,1387.500000,-1454.545455,Speed,Off,Off0.000000,0,,,,
04:36:40.965 PM 03/19/2016,Teleop Enabled,10,FALSE,0,NO ERROR,-0.000000,-0.006417,0.000000,0.012833,TRUE,FALSE,TRUE,FALSE,FALSE,FALSE,Suspended,0.175000,-7.175000,7.575000,TRUE,-25.725159,7.004410,0.000000,0.000000,-0.001694,0.000000,-0.035000,0.085000,0.094000,-0.040000,-0.260000,2.400000,-0.161814,Hold,0.874756,0.000000,Hold,-230.000000,2.000000,LowGoal,1395.000000,-1454.545455,Speed,1387.500000,-1454.545455,Speed,Off,Off0.000000,0,,,,
04:36:41.066 PM 03/19/2016,Teleop Enabled,11,FALSE,0,NO ERROR,-0.000000,-0.006417,0.000000,0.012833,TRUE,FALSE,TRUE,FALSE,FALSE,FALSE,Suspended,0.175000,-7.175000,7.575000,TRUE,-25.725159,7.004410,0.000000,0.000000,-0.001694,0.000000,0.006000,-0.021000,0.009000,-0.040000,-0.260000,2.400000,-0.162719,Hold,0.874756,0.000000,Hold,-230.000000,2.000000,LowGoal,1395.000000,-1454.545455,Speed,1380.000000,-1454.545455,Speed,Off,Off0.000000,0,,,,
04:36:41.166 PM 03/19/2016,Teleop Enabled,10,FALSE,0,NO ERROR,-0.000000,-0.006417,0.000000,0.012833,TRUE,FALSE,TRUE,FALSE,FALSE,FALSE,Suspended,0.175000,-7.175000,7.575000,TRUE,-25.725250,7.005463,0.000000,-0.005188,0.025650,0.000000,-0.041000,0.085000,0.104000,-0.040000,-0.260000,2.400000,-0.159339,Hold,0.874756,0.000000,Hold,-230.000000,2.000000,LowGoal,1387.500000,-1454.545455,Speed,1387.500000,-1454.545455,Speed,Off,Off0.000000,0,,,,
04:36:41.267 PM 03/19/2016,Teleop Enabled,10,FALSE,0,NO ERROR,-0.000000,-0.006417,0.000000,0.012833,TRUE,FALSE,TRUE,FALSE,FALSE,FALSE,Suspended,0.175000,-7.175000,7.575000,TRUE,-25.725327,7.006241,0.000000,-0.003998,0.014557,0.000000,0.028000,-0.044000,-0.001000,-0.040000,-0.270000,2.450000,-0.162971,Hold,0.874756,0.000000,Hold,-230.000000,2.000000,LowGoal,1387.500000,-1454.545455,Speed,1387.500000,-1454.545455,Speed,Off,Off0.000000,0,,,,
04:36:41.367 PM 03/19/2016,Teleop Enabled,10,FALSE,0,NO ERROR,-0.000000,-0.006417,0.000000,0.012833,TRUE,FALSE,TRUE,FALSE,FALSE,FALSE,Suspended,0.175000,-7.175000,7.575000,TRUE,-25.725418,7.006729,0.000000,0.002213,0.004913,0.000000,-0.022000,0.005000,0.002000,-0.040000,-0.260000,2.460000,-0.150994,Hold,0.874756,0.000000,Hold,-230.000000,2.000000,LowGoal,1395.000000,-1454.545455,Speed,1387.500000,-1454.545455,Speed,Off,Off0.000000,0,,,,
04:36:41.466 PM 03/19/2016,Teleop Enabled,10,FALSE,0,NO ERROR,-0.000000,-0.006417,0.000000,0.012833,TRUE,FALSE,TRUE,FALSE,FALSE,FALSE,Suspended,0.175000,-7.175000,7.575000,TRUE,-25.725067,7.006363,0.000000,-0.001816,-0.001434,0.000000,0.019000,-0.038000,-0.001000,-0.040000,-0.260000,2.480000,-0.149428,Hold,0.874756,0.000000,Hold,-230.000000,2.000000,LowGoal,1395.000000,-1454.545455,Speed,1387.500000,-1454.545455,Speed,Off,Off0.000000,0,,,,
04:36:41.566 PM 03/19/2016,Teleop Enabled,11,FALSE,0,NO ERROR,-0.000000,-0.006417,0.000000,0.012833,TRUE,FALSE,TRUE,FALSE,FALSE,FALSE,Suspended,0.175000,-7.175000,7.575000,TRUE,-25.725174,7.006348,0.000000,-0.006958,-0.002991,0.000000,0.009000,-0.042000,-0.003000,-0.030000,-0.270000,2.480000,-0.157562,Hold,0.874756,0.000000,Hold,-230.000000,2.000000,LowGoal,1395.000000,-1454.545455,Speed,1387.500000,-1454.545455,Speed,Off,Off0.000000,0,,,,
04:36:41.667 PM 03/19/2016,Teleop Enabled,10,FALSE,0,NO ERROR,-0.000000,-0.006417,0.000000,0.012833,TRUE,FALSE,TRUE,FALSE,FALSE,FALSE,Suspended,0.175000,-7.175000,7.575000,TRUE,-25.725174,7.006348,0.000000,-0.006958,-0.002991,0.000000,0.009000,-0.042000,-0.003000,-0.030000,-0.280000,2.460000,-0.172245,Hold,0.874756,0.000000,Hold,-229.000000,2.000000,LowGoal,1395.000000,-1454.545455,Speed,1380.000000,-1454.545455,Speed,Off,Off0.000000,0,,,,
04:36:41.768 PM 03/19/2016,Teleop Enabled,10,FALSE,0,NO ERROR,-0.000000,-0.006417,0.000000,0.012833,TRUE,FALSE,TRUE,FALSE,FALSE,FALSE,Suspended,0.175000,-7.175000,7.575000,TRUE,-25.725189,7.006653,0.000000,0.001740,0.011536,0.000000,-0.003000,-0.012000,0.002000,-0.030000,-0.290000,2.500000,-0.173563,Hold,0.874756,0.000000,Hold,-229.000000,2.000000,LowGoal,1395.000000,-1454.545455,Speed,1380.000000,-1454.545455,Speed,Off,Off0.000000,0,,,,
04:36:41.870 PM 03/19/2016,Teleop Enabled,9,FALSE,0,NO ERROR,-0.000000,-0.006417,0.000000,0.012833,TRUE,FALSE,TRUE,FALSE,FALSE,FALSE,Suspended,0.175000,-7.175000,7.575000,TRUE,-25.725113,7.007462,0.000000,0.000000,0.025177,0.000000,0.034000,-0.017000,-0.024000,-0.030000,-0.280000,2.520000,-0.161924,Hold,0.874756,0.000000,Hold,-229.000000,2.000000,LowGoal,1395.000000,-1454.545455,Speed,1380.000000,-1454.545455,Speed,Off,Off0.000000,0,,,,
04:36:41.969 PM 03/19/2016,Teleop Enabled,9,FALSE,0,NO ERROR,-0.000000,-0.006417,0.000000,0.012833,TRUE,FALSE,TRUE,FALSE,FALSE,FALSE,Suspended,0.175000,-7.175000,7.575000,TRUE,-25.725082,7.007812,0.000000,-0.009033,0.002396,0.000000,0.008000,0.046000,0.069000,-0.030000,-0.320000,2.530000,-0.175391,Hold,0.874756,0.000000,Hold,-229.000000,2.000000,LowGoal,1387.500000,-1454.545455,Speed,1387.500000,-1454.545455,Speed,Off,Off0.000000,0,,,,
04:36:42.070 PM 03/19/2016,Teleop Enabled,10,FALSE,0,NO ERROR,-0.000000,-0.006417,0.000000,0.012833,TRUE,FALSE,TRUE,FALSE,FALSE,FALSE,Suspended,0.175000,-7.175000,7.575000,TRUE,-25.725143,7.008087,0.000000,0.000000,0.006256,0.000000,-0.006000,0.003000,0.038000,-0.030000,-0.360000,2.550000,-0.175391,Hold,0.874756,0.000000,Hold,-229.000000,2.000000,LowGoal,1395.000000,-1454.545455,Speed,1380.000000,-1454.545455,Speed,Off,Off0.000000,0,,,,
04:36:42.171 PM 03/19/2016,Teleop Enabled,10,FALSE,0,NO ERROR,-0.000000,-0.006417,0.000000,0.012833,TRUE,FALSE,TRUE,FALSE,FALSE,FALSE,Suspended,0.175000,-7.175000,7.575000,TRUE,-25.725082,7.008072,0.000000,-0.005020,-0.008911,0.000000,0.047000,-0.034000,0.025000,-0.030000,-0.370000,2.530000,-0.182848,Hold,0.874756,0.000000,Hold,-229.000000,2.000000,LowGoal,1395.000000,-1454.545455,Speed,1380.000000,-1454.545455,Speed,Off,Off0.000000,0,,,,
04:36:42.271 PM 03/19/2016,Teleop Enabled,10,FALSE,0,NO ERROR,-0.000000,-0.006417,0.000000,0.012833,TRUE,FALSE,TRUE,FALSE,FALSE,FALSE,Suspended,0.175000,-7.175000,7.575000,TRUE,-25.725204,7.008041,0.000000,-0.006241,0.002518,0.000000,-0.035000,0.048000,0.082000,-0.030000,-0.330000,2.520000,-0.191406,Hold,0.874756,0.000000,Hold,-229.000000,2.000000,LowGoal,1395.000000,-1454.545455,Speed,1387.500000,-1454.545455,Speed,Off,Off0.000000,0,,,,
04:36:42.372 PM 03/19/2016,Teleop Enabled,11,FALSE,0,NO ERROR,-0.000000,-0.006417,0.000000,0.012833,TRUE,FALSE,TRUE,FALSE,FALSE,FALSE,Suspended,0.175000,-7.175000,7.575000,TRUE,-25.725586,7.008545,0.000000,-0.014816,0.004684,0.000000,0.058000,-0.011000,0.031000,-0.040000,-0.350000,2.540000,-0.193276,Hold,0.874756,0.000000,Hold,-229.000000,2.000000,LowGoal,1387.500000,-1454.545455,Speed,1387.500000,-1454.545455,Speed,Off,Off0.000000,0,,,,
04:36:42.472 PM 03/19/2016,Teleop Enabled,10,FALSE,0,NO ERROR,-0.000000,-0.006417,0.000000,0.012833,TRUE,FALSE,TRUE,FALSE,FALSE,FALSE,Suspended,0.175000,-7.175000,7.575000,TRUE,-25.726257,7.008865,0.000000,-0.011368,0.004700,0.000000,0.009000,-0.064000,-0.039000,-0.030000,-0.370000,2.530000,-0.191461,Hold,0.874756,0.000000,Hold,-229.000000,2.000000,LowGoal,1395.000000,-1454.545455,Speed,1395.000000,-1454.545455,Speed,Off,Off0.000000,0,,,,
04:36:42.572 PM 03/19/2016,Teleop Enabled,10,FALSE,0,NO ERROR,-0.000000,-0.006417,0.000000,0.012833,TRUE,FALSE,TRUE,FALSE,FALSE,FALSE,Suspended,0.175000,-7.175000,7.575000,TRUE,-25.726730,7.008987,0.000000,-0.019211,0.004089,0.000000,0.036000,-0.023000,0.019000,-0.030000,-0.370000,2.540000,-0.177684,Hold,0.874756,0.000000,Hold,-229.000000,2.000000,LowGoal,1395.000000,-1454.545455,Speed,1387.500000,-1454.545455,Speed,Off,Off0.000000,0,,,,
04:36:42.673 PM 03/19/2016,Teleop Enabled,10,FALSE,0,NO ERROR,-0.000000,-0.006417,0.000000,0.012833,TRUE,FALSE,TRUE,FALSE,FALSE,FALSE,Suspended,0.175000,-7.175000,7.575000,TRUE,-25.726929,7.008942,0.000000,0.000229,0.000000,0.000000,0.041000,-0.018000,-0.032000,-0.030000,-0.350000,2.500000,-0.182005,Hold,0.874756,0.000000,Hold,-229.000000,2.000000,LowGoal,1395.000000,-1454.545455,Speed,1387.500000,-1454.545455,Speed,Off,Off0.000000,0,,,,
04:36:42.772 PM 03/19/2016,Teleop Enabled,10,FALSE,0,NO ERROR,-0.000000,-0.006417,0.000000,0.012833,TRUE,FALSE,TRUE,FALSE,FALSE,FALSE,Suspended,0.175000,-7.175000,7.575000,TRUE,-25.726913,7.009109,0.000000,-0.004211,0.007980,0.000000,-0.027000,0.012000,0.055000,-0.030000,-0.360000,2.530000,-0.178407,Hold,0.874756,0.000000,Hold,-229.000000,2.000000,LowGoal,1395.000000,-1454.545455,Speed,1380.000000,-1454.545455,Speed,Off,Off0.000000,0,,,,
04:36:42.873 PM 03/19/2016,Teleop Enabled,10,FALSE,0,NO ERROR,-0.000000,-0.006417,0.000000,0.012833,TRUE,FALSE,TRUE,FALSE,FALSE,FALSE,Suspended,0.175000,-7.175000,7.575000,TRUE,-25.727066,7.010086,0.000000,0.007294,0.029495,0.000000,0.075000,-0.100000,-0.093000,-0.030000,-0.390000,2.570000,-0.168499,Hold,0.874756,0.000000,Hold,-229.000000,2.000000,LowGoal,1395.000000,-1454.545455,Speed,1380.000000,-1454.545455,Speed,Off,Off0.000000,0,,,,
04:36:42.973 PM 03/19/2016,Teleop Enabled,10,FALSE,0,NO ERROR,-0.000000,-0.006417,0.000000,0.012833,TRUE,FALSE,TRUE,FALSE,FALSE,FALSE,Suspended,0.175000,-7.175000,7.575000,TRUE,-25.725998,7.010513,0.000000,0.017258,0.007080,0.000000,-0.036000,0.021000,-0.027000,-0.030000,-0.360000,2.530000,-0.168307,Hold,0.874756,0.000000,Hold,-229.000000,2.000000,LowGoal,1387.500000,-1454.545455,Speed,1387.500000,-1454.545455,Speed,Off,Off0.000000,0,,,,
04:36:43.072 PM 03/19/2016,Teleop Enabled,10,FALSE,0,NO ERROR,-0.000000,-0.006417,0.000000,0.012833,TRUE,FALSE,TRUE,FALSE,FALSE,FALSE,Suspended,0.175000,-7.175000,7.575000,TRUE,-25.725464,7.011215,0.000000,0.005814,0.015289,0.000000,0.017000,0.011000,0.067000,-0.030000,-0.390000,2.550000,-0.168644,Hold,0.874756,0.000000,Hold,-229.000000,2.000000,LowGoal,1395.000000,-1454.545455,Speed,1395.000000,-1454.545455,Speed,Off,Off0.000000,0,,,,
04:36:43.174 PM 03/19/2016,Teleop Enabled,10,FALSE,0,NO ERROR,-0.000000,-0.006417,0.000000,0.012833,TRUE,FALSE,TRUE,FALSE,FALSE,FALSE,Suspended,0.175000,-7.175000,7.575000,TRUE,-25.725281,7.011963,0.000000,0.003372,0.011383,0.000000,0.035000,-0.011000,-0.001000,-0.020000,-0.370000,2.540000,-0.169405,Hold,0.874756,0.000000,Hold,-229.000000,2.000000,LowGoal,1395.000000,-1454.545455,Speed,1387.500000,-1454.545455,Speed,Off,Off0.000000,0,,,,
04:36:43.274 PM 03/19/2016,Teleop Enabled,10,FALSE,0,NO ERROR,-0.000000,-0.006417,0.000000,0.012833,TRUE,FALSE,TRUE,FALSE,FALSE,FALSE,Suspended,0.175000,-7.175000,7.575000,TRUE,-25.725220,7.012802,0.000000,0.000000,0.011978,0.000000,0.000000,0.041000,0.099000,-0.020000,-0.380000,2.520000,-0.170489,Hold,0.874756,0.000000,Hold,-229.000000,2.000000,LowGoal,1395.000000,-1454.545455,Speed,1387.500000,-1454.545455,Speed,Off,Off0.000000,0,,,,
04:36:43.374 PM 03/19/2016,Teleop Enabled,10,FALSE,0,NO ERROR,-0.000000,-0.006417,0.000000,0.012833,TRUE,FALSE,TRUE,FALSE,FALSE,FALSE,Suspended,0.175000,-7.175000,7.575000,TRUE,-25.724854,7.013367,0.000000,0.020584,0.002518,0.000000,-0.030000,0.026000,0.022000,-0.020000,-0.380000,2.540000,-0.177271,Hold,0.874756,0.000000,Hold,-229.000000,2.000000,LowGoal,1387.500000,-1454.545455,Speed,1387.500000,-1454.545455,Speed,Off,Off0.000000,0,,,,
04:36:43.473 PM 03/19/2016,Teleop Enabled,10,FALSE,0,NO ERROR,-0.000000,-0.006417,0.000000,0.012833,TRUE,FALSE,TRUE,FALSE,FALSE,FALSE,Suspended,0.175000,-7.175000,7.575000,TRUE,-25.724426,7.013733,0.000000,0.000000,-0.005096,0.000000,0.013000,-0.109000,-0.125000,-0.020000,-0.370000,2.510000,-0.186094,Hold,0.874756,0.000000,Hold,-229.000000,2.000000,LowGoal,1395.000000,-1454.545455,Speed,1387.500000,-1454.545455,Speed,Off,Off0.000000,0,,,,
04:36:43.574 PM 03/19/2016,Teleop Enabled,10,FALSE,0,NO ERROR,-0.000000,-0.006417,0.000000,0.012833,TRUE,FALSE,TRUE,FALSE,FALSE,FALSE,Suspended,0.175000,-7.175000,7.575000,TRUE,-25.724579,7.013245,0.000000,-0.000580,-0.018585,0.000000,0.027000,0.010000,0.043000,-0.020000,-0.350000,2.500000,-0.191086,Hold,0.874756,0.000000,Hold,-229.000000,2.000000,LowGoal,1387.500000,-1454.545455,Speed,1387.500000,-1454.545455,Speed,Off,Off0.000000,0,,,,
04:36:43.674 PM 03/19/2016,Teleop Enabled,10,FALSE,0,NO ERROR,-0.000000,-0.006417,0.000000,0.012833,TRUE,FALSE,TRUE,FALSE,FALSE,FALSE,Suspended,0.175000,-7.175000,7.575000,TRUE,-25.724335,7.013168,0.000000,-0.000549,0.007553,0.000000,0.040000,-0.049000,0.003000,-0.010000,-0.330000,2.490000,-0.193479,Hold,0.874756,0.000000,Hold,-229.000000,2.000000,LowGoal,1395.000000,-1454.545455,Speed,1387.500000,-1454.545455,Speed,Off,Off0.000000,0,,,,
04:36:43.774 PM 03/19/2016,Teleop Enabled,10,FALSE,0,NO ERROR,-0.000000,-0.006417,0.000000,0.012833,TRUE,FALSE,TRUE,FALSE,FALSE,FALSE,Suspended,0.175000,-7.175000,7.575000,TRUE,-25.724197,7.013016,0.000000,-0.002838,-0.005585,0.000000,-0.007000,0.054000,0.054000,-0.010000,-0.320000,2.460000,-0.190435,Hold,0.874756,0.000000,Hold,-229.000000,2.000000,LowGoal,1395.000000,-1454.545455,Speed,1395.000000,-1454.545455,Speed,Off,Off0.000000,0,,,,
04:36:43.875 PM 03/19/2016,Teleop Enabled,10,FALSE,0,NO ERROR,-0.000000,-0.006417,0.000000,0.012833,TRUE,FALSE,TRUE,FALSE,FALSE,FALSE,Suspended,0.175000,-7.175000,7.575000,TRUE,-25.724625,7.013123,0.000000,-0.010681,0.002213,0.000000,-0.008000,0.011000,-0.012000,-0.020000,-0.340000,2.480000,-0.190969,Hold,0.874756,0.000000,Hold,-229.000000,2.000000,LowGoal,1395.000000,-1454.545455,Speed,1395.000000,-1454.545455,Speed,Off,Off0.000000,0,,,,
04:36:43.975 PM 03/19/2016,Teleop Enabled,9,FALSE,0,NO ERROR,-0.000000,-0.006417,0.000000,0.012833,TRUE,FALSE,TRUE,FALSE,FALSE,FALSE,Suspended,0.175000,-7.175000,7.575000,TRUE,-25.725174,7.013733,0.000000,-0.007141,0.015930,0.000000,0.029000,0.000000,0.025000,-0.010000,-0.320000,2.490000,-0.195806,Hold,0.874756,0.000000,Hold,-229.000000,2.000000,LowGoal,1395.000000,-1454.545455,Speed,1387.500000,-1454.545455,Speed,Off,Off0.000000,0,,,,
04:36:44.075 PM 03/19/2016,Teleop Enabled,10,FALSE,0,NO ERROR,-0.000000,-0.006417,0.000000,0.012833,TRUE,FALSE,TRUE,FALSE,FALSE,FALSE,Suspended,0.175000,-7.175000,7.575000,TRUE,-25.725647,7.014587,0.000000,-0.012207,0.019241,0.000000,0.054000,-0.065000,0.001000,-0.020000,-0.320000,2.490000,-0.195241,Hold,0.874756,0.000000,Hold,-229.000000,2.000000,LowGoal,1395.000000,-1454.545455,Speed,1387.500000,-1454.545455,Speed,Off,Off0.000000,0,,,,
04:36:44.175 PM 03/19/2016,Teleop Enabled,10,FALSE,0,NO ERROR,-0.000000,-0.006417,0.000000,0.012833,TRUE,FALSE,TRUE,FALSE,FALSE,FALSE,Suspended,0.175000,-7.175000,7.575000,TRUE,-25.726059,7.015503,0.000000,-0.014175,0.032501,0.000000,0.029000,-0.023000,0.036000,-0.020000,-0.340000,2.510000,-0.195634,Hold,0.874756,0.000000,Hold,-229.000000,2.000000,LowGoal,1395.000000,-1454.545455,Speed,1387.500000,-1454.545455,Speed,Off,Off0.000000,0,,,,
04:36:44.276 PM 03/19/2016,Teleop Enabled,10,FALSE,0,NO ERROR,-0.000000,-0.006417,0.000000,0.012833,TRUE,FALSE,TRUE,FALSE,FALSE,FALSE,Suspended,0.175000,-7.175000,7.575000,TRUE,-25.726212,7.016785,0.000000,-0.006180,0.023514,0.000000,0.016000,-0.013000,0.019000,-0.020000,-0.340000,2.500000,-0.188112,Hold,0.874756,0.000000,Hold,-229.000000,2.000000,LowGoal,1395.000000,-1454.545455,Speed,1380.000000,-1454.545455,Speed,Off,Off0.000000,0,,,,
04:36:44.377 PM 03/19/2016,Teleop Enabled,13,FALSE,0,NO ERROR,-0.000000,-0.006417,0.000000,0.012833,TRUE,FALSE,TRUE,FALSE,FALSE,FALSE,Suspended,0.175000,-7.175000,7.575000,TRUE,-25.726440,7.017792,0.000000,-0.009155,0.017136,0.000000,-0.030000,0.032000,0.058000,-0.010000,-0.350000,2.500000,-0.188150,Hold,0.874756,0.000000,Hold,-229.000000,2.000000,LowGoal,1387.500000,-1454.545455,Speed,1387.500000,-1454.545455,Speed,Off,Off0.000000,0,,,,
04:36:44.478 PM 03/19/2016,Teleop Enabled,9,FALSE,0,NO ERROR,-0.000000,-0.006417,0.000000,0.012833,TRUE,FALSE,TRUE,FALSE,FALSE,FALSE,Suspended,0.175000,-7.175000,7.575000,TRUE,-25.726730,7.017975,0.000000,-0.011230,-0.003738,0.000000,-0.019000,0.026000,0.003000,-0.020000,-0.320000,2.510000,-0.194274,Hold,0.874756,0.000000,Hold,-229.000000,2.000000,LowGoal,1395.000000,-1454.545455,Speed,1372.500000,-1454.545455,Speed,Off,Off0.000000,0,,,,
04:36:44.578 PM 03/19/2016,Teleop Enabled,10,FALSE,0,NO ERROR,-0.000000,-0.006417,0.000000,0.012833,TRUE,FALSE,TRUE,FALSE,FALSE,FALSE,Suspended,0.175000,-7.175000,7.575000,TRUE,-25.726837,7.017853,0.000000,0.001480,-0.003799,0.000000,0.038000,-0.003000,0.031000,-0.010000,-0.350000,2.530000,-0.204423,Hold,0.874756,0.000000,Hold,-229.000000,2.000000,LowGoal,1402.500000,-1454.545455,Speed,1380.000000,-1454.545455,Speed,Off,Off0.000000,0,,,,
04:36:44.678 PM 03/19/2016,Teleop Enabled,12,FALSE,0,NO ERROR,-0.000000,-0.006417,0.000000,0.012833,TRUE,FALSE,TRUE,FALSE,FALSE,FALSE,Suspended,0.175000,-7.175000,7.575000,TRUE,-25.726547,7.017593,0.000000,0.007278,0.002136,0.000000,0.015000,-0.032000,0.059000,-0.010000,-0.300000,2.510000,-0.209969,Hold,0.874756,0.000000,Hold,-229.000000,2.000000,LowGoal,1395.000000,-1454.545455,Speed,1387.500000,-1454.545455,Speed,Off,Off0.000000,0,,,,
04:36:44.778 PM 03/19/2016,Teleop Enabled,10,FALSE,0,NO ERROR,-0.000000,-0.006417,0.000000,0.012833,TRUE,FALSE,TRUE,FALSE,FALSE,FALSE,Suspended,0.175000,-7.175000,7.575000,TRUE,-25.726379,7.017578,0.000000,0.000763,0.000000,0.000000,-0.026000,0.023000,0.074000,-0.010000,-0.310000,2.500000,-0.206677,Hold,0.874756,0.000000,Hold,-228.000000,2.000000,LowGoal,1395.000000,-1454.545455,Speed,1387.500000,-1454.545455,Speed,Off,Off0.000000,0,,,,
04:36:44.878 PM 03/19/2016,Teleop Enabled,10,FALSE,0,NO ERROR,-0.000000,-0.006417,0.000000,0.012833,TRUE,FALSE,TRUE,FALSE,FALSE,FALSE,Suspended,0.175000,-7.175000,7.575000,TRUE,-25.726196,7.017685,0.000000,0.008270,-0.000046,0.000000,0.062000,-0.047000,-0.023000,-0.010000,-0.310000,2.500000,-0.203428,Hold,0.874756,0.000000,Hold,-228.000000,2.000000,LowGoal,1395.000000,-1454.545455,Speed,1387.500000,-1454.545455,Speed,Off,Off0.000000,0,,,,
04:36:44.979 PM 03/19/2016,Teleop Enabled,9,FALSE,0,NO ERROR,-0.000000,-0.006417,0.000000,0.012833,TRUE,FALSE,TRUE,FALSE,FALSE,FALSE,Suspended,0.175000,-7.175000,7.575000,TRUE,-25.725052,7.017044,0.000000,0.026031,-0.026093,0.000000,0.000000,-0.042000,-0.014000,-0.020000,-0.260000,2.460000,-0.207318,Hold,0.874756,0.000000,Hold,-228.000000,2.000000,LowGoal,1395.000000,-1454.545455,Speed,1387.500000,-1454.545455,Speed,Off,Off0.000000,0,,,,
04:36:45.079 PM 03/19/2016,Teleop Enabled,11,FALSE,0,NO ERROR,-0.000000,-0.006417,0.000000,0.012833,TRUE,FALSE,TRUE,FALSE,FALSE,FALSE,Suspended,0.175000,-7.175000,7.575000,TRUE,-25.725143,7.014816,0.000000,-0.004837,-0.042450,0.000000,-0.012000,-0.013000,0.009000,-0.020000,-0.230000,2.450000,-0.213886,Hold,0.874756,0.000000,Hold,-228.000000,2.000000,LowGoal,1395.000000,-1454.545455,Speed,1387.500000,-1454.545455,Speed,Off,Off0.000000,0,,,,
04:36:45.179 PM 03/19/2016,Teleop Enabled,9,FALSE,0,NO ERROR,-0.000000,-0.006417,0.000000,0.012833,TRUE,FALSE,TRUE,FALSE,FALSE,FALSE,Suspended,0.175000,-7.175000,7.575000,TRUE,-25.725174,7.013626,0.000000,-0.003372,0.000000,0.000000,-0.047000,0.009000,0.034000,-0.010000,-0.230000,2.470000,-0.222520,Hold,0.874756,0.000000,Hold,-228.000000,2.000000,LowGoal,1395.000000,-1454.545455,Speed,1380.000000,-1454.545455,Speed,Off,Off0.000000,0,,,,
04:36:45.281 PM 03/19/2016,Teleop Enabled,10,FALSE,0,NO ERROR,-0.000000,-0.006417,0.000000,0.012833,TRUE,FALSE,TRUE,FALSE,FALSE,FALSE,Suspended,0.175000,-7.175000,7.575000,TRUE,-25.726501,7.013870,0.000000,-0.032288,0.000000,0.000000,0.017000,0.018000,0.044000,-0.010000,-0.270000,2.480000,-0.235987,Hold,0.874756,0.000000,Hold,-228.000000,2.000000,LowGoal,1395.000000,-1454.545455,Speed,1387.500000,-1454.545455,Speed,Off,Off0.000000,0,,,,
04:36:45.381 PM 03/19/2016,Teleop Enabled,11,FALSE,0,NO ERROR,-0.000000,-0.006417,0.000000,0.012833,TRUE,FALSE,TRUE,FALSE,FALSE,FALSE,Suspended,0.175000,-7.175000,7.575000,TRUE,-25.726379,7.013657,0.000000,0.000000,-0.008163,0.000000,-0.019000,0.001000,0.036000,-0.010000,-0.280000,2.460000,-0.248212,Hold,0.874756,0.000000,Hold,-228.000000,2.000000,LowGoal,1402.500000,-1454.545455,Speed,1387.500000,-1454.545455,Speed,Off,Off0.000000,0,,,,
04:36:45.481 PM 03/19/2016,Teleop Enabled,10,FALSE,0,NO ERROR,-0.000000,-0.006417,0.000000,0.012833,TRUE,FALSE,TRUE,FALSE,FALSE,FALSE,Suspended,0.175000,-7.175000,7.575000,TRUE,-25.726776,7.013580,0.000000,-0.007706,-0.007385,0.000000,0.012000,-0.053000,-0.019000,-0.020000,-0.270000,2.490000,-0.243038,Hold,0.874756,0.000000,Hold,-228.000000,2.000000,LowGoal,1395.000000,-1454.545455,Speed,1387.500000,-1454.545455,Speed,Off,Off0.000000,0,,,,
04:36:45.582 PM 03/19/2016,Teleop Enabled,10,FALSE,0,NO ERROR,-0.000000,-0.006417,0.000000,0.012833,TRUE,FALSE,TRUE,FALSE,FALSE,FALSE,Suspended,0.175000,-7.175000,7.575000,TRUE,-25.726395,7.013199,0.000000,0.000000,0.005142,0.000000,0.053000,-0.019000,0.024000,-0.010000,-0.300000,2.490000,-0.248542,Hold,0.874756,0.000000,Hold,-228.000000,2.000000,LowGoal,1395.000000,-1454.545455,Speed,1395.000000,-1454.545455,Speed,Off,Off0.000000,0,,,,
04:36:45.683 PM 03/19/2016,Teleop Enabled,9,FALSE,0,NO ERROR,-0.000000,-0.006417,0.000000,0.012833,TRUE,FALSE,TRUE,FALSE,FALSE,FALSE,Suspended,0.175000,-7.175000,7.575000,TRUE,-25.726135,7.013245,0.000000,-0.007584,0.000000,0.000000,0.042000,-0.031000,0.022000,-0.020000,-0.340000,2.470000,-0.249479,Hold,0.874756,0.000000,Hold,-228.000000,2.000000,LowGoal,1395.000000,-1454.545455,Speed,1387.500000,-1454.545455,Speed,Off,Off0.000000,0,,,,
04:36:45.784 PM 03/19/2016,Teleop Enabled,10,FALSE,0,NO ERROR,-0.000000,-0.006417,0.000000,0.012833,TRUE,FALSE,TRUE,FALSE,FALSE,FALSE,Suspended,0.175000,-7.175000,7.575000,TRUE,-25.726425,7.013107,0.000000,-0.009796,-0.002930,0.000000,-0.023000,0.075000,0.113000,-0.010000,-0.330000,2.410000,-0.256718,Hold,0.874756,0.000000,Hold,-228.000000,2.000000,LowGoal,1395.000000,-1454.545455,Speed,1387.500000,-1454.545455,Speed,Off,Off0.000000,0,,,,
04:36:45.885 PM 03/19/2016,Teleop Enabled,9,FALSE,0,NO ERROR,-0.000000,-0.006417,0.000000,0.012833,TRUE,FALSE,TRUE,FALSE,FALSE,FALSE,Suspended,0.175000,-7.175000,7.575000,TRUE,-25.726944,7.013382,0.000000,-0.003601,-0.006577,0.000000,-0.053000,0.047000,0.138000,-0.020000,-0.290000,2.390000,-0.257841,Hold,0.874756,0.000000,Hold,-228.000000,2.000000,LowGoal,1395.000000,-1454.545455,Speed,1387.500000,-1454.545455,Speed,Off,Off0.000000,0,,,,
04:36:45.986 PM 03/19/2016,Teleop Enabled,10,FALSE,0,NO ERROR,-0.000000,-0.006417,0.000000,0.012833,TRUE,FALSE,TRUE,FALSE,FALSE,FALSE,Suspended,0.175000,-7.175000,7.575000,TRUE,-25.727600,7.013245,0.000000,-0.018158,0.005386,0.000000,0.009000,-0.025000,-0.014000,-0.010000,-0.300000,2.430000,-0.271556,Hold,0.874756,0.000000,Hold,-228.000000,2.000000,LowGoal,1395.000000,-1454.545455,Speed,1395.000000,-1454.545455,Speed,Off,Off0.000000,0,,,,
04:36:46.087 PM 03/19/2016,Teleop Enabled,11,FALSE,0,NO ERROR,-0.000000,-0.006417,0.000000,0.012833,TRUE,FALSE,TRUE,FALSE,FALSE,FALSE,Suspended,0.175000,-7.175000,7.575000,TRUE,-25.728119,7.013000,0.000000,-0.008621,-0.012360,0.000000,0.034000,0.013000,0.015000,-0.010000,-0.330000,2.440000,-0.286018,Hold,0.874756,0.000000,Hold,-228.000000,2.000000,LowGoal,1402.500000,-1454.545455,Speed,1387.500000,-1454.545455,Speed,Off,Off0.000000,0,,,,
04:36:46.188 PM 03/19/2016,Teleop Enabled,10,FALSE,0,NO ERROR,-0.000000,-0.006417,0.000000,0.012833,TRUE,FALSE,TRUE,FALSE,FALSE,FALSE,Suspended,0.175000,-7.175000,7.575000,TRUE,-25.728439,7.012787,0.000000,-0.012085,-0.002747,0.000000,0.043000,-0.035000,-0.069000,-0.010000,-0.340000,2.410000,-0.289275,Hold,0.874756,0.000000,Hold,-228.000000,2.000000,LowGoal,1395.000000,-1454.545455,Speed,1387.500000,-1454.545455,Speed,Off,Off0.000000,0,,,,
04:36:46.289 PM 03/19/2016,Teleop Enabled,11,FALSE,0,NO ERROR,-0.000000,-0.006417,0.000000,0.012833,TRUE,FALSE,TRUE,FALSE,FALSE,FALSE,Suspended,0.175000,-7.175000,7.575000,TRUE,-25.728989,7.012070,0.000000,-0.009903,-0.020416,0.000000,-0.033000,0.021000,0.053000,-0.010000,-0.330000,2.380000,-0.287598,Hold,0.874756,0.000000,Hold,-228.000000,2.000000,LowGoal,1395.000000,-1454.545455,Speed,1387.500000,-1454.545455,Speed,Off,Off0.000000,0,,,,
04:36:46.389 PM 03/19/2016,Teleop Enabled,11,FALSE,0,NO ERROR,-0.000000,-0.006417,0.000000,0.012833,TRUE,FALSE,TRUE,FALSE,FALSE,FALSE,Suspended,0.175000,-7.175000,7.575000,TRUE,-25.729416,7.011612,0.000000,-0.014252,0.003479,0.000000,0.082000,-0.069000,-0.109000,-0.010000,-0.310000,2.370000,-0.284431,Hold,0.874756,0.000000,Hold,-228.000000,2.000000,LowGoal,1395.000000,-1454.545455,Speed,1380.000000,-1454.545455,Speed,Off,Off0.000000,0,,,,
04:36:46.490 PM 03/19/2016,Teleop Enabled,10,FALSE,0,NO ERROR,-0.000000,-0.006417,0.000000,0.012833,TRUE,FALSE,TRUE,FALSE,FALSE,FALSE,Suspended,0.175000,-7.175000,7.575000,TRUE,-25.729614,7.011215,0.000000,0.001175,-0.007401,0.000000,0.000000,0.021000,0.020000,-0.020000,-0.290000,2.390000,-0.292765,Hold,0.874756,0.000000,Hold,-228.000000,2.000000,LowGoal,1395.000000,-1454.545455,Speed,1380.000000,-1454.545455,Speed,Off,Off0.000000,0,,,,
04:36:46.592 PM 03/19/2016,Teleop Enabled,11,FALSE,0,NO ERROR,-0.000000,-0.006417,0.000000,0.012833,TRUE,FALSE,TRUE,FALSE,FALSE,FALSE,Suspended,0.175000,-7.175000,7.575000,TRUE,-25.729614,7.011185,0.000000,0.000000,0.002747,0.000000,-0.003000,0.023000,0.062000,-0.020000,-0.280000,2.360000,-0.296377,Hold,0.874756,0.000000,Hold,-228.000000,2.000000,LowGoal,1395.000000,-1454.545455,Speed,1380.000000,-1454.545455,Speed,Off,Off0.000000,0,,,,
04:36:46.691 PM 03/19/2016,Teleop Enabled,10,FALSE,0,NO ERROR,-0.000000,-0.006417,0.000000,0.012833,TRUE,FALSE,TRUE,FALSE,FALSE,FALSE,Suspended,0.175000,-7.175000,7.575000,TRUE,-25.729584,7.010834,0.000000,-0.002151,-0.016647,0.000000,0.039000,0.014000,0.001000,-0.010000,-0.320000,2.360000,-0.305789,Hold,0.874756,0.000000,Hold,-228.000000,2.000000,LowGoal,1395.000000,-1454.545455,Speed,1387.500000,-1454.545455,Speed,Off,Off0.000000,0,,,,
04:36:46.792 PM 03/19/2016,Teleop Enabled,10,FALSE,0,NO ERROR,-0.000000,-0.006417,0.000000,0.012833,TRUE,FALSE,TRUE,FALSE,FALSE,FALSE,Suspended,0.175000,-7.175000,7.575000,TRUE,-25.729477,7.010223,0.000000,-0.004852,-0.010391,0.000000,0.030000,0.033000,0.091000,-0.030000,-0.250000,2.340000,-0.313466,Hold,0.874756,0.000000,Hold,-228.000000,2.000000,LowGoal,1395.000000,-1454.545455,Speed,1380.000000,-1454.545455,Speed,Off,Off0.000000,0,,,,
04:36:46.890 PM 03/19/2016,Teleop Enabled,10,FALSE,0,NO ERROR,-0.000000,-0.006417,0.000000,0.012833,TRUE,FALSE,TRUE,FALSE,FALSE,FALSE,Suspended,0.175000,-7.175000,7.575000,TRUE,-25.729355,7.009995,0.000000,-0.000946,-0.001251,0.000000,0.011000,0.020000,0.022000,-0.030000,-0.230000,2.350000,-0.295020,Hold,0.874756,0.000000,Hold,-228.000000,2.000000,LowGoal,1395.000000,-1454.545455,Speed,1387.500000,-1454.545455,Speed,Off,Off0.000000,0,,,,
04:36:46.991 PM 03/19/2016,Teleop Enabled,11,FALSE,0,NO ERROR,-0.000000,-0.006417,0.000000,0.012833,TRUE,FALSE,TRUE,FALSE,FALSE,FALSE,Suspended,0.175000,-7.175000,7.575000,TRUE,-25.729568,7.010345,0.000000,-0.016418,0.015335,0.000000,0.060000,-0.031000,0.103000,-0.030000,-0.240000,2.380000,-0.316777,Hold,0.874756,0.000000,Hold,-228.000000,2.000000,LowGoal,1395.000000,-1454.545455,Speed,1387.500000,-1454.545455,Speed,Off,Off0.000000,0,,,,
04:36:47.091 PM 03/19/2016,Teleop Enabled,10,FALSE,0,NO ERROR,-0.000000,-0.006417,0.000000,0.012833,TRUE,FALSE,TRUE,FALSE,FALSE,FALSE,Suspended,0.175000,-7.175000,7.575000,TRUE,-25.729980,7.010681,0.000000,-0.014664,0.000000,0.000000,-0.019000,0.054000,0.066000,-0.030000,-0.260000,2.370000,-0.323666,Hold,0.874756,0.000000,Hold,-228.000000,2.000000,LowGoal,1395.000000,-1454.545455,Speed,1387.500000,-1454.545455,Speed,Off,Off0.000000,0,,,,
04:36:47.192 PM 03/19/2016,Teleop Enabled,9,FALSE,0,NO ERROR,-0.000000,-0.006417,0.000000,0.012833,TRUE,FALSE,TRUE,FALSE,FALSE,FALSE,Suspended,0.175000,-7.175000,7.575000,TRUE,-25.730881,7.011047,0.000000,-0.021057,0.007507,0.000000,-0.027000,-0.031000,-0.002000,-0.030000,-0.250000,2.370000,-0.330923,Hold,0.874756,0.000000,Hold,-228.000000,2.000000,LowGoal,1395.000000,-1454.545455,Speed,1387.500000,-1454.545455,Speed,Off,Off0.000000,0,,,,
04:36:47.292 PM 03/19/2016,Teleop Enabled,10,FALSE,0,NO ERROR,-0.000000,-0.006417,0.000000,0.012833,TRUE,FALSE,TRUE,FALSE,FALSE,FALSE,Suspended,0.175000,-7.175000,7.575000,TRUE,-25.731567,7.011887,0.000000,0.010193,0.010880,0.000000,0.013000,-0.029000,-0.004000,-0.030000,-0.220000,2.400000,-0.326692,Hold,0.874756,0.000000,Hold,-228.000000,2.000000,LowGoal,1395.000000,-1454.545455,Speed,1380.000000,-1454.545455,Speed,Off,Off0.000000,0,,,,
04:36:47.394 PM 03/19/2016,Teleop Enabled,10,FALSE,0,NO ERROR,-0.000000,-0.006417,0.000000,0.012833,TRUE,FALSE,TRUE,FALSE,FALSE,FALSE,Suspended,0.175000,-7.175000,7.575000,TRUE,-25.731567,7.012909,0.000000,-0.007156,0.024658,0.000000,-0.037000,0.065000,0.048000,-0.040000,-0.240000,2.390000,-0.324134,Hold,0.874756,0.000000,Hold,-228.000000,2.000000,LowGoal,1402.500000,-1454.545455,Speed,1387.500000,-1454.545455,Speed,Off,Off0.000000,0,,,,
04:36:47.494 PM 03/19/2016,Teleop Enabled,10,FALSE,0,NO ERROR,-0.000000,-0.006417,0.000000,0.012833,TRUE,FALSE,TRUE,FALSE,FALSE,FALSE,Suspended,0.175000,-7.175000,7.575000,TRUE,-25.732086,7.013275,0.000000,-0.008133,0.003647,0.000000,0.039000,0.025000,0.055000,-0.040000,-0.270000,2.390000,-0.328365,Hold,0.874756,0.000000,Hold,-228.000000,2.000000,LowGoal,1395.000000,-1454.545455,Speed,1380.000000,-1454.545455,Speed,Off,Off0.000000,0,,,,
04:36:47.595 PM 03/19/2016,Teleop Enabled,12,FALSE,0,NO ERROR,-0.000000,-0.006417,0.000000,0.012833,TRUE,FALSE,TRUE,FALSE,FALSE,FALSE,Suspended,0.175000,-7.175000,7.575000,TRUE,-25.732147,7.013153,0.000000,0.010849,-0.018860,0.000000,0.039000,0.025000,0.055000,-0.040000,-0.230000,2.390000,-0.342714,Hold,0.874756,0.000000,Hold,-228.000000,2.000000,LowGoal,1395.000000,-1454.545455,Speed,1380.000000,-1454.545455,Speed,Off,Off0.000000,0,,,,
04:36:47.694 PM 03/19/2016,Teleop Enabled,10,FALSE,0,NO ERROR,-0.000000,-0.006417,0.000000,0.012833,TRUE,FALSE,TRUE,FALSE,FALSE,FALSE,Suspended,0.175000,-7.175000,7.575000,TRUE,-25.732025,7.012146,0.000000,0.010681,-0.023163,0.000000,-0.002000,-0.020000,0.023000,-0.040000,-0.210000,2.390000,-0.350776,Hold,0.874756,0.000000,Hold,-228.000000,2.000000,LowGoal,1395.000000,-1454.545455,Speed,1387.500000,-1454.545455,Speed,Off,Off0.000000,0,,,,
04:36:47.794 PM 03/19/2016,Teleop Enabled,10,FALSE,0,NO ERROR,-0.000000,-0.006417,0.000000,0.012833,TRUE,FALSE,TRUE,FALSE,FALSE,FALSE,Suspended,0.175000,-7.175000,7.575000,TRUE,-25.732697,7.010818,0.000000,-0.024216,-0.021103,0.000000,-0.002000,-0.020000,0.023000,-0.040000,-0.210000,2.390000,-0.342166,Hold,0.874756,0.000000,Hold,-228.000000,2.000000,LowGoal,1395.000000,-1454.545455,Speed,1387.500000,-1454.545455,Speed,Off,Off0.000000,0,,,,
