Time,Robot Mode,Loop Time,Error Status,Error Code,Error Source,Left Motor Output,Left Motor Encoder,Right Motor Output,Right Motor Encoder,Is Level,Is Stalled,Ball Detector Photoeye,Vision Enabled,Vision Teleop Control,Vision Auto Control,Vision Current State,Vision X Output,Vision NavX Error,Vision NavX Target,NavX Connection Status,NavX Displacement X,NavX Displacement Y,NavX Displacement Z,NavX Velocity X,NavX Velocity Y,NavX Velocity Z,NavX Acceleration X,NavX Acceleration Y,NavX Acceleration Z,NavX Pitch,NavX Yaw,NavX Roll,Gyro Angle,Roller Arm State,Roller Arm Actual,Roller Arm Desired,Shooter Arm State,Shooter Arm Actual,Shooter Arm Desired,Shooter State,Actual RPM Left,Desired RPM Left,Control Mode Left,Actual RPM Right,Desired RPM Right,Scaler Motor Output,Auto To Run,Auto Current File,Auto File Status,Auto Current Command,Auto Trimmed Command
09:09:44.345 AM 03/20/2016,Teleop Enabled,11,TRUE,-44003,<LOCATION>WPI_CameraIssue HTTP Request with Authentication.vi<CALLSTACK>WPI_CameraIssue HTTP Request with Authentication.vi< <WPI_CameraIssue Get.vi< <WPI_CameraSet Image Appearance Property.vi< <WPI_CameraSet Image Size.vi< <Vision Processing.vi< <Robot Main.vi,-0.000000,0.000000,0.000000,0.000000,TRUE,FALSE,FALSE,FALSE,FALSE,FALSE,Disabled,0.000000,0.000000,0.000000,TRUE,0.000000,0.000000,0.000000,0.000000,0.000000,0.000000,0.000000,0.000000,0.026000,-1.970000,0.020000,2.300000,31.873919,ResetBack,0.000000,-0.200000,ResetBack,143538.000000,-0.300000,Suck,0.000000,2181.818182,Speed,0.000000,2181.818182,Speed,Off,On0.000000,5,,,,
09:09:44.445 AM 03/20/2016,Teleop Enabled,11,TRUE,7,Read from Text File in DoesScriptNumberContainNull.vi->Disabled.vi->Robot Main.vi<APPEND> /home/lvuser/scripts/auto_04.bee,-0.000000,0.000000,0.000000,0.000000,TRUE,FALSE,FALSE,FALSE,FALSE,FALSE,Disabled,0.000000,0.000000,0.000000,TRUE,0.000092,-0.000107,0.000000,0.006271,-0.003311,0.000000,-0.004000,0.035000,0.008000,-1.980000,0.020000,2.350000,31.888567,ResetBack,-1.387939,-0.200000,ResetBack,147575.000000,-0.300000,Suck,-157.500000,2181.818182,Speed,-105.000000,2181.818182,Speed,Off,On0.000000,5,,,,
09:09:44.545 AM 03/20/2016,Teleop Enabled,11,TRUE,7,Read from Text File in DoesScriptNumberContainNull.vi->Disabled.vi->Robot Main.vi<APPEND> /home/lvuser/scripts/auto_04.bee,-0.000000,0.000000,0.000000,0.000000,TRUE,FALSE,FALSE,FALSE,FALSE,FALSE,Disabled,0.000000,0.000000,0.000000,TRUE,0.000687,-0.000107,0.000000,0.016571,-0.001999,0.000000,0.110000,0.034000,0.004000,-1.970000,0.020000,2.350000,31.909973,ResetBack,-1.514404,-0.200000,ResetBack,155833.000000,-0.300000,Suck,-907.500000,2181.818182,Speed,-960.000000,2181.818182,Speed,Off,On0.000000,5,,,,
09:09:44.646 AM 03/20/2016,Teleop Enabled,11,TRUE,7,Read from Text File in DoesScriptNumberContainNull.vi->Disabled.vi->Robot Main.vi<APPEND> /home/lvuser/scripts/auto_04.bee,-0.000000,0.000000,0.000000,0.000000,TRUE,FALSE,FALSE,FALSE,FALSE,FALSE,Disabled,0.000000,0.000000,0.000000,TRUE,0.002060,0.000107,0.000000,0.040695,-0.001389,0.000000,-0.071000,0.022000,0.015000,-1.980000,0.020000,2.390000,31.911835,ResetBack,-1.520508,-0.200000,ResetBack,155833.000000,-0.300000,Suck,-1792.500000,2181.818182,Speed,-1785.000000,2181.818182,Speed,Off,On0.000000,5,,,,
09:09:44.746 AM 03/20/2016,Teleop Enabled,11,TRUE,7,Read from Text File in DoesScriptNumberContainNull.vi->Disabled.vi->Robot Main.vi<APPEND> /home/lvuser/scripts/auto_04.bee,-0.000000,0.000000,0.000000,0.000000,TRUE,FALSE,FALSE,FALSE,FALSE,FALSE,Disabled,0.000000,0.000000,0.000000,TRUE,0.004944,-0.002350,0.000000,0.096909,-0.144058,0.000000,0.073000,-0.385000,-0.051000,-1.980000,0.070000,2.490000,31.913784,Reset,-1.592041,0.000000,ResetBack,162756.000000,-0.300000,Suck,-2332.500000,2181.818182,Speed,-2242.500000,2181.818182,Speed,Off,On0.000000,5,,,,
09:09:44.846 AM 03/20/2016,Teleop Enabled,11,TRUE,7,Read from Text File in DoesScriptNumberContainNull.vi->Disabled.vi->Robot Main.vi<APPEND> /home/lvuser/scripts/auto_04.bee,-0.000000,0.000000,0.000000,0.000000,TRUE,FALSE,FALSE,FALSE,FALSE,FALSE,Disabled,0.000000,0.000000,0.000000,TRUE,0.010681,-0.018448,0.000000,0.105865,-0.385452,0.000000,0.043000,0.084000,0.107000,-1.980000,0.040000,2.420000,31.941132,Hold,0.932373,0.000000,ResetBack,167072.000000,-0.300000,Suck,-2227.500000,2181.818182,Speed,-2205.000000,2181.818182,Speed,Off,On0.000000,5,,,,
09:09:44.947 AM 03/20/2016,Teleop Enabled,10,TRUE,7,Read from Text File in DoesScriptNumberContainNull.vi->Disabled.vi->Robot Main.vi<APPEND> /home/lvuser/scripts/auto_04.bee,-0.000000,0.000000,0.000000,0.000000,TRUE,FALSE,FALSE,FALSE,FALSE,FALSE,Disabled,0.000000,0.000000,0.000000,TRUE,0.016861,-0.037033,0.000000,0.138718,-0.398056,0.000000,-0.055000,-0.114000,-0.046000,-1.970000,0.050000,2.460000,31.959925,Hold,0.990723,0.000000,ResetBack,168763.000000,-0.300000,Suck,-2040.000000,2181.818182,Speed,-2040.000000,2181.818182,Speed,Off,On0.000000,5,,,,
09:09:45.046 AM 03/20/2016,Teleop Enabled,11,TRUE,7,Read from Text File in DoesScriptNumberContainNull.vi->Disabled.vi->Robot Main.vi<APPEND> /home/lvuser/scripts/auto_04.bee,-0.000000,-0.006417,0.000000,0.000000,TRUE,FALSE,FALSE,FALSE,FALSE,FALSE,Disabled,0.000000,0.000000,0.000000,TRUE,0.023163,-0.059250,0.000000,0.139816,-0.458878,0.000000,-0.049000,0.085000,0.003000,-1.990000,0.040000,2.440000,31.947593,Hold,0.946777,0.000000,ResetBack,169843.000000,-0.300000,Suck,-2100.000000,2181.818182,Speed,-2055.000000,2181.818182,Speed,Off,On0.000000,5,,,,
09:09:45.146 AM 03/20/2016,Teleop Enabled,11,TRUE,7,Read from Text File in DoesScriptNumberContainNull.vi->Disabled.vi->Robot Main.vi<APPEND> /home/lvuser/scripts/auto_04.bee,-0.000000,-0.006417,0.000000,0.000000,TRUE,FALSE,FALSE,FALSE,FALSE,FALSE,Disabled,0.000000,0.000000,0.000000,TRUE,0.029861,-0.080856,0.000000,0.125916,-0.416656,0.000000,-0.032000,-0.021000,-0.097000,-1.990000,0.020000,2.390000,31.932821,Hold,0.946777,0.000000,ResetBack,170275.000000,-0.300000,Suck,-2175.000000,2181.818182,Speed,-2160.000000,2181.818182,Speed,Off,On0.000000,5,,,,
09:09:45.246 AM 03/20/2016,Teleop Enabled,11,TRUE,7,Read from Text File in DoesScriptNumberContainNull.vi->Disabled.vi->Robot Main.vi<APPEND> /home/lvuser/scripts/auto_04.bee,-0.000000,-0.006417,0.000000,0.000000,TRUE,FALSE,FALSE,FALSE,FALSE,FALSE,Disabled,0.000000,0.000000,0.000000,TRUE,0.034683,-0.100693,0.000000,0.075256,-0.368134,0.000000,-0.041000,0.078000,0.061000,-1.980000,0.010000,2.350000,31.927623,Hold,0.946777,0.000000,ResetBack,170275.000000,-0.300000,Suck,-2137.500000,2181.818182,Speed,-2122.500000,2181.818182,Speed,Off,On0.000000,5,,,,
09:09:45.346 AM 03/20/2016,Teleop Enabled,10,TRUE,7,Read from Text File in DoesScriptNumberContainNull.vi->Disabled.vi->Robot Main.vi<APPEND> /home/lvuser/scripts/auto_04.bee,-0.000000,-0.006417,0.000000,0.000000,TRUE,FALSE,FALSE,FALSE,FALSE,FALSE,Disabled,0.000000,0.000000,0.000000,TRUE,0.038315,-0.116287,0.000000,0.078598,-0.274994,0.000000,0.069000,0.086000,0.128000,-1.980000,0.020000,2.340000,31.931757,Hold,0.946777,0.000000,ResetBack,170280.000000,-0.300000,Suck,-2115.000000,2181.818182,Speed,-2085.000000,2181.818182,Speed,Off,On0.000000,5,,,,
09:09:45.446 AM 03/20/2016,Teleop Enabled,11,TRUE,7,Read from Text File in DoesScriptNumberContainNull.vi->Disabled.vi->Robot Main.vi<APPEND> /home/lvuser/scripts/auto_04.bee,-0.000000,-0.006417,0.000000,0.000000,TRUE,FALSE,FALSE,FALSE,FALSE,FALSE,Disabled,0.000000,0.000000,0.000000,TRUE,0.040878,-0.128021,0.000000,0.000000,-0.221527,0.000000,0.129000,-0.003000,-0.013000,-1.980000,0.040000,2.350000,31.926683,Hold,0.946777,0.000000,ResetBack,170280.000000,-0.300000,Suck,-2137.500000,2181.818182,Speed,-2107.500000,2181.818182,Speed,Off,On0.000000,5,,,,
09:09:45.546 AM 03/20/2016,Teleop Enabled,11,TRUE,7,Read from Text File in DoesScriptNumberContainNull.vi->Disabled.vi->Robot Main.vi<APPEND> /home/lvuser/scripts/auto_04.bee,-0.000000,-0.006417,0.000000,0.000000,TRUE,FALSE,FALSE,FALSE,FALSE,FALSE,Disabled,0.000000,0.000000,0.000000,TRUE,0.043121,-0.130615,0.000000,0.063171,-0.019089,0.000000,0.056000,-0.043000,0.002000,-1.980000,0.000000,2.370000,31.903188,Hold,0.946777,0.000000,ResetBack,170280.000000,-0.300000,Suck,-2145.000000,2181.818182,Speed,-2122.500000,2181.818182,Speed,Off,On0.000000,5,,,,
09:09:45.646 AM 03/20/2016,Teleop Enabled,11,TRUE,7,Read from Text File in DoesScriptNumberContainNull.vi->Disabled.vi->Robot Main.vi<APPEND> /home/lvuser/scripts/auto_04.bee,-0.000000,-0.006417,0.000000,0.000000,TRUE,FALSE,FALSE,FALSE,FALSE,FALSE,Disabled,0.000000,0.000000,0.000000,TRUE,0.045624,-0.131943,0.000000,0.057404,-0.048889,0.000000,0.056000,-0.069000,0.011000,-1.980000,0.030000,2.330000,31.932715,Hold,0.946777,0.000000,Reset,170280.000000,2.000000,Suck,-2130.000000,2181.818182,Speed,-2115.000000,2181.818182,Speed,Off,On0.000000,5,,,,
09:09:45.746 AM 03/20/2016,Teleop Enabled,10,TRUE,7,Read from Text File in DoesScriptNumberContainNull.vi->Disabled.vi->Robot Main.vi<APPEND> /home/lvuser/scripts/auto_04.bee,-0.000000,-0.006417,0.000000,0.000000,TRUE,FALSE,FALSE,FALSE,FALSE,FALSE,Disabled,0.000000,0.000000,0.000000,TRUE,0.049576,-0.136337,0.000000,0.094681,-0.108597,0.000000,-0.050000,-0.032000,-0.021000,-1.980000,0.010000,2.370000,31.922817,Hold,0.946777,0.000000,Hold,-236.000000,2.000000,Suck,-2130.000000,2181.818182,Speed,-2107.500000,2181.818182,Speed,Off,On0.000000,5,,,,
09:09:45.846 AM 03/20/2016,Teleop Enabled,11,TRUE,7,Read from Text File in DoesScriptNumberContainNull.vi->Disabled.vi->Robot Main.vi<APPEND> /home/lvuser/scripts/auto_04.bee,-0.000000,-0.006417,0.000000,0.000000,TRUE,FALSE,FALSE,FALSE,FALSE,FALSE,Disabled,0.000000,0.000000,0.000000,TRUE,0.052765,-0.142441,0.000000,0.036316,-0.120682,0.000000,-0.010000,0.004000,0.100000,-1.980000,-0.020000,2.410000,31.927410,Hold,0.946777,0.000000,Hold,-232.000000,2.000000,Suck,-2145.000000,2181.818182,Speed,-2115.000000,2181.818182,Speed,Off,On0.000000,5,,,,
09:09:45.946 AM 03/20/2016,Teleop Enabled,11,TRUE,7,Read from Text File in DoesScriptNumberContainNull.vi->Disabled.vi->Robot Main.vi<APPEND> /home/lvuser/scripts/auto_04.bee,-0.000000,-0.006417,0.000000,0.000000,TRUE,FALSE,FALSE,FALSE,FALSE,FALSE,Disabled,0.000000,0.000000,0.000000,TRUE,0.053238,-0.141541,0.000000,-0.006516,0.030212,0.000000,-0.071000,-0.004000,0.019000,-1.980000,-0.020000,2.380000,31.930942,Hold,0.946777,0.000000,Hold,-232.000000,2.000000,Suck,-2137.500000,2181.818182,Speed,-2115.000000,2181.818182,Speed,Off,On0.000000,5,,,,
09:09:46.046 AM 03/20/2016,Teleop Enabled,11,TRUE,7,Read from Text File in DoesScriptNumberContainNull.vi->Disabled.vi->Robot Main.vi<APPEND> /home/lvuser/scripts/auto_04.bee,-0.000000,-0.006417,0.000000,0.000000,TRUE,FALSE,FALSE,FALSE,FALSE,FALSE,Disabled,0.000000,0.000000,0.000000,TRUE,0.051605,-0.141327,0.000000,-0.052063,-0.008789,0.000000,-0.009000,-0.093000,0.097000,-1.980000,-0.040000,2.380000,31.939772,Hold,0.946777,0.000000,Hold,-232.000000,2.000000,Suck,-2137.500000,2181.818182,Speed,-2115.000000,2181.818182,Speed,Off,On0.000000,5,,,,
09:09:46.147 AM 03/20/2016,Teleop Enabled,10,TRUE,7,Read from Text File in DoesScriptNumberContainNull.vi->Disabled.vi->Robot Main.vi<APPEND> /home/lvuser/scripts/auto_04.bee,-0.000000,-0.006417,0.000000,0.000000,TRUE,FALSE,FALSE,FALSE,FALSE,FALSE,Disabled,0.000000,0.000000,0.000000,TRUE,0.051239,-0.143600,0.000000,0.012375,-0.070694,0.000000,0.013000,-0.100000,-0.070000,-1.980000,-0.020000,2.320000,31.946323,Hold,0.946777,0.000000,Hold,-232.000000,2.000000,Suck,-2137.500000,2181.818182,Speed,-2115.000000,2181.818182,Speed,Off,On0.000000,5,,,,
09:09:46.246 AM 03/20/2016,Teleop Enabled,11,TRUE,7,Read from Text File in DoesScriptNumberContainNull.vi->Disabled.vi->Robot Main.vi<APPEND> /home/lvuser/scripts/auto_04.bee,-0.000000,-0.006417,0.000000,0.000000,TRUE,FALSE,FALSE,FALSE,FALSE,FALSE,Disabled,0.000000,0.000000,0.000000,TRUE,0.051910,-0.148300,0.000000,0.005554,-0.097031,0.000000,0.010000,-0.044000,-0.007000,-1.990000,0.000000,2.320000,31.952537,Hold,0.946777,0.000000,Hold,-232.000000,2.000000,Suck,-2145.000000,2181.818182,Speed,-2115.000000,2181.818182,Speed,Off,On0.000000,5,,,,
09:09:46.346 AM 03/20/2016,Teleop Enabled,11,TRUE,7,Read from Text File in DoesScriptNumberContainNull.vi->Disabled.vi->Robot Main.vi<APPEND> /home/lvuser/scripts/auto_04.bee,-0.000000,-0.006417,0.000000,0.000000,TRUE,FALSE,FALSE,FALSE,FALSE,FALSE,Disabled,0.000000,0.000000,0.000000,TRUE,0.051895,-0.153061,0.000000,0.017227,-0.085342,0.000000,0.089000,0.067000,0.000000,-1.980000,-0.060000,2.370000,31.953101,Hold,0.946777,0.000000,Hold,-232.000000,2.000000,Suck,-2137.500000,2181.818182,Speed,-2122.500000,2181.818182,Speed,Off,On0.000000,5,,,,
09:09:46.447 AM 03/20/2016,Teleop Enabled,11,TRUE,7,Read from Text File in DoesScriptNumberContainNull.vi->Disabled.vi->Robot Main.vi<APPEND> /home/lvuser/scripts/auto_04.bee,-0.000000,-0.006417,0.000000,0.000000,TRUE,FALSE,FALSE,FALSE,FALSE,FALSE,Disabled,0.000000,0.000000,0.000000,TRUE,0.055099,-0.155960,0.000000,0.064972,-0.042374,0.000000,-0.078000,0.107000,0.037000,-1.990000,0.000000,2.330000,31.966507,Hold,0.946777,0.000000,Hold,-232.000000,2.000000,Suck,-2145.000000,2181.818182,Speed,-2115.000000,2181.818182,Speed,Off,On0.000000,5,,,,
09:09:46.547 AM 03/20/2016,Teleop Enabled,10,TRUE,7,Read from Text File in DoesScriptNumberContainNull.vi->Disabled.vi->Robot Main.vi<APPEND> /home/lvuser/scripts/auto_04.bee,-0.000000,-0.006417,0.000000,0.000000,TRUE,FALSE,FALSE,FALSE,FALSE,FALSE,Disabled,0.000000,0.000000,0.000000,TRUE,0.057022,-0.154358,0.000000,0.038513,0.083130,0.000000,0.091000,0.103000,0.233000,-1.980000,-0.040000,2.380000,31.975251,Hold,0.946777,0.000000,Hold,-232.000000,2.000000,Suck,-2145.000000,2181.818182,Speed,-2107.500000,2181.818182,Speed,Off,On0.000000,5,,,,
09:09:46.647 AM 03/20/2016,Teleop Enabled,11,TRUE,7,Read from Text File in DoesScriptNumberContainNull.vi->Disabled.vi->Robot Main.vi<APPEND> /home/lvuser/scripts/auto_04.bee,-0.000000,-0.006417,0.000000,0.000000,TRUE,FALSE,FALSE,FALSE,FALSE,FALSE,Disabled,0.000000,0.000000,0.000000,TRUE,0.059692,-0.148407,0.000000,0.058136,0.142563,0.000000,-0.040000,0.105000,0.093000,-1.980000,-0.040000,2.340000,31.978170,Hold,0.946777,0.000000,Hold,-232.000000,2.000000,Suck,-2137.500000,2181.818182,Speed,-2115.000000,2181.818182,Speed,Off,On0.000000,5,,,,
09:09:46.747 AM 03/20/2016,Teleop Enabled,11,TRUE,7,Read from Text File in DoesScriptNumberContainNull.vi->Disabled.vi->Robot Main.vi<APPEND> /home/lvuser/scripts/auto_04.bee,-0.000000,-0.006417,0.000000,0.000000,TRUE,FALSE,FALSE,FALSE,FALSE,FALSE,Disabled,0.000000,0.000000,0.000000,TRUE,0.062759,-0.141449,0.000000,0.068695,0.097961,0.000000,-0.015000,-0.140000,-0.055000,-1.990000,-0.020000,2.340000,31.989926,Hold,0.946777,0.000000,Hold,-232.000000,2.000000,Suck,-2130.000000,2181.818182,Speed,-2115.000000,2181.818182,Speed,Off,On0.000000,5,,,,
09:09:46.847 AM 03/20/2016,Teleop Enabled,11,TRUE,7,Read from Text File in DoesScriptNumberContainNull.vi->Disabled.vi->Robot Main.vi<APPEND> /home/lvuser/scripts/auto_04.bee,-0.000000,-0.006417,0.000000,0.000000,TRUE,FALSE,FALSE,FALSE,FALSE,FALSE,Disabled,0.000000,0.000000,0.000000,TRUE,0.064819,-0.139542,0.000000,0.006165,0.000305,0.000000,0.006000,-0.069000,-0.012000,-1.980000,-0.040000,2.380000,31.991692,Hold,0.946777,0.000000,Hold,-232.000000,2.000000,Suck,-2145.000000,2181.818182,Speed,-2107.500000,2181.818182,Speed,Off,On0.000000,5,,,,
09:09:46.948 AM 03/20/2016,Teleop Enabled,10,TRUE,7,Read from Text File in DoesScriptNumberContainNull.vi->Disabled.vi->Robot Main.vi<APPEND> /home/lvuser/scripts/auto_04.bee,-0.000000,-0.006417,0.000000,0.000000,TRUE,FALSE,FALSE,FALSE,FALSE,FALSE,Disabled,0.000000,0.000000,0.000000,TRUE,0.065430,-0.142975,0.000000,0.003204,-0.118088,0.000000,0.017000,-0.039000,-0.045000,-1.980000,-0.090000,2.350000,31.988925,Hold,0.946777,0.000000,Hold,-232.000000,2.000000,Suck,-2137.500000,2181.818182,Speed,-2107.500000,2181.818182,Speed,Off,On0.000000,5,,,,
09:09:47.047 AM 03/20/2016,Teleop Enabled,11,TRUE,7,Read from Text File in DoesScriptNumberContainNull.vi->Disabled.vi->Robot Main.vi<APPEND> /home/lvuser/scripts/auto_04.bee,-0.000000,-0.006417,0.000000,0.000000,TRUE,FALSE,FALSE,FALSE,FALSE,FALSE,Disabled,0.000000,0.000000,0.000000,TRUE,0.066635,-0.150970,0.000000,0.047379,-0.190140,0.000000,0.024000,-0.021000,-0.059000,-1.990000,-0.070000,2.340000,31.990897,Hold,0.946777,0.000000,Hold,-232.000000,2.000000,Suck,-2130.000000,2181.818182,Speed,-2115.000000,2181.818182,Speed,Off,On0.000000,5,,,,
09:09:47.147 AM 03/20/2016,Teleop Enabled,11,TRUE,7,Read from Text File in DoesScriptNumberContainNull.vi->Disabled.vi->Robot Main.vi<APPEND> /home/lvuser/scripts/auto_05.bee,-0.000000,-0.006417,0.000000,0.000000,TRUE,FALSE,FALSE,FALSE,FALSE,FALSE,Disabled,0.000000,0.000000,0.000000,TRUE,0.068985,-0.160797,0.000000,0.032593,-0.185699,0.000000,0.044000,0.066000,0.097000,-1.990000,-0.060000,2.290000,31.999886,Hold,0.946777,0.000000,Hold,-232.000000,2.000000,Suck,-2137.500000,2181.818182,Speed,-2115.000000,2181.818182,Speed,Off,On0.000000,5,,,,
09:09:47.247 AM 03/20/2016,Teleop Enabled,11,TRUE,7,Read from Text File in DoesScriptNumberContainNull.vi->Disabled.vi->Robot Main.vi<APPEND> /home/lvuser/scripts/auto_05.bee,-0.000000,-0.006417,0.000000,0.000000,TRUE,FALSE,FALSE,FALSE,FALSE,FALSE,Disabled,0.000000,0.000000,0.000000,TRUE,0.070877,-0.168961,0.000000,0.032852,-0.097046,0.000000,0.031000,0.112000,0.187000,-1.990000,-0.080000,2.250000,31.995138,Hold,0.946777,0.000000,Hold,-232.000000,2.000000,Suck,-2130.000000,2181.818182,Speed,-2115.000000,2181.818182,Speed,Off,On0.000000,5,,,,
09:09:47.348 AM 03/20/2016,Teleop Enabled,10,TRUE,7,Read from Text File in DoesScriptNumberContainNull.vi->Disabled.vi->Robot Main.vi<APPEND> /home/lvuser/scripts/auto_05.bee,-0.000000,-0.006417,0.000000,0.000000,TRUE,FALSE,FALSE,FALSE,FALSE,FALSE,Disabled,0.000000,0.000000,0.000000,TRUE,0.071701,-0.171371,0.000000,-0.000458,-0.019653,0.000000,0.001000,0.040000,0.050000,-1.990000,-0.020000,2.230000,31.987709,Hold,0.946777,0.000000,Hold,-232.000000,2.000000,Suck,-2137.500000,2181.818182,Speed,-2115.000000,2181.818182,Speed,Off,On0.000000,5,,,,
09:09:47.447 AM 03/20/2016,Teleop Enabled,11,TRUE,7,Read from Text File in DoesScriptNumberContainNull.vi->Disabled.vi->Robot Main.vi<APPEND> /home/lvuser/scripts/auto_05.bee,-0.000000,-0.006417,0.000000,0.000000,TRUE,FALSE,FALSE,FALSE,FALSE,FALSE,Disabled,0.000000,0.000000,0.000000,TRUE,0.072968,-0.172424,0.000000,0.037888,-0.038971,0.000000,-0.013000,-0.054000,-0.072000,-1.990000,-0.010000,2.210000,31.997156,Hold,0.946777,0.000000,Hold,-232.000000,2.000000,Suck,-2137.500000,2181.818182,Speed,-2115.000000,2181.818182,Speed,Off,On0.000000,5,,,,
09:09:47.547 AM 03/20/2016,Teleop Enabled,11,TRUE,7,Read from Text File in DoesScriptNumberContainNull.vi->Disabled.vi->Robot Main.vi<APPEND> /home/lvuser/scripts/auto_05.bee,-0.000000,-0.006417,0.000000,0.000000,TRUE,FALSE,FALSE,FALSE,FALSE,FALSE,Disabled,0.000000,0.000000,0.000000,TRUE,0.076004,-0.174835,0.000000,0.057602,-0.043289,0.000000,-0.086000,-0.076000,-0.034000,-1.990000,0.000000,2.260000,32.014978,Hold,0.946777,0.000000,Hold,-232.000000,2.000000,Suck,-2137.500000,2181.818182,Speed,-2115.000000,2181.818182,Speed,Off,On0.000000,5,,,,
09:09:47.647 AM 03/20/2016,Teleop Enabled,11,TRUE,7,Read from Text File in DoesScriptNumberContainNull.vi->Disabled.vi->Robot Main.vi<APPEND> /home/lvuser/scripts/auto_05.bee,-0.000000,-0.006417,0.000000,0.000000,TRUE,FALSE,FALSE,FALSE,FALSE,FALSE,Disabled,0.000000,0.000000,0.000000,TRUE,0.078491,-0.178162,0.000000,0.072296,-0.073883,0.000000,0.092000,-0.012000,0.006000,-1.990000,0.000000,2.310000,32.026221,Hold,0.946777,0.000000,Hold,-232.000000,2.000000,Suck,-2137.500000,2181.818182,Speed,-2115.000000,2181.818182,Speed,Off,On0.000000,5,,,,
09:09:47.748 AM 03/20/2016,Teleop Enabled,10,TRUE,7,Read from Text File in DoesScriptNumberContainNull.vi->Disabled.vi->Robot Main.vi<APPEND> /home/lvuser/scripts/auto_05.bee,-0.000000,-0.006417,0.000000,0.000000,TRUE,FALSE,FALSE,FALSE,FALSE,FALSE,Disabled,0.000000,0.000000,0.000000,TRUE,0.082611,-0.182297,0.000000,0.060852,-0.077866,0.000000,-0.091000,0.046000,-0.006000,-1.990000,-0.020000,2.330000,32.044436,Hold,0.946777,0.000000,Hold,-232.000000,2.000000,Suck,-2137.500000,2181.818182,Speed,-2115.000000,2181.818182,Speed,Off,On0.000000,5,,,,
09:09:47.847 AM 03/20/2016,Teleop Enabled,10,TRUE,7,Read from Text File in DoesScriptNumberContainNull.vi->Disabled.vi->Robot Main.vi<APPEND> /home/lvuser/scripts/auto_05.bee,-0.000000,-0.006417,0.000000,0.000000,TRUE,FALSE,FALSE,FALSE,FALSE,FALSE,Disabled,0.000000,0.000000,0.000000,TRUE,0.083191,-0.184814,0.000000,-0.002411,-0.026413,0.000000,-0.024000,0.068000,0.053000,-1.990000,0.000000,2.360000,32.058846,Hold,0.946777,0.000000,Hold,-232.000000,2.000000,Suck,-2137.500000,2181.818182,Speed,-2115.000000,2181.818182,Speed,Off,On0.000000,5,,,,
09:09:47.947 AM 03/20/2016,Teleop Enabled,11,TRUE,7,Read from Text File in DoesScriptNumberContainNull.vi->Disabled.vi->Robot Main.vi<APPEND> /home/lvuser/scripts/auto_05.bee,-0.000000,-0.006417,0.000000,0.000000,TRUE,FALSE,FALSE,FALSE,FALSE,FALSE,Disabled,0.000000,0.000000,0.000000,TRUE,0.082397,-0.184616,0.000000,-0.036255,0.025269,0.000000,0.012000,-0.052000,0.086000,-1.990000,0.000000,2.370000,32.069690,Hold,0.946777,0.000000,Hold,-232.000000,2.000000,Suck,-2137.500000,2181.818182,Speed,-2115.000000,2181.818182,Speed,Off,On0.000000,5,,,,
09:09:48.048 AM 03/20/2016,Teleop Enabled,10,TRUE,7,Read from Text File in DoesScriptNumberContainNull.vi->Disabled.vi->Robot Main.vi<APPEND> /home/lvuser/scripts/auto_05.bee,-0.000000,-0.006417,0.000000,0.000000,TRUE,FALSE,FALSE,FALSE,FALSE,FALSE,Disabled,0.000000,0.000000,0.000000,TRUE,0.079971,-0.185120,0.000000,-0.051529,-0.043869,0.000000,-0.011000,-0.085000,0.008000,-1.990000,-0.010000,2.340000,32.064282,Hold,0.946777,0.000000,Hold,-232.000000,2.000000,Suck,-2137.500000,2181.818182,Speed,-2107.500000,2181.818182,Speed,Off,On0.000000,5,,,,
09:09:48.147 AM 03/20/2016,Teleop Enabled,10,TRUE,7,Read from Text File in DoesScriptNumberContainNull.vi->Disabled.vi->Robot Main.vi<APPEND> /home/lvuser/scripts/auto_05.bee,-0.000000,-0.006417,0.000000,0.000000,TRUE,FALSE,FALSE,FALSE,FALSE,FALSE,Disabled,0.000000,0.000000,0.000000,TRUE,0.079529,-0.190048,0.000000,0.006546,-0.140152,0.000000,0.050000,-0.083000,-0.010000,-1.990000,0.010000,2.320000,32.086311,Hold,0.946777,0.000000,Hold,-232.000000,2.000000,Suck,-2137.500000,2181.818182,Speed,-2115.000000,2181.818182,Speed,Off,On0.000000,5,,,,
09:09:48.248 AM 03/20/2016,Teleop Enabled,11,TRUE,7,Read from Text File in DoesScriptNumberContainNull.vi->Disabled.vi->Robot Main.vi<APPEND> /home/lvuser/scripts/auto_05.bee,-0.000000,-0.006417,0.000000,0.000000,TRUE,FALSE,FALSE,FALSE,FALSE,FALSE,Disabled,0.000000,0.000000,0.000000,TRUE,0.080063,-0.199081,0.000000,0.004074,-0.194366,0.000000,0.048000,0.030000,0.016000,-1.990000,0.000000,2.290000,32.101548,Hold,0.946777,0.000000,Hold,-232.000000,2.000000,Suck,-2137.500000,2181.818182,Speed,-2115.000000,2181.818182,Speed,Off,On0.000000,5,,,,
09:09:48.347 AM 03/20/2016,Teleop Enabled,11,TRUE,7,Read from Text File in DoesScriptNumberContainNull.vi->Disabled.vi->Robot Main.vi<APPEND> /home/lvuser/scripts/auto_05.bee,-0.000000,-0.006417,0.000000,0.000000,TRUE,FALSE,FALSE,FALSE,FALSE,FALSE,Disabled,0.000000,0.000000,0.000000,TRUE,0.082550,-0.208206,0.000000,0.078262,-0.168823,0.000000,-0.051000,0.062000,-0.024000,-2.000000,0.040000,2.320000,32.121525,Hold,0.946777,0.000000,Hold,-232.000000,2.000000,Suck,-2137.500000,2181.818182,Speed,-2115.000000,2181.818182,Speed,Off,On0.000000,5,,,,
09:09:48.448 AM 03/20/2016,Teleop Enabled,9,TRUE,7,Read from Text File in DoesScriptNumberContainNull.vi->Disabled.vi->Robot Main.vi<APPEND> /home/lvuser/scripts/auto_05.bee,-0.000000,-0.006417,0.000000,0.000000,TRUE,FALSE,FALSE,FALSE,FALSE,FALSE,Disabled,0.000000,0.000000,0.000000,TRUE,0.085464,-0.213776,0.000000,0.047226,-0.063568,0.000000,-0.058000,0.105000,0.070000,-1.990000,0.020000,2.280000,32.145179,Hold,0.946777,0.000000,Hold,-232.000000,2.000000,Suck,-2137.500000,2181.818182,Speed,-2115.000000,2181.818182,Speed,Off,On0.000000,5,,,,
09:09:48.548 AM 03/20/2016,Teleop Enabled,10,TRUE,7,Read from Text File in DoesScriptNumberContainNull.vi->Disabled.vi->Robot Main.vi<APPEND> /home/lvuser/scripts/auto_05.bee,-0.000000,-0.006417,0.000000,0.000000,TRUE,FALSE,FALSE,FALSE,FALSE,FALSE,Disabled,0.000000,0.000000,0.000000,TRUE,0.087067,-0.214218,0.000000,0.022781,0.022217,0.000000,-0.007000,0.100000,0.159000,-2.000000,0.000000,2.250000,32.151844,Hold,0.946777,0.000000,Hold,-232.000000,2.000000,Suck,-2145.000000,2181.818182,Speed,-2115.000000,2181.818182,Speed,Off,On0.000000,5,,,,
09:09:48.648 AM 03/20/2016,Teleop Enabled,11,TRUE,7,Read from Text File in DoesScriptNumberContainNull.vi->Disabled.vi->Robot Main.vi<APPEND> /home/lvuser/scripts/auto_05.bee,-0.000000,-0.006417,0.000000,0.000000,TRUE,FALSE,FALSE,FALSE,FALSE,FALSE,Disabled,0.000000,0.000000,0.000000,TRUE,0.088013,-0.210388,0.000000,0.021408,0.099457,0.000000,0.020000,-0.062000,0.067000,-1.990000,0.020000,2.370000,32.159290,Hold,0.946777,0.000000,Hold,-232.000000,2.000000,Suck,-2137.500000,2181.818182,Speed,-2115.000000,2181.818182,Speed,Off,On0.000000,5,,,,
09:09:48.748 AM 03/20/2016,Teleop Enabled,10,TRUE,7,Read from Text File in DoesScriptNumberContainNull.vi->Disabled.vi->Robot Main.vi<APPEND> /home/lvuser/scripts/auto_05.bee,-0.000000,-0.006417,0.000000,0.000000,TRUE,FALSE,FALSE,FALSE,FALSE,FALSE,Disabled,0.000000,0.000000,0.000000,TRUE,0.090210,-0.207123,0.000000,0.032120,0.024277,0.000000,0.009000,-0.017000,0.078000,-1.990000,0.000000,2.350000,32.178207,Hold,0.946777,0.000000,Hold,-232.000000,2.000000,Suck,-2137.500000,2181.818182,Speed,-2107.500000,2181.818182,Speed,Off,On0.000000,5,,,,
09:09:48.848 AM 03/20/2016,Teleop Enabled,10,TRUE,7,Read from Text File in DoesScriptNumberContainNull.vi->Disabled.vi->Robot Main.vi<APPEND> /home/lvuser/scripts/auto_05.bee,-0.000000,-0.006417,0.000000,0.000000,TRUE,FALSE,FALSE,FALSE,FALSE,FALSE,Disabled,0.000000,0.000000,0.000000,TRUE,0.090149,-0.207336,0.000000,-0.003143,-0.032135,0.000000,-0.015000,-0.121000,-0.016000,-2.000000,0.000000,2.420000,32.182658,Hold,0.946777,0.000000,Hold,-232.000000,2.000000,Suck,-2137.500000,2181.818182,Speed,-2115.000000,2181.818182,Speed,Off,On0.000000,5,,,,
09:09:48.949 AM 03/20/2016,Teleop Enabled,11,TRUE,7,Read from Text File in DoesScriptNumberContainNull.vi->Disabled.vi->Robot Main.vi<APPEND> /home/lvuser/scripts/auto_05.bee,-0.000000,-0.006417,0.000000,0.000000,TRUE,FALSE,FALSE,FALSE,FALSE,FALSE,Disabled,0.000000,0.000000,0.000000,TRUE,0.092300,-0.213654,0.000000,0.068039,-0.142899,0.000000,0.002000,-0.081000,-0.126000,-2.000000,0.040000,2.420000,32.194290,Hold,0.946777,0.000000,Hold,-232.000000,2.000000,Suck,-2137.500000,2181.818182,Speed,-2115.000000,2181.818182,Speed,Off,On0.000000,5,,,,
09:09:49.049 AM 03/20/2016,Teleop Enabled,10,TRUE,7,Read from Text File in DoesScriptNumberContainNull.vi->Disabled.vi->Robot Main.vi<APPEND> /home/lvuser/scripts/auto_05.bee,-0.000000,-0.006417,0.000000,0.000000,TRUE,FALSE,FALSE,FALSE,FALSE,FALSE,Disabled,0.000000,0.000000,0.000000,TRUE,0.091873,-0.220413,0.000000,-0.022812,-0.183670,0.000000,-0.058000,-0.002000,-0.014000,-2.000000,0.010000,2.390000,32.212512,Hold,0.946777,0.000000,Hold,-232.000000,2.000000,Suck,-2137.500000,2181.818182,Speed,-2115.000000,2181.818182,Speed,Off,On0.000000,5,,,,
09:09:49.149 AM 03/20/2016,Teleop Enabled,10,TRUE,7,Read from Text File in DoesScriptNumberContainNull.vi->Disabled.vi->Robot Main.vi<APPEND> /home/lvuser/scripts/auto_05.bee,-0.000000,-0.006417,0.000000,0.000000,TRUE,FALSE,FALSE,FALSE,FALSE,FALSE,Disabled,0.000000,0.000000,0.000000,TRUE,0.089264,-0.228897,0.000000,-0.058640,-0.147858,0.000000,-0.030000,0.074000,0.062000,-2.000000,0.040000,2.390000,32.229659,Hold,0.946777,0.000000,Hold,-232.000000,2.000000,Suck,-2137.500000,2181.818182,Speed,-2115.000000,2181.818182,Speed,Off,On0.000000,5,,,,
09:09:49.250 AM 03/20/2016,Teleop Enabled,10,TRUE,7,Read from Text File in DoesScriptNumberContainNull.vi->Disabled.vi->Robot Main.vi<APPEND> /home/lvuser/scripts/auto_05.bee,-0.000000,-0.006417,0.000000,0.000000,TRUE,FALSE,FALSE,FALSE,FALSE,FALSE,Disabled,0.000000,0.000000,0.000000,TRUE,0.084961,-0.234711,0.000000,-0.083908,-0.066620,0.000000,-0.015000,0.053000,0.069000,-2.000000,0.040000,2.340000,32.252081,Hold,0.946777,0.000000,Hold,-232.000000,2.000000,Suck,-2145.000000,2181.818182,Speed,-2115.000000,2181.818182,Speed,Off,On0.000000,5,,,,
09:09:49.352 AM 03/20/2016,Teleop Enabled,9,TRUE,7,Read from Text File in DoesScriptNumberContainNull.vi->Disabled.vi->Robot Main.vi<APPEND> /home/lvuser/scripts/auto_06.bee,-0.000000,-0.006417,0.000000,0.000000,TRUE,FALSE,FALSE,FALSE,FALSE,FALSE,Disabled,0.000000,0.000000,0.000000,TRUE,0.080338,-0.236877,0.000000,-0.089386,-0.034470,0.000000,0.060000,0.019000,0.102000,-1.990000,0.050000,2.290000,32.275290,Hold,0.946777,0.000000,Hold,-232.000000,2.000000,Suck,-2145.000000,2181.818182,Speed,-2115.000000,2181.818182,Speed,Off,On0.000000,5,,,,
09:09:49.452 AM 03/20/2016,Teleop Enabled,11,TRUE,7,Read from Text File in DoesScriptNumberContainNull.vi->Disabled.vi->Robot Main.vi<APPEND> /home/lvuser/scripts/auto_06.bee,-0.000000,-0.006417,0.000000,0.000000,TRUE,FALSE,FALSE,FALSE,FALSE,FALSE,Disabled,0.000000,0.000000,0.000000,TRUE,0.078873,-0.239441,0.000000,0.003433,-0.065277,0.000000,0.031000,0.009000,-0.009000,-2.000000,0.050000,2.250000,32.291670,Hold,0.946777,0.000000,Hold,-232.000000,2.000000,Suck,-2130.000000,2181.818182,Speed,-2122.500000,2181.818182,Speed,Off,On0.000000,5,,,,
09:09:49.553 AM 03/20/2016,Teleop Enabled,11,TRUE,7,Read from Text File in DoesScriptNumberContainNull.vi->Disabled.vi->Robot Main.vi<APPEND> /home/lvuser/scripts/auto_06.bee,-0.000000,-0.006417,0.000000,0.000000,TRUE,FALSE,FALSE,FALSE,FALSE,FALSE,Disabled,0.000000,0.000000,0.000000,TRUE,0.079407,-0.241653,0.000000,0.013123,-0.041779,0.000000,0.094000,-0.055000,0.010000,-2.000000,0.070000,2.180000,32.304008,Hold,0.946777,0.000000,Hold,-232.000000,2.000000,Suck,-2145.000000,2181.818182,Speed,-2115.000000,2181.818182,Speed,Off,On0.000000,5,,,,
09:09:49.653 AM 03/20/2016,Teleop Enabled,10,TRUE,7,Read from Text File in DoesScriptNumberContainNull.vi->Disabled.vi->Robot Main.vi<APPEND> /home/lvuser/scripts/auto_06.bee,-0.000000,-0.006417,0.000000,0.000000,TRUE,FALSE,FALSE,FALSE,FALSE,FALSE,Disabled,0.000000,0.000000,0.000000,TRUE,0.082336,-0.244095,0.000000,0.080536,-0.043030,0.000000,-0.005000,0.058000,0.029000,-1.990000,0.040000,2.210000,32.316739,Hold,0.946777,0.000000,Hold,-232.000000,2.000000,Suck,-2137.500000,2181.818182,Speed,-2115.000000,2181.818182,Speed,Off,On0.000000,5,,,,
09:09:49.753 AM 03/20/2016,Teleop Enabled,11,TRUE,7,Read from Text File in DoesScriptNumberContainNull.vi->Disabled.vi->Robot Main.vi<APPEND> /home/lvuser/scripts/auto_06.bee,-0.000000,-0.006417,0.000000,0.000000,TRUE,FALSE,FALSE,FALSE,FALSE,FALSE,Disabled,0.000000,0.000000,0.000000,TRUE,0.085556,-0.244873,0.000000,0.050598,-0.002869,0.000000,-0.013000,0.063000,0.052000,-2.000000,0.020000,2.230000,32.331645,Hold,0.946777,0.000000,Hold,-232.000000,2.000000,Suck,-2137.500000,2181.818182,Speed,-2122.500000,2181.818182,Speed,Off,On0.000000,5,,,,
09:09:49.853 AM 03/20/2016,Teleop Enabled,11,TRUE,7,Read from Text File in DoesScriptNumberContainNull.vi->Disabled.vi->Robot Main.vi<APPEND> /home/lvuser/scripts/auto_06.bee,-0.000000,-0.006417,0.000000,0.000000,TRUE,FALSE,FALSE,FALSE,FALSE,FALSE,Disabled,0.000000,0.000000,0.000000,TRUE,0.086395,-0.243973,0.000000,-0.002182,0.035706,0.000000,-0.068000,0.008000,0.007000,-2.000000,0.050000,2.160000,32.344854,Hold,0.946777,0.000000,Hold,-232.000000,2.000000,Suck,-2145.000000,2181.818182,Speed,-2115.000000,2181.818182,Speed,Off,On0.000000,5,,,,
09:09:49.953 AM 03/20/2016,Teleop Enabled,10,TRUE,7,Read from Text File in DoesScriptNumberContainNull.vi->Disabled.vi->Robot Main.vi<APPEND> /home/lvuser/scripts/auto_06.bee,-0.000000,-0.006417,0.000000,0.000000,TRUE,FALSE,FALSE,FALSE,FALSE,FALSE,Disabled,0.000000,0.000000,0.000000,TRUE,0.084625,-0.241089,0.000000,-0.054840,0.059158,0.000000,0.020000,-0.071000,0.056000,-2.000000,0.000000,2.180000,32.366422,Hold,0.946777,0.000000,Hold,-232.000000,2.000000,Suck,-2137.500000,2181.818182,Speed,-2115.000000,2181.818182,Speed,Off,On0.000000,5,,,,
09:09:50.053 AM 03/20/2016,Teleop Enabled,11,TRUE,7,Read from Text File in DoesScriptNumberContainNull.vi->Disabled.vi->Robot Main.vi<APPEND> /home/lvuser/scripts/auto_06.bee,-0.000000,-0.006417,0.000000,0.000000,TRUE,FALSE,FALSE,FALSE,FALSE,FALSE,Disabled,0.000000,0.000000,0.000000,TRUE,0.082489,-0.239838,0.000000,0.000000,-0.004974,0.000000,0.020000,-0.071000,0.056000,-2.000000,0.030000,2.160000,32.378343,Hold,0.946777,0.000000,Hold,-232.000000,2.000000,Suck,-2137.500000,2181.818182,Speed,-2122.500000,2181.818182,Speed,Off,On0.000000,5,,,,
09:09:50.158 AM 03/20/2016,Teleop Enabled,9,TRUE,7,Read from Text File in DoesScriptNumberContainNull.vi->Disabled.vi->Robot Main.vi<APPEND> /home/lvuser/scripts/auto_06.bee,-0.000000,-0.006417,0.000000,0.000000,TRUE,FALSE,FALSE,FALSE,FALSE,FALSE,Disabled,0.000000,0.000000,0.000000,TRUE,0.082169,-0.242645,0.000000,0.000000,-0.089401,0.000000,-0.056000,-0.079000,-0.035000,-2.000000,0.000000,2.180000,32.394788,Hold,0.946777,0.000000,Hold,-232.000000,2.000000,Suck,-2137.500000,2181.818182,Speed,-2115.000000,2181.818182,Speed,Off,On0.000000,5,,,,
09:09:50.256 AM 03/20/2016,Teleop Enabled,9,TRUE,7,Read from Text File in DoesScriptNumberContainNull.vi->Disabled.vi->Robot Main.vi<APPEND> /home/lvuser/scripts/auto_06.bee,-0.000000,-0.006417,0.000000,0.000000,TRUE,FALSE,FALSE,FALSE,FALSE,FALSE,Disabled,0.000000,0.000000,0.000000,TRUE,0.081772,-0.249023,0.000000,-0.009369,-0.161453,0.000000,0.101000,-0.087000,0.064000,-1.990000,-0.030000,2.180000,32.413482,Hold,0.946777,0.000000,Hold,-232.000000,2.000000,Suck,-2145.000000,2181.818182,Speed,-2115.000000,2181.818182,Speed,Off,On0.000000,5,,,,
09:09:50.356 AM 03/20/2016,Teleop Enabled,9,TRUE,7,Read from Text File in DoesScriptNumberContainNull.vi->Disabled.vi->Robot Main.vi<APPEND> /home/lvuser/scripts/auto_06.bee,-0.000000,-0.006417,0.000000,0.000000,TRUE,FALSE,FALSE,FALSE,FALSE,FALSE,Disabled,0.000000,0.000000,0.000000,TRUE,0.082870,-0.258774,0.000000,0.032104,-0.195892,0.000000,0.101000,-0.087000,0.064000,-2.000000,0.010000,2.160000,32.426439,Hold,0.946777,0.000000,Hold,-232.000000,2.000000,Suck,-2137.500000,2181.818182,Speed,-2115.000000,2181.818182,Speed,Off,On0.000000,5,,,,
09:09:50.456 AM 03/20/2016,Teleop Enabled,9,TRUE,7,Read from Text File in DoesScriptNumberContainNull.vi->Disabled.vi->Robot Main.vi<APPEND> /home/lvuser/scripts/auto_06.bee,-0.000000,-0.006417,0.000000,0.000000,TRUE,FALSE,FALSE,FALSE,FALSE,FALSE,Disabled,0.000000,0.000000,0.000000,TRUE,0.083466,-0.267746,0.000000,-0.010315,-0.142731,0.000000,-0.024000,-0.009000,-0.094000,-1.990000,-0.030000,2.160000,32.439180,Hold,0.946777,0.000000,Hold,-232.000000,2.000000,Suck,-2137.500000,2181.818182,Speed,-2122.500000,2181.818182,Speed,Off,On0.000000,5,,,,
09:09:50.556 AM 03/20/2016,Teleop Enabled,10,TRUE,7,Read from Text File in DoesScriptNumberContainNull.vi->Disabled.vi->Robot Main.vi<APPEND> /home/lvuser/scripts/auto_06.bee,-0.000000,-0.006417,0.000000,0.000000,TRUE,FALSE,FALSE,FALSE,FALSE,FALSE,Disabled,0.000000,0.000000,0.000000,TRUE,0.083115,-0.271545,0.000000,0.006500,-0.033691,0.000000,-0.056000,0.152000,0.071000,-2.000000,0.000000,2.150000,32.447012,Hold,0.946777,0.000000,Hold,-232.000000,2.000000,Suck,-2145.000000,2181.818182,Speed,-2115.000000,2181.818182,Speed,Off,On0.000000,5,,,,
09:09:50.656 AM 03/20/2016,Teleop Enabled,10,TRUE,7,Read from Text File in DoesScriptNumberContainNull.vi->Disabled.vi->Robot Main.vi<APPEND> /home/lvuser/scripts/auto_06.bee,-0.000000,-0.006417,0.000000,0.000000,TRUE,FALSE,FALSE,FALSE,FALSE,FALSE,Disabled,0.000000,0.000000,0.000000,TRUE,0.083160,-0.270905,0.000000,-0.011047,0.046707,0.000000,0.037000,0.065000,0.101000,-2.000000,0.000000,2.150000,32.458854,Hold,0.946777,0.000000,Hold,-232.000000,2.000000,Suck,-2145.000000,2181.818182,Speed,-2115.000000,2181.818182,Speed,Off,On0.000000,5,,,,
09:09:50.756 AM 03/20/2016,Teleop Enabled,10,TRUE,7,Read from Text File in DoesScriptNumberContainNull.vi->Disabled.vi->Robot Main.vi<APPEND> /home/lvuser/scripts/auto_06.bee,-0.000000,-0.006417,0.000000,0.000000,TRUE,FALSE,FALSE,FALSE,FALSE,FALSE,Disabled,0.000000,0.000000,0.000000,TRUE,0.083649,-0.268738,0.000000,0.011948,0.004013,0.000000,-0.014000,0.039000,0.014000,-2.000000,-0.050000,2.180000,32.479279,Hold,0.946777,0.000000,Hold,-232.000000,2.000000,Suck,-2137.500000,2181.818182,Speed,-2122.500000,2181.818182,Speed,Off,On0.000000,5,,,,
09:09:50.856 AM 03/20/2016,Teleop Enabled,10,TRUE,7,Read from Text File in DoesScriptNumberContainNull.vi->Disabled.vi->Robot Main.vi<APPEND> /home/lvuser/scripts/auto_06.bee,-0.000000,-0.006417,0.000000,0.000000,TRUE,FALSE,FALSE,FALSE,FALSE,FALSE,Disabled,0.000000,0.000000,0.000000,TRUE,0.084320,-0.269714,0.000000,0.021240,-0.056808,0.000000,-0.014000,0.039000,0.014000,-2.000000,-0.050000,2.200000,32.491001,Hold,0.946777,0.000000,Hold,-232.000000,2.000000,Suck,-2145.000000,2181.818182,Speed,-2122.500000,2181.818182,Speed,Off,On0.000000,5,,,,
09:09:50.956 AM 03/20/2016,Teleop Enabled,10,TRUE,7,Read from Text File in DoesScriptNumberContainNull.vi->Disabled.vi->Robot Main.vi<APPEND> /home/lvuser/scripts/auto_06.bee,-0.000000,-0.006417,0.000000,0.000000,TRUE,FALSE,FALSE,FALSE,FALSE,FALSE,Disabled,0.000000,0.000000,0.000000,TRUE,0.085022,-0.274933,0.000000,0.011246,-0.135986,0.000000,-0.036000,-0.066000,-0.060000,-2.000000,-0.030000,2.240000,32.501508,Hold,0.946777,0.000000,Hold,-232.000000,2.000000,Suck,-2137.500000,2181.818182,Speed,-2115.000000,2181.818182,Speed,Off,On0.000000,5,,,,
09:09:51.056 AM 03/20/2016,Teleop Enabled,10,TRUE,7,Read from Text File in DoesScriptNumberContainNull.vi->Disabled.vi->Robot Main.vi<APPEND> /home/lvuser/scripts/auto_06.bee,-0.000000,-0.006417,0.000000,0.000000,TRUE,FALSE,FALSE,FALSE,FALSE,FALSE,Disabled,0.000000,0.000000,0.000000,TRUE,0.086929,-0.283432,0.000000,0.048996,-0.193268,0.000000,0.035000,-0.136000,-0.009000,-1.990000,-0.090000,2.200000,32.505752,Hold,0.946777,0.000000,Hold,-232.000000,2.000000,Suck,-2145.000000,2181.818182,Speed,-2122.500000,2181.818182,Speed,Off,On0.000000,5,,,,
09:09:51.157 AM 03/20/2016,Teleop Enabled,9,TRUE,7,Read from Text File in DoesScriptNumberContainNull.vi->Disabled.vi->Robot Main.vi<APPEND> /home/lvuser/scripts/auto_06.bee,-0.000000,-0.006417,0.000000,0.000000,TRUE,FALSE,FALSE,FALSE,FALSE,FALSE,Disabled,0.000000,0.000000,0.000000,TRUE,0.088577,-0.289917,0.000000,0.022049,0.001923,0.000000,-0.053000,-0.052000,-0.090000,-2.000000,-0.010000,2.250000,32.508011,Hold,0.946777,0.000000,Hold,-232.000000,2.000000,Suck,-2160.000000,2181.818182,Speed,-2122.500000,2181.818182,Speed,Off,On0.000000,5,,,,
09:09:51.257 AM 03/20/2016,Teleop Enabled,9,TRUE,7,Read from Text File in DoesScriptNumberContainNull.vi->Disabled.vi->Robot Main.vi<APPEND> /home/lvuser/scripts/auto_06.bee,-0.000000,-0.006417,0.000000,0.000000,TRUE,FALSE,FALSE,FALSE,FALSE,FALSE,Disabled,0.000000,0.000000,0.000000,TRUE,0.089310,-0.289154,0.000000,0.011078,0.018829,0.000000,-0.023000,0.053000,0.100000,-2.000000,-0.010000,2.210000,32.496079,Hold,0.946777,0.000000,Hold,-232.000000,2.000000,Suck,-2137.500000,2181.818182,Speed,-2115.000000,2181.818182,Speed,Off,On0.000000,5,,,,
09:09:51.357 AM 03/20/2016,Teleop Enabled,10,TRUE,7,Read from Text File in DoesScriptNumberContainNull.vi->Disabled.vi->Robot Main.vi<APPEND> /home/lvuser/scripts/auto_06.bee,-0.000000,-0.006417,0.000000,0.000000,TRUE,FALSE,FALSE,FALSE,FALSE,FALSE,Disabled,0.000000,0.000000,0.000000,TRUE,0.088348,-0.287476,0.000000,0.000000,0.041321,0.000000,-0.071000,0.018000,0.026000,-2.000000,0.030000,2.250000,32.508376,Hold,0.946777,0.000000,Hold,-232.000000,2.000000,Suck,-2137.500000,2181.818182,Speed,-2122.500000,2181.818182,Speed,Off,On0.000000,5,,,,
09:09:51.457 AM 03/20/2016,Teleop Enabled,9,TRUE,7,Read from Text File in DoesScriptNumberContainNull.vi->Disabled.vi->Robot Main.vi<APPEND> /home/lvuser/scripts/auto_06.bee,-0.000000,-0.006417,0.000000,0.000000,TRUE,FALSE,FALSE,FALSE,FALSE,FALSE,Disabled,0.000000,0.000000,0.000000,TRUE,0.088348,-0.287476,0.000000,0.000000,0.041321,0.000000,0.000000,-0.003000,0.139000,-1.990000,-0.020000,2.350000,32.532412,Hold,0.946777,0.000000,Hold,-232.000000,2.000000,Suck,-2152.500000,2181.818182,Speed,-2122.500000,2181.818182,Speed,Off,On0.000000,5,,,,
09:09:51.558 AM 03/20/2016,Teleop Enabled,9,TRUE,7,Read from Text File in DoesScriptNumberContainNull.vi->Disabled.vi->Robot Main.vi<APPEND> /home/lvuser/scripts/auto_06.bee,-0.000000,-0.006417,0.000000,0.000000,TRUE,FALSE,FALSE,FALSE,FALSE,FALSE,Disabled,0.000000,0.000000,0.000000,TRUE,0.089172,-0.288239,0.000000,0.014023,-0.040283,0.000000,0.024000,-0.113000,-0.032000,-1.990000,0.000000,2.340000,32.554399,Hold,0.946777,0.000000,Hold,-232.000000,2.000000,Suck,-2137.500000,2181.818182,Speed,-2122.500000,2181.818182,Speed,Off,On0.000000,5,,,,
09:09:51.658 AM 03/20/2016,Teleop Enabled,9,TRUE,7,Read from Text File in DoesScriptNumberContainNull.vi->Disabled.vi->Robot Main.vi<APPEND> /home/lvuser/scripts/auto_06.bee,-0.000000,-0.006417,0.000000,0.000000,TRUE,FALSE,FALSE,FALSE,FALSE,FALSE,Disabled,0.000000,0.000000,0.000000,TRUE,0.089844,-0.290070,0.000000,0.027115,-0.041275,0.000000,-0.016000,0.052000,-0.022000,-1.990000,-0.020000,2.370000,32.577299,Hold,0.946777,0.000000,Hold,-232.000000,2.000000,Suck,-2130.000000,2181.818182,Speed,-2122.500000,2181.818182,Speed,Off,On0.000000,5,,,,
09:09:51.760 AM 03/20/2016,Teleop Enabled,10,TRUE,7,Read from Text File in DoesScriptNumberContainNull.vi->Disabled.vi->Robot Main.vi<APPEND> /home/lvuser/scripts/auto_06.bee,-0.000000,-0.006417,0.000000,0.000000,TRUE,FALSE,FALSE,FALSE,FALSE,FALSE,Disabled,0.000000,0.000000,0.000000,TRUE,0.092987,-0.291092,0.000000,0.088135,0.004898,0.000000,0.087000,-0.046000,-0.033000,-1.990000,-0.030000,2.370000,32.604798,Hold,0.946777,0.000000,Hold,-232.000000,2.000000,Suck,-2145.000000,2181.818182,Speed,-2115.000000,2181.818182,Speed,Off,On0.000000,5,,,,
09:09:51.860 AM 03/20/2016,Teleop Enabled,9,TRUE,7,Read from Text File in DoesScriptNumberContainNull.vi->Disabled.vi->Robot Main.vi<APPEND> /home/lvuser/scripts/auto_06.bee,-0.000000,-0.006417,0.000000,0.000000,TRUE,FALSE,FALSE,FALSE,FALSE,FALSE,Disabled,0.000000,0.000000,0.000000,TRUE,0.098206,-0.290466,0.000000,0.094620,0.010452,0.000000,0.090000,0.058000,0.026000,-2.000000,0.030000,2.390000,32.613735,Hold,0.946777,0.000000,Hold,-232.000000,2.000000,Suck,-2160.000000,2181.818182,Speed,-2122.500000,2181.818182,Speed,Off,On0.000000,5,,,,
09:09:51.960 AM 03/20/2016,Teleop Enabled,9,TRUE,7,Read from Text File in DoesScriptNumberContainNull.vi->Disabled.vi->Robot Main.vi<APPEND> /home/lvuser/scripts/auto_06.bee,-0.000000,-0.006417,0.000000,0.000000,TRUE,FALSE,FALSE,FALSE,FALSE,FALSE,Disabled,0.000000,0.000000,0.000000,TRUE,0.099106,-0.286911,0.000000,0.036621,0.117294,0.000000,0.004000,0.109000,0.042000,-2.000000,0.000000,2.330000,32.632284,Hold,0.946777,0.000000,Hold,-232.000000,2.000000,Suck,-2152.500000,2181.818182,Speed,-2122.500000,2181.818182,Speed,Off,On0.000000,5,,,,
09:09:52.060 AM 03/20/2016,Teleop Enabled,9,TRUE,7,Read from Text File in DoesScriptNumberContainNull.vi->Disabled.vi->Robot Main.vi<APPEND> /home/lvuser/scripts/auto_06.bee,-0.000000,-0.006417,0.000000,0.000000,TRUE,FALSE,FALSE,FALSE,FALSE,FALSE,Disabled,0.000000,0.000000,0.000000,TRUE,0.099106,-0.286911,0.000000,0.036621,0.117294,0.000000,0.006000,0.075000,0.067000,-2.000000,0.060000,2.370000,32.643197,Hold,0.946777,0.000000,Hold,-232.000000,2.000000,Suck,-2145.000000,2181.818182,Speed,-2122.500000,2181.818182,Speed,Off,On0.000000,5,,,,
09:09:52.160 AM 03/20/2016,Teleop Enabled,10,TRUE,7,Read from Text File in DoesScriptNumberContainNull.vi->Disabled.vi->Robot Main.vi<APPEND> /home/lvuser/scripts/auto_06.bee,-0.000000,-0.006417,0.000000,0.000000,TRUE,FALSE,FALSE,FALSE,FALSE,FALSE,Disabled,0.000000,0.000000,0.000000,TRUE,0.098282,-0.281418,0.000000,-0.022629,0.000076,0.000000,-0.050000,0.035000,0.076000,-2.000000,0.030000,2.330000,32.664657,Hold,0.946777,0.000000,Hold,-232.000000,2.000000,Suck,-2152.500000,2181.818182,Speed,-2122.500000,2181.818182,Speed,Off,On0.000000,5,,,,
09:09:52.260 AM 03/20/2016,Teleop Enabled,9,TRUE,7,Read from Text File in DoesScriptNumberContainNull.vi->Disabled.vi->Robot Main.vi<APPEND> /home/lvuser/scripts/auto_06.bee,-0.000000,-0.006417,0.000000,0.000000,TRUE,FALSE,FALSE,FALSE,FALSE,FALSE,Disabled,0.000000,0.000000,0.000000,TRUE,0.098282,-0.281418,0.000000,-0.022629,0.000076,0.000000,-0.023000,-0.088000,0.002000,-2.000000,0.060000,2.310000,32.675594,Hold,0.946777,0.000000,Hold,-232.000000,2.000000,Suck,-2152.500000,2181.818182,Speed,-2122.500000,2181.818182,Speed,Off,On0.000000,5,,,,
09:09:52.360 AM 03/20/2016,Teleop Enabled,9,TRUE,7,Read from Text File in DoesScriptNumberContainNull.vi->Disabled.vi->Robot Main.vi<APPEND> /home/lvuser/scripts/auto_06.bee,-0.000000,-0.006417,0.000000,0.000000,TRUE,FALSE,FALSE,FALSE,FALSE,FALSE,Disabled,0.000000,0.000000,0.000000,TRUE,0.097321,-0.284576,0.000000,-0.021683,-0.082809,0.000000,-0.027000,-0.077000,-0.089000,-2.000000,0.010000,2.340000,32.675594,Hold,0.946777,0.000000,Hold,-232.000000,2.000000,Suck,-2137.500000,2181.818182,Speed,-2122.500000,2181.818182,Speed,Off,On0.000000,5,,,,
09:09:52.460 AM 03/20/2016,Teleop Enabled,9,TRUE,7,Read from Text File in DoesScriptNumberContainNull.vi->Disabled.vi->Robot Main.vi<APPEND> /home/lvuser/scripts/auto_06.bee,-0.000000,-0.006417,0.000000,0.000000,TRUE,FALSE,FALSE,FALSE,FALSE,FALSE,Disabled,0.000000,0.000000,0.000000,TRUE,0.096954,-0.291763,0.000000,0.000458,-0.185074,0.000000,0.026000,-0.228000,-0.140000,-2.000000,0.060000,2.340000,32.697909,Hold,0.946777,0.000000,Hold,-232.000000,2.000000,Suck,-2145.000000,2181.818182,Speed,-2115.000000,2181.818182,Speed,Off,On0.000000,5,,,,
09:09:52.560 AM 03/20/2016,Teleop Enabled,10,TRUE,7,Read from Text File in DoesScriptNumberContainNull.vi->Disabled.vi->Robot Main.vi<APPEND> /home/lvuser/scripts/auto_06.bee,-0.000000,-0.006417,0.000000,0.000000,TRUE,FALSE,FALSE,FALSE,FALSE,FALSE,Disabled,0.000000,0.000000,0.000000,TRUE,0.098160,-0.305084,0.000000,0.046768,-0.302032,0.000000,0.083000,-0.038000,-0.038000,-1.990000,0.010000,2.320000,32.710034,Hold,0.946777,0.000000,Hold,-232.000000,2.000000,Suck,-2152.500000,2181.818182,Speed,-2122.500000,2181.818182,Speed,Off,On0.000000,5,,,,
09:09:52.660 AM 03/20/2016,Teleop Enabled,9,TRUE,7,Read from Text File in DoesScriptNumberContainNull.vi->Disabled.vi->Robot Main.vi<APPEND> /home/lvuser/scripts/auto_06.bee,-0.000000,-0.006417,0.000000,0.000000,TRUE,FALSE,FALSE,FALSE,FALSE,FALSE,Disabled,0.000000,0.000000,0.000000,TRUE,0.100357,-0.322540,0.000000,0.034409,-0.369873,0.000000,-0.066000,0.054000,0.118000,-2.000000,0.000000,2.300000,32.723773,Hold,0.946777,0.000000,Hold,-232.000000,2.000000,Suck,-2145.000000,2181.818182,Speed,-2122.500000,2181.818182,Speed,Off,On0.000000,5,,,,
09:09:52.760 AM 03/20/2016,Teleop Enabled,9,TRUE,7,Read from Text File in DoesScriptNumberContainNull.vi->Disabled.vi->Robot Main.vi<APPEND> /home/lvuser/scripts/auto_06.bee,-0.000000,-0.006417,0.000000,0.000000,TRUE,FALSE,FALSE,FALSE,FALSE,FALSE,Disabled,0.000000,0.000000,0.000000,TRUE,0.100906,-0.340256,0.000000,0.002045,-0.329773,0.000000,0.001000,0.075000,0.114000,-2.000000,0.000000,2.330000,32.750656,Hold,0.946777,0.000000,Hold,-232.000000,2.000000,Suck,-2137.500000,2181.818182,Speed,-2122.500000,2181.818182,Speed,Off,On0.000000,5,,,,
09:09:52.860 AM 03/20/2016,Teleop Enabled,9,TRUE,7,Read from Text File in DoesScriptNumberContainNull.vi->Disabled.vi->Robot Main.vi<APPEND> /home/lvuser/scripts/auto_06.bee,-0.000000,-0.006417,0.000000,0.000000,TRUE,FALSE,FALSE,FALSE,FALSE,FALSE,Disabled,0.000000,0.000000,0.000000,TRUE,0.100922,-0.346542,0.000000,-0.006348,0.005066,0.000000,0.003000,0.041000,0.144000,-2.000000,-0.010000,2.280000,32.747719,Hold,0.946777,0.000000,Hold,-232.000000,2.000000,Suck,-2145.000000,2181.818182,Speed,-2122.500000,2181.818182,Speed,Off,On0.000000,5,,,,
09:09:52.960 AM 03/20/2016,Teleop Enabled,10,TRUE,7,Read from Text File in DoesScriptNumberContainNull.vi->Disabled.vi->Robot Main.vi<APPEND> /home/lvuser/scripts/auto_06.bee,-0.000000,-0.006417,0.000000,0.000000,TRUE,FALSE,FALSE,FALSE,FALSE,FALSE,Disabled,0.000000,0.000000,0.000000,TRUE,0.099945,-0.343582,0.000000,-0.016724,0.085892,0.000000,0.031000,0.007000,0.039000,-2.000000,0.000000,2.360000,32.767473,Hold,0.946777,0.000000,Hold,-232.000000,2.000000,Suck,-2152.500000,2181.818182,Speed,-2122.500000,2181.818182,Speed,Off,On0.000000,5,,,,
09:09:53.060 AM 03/20/2016,Teleop Enabled,9,TRUE,7,Read from Text File in DoesScriptNumberContainNull.vi->Disabled.vi->Robot Main.vi<APPEND> /home/lvuser/scripts/auto_06.bee,-0.000000,-0.006417,0.000000,0.000000,TRUE,FALSE,FALSE,FALSE,FALSE,FALSE,Disabled,0.000000,0.000000,0.000000,TRUE,0.100006,-0.338486,0.000000,0.013550,0.115585,0.000000,0.033000,0.013000,0.032000,-2.000000,0.000000,2.370000,32.782796,Hold,0.946777,0.000000,Hold,-232.000000,2.000000,Suck,-2160.000000,2181.818182,Speed,-2122.500000,2181.818182,Speed,Off,On0.000000,5,,,,
09:09:53.160 AM 03/20/2016,Teleop Enabled,9,TRUE,7,Read from Text File in DoesScriptNumberContainNull.vi->Disabled.vi->Robot Main.vi<APPEND> /home/lvuser/scripts/auto_06.bee,-0.000000,-0.006417,0.000000,0.000000,TRUE,FALSE,FALSE,FALSE,FALSE,FALSE,Disabled,0.000000,0.000000,0.000000,TRUE,0.101974,-0.331940,0.000000,0.054062,0.135254,0.000000,0.002000,0.022000,0.005000,-2.000000,0.070000,2.370000,32.789333,Hold,0.946777,0.000000,Hold,-232.000000,2.000000,Suck,-2137.500000,2181.818182,Speed,-2122.500000,2181.818182,Speed,Off,On0.000000,5,,,,
09:09:53.260 AM 03/20/2016,Teleop Enabled,10,TRUE,7,Read from Text File in DoesScriptNumberContainNull.vi->Disabled.vi->Robot Main.vi<APPEND> /home/lvuser/scripts/auto_06.bee,-0.000000,-0.006417,0.000000,0.000000,TRUE,FALSE,FALSE,FALSE,FALSE,FALSE,Disabled,0.000000,0.000000,0.000000,TRUE,0.105255,-0.325653,0.000000,0.087341,0.112564,0.000000,0.075000,0.037000,0.004000,-2.000000,0.000000,2.320000,32.815696,Hold,0.946777,0.000000,Hold,-232.000000,2.000000,Suck,-2145.000000,2181.818182,Speed,-2122.500000,2181.818182,Speed,Off,On0.000000,5,,,,
09:09:53.360 AM 03/20/2016,Teleop Enabled,11,TRUE,7,Read from Text File in DoesScriptNumberContainNull.vi->Disabled.vi->Robot Main.vi<APPEND> /home/lvuser/scripts/auto_06.bee,-0.000000,-0.006417,0.000000,0.000000,TRUE,FALSE,FALSE,FALSE,FALSE,FALSE,Disabled,0.000000,0.000000,0.000000,TRUE,0.112961,-0.317902,0.000000,0.143127,0.142380,0.000000,-0.005000,0.023000,0.061000,-2.010000,0.060000,2.340000,32.850900,Hold,0.946777,0.000000,Hold,-232.000000,2.000000,Suck,-2152.500000,2181.818182,Speed,-2122.500000,2181.818182,Speed,Off,On0.000000,5,,,,
09:09:53.462 AM 03/20/2016,Teleop Enabled,10,TRUE,7,Read from Text File in DoesScriptNumberContainNull.vi->Disabled.vi->Robot Main.vi<APPEND> /home/lvuser/scripts/auto_06.bee,-0.000000,-0.006417,0.000000,0.000000,TRUE,FALSE,FALSE,FALSE,FALSE,FALSE,Disabled,0.000000,0.000000,0.000000,TRUE,0.117874,-0.311432,0.000000,0.114700,0.166580,0.000000,-0.050000,0.079000,0.072000,-2.010000,0.030000,2.360000,32.857768,Hold,0.946777,0.000000,Hold,-232.000000,2.000000,Suck,-2145.000000,2181.818182,Speed,-2122.500000,2181.818182,Speed,Off,On0.000000,5,,,,
09:09:53.562 AM 03/20/2016,Teleop Enabled,10,TRUE,7,Read from Text File in DoesScriptNumberContainNull.vi->Disabled.vi->Robot Main.vi<APPEND> /home/lvuser/scripts/auto_06.bee,-0.000000,-0.006417,0.000000,0.000000,TRUE,FALSE,FALSE,FALSE,FALSE,FALSE,Disabled,0.000000,0.000000,0.000000,TRUE,0.124420,-0.299866,0.000000,0.101685,0.213913,0.000000,-0.037000,0.072000,0.155000,-2.010000,0.070000,2.330000,32.871669,Hold,0.946777,0.000000,Hold,-232.000000,2.000000,Suck,-2145.000000,2181.818182,Speed,-2122.500000,2181.818182,Speed,Off,On0.000000,5,,,,
09:09:53.662 AM 03/20/2016,Teleop Enabled,10,TRUE,7,Read from Text File in DoesScriptNumberContainNull.vi->Disabled.vi->Robot Main.vi<APPEND> /home/lvuser/scripts/auto_06.bee,-0.000000,-0.006417,0.000000,0.000000,TRUE,FALSE,FALSE,FALSE,FALSE,FALSE,Disabled,0.000000,0.000000,0.000000,TRUE,0.127960,-0.288132,0.000000,0.053436,0.241898,0.000000,-0.049000,0.050000,0.069000,-2.010000,0.040000,2.410000,32.881136,Hold,0.946777,0.000000,Hold,-232.000000,2.000000,Suck,-2160.000000,2181.818182,Speed,-2115.000000,2181.818182,Speed,Off,On0.000000,5,,,,
09:09:53.762 AM 03/20/2016,Teleop Enabled,10,TRUE,7,Read from Text File in DoesScriptNumberContainNull.vi->Disabled.vi->Robot Main.vi<APPEND> /home/lvuser/scripts/auto_06.bee,-0.000000,-0.006417,0.000000,0.000000,TRUE,FALSE,FALSE,FALSE,FALSE,FALSE,Disabled,0.000000,0.000000,0.000000,TRUE,0.130753,-0.277451,0.000000,0.061752,0.179047,0.000000,0.044000,-0.074000,0.047000,-2.010000,0.060000,2.450000,32.885890,Hold,0.946777,0.000000,Hold,-232.000000,2.000000,Suck,-2152.500000,2181.818182,Speed,-2122.500000,2181.818182,Speed,Off,On0.000000,5,,,,
09:09:53.862 AM 03/20/2016,Teleop Enabled,9,TRUE,7,Read from Text File in DoesScriptNumberContainNull.vi->Disabled.vi->Robot Main.vi<APPEND> /home/lvuser/scripts/auto_06.bee,-0.000000,-0.006417,0.000000,0.000000,TRUE,FALSE,FALSE,FALSE,FALSE,FALSE,Disabled,0.000000,0.000000,0.000000,TRUE,0.134659,-0.271225,0.000000,0.076538,0.087448,0.000000,-0.007000,-0.046000,0.017000,-2.010000,0.110000,2.480000,32.908749,Hold,0.946777,0.000000,Hold,-232.000000,2.000000,Suck,-2137.500000,2181.818182,Speed,-2122.500000,2181.818182,Speed,Off,On0.000000,5,,,,
09:09:53.964 AM 03/20/2016,Teleop Enabled,10,TRUE,7,Read from Text File in DoesScriptNumberContainNull.vi->Disabled.vi->Robot Main.vi<APPEND> /home/lvuser/scripts/auto_06.bee,-0.000000,-0.006417,0.000000,0.000000,TRUE,FALSE,FALSE,FALSE,FALSE,FALSE,Disabled,0.000000,0.000000,0.000000,TRUE,0.138153,-0.269547,0.000000,0.071854,-0.011459,0.000000,0.077000,-0.128000,-0.032000,-2.010000,0.090000,2.460000,32.926220,Hold,0.946777,0.000000,Hold,-232.000000,2.000000,Suck,-2145.000000,2181.818182,Speed,-2115.000000,2181.818182,Speed,Off,On0.000000,5,,,,
09:09:54.066 AM 03/20/2016,Teleop Enabled,11,TRUE,7,Read from Text File in DoesScriptNumberContainNull.vi->Disabled.vi->Robot Main.vi<APPEND> /home/lvuser/scripts/auto_06.bee,-0.000000,-0.006417,0.000000,0.000000,TRUE,FALSE,FALSE,FALSE,FALSE,FALSE,Disabled,0.000000,0.000000,0.000000,TRUE,0.143478,-0.272797,0.000000,0.120941,-0.089706,0.000000,0.013000,0.041000,-0.056000,-2.010000,0.130000,2.470000,32.951922,Hold,0.946777,0.000000,Hold,-232.000000,2.000000,Suck,-2152.500000,2181.818182,Speed,-2122.500000,2181.818182,Speed,Off,On0.000000,5,,,,
09:09:54.166 AM 03/20/2016,Teleop Enabled,11,TRUE,7,Read from Text File in DoesScriptNumberContainNull.vi->Disabled.vi->Robot Main.vi<APPEND> /home/lvuser/scripts/auto_06.bee,-0.000000,-0.006417,0.000000,0.000000,TRUE,FALSE,FALSE,FALSE,FALSE,FALSE,Disabled,0.000000,0.000000,0.000000,TRUE,0.149094,-0.274582,0.000000,0.094254,0.007385,0.000000,-0.042000,0.077000,0.098000,-2.010000,0.090000,2.440000,32.966797,Hold,0.946777,0.000000,Hold,-232.000000,2.000000,Suck,-2145.000000,2181.818182,Speed,-2122.500000,2181.818182,Speed,Off,On0.000000,5,,,,
09:09:54.267 AM 03/20/2016,Teleop Enabled,10,TRUE,7,Read from Text File in DoesScriptNumberContainNull.vi->Disabled.vi->Robot Main.vi<APPEND> /home/lvuser/scripts/auto_06.bee,-0.000000,-0.006417,0.000000,0.000000,TRUE,FALSE,FALSE,FALSE,FALSE,FALSE,Disabled,0.000000,0.000000,0.000000,TRUE,0.153198,-0.272614,0.000000,0.082886,0.063812,0.000000,-0.010000,0.048000,0.047000,-2.010000,0.090000,2.450000,32.977527,Hold,0.946777,0.000000,Hold,-232.000000,2.000000,Suck,-2145.000000,2181.818182,Speed,-2122.500000,2181.818182,Speed,Off,On0.000000,5,,,,
09:09:54.368 AM 03/20/2016,Teleop Enabled,11,TRUE,7,Read from Text File in DoesScriptNumberContainNull.vi->Disabled.vi->Robot Main.vi<APPEND> /home/lvuser/scripts/auto_06.bee,-0.000000,-0.006417,0.000000,0.000000,TRUE,FALSE,FALSE,FALSE,FALSE,FALSE,Disabled,0.000000,0.000000,0.000000,TRUE,0.153076,-0.267700,0.000000,-0.011063,0.120010,0.000000,-0.028000,0.110000,0.108000,-2.010000,0.020000,2.440000,32.989318,Hold,0.946777,0.000000,Hold,-232.000000,2.000000,Suck,-2152.500000,2181.818182,Speed,-2122.500000,2181.818182,Speed,Off,On0.000000,5,,,,
09:09:54.467 AM 03/20/2016,Teleop Enabled,11,TRUE,7,Read from Text File in DoesScriptNumberContainNull.vi->Disabled.vi->Robot Main.vi<APPEND> /home/lvuser/scripts/auto_06.bee,-0.000000,-0.006417,0.000000,0.000000,TRUE,FALSE,FALSE,FALSE,FALSE,FALSE,Disabled,0.000000,0.000000,0.000000,TRUE,0.152908,-0.259399,0.000000,0.013443,0.172989,0.000000,0.038000,-0.011000,0.094000,-2.010000,0.110000,2.380000,32.993862,Hold,0.946777,0.000000,Hold,-232.000000,2.000000,Suck,-2145.000000,2181.818182,Speed,-2122.500000,2181.818182,Speed,Off,On0.000000,5,,,,
09:09:54.567 AM 03/20/2016,Teleop Enabled,11,TRUE,7,Read from Text File in DoesScriptNumberContainNull.vi->Disabled.vi->Robot Main.vi<APPEND> /home/lvuser/scripts/auto_06.bee,-0.000000,-0.006417,0.000000,0.000000,TRUE,FALSE,FALSE,FALSE,FALSE,FALSE,Disabled,0.000000,0.000000,0.000000,TRUE,0.153854,-0.253082,0.000000,-0.002426,0.000000,0.000000,-0.039000,0.001000,-0.010000,-2.010000,0.060000,2.400000,33.006886,Hold,0.946777,0.000000,Hold,-232.000000,2.000000,Suck,-2152.500000,2181.818182,Speed,-2122.500000,2181.818182,Speed,Off,On0.000000,5,,,,
09:09:54.668 AM 03/20/2016,Teleop Enabled,9,TRUE,7,Read from Text File in DoesScriptNumberContainNull.vi->Disabled.vi->Robot Main.vi<APPEND> /home/lvuser/scripts/auto_06.bee,-0.000000,-0.006417,0.000000,0.000000,TRUE,FALSE,FALSE,FALSE,FALSE,FALSE,Disabled,0.000000,0.000000,0.000000,TRUE,0.153717,-0.252670,0.000000,0.011536,0.007477,0.000000,0.010000,-0.037000,-0.009000,-2.010000,0.050000,2.460000,32.992892,Hold,0.946777,0.000000,Hold,-232.000000,2.000000,Suck,-2152.500000,2181.818182,Speed,-2122.500000,2181.818182,Speed,Off,On0.000000,5,,,,
09:09:54.768 AM 03/20/2016,Teleop Enabled,9,TRUE,7,Read from Text File in DoesScriptNumberContainNull.vi->Disabled.vi->Robot Main.vi<APPEND> /home/lvuser/scripts/auto_06.bee,-0.000000,-0.006417,0.000000,0.000000,TRUE,FALSE,FALSE,FALSE,FALSE,FALSE,Disabled,0.000000,0.000000,0.000000,TRUE,0.154419,-0.253723,0.000000,0.033127,-0.030884,0.000000,0.096000,0.002000,0.048000,-2.010000,0.020000,2.510000,33.007991,Hold,0.946777,0.000000,Hold,-232.000000,2.000000,Suck,-2145.000000,2181.818182,Speed,-2130.000000,2181.818182,Speed,Off,On0.000000,5,,,,
09:09:54.869 AM 03/20/2016,Teleop Enabled,9,TRUE,7,Read from Text File in DoesScriptNumberContainNull.vi->Disabled.vi->Robot Main.vi<APPEND> /home/lvuser/scripts/auto_06.bee,-0.000000,-0.006417,0.000000,0.000000,TRUE,FALSE,FALSE,FALSE,FALSE,FALSE,Disabled,0.000000,0.000000,0.000000,TRUE,0.157532,-0.256607,0.000000,0.067429,-0.083984,0.000000,-0.039000,-0.008000,-0.047000,-2.010000,0.060000,2.440000,33.027383,Hold,0.946777,0.000000,Hold,-232.000000,2.000000,Suck,-2145.000000,2181.818182,Speed,-2122.500000,2181.818182,Speed,Off,On0.000000,5,,,,
09:09:54.969 AM 03/20/2016,Teleop Enabled,10,TRUE,7,Read from Text File in DoesScriptNumberContainNull.vi->Disabled.vi->Robot Main.vi<APPEND> /home/lvuser/scripts/auto_06.bee,-0.000000,-0.006417,0.000000,0.000000,TRUE,FALSE,FALSE,FALSE,FALSE,FALSE,Disabled,0.000000,0.000000,0.000000,TRUE,0.159256,-0.257126,0.000000,0.005905,0.014587,0.000000,-0.040000,0.000000,0.049000,-2.010000,0.020000,2.460000,33.049883,Hold,0.946777,0.000000,Hold,-232.000000,2.000000,Suck,-2145.000000,2181.818182,Speed,-2122.500000,2181.818182,Speed,Off,On0.000000,5,,,,
