Time,Robot Mode,Loop Time,Error Status,Error Code,Error Source,Left Motor Output,Left Motor Encoder,Right Motor Output,Right Motor Encoder,Is Level,Is Stalled,Ball Detector Photoeye,Vision Enabled,Vision Teleop Control,Vision Auto Control,Vision Current State,Vision X Output,Vision NavX Error,Vision NavX Target,NavX Connection Status,NavX Displacement X,NavX Displacement Y,NavX Displacement Z,NavX Velocity X,NavX Velocity Y,NavX Velocity Z,NavX Acceleration X,NavX Acceleration Y,NavX Acceleration Z,NavX Pitch,NavX Yaw,NavX Roll,Gyro Angle,Roller Arm State,Roller Arm Actual,Roller Arm Desired,Shooter Arm State,Shooter Arm Actual,Shooter Arm Desired,Shooter State,Actual RPM Left,Desired RPM Left,Control Mode Left,Actual RPM Right,Desired RPM Right,Scaler Motor Output,Auto To Run,Auto Current File,Auto File Status,Auto Current Command,Auto Trimmed Command
02:18:32.300 PM 03/19/2016,Teleop Enabled,11,FALSE,0,NO ERROR,-0.000000,0.000000,0.000000,0.000000,TRUE,FALSE,FALSE,FALSE,FALSE,FALSE,Disabled,0.000000,0.000000,0.000000,TRUE,-0.371002,1.701767,0.000000,0.000000,0.000000,0.000000,-0.001000,0.002000,0.020000,0.000000,0.290000,2.450000,-0.006679,ResetBack,0.908936,-0.200000,ResetBack,-13914.000000,-0.300000,Empty,0.000000,0.000000,Speed,0.000000,0.000000,Speed,On,On0.000000,0,,,,
02:18:32.400 PM 03/19/2016,Teleop Enabled,11,FALSE,0,NO ERROR,-0.000000,-0.006417,0.000000,-0.032083,TRUE,FALSE,FALSE,FALSE,FALSE,FALSE,Disabled,0.000000,0.000000,0.000000,TRUE,-0.371429,1.702087,0.000000,-0.008774,0.023193,0.000000,-0.004000,0.069000,0.090000,0.000000,0.360000,2.470000,-0.036911,ResetBack,0.036377,-0.200000,ResetBack,-13914.000000,-0.300000,Empty,0.000000,0.000000,Speed,0.000000,0.000000,Speed,On,On0.000000,0,,,,
02:18:32.501 PM 03/19/2016,Teleop Enabled,9,FALSE,0,NO ERROR,-0.000000,-0.019250,0.000000,-0.032083,TRUE,FALSE,FALSE,FALSE,FALSE,FALSE,Disabled,0.000000,0.000000,0.000000,TRUE,-0.371429,1.702087,0.000000,-0.008774,0.023193,0.000000,0.011000,0.000000,0.006000,0.000000,0.360000,2.470000,-0.041607,ResetBack,-0.182129,-0.200000,ResetBack,-6858.000000,-0.300000,Empty,0.000000,0.000000,Speed,0.000000,0.000000,Speed,On,On0.000000,0,,,,
02:18:32.601 PM 03/19/2016,Teleop Enabled,10,FALSE,0,NO ERROR,-0.000000,-0.019250,0.000000,-0.032083,TRUE,FALSE,FALSE,FALSE,FALSE,FALSE,Disabled,0.000000,0.000000,0.000000,TRUE,-0.371582,1.703812,0.000000,-0.006149,0.036499,0.000000,-0.017000,-0.014000,0.007000,-0.010000,0.330000,2.450000,-0.052595,ResetBack,-0.182129,-0.200000,ResetBack,-1408.000000,-0.300000,Empty,0.000000,0.000000,Speed,0.000000,0.000000,Speed,On,On0.000000,0,,,,
02:18:32.701 PM 03/19/2016,Teleop Enabled,11,FALSE,0,NO ERROR,-0.000000,-0.019250,0.000000,-0.032083,TRUE,FALSE,FALSE,FALSE,FALSE,FALSE,Disabled,0.000000,0.000000,0.000000,TRUE,-0.371582,1.703812,0.000000,0.000000,0.000000,0.000000,-0.008000,0.031000,0.027000,-0.020000,0.330000,2.430000,-0.057721,Reset,-0.182129,0.000000,ResetBack,-24.000000,-0.300000,Empty,0.000000,0.000000,Speed,0.000000,0.000000,Speed,On,On0.000000,0,,,,
02:18:32.801 PM 03/19/2016,Teleop Enabled,10,FALSE,0,NO ERROR,-0.000000,-0.019250,0.000000,-0.032083,TRUE,FALSE,FALSE,FALSE,FALSE,FALSE,Disabled,0.000000,0.000000,0.000000,TRUE,-0.371582,1.704010,0.000000,0.000000,0.000000,0.000000,0.004000,0.001000,0.015000,-0.030000,0.310000,2.450000,-0.067870,Hold,1.181641,0.000000,ResetBack,298.000000,-0.300000,Empty,0.000000,0.000000,Speed,0.000000,0.000000,Speed,On,On0.000000,0,,,,
02:18:32.901 PM 03/19/2016,Teleop Enabled,9,FALSE,0,NO ERROR,-0.000000,-0.019250,0.000000,-0.032083,TRUE,FALSE,FALSE,FALSE,FALSE,FALSE,Disabled,0.000000,0.000000,0.000000,TRUE,-0.371582,1.704010,0.000000,0.000000,0.000000,0.000000,0.002000,0.005000,0.037000,-0.030000,0.310000,2.450000,-0.080449,Hold,0.899658,0.000000,ResetBack,381.000000,-0.300000,Empty,0.000000,0.000000,Speed,0.000000,0.000000,Speed,On,On0.000000,0,,,,
02:18:33.002 PM 03/19/2016,Teleop Enabled,11,FALSE,0,NO ERROR,-0.000000,-0.019250,0.000000,-0.032083,TRUE,FALSE,FALSE,FALSE,FALSE,FALSE,Disabled,0.000000,0.000000,0.000000,TRUE,-0.371582,1.703918,0.000000,0.000000,0.000000,0.000000,-0.007000,-0.006000,0.025000,-0.020000,0.310000,2.470000,-0.069691,Hold,0.899658,0.000000,ResetBack,381.000000,-0.300000,Empty,0.000000,0.000000,Speed,0.000000,0.000000,Speed,On,On0.000000,0,,,,
02:18:33.103 PM 03/19/2016,Teleop Enabled,8,FALSE,0,NO ERROR,-0.000000,-0.019250,0.000000,-0.032083,TRUE,FALSE,FALSE,FALSE,FALSE,FALSE,Disabled,0.000000,0.000000,0.000000,TRUE,-0.371582,1.703751,0.000000,0.000000,0.000000,0.000000,0.002000,-0.006000,0.024000,-0.020000,0.310000,2.460000,-0.073292,Hold,0.899658,0.000000,ResetBack,595.000000,-0.300000,Empty,0.000000,0.000000,Speed,0.000000,0.000000,Speed,On,On0.000000,0,,,,
02:18:33.203 PM 03/19/2016,Teleop Enabled,12,FALSE,0,NO ERROR,-0.000000,-0.019250,0.000000,-0.032083,TRUE,FALSE,FALSE,FALSE,FALSE,FALSE,Disabled,0.000000,0.000000,0.000000,TRUE,-0.371582,1.703751,0.000000,0.000000,0.000000,0.000000,-0.003000,0.008000,0.016000,-0.020000,0.310000,2.430000,-0.081079,Hold,0.899658,0.000000,ResetBack,597.000000,-0.300000,Empty,0.000000,0.000000,Speed,0.000000,0.000000,Speed,On,On0.000000,0,,,,
02:18:33.303 PM 03/19/2016,Teleop Enabled,10,FALSE,0,NO ERROR,-0.000000,-0.019250,0.000000,-0.032083,TRUE,FALSE,FALSE,FALSE,FALSE,FALSE,Disabled,0.000000,0.000000,0.000000,TRUE,-0.371582,1.703751,0.000000,0.000000,0.000000,0.000000,-0.003000,0.009000,0.027000,-0.020000,0.310000,2.430000,-0.084053,Hold,0.899658,0.000000,ResetBack,627.000000,-0.300000,Empty,0.000000,0.000000,Speed,0.000000,0.000000,Speed,On,On0.000000,0,,,,
02:18:33.403 PM 03/19/2016,Teleop Enabled,10,FALSE,0,NO ERROR,-0.000000,-0.019250,0.000000,-0.032083,TRUE,FALSE,FALSE,FALSE,FALSE,FALSE,Disabled,0.000000,0.000000,0.000000,TRUE,-0.371582,1.703751,0.000000,0.000000,0.000000,0.000000,-0.001000,0.002000,0.025000,-0.020000,0.310000,2.430000,-0.069168,Hold,0.899658,0.000000,ResetBack,627.000000,-0.300000,Suck,0.000000,2181.818182,Speed,0.000000,2181.818182,Speed,On,On0.000000,0,,,,
02:18:33.502 PM 03/19/2016,Teleop Enabled,10,FALSE,0,NO ERROR,-0.000000,-0.019250,0.000000,-0.032083,TRUE,FALSE,FALSE,FALSE,FALSE,FALSE,Disabled,0.000000,0.000000,0.000000,TRUE,-0.371582,1.703751,0.000000,0.000000,0.000000,0.000000,-0.001000,-0.001000,0.015000,-0.020000,0.310000,2.430000,-0.067746,Hold,0.899658,0.000000,ResetBack,610.000000,-0.300000,Suck,-97.500000,2181.818182,Speed,-97.500000,2181.818182,Speed,On,On0.000000,0,,,,
02:18:33.603 PM 03/19/2016,Teleop Enabled,10,FALSE,0,NO ERROR,-0.000000,-0.019250,0.000000,-0.032083,TRUE,FALSE,FALSE,FALSE,FALSE,FALSE,Disabled,0.000000,0.000000,0.000000,TRUE,-0.371628,1.703491,0.000000,0.004242,-0.011749,0.000000,-0.030000,0.030000,0.029000,-0.030000,0.320000,2.400000,-0.073061,Hold,0.899658,0.000000,Reset,0.000000,2.000000,Suck,-757.500000,2181.818182,Speed,-787.500000,2181.818182,Speed,On,On0.000000,0,,,,
02:18:33.704 PM 03/19/2016,Teleop Enabled,12,FALSE,0,NO ERROR,-0.000000,-0.019250,0.000000,-0.032083,TRUE,FALSE,FALSE,FALSE,FALSE,FALSE,Disabled,0.000000,0.000000,0.000000,TRUE,-0.371552,1.702988,0.000000,-0.002396,-0.019730,0.000000,0.001000,-0.094000,0.066000,-0.030000,0.330000,2.390000,-0.078938,Hold,0.899658,0.000000,Hold,0.000000,2.000000,Suck,-1440.000000,2181.818182,Speed,-1470.000000,2181.818182,Speed,On,On0.000000,0,,,,
02:18:33.804 PM 03/19/2016,Teleop Enabled,10,FALSE,0,NO ERROR,-0.000000,-0.025667,0.000000,-0.032083,TRUE,FALSE,FALSE,FALSE,FALSE,FALSE,Disabled,0.000000,0.000000,0.000000,TRUE,-0.371338,1.701523,0.000000,0.009308,-0.041519,0.000000,0.012000,0.056000,-0.040000,-0.030000,0.360000,2.330000,-0.080559,Hold,0.899658,0.000000,Hold,-320.000000,2.000000,Suck,-1867.500000,2181.818182,Speed,-2017.500000,2181.818182,Speed,On,On0.000000,0,,,,
02:18:33.905 PM 03/19/2016,Teleop Enabled,14,FALSE,0,NO ERROR,-0.000000,-0.025667,0.000000,-0.032083,TRUE,FALSE,FALSE,FALSE,FALSE,FALSE,Disabled,0.000000,0.000000,0.000000,TRUE,-0.371704,1.700180,0.000000,-0.023941,-0.000839,0.000000,0.066000,-0.042000,0.065000,-0.020000,0.310000,2.360000,-0.087572,Hold,0.899658,0.000000,Hold,-293.000000,2.000000,Suck,-2227.500000,2181.818182,Speed,-2242.500000,2181.818182,Speed,On,On0.000000,0,,,,
02:18:34.006 PM 03/19/2016,Teleop Enabled,10,FALSE,0,NO ERROR,-0.000000,-0.025667,0.000000,-0.038500,TRUE,FALSE,FALSE,FALSE,FALSE,FALSE,Disabled,0.000000,0.000000,0.000000,TRUE,-0.371353,1.697754,0.000000,0.036682,-0.091278,0.000000,0.081000,-0.060000,-0.015000,-0.030000,0.330000,2.350000,-0.095259,Hold,0.899658,0.000000,Hold,-289.000000,2.000000,Suck,-2182.500000,2181.818182,Speed,-2167.500000,2181.818182,Speed,On,On0.000000,0,,,,
02:18:34.106 PM 03/19/2016,Teleop Enabled,11,FALSE,0,NO ERROR,-0.000000,-0.025667,0.000000,-0.038500,TRUE,FALSE,FALSE,FALSE,FALSE,FALSE,Disabled,0.000000,0.000000,0.000000,TRUE,-0.368210,1.691025,0.000000,0.058990,-0.150116,0.000000,-0.058000,0.026000,0.006000,-0.030000,0.370000,2.320000,-0.120734,Hold,0.899658,0.000000,Hold,-287.000000,2.000000,Suck,-2062.500000,2181.818182,Speed,-2077.500000,2181.818182,Speed,On,On0.000000,0,,,,
02:18:34.207 PM 03/19/2016,Teleop Enabled,9,FALSE,0,NO ERROR,-0.000000,-0.025667,0.000000,-0.038500,TRUE,FALSE,FALSE,FALSE,FALSE,FALSE,Disabled,0.000000,0.000000,0.000000,TRUE,-0.366165,1.684235,0.000000,0.038727,-0.126877,0.000000,0.070000,0.055000,0.047000,-0.030000,0.370000,2.340000,-0.120734,Hold,0.899658,0.000000,Hold,-286.000000,2.000000,Suck,-2085.000000,2181.818182,Speed,-2100.000000,2181.818182,Speed,On,On0.000000,0,,,,
02:18:34.307 PM 03/19/2016,Teleop Enabled,12,FALSE,0,NO ERROR,-0.000000,-0.025667,0.000000,-0.038500,TRUE,FALSE,FALSE,FALSE,FALSE,FALSE,Disabled,0.000000,0.000000,0.000000,TRUE,-0.362442,1.678986,0.000000,0.094650,-0.090302,0.000000,0.035000,0.045000,0.104000,-0.030000,0.410000,2.360000,-0.115667,Hold,0.899658,0.000000,Hold,-286.000000,2.000000,Suck,-2122.500000,2181.818182,Speed,-2130.000000,2181.818182,Speed,On,On0.000000,0,,,,
02:18:34.407 PM 03/19/2016,Teleop Enabled,11,FALSE,0,NO ERROR,-0.000000,-0.025667,0.000000,-0.038500,TRUE,FALSE,FALSE,FALSE,FALSE,FALSE,Disabled,0.000000,0.000000,0.000000,TRUE,-0.356598,1.672104,0.000000,0.057831,0.000000,0.000000,-0.043000,0.005000,0.017000,-0.030000,0.360000,2.390000,-0.115667,Hold,0.899658,0.000000,Hold,-285.000000,2.000000,Suck,-2122.500000,2181.818182,Speed,-2122.500000,2181.818182,Speed,On,On0.000000,0,,,,
02:18:34.507 PM 03/19/2016,Teleop Enabled,10,FALSE,0,NO ERROR,-0.000000,-0.025667,0.000000,-0.038500,TRUE,FALSE,FALSE,FALSE,FALSE,FALSE,Disabled,0.000000,0.000000,0.000000,TRUE,-0.354858,1.671616,0.000000,0.064728,-0.023956,0.000000,0.026000,-0.034000,-0.004000,-0.030000,0.400000,2.380000,-0.123333,Hold,0.899658,0.000000,Hold,-284.000000,2.000000,Suck,-2107.500000,2181.818182,Speed,-2107.500000,2181.818182,Speed,On,On0.000000,0,,,,
02:18:34.607 PM 03/19/2016,Teleop Enabled,10,FALSE,0,NO ERROR,-0.000000,-0.025667,0.000000,-0.038500,TRUE,FALSE,FALSE,FALSE,FALSE,FALSE,Disabled,0.000000,0.000000,0.000000,TRUE,-0.353989,1.670120,0.000000,0.011429,-0.035019,0.000000,0.144000,-0.002000,-0.004000,-0.030000,0.330000,2.430000,-0.132955,Hold,0.899658,0.000000,Hold,-281.000000,2.000000,Suck,-2107.500000,2181.818182,Speed,-2115.000000,2181.818182,Speed,On,On0.000000,0,,,,
02:18:34.707 PM 03/19/2016,Teleop Enabled,15,FALSE,0,NO ERROR,-0.000000,-0.025667,0.000000,-0.038500,TRUE,FALSE,FALSE,FALSE,FALSE,FALSE,Disabled,0.000000,0.000000,0.000000,TRUE,-0.351608,1.667496,0.000000,0.044144,0.000000,0.000000,-0.136000,0.052000,0.023000,-0.030000,0.380000,2.440000,-0.142653,Hold,0.899658,0.000000,Hold,-281.000000,2.000000,Suck,-2115.000000,2181.818182,Speed,-2115.000000,2181.818182,Speed,On,On0.000000,0,,,,
02:18:34.807 PM 03/19/2016,Teleop Enabled,11,FALSE,0,NO ERROR,-0.000000,-0.025667,0.000000,-0.038500,TRUE,FALSE,FALSE,FALSE,FALSE,FALSE,Disabled,0.000000,0.000000,0.000000,TRUE,-0.351608,1.667496,0.000000,0.044144,0.000000,0.000000,-0.136000,0.052000,0.023000,-0.030000,0.360000,2.430000,-0.147307,Hold,0.899658,0.000000,Hold,-281.000000,2.000000,Suck,-2115.000000,2181.818182,Speed,-2115.000000,2181.818182,Speed,On,On0.000000,0,,,,
02:18:34.909 PM 03/19/2016,Teleop Enabled,11,FALSE,0,NO ERROR,-0.000000,-0.025667,0.000000,-0.038500,TRUE,FALSE,FALSE,FALSE,FALSE,FALSE,Disabled,0.000000,0.000000,0.000000,TRUE,-0.351135,1.671341,0.000000,0.013092,0.000000,0.000000,-0.015000,0.024000,0.022000,-0.020000,0.300000,2.440000,-0.152233,Hold,0.899658,0.000000,Hold,-280.000000,2.000000,Suck,-2107.500000,2181.818182,Speed,-2115.000000,2181.818182,Speed,On,On0.000000,0,,,,
02:18:35.009 PM 03/19/2016,Teleop Enabled,10,FALSE,0,NO ERROR,-0.000000,-0.025667,0.000000,-0.038500,TRUE,FALSE,FALSE,FALSE,FALSE,FALSE,Disabled,0.000000,0.000000,0.000000,TRUE,-0.350235,1.672043,0.000000,0.019958,0.032303,0.000000,0.029000,-0.004000,0.067000,-0.030000,0.330000,2.420000,-0.155469,Hold,0.899658,0.000000,Hold,-280.000000,2.000000,Suck,-2115.000000,2181.818182,Speed,-2115.000000,2181.818182,Speed,On,On0.000000,0,,,,
02:18:35.109 PM 03/19/2016,Teleop Enabled,9,FALSE,0,NO ERROR,-0.000000,-0.025667,0.000000,-0.038500,TRUE,FALSE,FALSE,FALSE,FALSE,FALSE,Disabled,0.000000,0.000000,0.000000,TRUE,-0.349670,1.672592,0.000000,-0.003235,-0.010071,0.000000,0.020000,0.001000,0.078000,-0.030000,0.320000,2.410000,-0.147978,Hold,0.899658,0.000000,Hold,-280.000000,2.000000,Suck,-2115.000000,2181.818182,Speed,-2115.000000,2181.818182,Speed,On,On0.000000,0,,,,
02:18:35.210 PM 03/19/2016,Teleop Enabled,10,FALSE,0,NO ERROR,-0.000000,-0.025667,0.000000,-0.038500,TRUE,FALSE,FALSE,FALSE,FALSE,FALSE,Disabled,0.000000,0.000000,0.000000,TRUE,-0.349045,1.671982,0.000000,0.023499,-0.034546,0.000000,-0.032000,-0.068000,-0.099000,-0.030000,0.310000,2.410000,-0.153049,Hold,0.899658,0.000000,Hold,-280.000000,2.000000,Suck,-2115.000000,2181.818182,Speed,-2115.000000,2181.818182,Speed,On,On0.000000,0,,,,
02:18:35.311 PM 03/19/2016,Teleop Enabled,10,FALSE,0,NO ERROR,-0.000000,-0.025667,0.000000,-0.038500,TRUE,FALSE,FALSE,FALSE,FALSE,FALSE,Disabled,0.000000,0.000000,0.000000,TRUE,-0.348145,1.670395,0.000000,0.029312,-0.035919,0.000000,0.031000,-0.036000,-0.030000,-0.030000,0.320000,2.400000,-0.156337,Hold,0.899658,0.000000,Hold,-280.000000,2.000000,Suck,-2115.000000,2181.818182,Speed,-2115.000000,2181.818182,Speed,On,On0.000000,0,,,,
02:18:35.412 PM 03/19/2016,Teleop Enabled,11,FALSE,0,NO ERROR,-0.000000,-0.025667,0.000000,-0.038500,TRUE,FALSE,FALSE,FALSE,FALSE,FALSE,Disabled,0.000000,0.000000,0.000000,TRUE,-0.346390,1.666763,0.000000,0.013519,-0.061096,0.000000,-0.028000,0.112000,0.050000,-0.020000,0.280000,2.390000,-0.154791,Hold,0.899658,0.000000,Hold,-280.000000,2.000000,Suck,-2115.000000,2181.818182,Speed,-2115.000000,2181.818182,Speed,On,On0.000000,0,,,,
02:18:35.513 PM 03/19/2016,Teleop Enabled,12,FALSE,0,NO ERROR,-0.000000,-0.025667,0.000000,-0.038500,TRUE,FALSE,FALSE,FALSE,FALSE,FALSE,Disabled,0.000000,0.000000,0.000000,TRUE,-0.346481,1.665329,0.000000,0.000000,-0.018066,0.000000,-0.031000,0.054000,0.051000,-0.020000,0.310000,2.360000,-0.169615,Hold,0.899658,0.000000,Hold,-280.000000,2.000000,Suck,-2115.000000,2181.818182,Speed,-2115.000000,2181.818182,Speed,On,On0.000000,0,,,,
02:18:35.613 PM 03/19/2016,Teleop Enabled,10,FALSE,0,NO ERROR,-0.000000,-0.025667,0.000000,-0.038500,TRUE,FALSE,FALSE,FALSE,FALSE,FALSE,Disabled,0.000000,0.000000,0.000000,TRUE,-0.347214,1.666031,0.000000,-0.016205,0.000000,0.000000,0.014000,0.003000,0.039000,-0.020000,0.230000,2.340000,-0.171243,Hold,0.899658,0.000000,Hold,-280.000000,2.000000,Suck,-2122.500000,2181.818182,Speed,-2115.000000,2181.818182,Speed,On,On0.000000,0,,,,
02:18:35.713 PM 03/19/2016,Teleop Enabled,10,FALSE,0,NO ERROR,-0.000000,-0.025667,0.000000,-0.038500,TRUE,FALSE,FALSE,FALSE,FALSE,FALSE,Disabled,0.000000,0.000000,0.000000,TRUE,-0.347427,1.667114,0.000000,-0.009216,0.045135,0.000000,-0.023000,-0.008000,0.017000,-0.030000,0.270000,2.360000,-0.188170,Hold,0.899658,0.000000,Hold,-280.000000,2.000000,Suck,-2115.000000,2181.818182,Speed,-2122.500000,2181.818182,Speed,On,On0.000000,0,,,,
02:18:35.813 PM 03/19/2016,Teleop Enabled,9,FALSE,0,NO ERROR,-0.000000,-0.025667,0.000000,-0.038500,TRUE,FALSE,FALSE,FALSE,FALSE,FALSE,Disabled,0.000000,0.000000,0.000000,TRUE,-0.348907,1.667892,0.000000,-0.042648,-0.000229,0.000000,0.000000,-0.045000,-0.005000,-0.020000,0.240000,2.370000,-0.184538,Hold,0.899658,0.000000,Hold,-280.000000,2.000000,Suck,-2107.500000,2181.818182,Speed,-2122.500000,2181.818182,Speed,On,On0.000000,0,,,,
02:18:35.913 PM 03/19/2016,Teleop Enabled,9,FALSE,0,NO ERROR,-0.000000,-0.025667,0.000000,-0.038500,TRUE,FALSE,FALSE,FALSE,FALSE,FALSE,Disabled,0.000000,0.000000,0.000000,TRUE,-0.350311,1.667633,0.000000,-0.018997,-0.025116,0.000000,-0.028000,-0.041000,-0.080000,-0.020000,0.260000,2.400000,-0.186494,Hold,0.899658,0.000000,Hold,-280.000000,2.000000,Suck,-2115.000000,2181.818182,Speed,-2115.000000,2181.818182,Speed,On,On0.000000,0,,,,
02:18:36.013 PM 03/19/2016,Teleop Enabled,11,FALSE,0,NO ERROR,-0.000000,-0.025667,0.000000,-0.038500,TRUE,FALSE,FALSE,FALSE,FALSE,FALSE,Disabled,0.000000,0.000000,0.000000,TRUE,-0.351532,1.665573,0.000000,0.000000,-0.032516,0.000000,-0.004000,-0.042000,-0.015000,-0.020000,0.270000,2.440000,-0.204736,Hold,0.899658,0.000000,Hold,-278.000000,2.000000,Suck,-2115.000000,2181.818182,Speed,-2115.000000,2181.818182,Speed,On,On0.000000,0,,,,
02:18:36.113 PM 03/19/2016,Teleop Enabled,9,FALSE,0,NO ERROR,-0.000000,-0.025667,0.000000,-0.038500,TRUE,FALSE,FALSE,FALSE,FALSE,FALSE,Disabled,0.000000,0.000000,0.000000,TRUE,-0.351898,1.663116,0.000000,-0.024796,-0.021042,0.000000,-0.089000,0.039000,0.053000,-0.020000,0.240000,2.420000,-0.213449,Hold,0.899658,0.000000,Hold,-278.000000,2.000000,Suck,-2107.500000,2181.818182,Speed,-2115.000000,2181.818182,Speed,On,On0.000000,0,,,,
02:18:36.213 PM 03/19/2016,Teleop Enabled,10,FALSE,0,NO ERROR,-0.000000,-0.025667,0.000000,-0.038500,TRUE,FALSE,FALSE,FALSE,FALSE,FALSE,Disabled,0.000000,0.000000,0.000000,TRUE,-0.354477,1.663223,0.000000,-0.048477,0.008469,0.000000,0.015000,0.018000,0.062000,-0.020000,0.300000,2.430000,-0.218007,Hold,0.899658,0.000000,Hold,-278.000000,2.000000,Suck,-2107.500000,2181.818182,Speed,-2115.000000,2181.818182,Speed,On,On0.000000,0,,,,
02:18:36.313 PM 03/19/2016,Teleop Enabled,9,FALSE,0,NO ERROR,-0.000000,-0.025667,0.000000,-0.038500,TRUE,FALSE,FALSE,FALSE,FALSE,FALSE,Disabled,0.000000,0.000000,0.000000,TRUE,-0.357010,1.665039,0.000000,-0.073471,0.061569,0.000000,-0.003000,0.033000,0.056000,-0.020000,0.260000,2.410000,-0.227002,Hold,0.899658,0.000000,Hold,-278.000000,2.000000,Suck,-2115.000000,2181.818182,Speed,-2122.500000,2181.818182,Speed,On,On0.000000,0,,,,
02:18:36.413 PM 03/19/2016,Teleop Enabled,11,FALSE,0,NO ERROR,-0.000000,-0.025667,0.000000,-0.038500,TRUE,FALSE,FALSE,FALSE,FALSE,FALSE,Disabled,0.000000,0.000000,0.000000,TRUE,-0.360489,1.669937,0.000000,-0.060593,0.092270,0.000000,-0.019000,-0.019000,0.029000,-0.020000,0.260000,2.390000,-0.227281,Hold,0.899658,0.000000,Hold,-278.000000,2.000000,Suck,-2115.000000,2181.818182,Speed,-2115.000000,2181.818182,Speed,On,On0.000000,0,,,,
02:18:36.513 PM 03/19/2016,Teleop Enabled,10,FALSE,0,NO ERROR,-0.000000,-0.025667,0.000000,-0.038500,TRUE,FALSE,FALSE,FALSE,FALSE,FALSE,Disabled,0.000000,0.000000,0.000000,TRUE,-0.364227,1.673218,0.000000,-0.072464,0.046219,0.000000,0.010000,0.019000,0.015000,-0.020000,0.290000,2.390000,-0.224055,Hold,0.899658,0.000000,Hold,-278.000000,2.000000,Suck,-2107.500000,2181.818182,Speed,-2115.000000,2181.818182,Speed,On,On0.000000,0,,,,
02:18:36.613 PM 03/19/2016,Teleop Enabled,10,FALSE,0,NO ERROR,-0.000000,-0.025667,0.000000,-0.038500,TRUE,FALSE,FALSE,FALSE,FALSE,FALSE,Disabled,0.000000,0.000000,0.000000,TRUE,-0.364899,1.675110,0.000000,-0.003677,0.021408,0.000000,-0.029000,-0.025000,-0.048000,-0.020000,0.230000,2.370000,-0.236559,Hold,0.899658,0.000000,Hold,-278.000000,2.000000,Suck,-2107.500000,2181.818182,Speed,-2115.000000,2181.818182,Speed,On,On0.000000,0,,,,
02:18:36.713 PM 03/19/2016,Teleop Enabled,10,FALSE,0,NO ERROR,-0.000000,-0.025667,0.000000,-0.038500,TRUE,FALSE,FALSE,FALSE,FALSE,FALSE,Disabled,0.000000,0.000000,0.000000,TRUE,-0.365158,1.676910,0.000000,-0.005234,0.043579,0.000000,0.081000,-0.030000,-0.030000,-0.020000,0.280000,2.410000,-0.244608,Hold,0.899658,0.000000,Hold,-277.000000,2.000000,Suck,-2115.000000,2181.818182,Speed,-2115.000000,2181.818182,Speed,On,On0.000000,0,,,,
02:18:36.813 PM 03/19/2016,Teleop Enabled,10,FALSE,0,NO ERROR,-0.000000,-0.025667,0.000000,-0.038500,TRUE,FALSE,FALSE,FALSE,FALSE,FALSE,Disabled,0.000000,0.000000,0.000000,TRUE,-0.365585,1.680222,0.000000,-0.026764,0.080841,0.000000,-0.025000,0.074000,0.123000,-0.010000,0.260000,2.390000,-0.241630,Hold,0.899658,0.000000,Hold,-277.000000,2.000000,Suck,-2115.000000,2181.818182,Speed,-2115.000000,2181.818182,Speed,On,On0.000000,0,,,,
02:18:36.913 PM 03/19/2016,Teleop Enabled,10,FALSE,0,NO ERROR,-0.000000,-0.025667,0.000000,-0.038500,TRUE,FALSE,FALSE,FALSE,FALSE,FALSE,Disabled,0.000000,0.000000,0.000000,TRUE,-0.366592,1.685455,0.000000,0.000000,0.114075,0.000000,-0.006000,0.034000,0.096000,-0.010000,0.270000,2.400000,-0.241179,Hold,0.899658,0.000000,Hold,-276.000000,2.000000,Suck,-2115.000000,2181.818182,Speed,-2115.000000,2181.818182,Speed,On,On0.000000,0,,,,
02:18:37.014 PM 03/19/2016,Teleop Enabled,10,FALSE,0,NO ERROR,-0.000000,-0.025667,0.000000,-0.038500,TRUE,FALSE,FALSE,FALSE,FALSE,FALSE,Disabled,0.000000,0.000000,0.000000,TRUE,-0.366501,1.691147,0.000000,0.006348,0.163757,0.000000,0.014000,0.062000,0.062000,-0.010000,0.280000,2.420000,-0.249764,Hold,0.899658,0.000000,Hold,-274.000000,2.000000,Suck,-2122.500000,2181.818182,Speed,-2115.000000,2181.818182,Speed,On,On0.000000,0,,,,
02:18:37.114 PM 03/19/2016,Teleop Enabled,9,FALSE,0,NO ERROR,-0.000000,-0.025667,0.000000,-0.038500,TRUE,FALSE,FALSE,FALSE,FALSE,FALSE,Disabled,0.000000,0.000000,0.000000,TRUE,-0.366425,1.694382,0.000000,-0.011826,-0.007782,0.000000,-0.067000,-0.007000,-0.019000,-0.010000,0.290000,2.450000,-0.241816,Hold,0.899658,0.000000,Hold,-274.000000,2.000000,Suck,-2122.500000,2181.818182,Speed,-2122.500000,2181.818182,Speed,On,On0.000000,0,,,,
02:18:37.214 PM 03/19/2016,Teleop Enabled,10,FALSE,0,NO ERROR,-0.000000,-0.025667,0.000000,-0.038500,TRUE,FALSE,FALSE,FALSE,FALSE,FALSE,Disabled,0.000000,0.000000,0.000000,TRUE,-0.367004,1.692886,0.000000,0.004639,-0.042358,0.000000,-0.014000,-0.017000,0.059000,-0.020000,0.320000,2.490000,-0.233282,Hold,0.899658,0.000000,Hold,-274.000000,2.000000,Suck,-2115.000000,2181.818182,Speed,-2115.000000,2181.818182,Speed,On,On0.000000,0,,,,
02:18:37.317 PM 03/19/2016,Teleop Enabled,10,FALSE,0,NO ERROR,-0.000000,-0.025667,0.000000,-0.038500,TRUE,FALSE,FALSE,FALSE,FALSE,FALSE,Disabled,0.000000,0.000000,0.000000,TRUE,-0.367157,1.689804,0.000000,0.002014,-0.075287,0.000000,-0.014000,-0.017000,0.059000,-0.020000,0.320000,2.490000,-0.213205,Hold,0.899658,0.000000,Hold,-274.000000,2.000000,Suck,-2115.000000,2181.818182,Speed,-2107.500000,2181.818182,Speed,On,On0.000000,0,,,,
02:18:37.418 PM 03/19/2016,Teleop Enabled,10,FALSE,0,NO ERROR,-0.000000,-0.025667,0.000000,-0.038500,TRUE,FALSE,FALSE,FALSE,FALSE,FALSE,Disabled,0.000000,0.000000,0.000000,TRUE,-0.366760,1.688446,0.000000,0.010315,0.000000,0.000000,-0.030000,0.038000,0.063000,-0.010000,0.250000,2.450000,-0.193716,Hold,0.899658,0.000000,Hold,-273.000000,2.000000,Suck,-2115.000000,2181.818182,Speed,-2115.000000,2181.818182,Speed,On,On0.000000,0,,,,
02:18:37.518 PM 03/19/2016,Teleop Enabled,10,FALSE,0,NO ERROR,-0.000000,-0.025667,0.000000,-0.038500,TRUE,FALSE,FALSE,FALSE,FALSE,FALSE,Disabled,0.000000,0.000000,0.000000,TRUE,-0.366760,1.688446,0.000000,0.010315,0.000000,0.000000,-0.030000,0.038000,0.063000,-0.010000,0.250000,2.450000,-0.179660,Hold,0.899658,0.000000,Hold,-273.000000,2.000000,Suck,-2115.000000,2181.818182,Speed,-2122.500000,2181.818182,Speed,On,On0.000000,0,,,,
02:18:37.618 PM 03/19/2016,Teleop Enabled,9,FALSE,0,NO ERROR,-0.000000,-0.025667,0.000000,-0.038500,TRUE,FALSE,FALSE,FALSE,FALSE,FALSE,Disabled,0.000000,0.000000,0.000000,TRUE,-0.366898,1.693527,0.000000,0.001144,0.074783,0.000000,-0.006000,0.026000,0.065000,-0.010000,0.230000,2.430000,-0.168861,Hold,0.899658,0.000000,Hold,-273.000000,2.000000,Suck,-2115.000000,2181.818182,Speed,-2115.000000,2181.818182,Speed,On,On0.000000,0,,,,
02:18:37.718 PM 03/19/2016,Teleop Enabled,10,FALSE,0,NO ERROR,-0.000000,-0.025667,0.000000,-0.038500,TRUE,FALSE,FALSE,FALSE,FALSE,FALSE,Disabled,0.000000,0.000000,0.000000,TRUE,-0.366821,1.699493,0.000000,0.004776,0.132263,0.000000,0.025000,0.092000,0.136000,-0.010000,0.260000,2.450000,-0.180879,Hold,0.899658,0.000000,Hold,-273.000000,2.000000,Suck,-2115.000000,2181.818182,Speed,-2115.000000,2181.818182,Speed,On,On0.000000,0,,,,
02:18:37.818 PM 03/19/2016,Teleop Enabled,10,FALSE,0,NO ERROR,-0.000000,-0.025667,0.000000,-0.038500,TRUE,FALSE,FALSE,FALSE,FALSE,FALSE,Disabled,0.000000,0.000000,0.000000,TRUE,-0.366913,1.705124,0.000000,-0.012558,0.111191,0.000000,0.039000,-0.100000,0.009000,-0.010000,0.260000,2.450000,-0.193052,Hold,0.899658,0.000000,Hold,-273.000000,2.000000,Suck,-2115.000000,2181.818182,Speed,-2122.500000,2181.818182,Speed,On,On0.000000,0,,,,
02:18:37.918 PM 03/19/2016,Teleop Enabled,12,FALSE,0,NO ERROR,-0.000000,-0.025667,0.000000,-0.038500,TRUE,FALSE,FALSE,FALSE,FALSE,FALSE,Disabled,0.000000,0.000000,0.000000,TRUE,-0.366913,1.705124,0.000000,-0.012558,0.111191,0.000000,0.053000,-0.087000,-0.014000,-0.010000,0.190000,2.470000,-0.218750,Hold,0.899658,0.000000,Hold,-273.000000,2.000000,Suck,-2122.500000,2181.818182,Speed,-2122.500000,2181.818182,Speed,On,On0.000000,0,,,,
02:18:38.018 PM 03/19/2016,Teleop Enabled,11,FALSE,0,NO ERROR,-0.000000,-0.025667,0.000000,-0.038500,TRUE,FALSE,FALSE,FALSE,FALSE,FALSE,Disabled,0.000000,0.000000,0.000000,TRUE,-0.366333,1.712296,0.000000,0.017410,0.053268,0.000000,0.015000,-0.020000,-0.042000,-0.010000,0.230000,2.470000,-0.219360,Hold,0.899658,0.000000,Hold,-273.000000,2.000000,Suck,-2122.500000,2181.818182,Speed,-2115.000000,2181.818182,Speed,On,On0.000000,0,,,,
02:18:38.119 PM 03/19/2016,Teleop Enabled,11,FALSE,0,NO ERROR,-0.000000,-0.025667,0.000000,-0.038500,TRUE,FALSE,FALSE,FALSE,FALSE,FALSE,Disabled,0.000000,0.000000,0.000000,TRUE,-0.364868,1.716370,0.000000,0.031357,0.075256,0.000000,-0.042000,0.032000,-0.034000,-0.010000,0.240000,2.470000,-0.220961,Hold,0.899658,0.000000,Hold,-273.000000,2.000000,Suck,-2115.000000,2181.818182,Speed,-2115.000000,2181.818182,Speed,On,On0.000000,0,,,,
02:18:38.219 PM 03/19/2016,Teleop Enabled,10,FALSE,0,NO ERROR,-0.000000,-0.025667,0.000000,-0.038500,TRUE,FALSE,FALSE,FALSE,FALSE,FALSE,Disabled,0.000000,0.000000,0.000000,TRUE,-0.364868,1.716370,0.000000,0.031357,0.075256,0.000000,-0.029000,0.041000,-0.004000,-0.010000,0.240000,2.470000,-0.242177,Hold,0.899658,0.000000,Hold,-272.000000,2.000000,Suck,-2122.500000,2181.818182,Speed,-2122.500000,2181.818182,Speed,On,On0.000000,0,,,,
02:18:38.319 PM 03/19/2016,Teleop Enabled,11,FALSE,0,NO ERROR,-0.000000,-0.025667,0.000000,-0.038500,TRUE,FALSE,FALSE,FALSE,FALSE,FALSE,Disabled,0.000000,0.000000,0.000000,TRUE,-0.363586,1.721558,0.000000,0.030273,0.129166,0.000000,0.045000,0.023000,0.088000,-0.010000,0.270000,2.500000,-0.249272,Hold,0.899658,0.000000,Hold,-270.000000,2.000000,Suck,-2122.500000,2181.818182,Speed,-2115.000000,2181.818182,Speed,On,On0.000000,0,,,,
02:18:38.419 PM 03/19/2016,Teleop Enabled,10,FALSE,0,NO ERROR,-0.000000,-0.025667,0.000000,-0.038500,TRUE,FALSE,FALSE,FALSE,FALSE,FALSE,Disabled,0.000000,0.000000,0.000000,TRUE,-0.359741,1.735474,0.000000,0.058090,0.185883,0.000000,0.026000,0.076000,0.132000,-0.010000,0.310000,2.510000,-0.261813,Hold,0.899658,0.000000,Hold,-270.000000,2.000000,Suck,-2122.500000,2181.818182,Speed,-2115.000000,2181.818182,Speed,On,On0.000000,0,,,,
02:18:38.519 PM 03/19/2016,Teleop Enabled,9,FALSE,0,NO ERROR,-0.000000,-0.025667,0.000000,-0.038500,TRUE,FALSE,FALSE,FALSE,FALSE,FALSE,Disabled,0.000000,0.000000,0.000000,TRUE,-0.359741,1.735474,0.000000,0.058090,0.185883,0.000000,-0.033000,-0.036000,-0.022000,-0.010000,0.310000,2.510000,-0.265012,Hold,0.899658,0.000000,Hold,-270.000000,2.000000,Suck,-2122.500000,2181.818182,Speed,-2122.500000,2181.818182,Speed,On,On0.000000,0,,,,
02:18:38.619 PM 03/19/2016,Teleop Enabled,10,FALSE,0,NO ERROR,-0.000000,-0.025667,0.000000,-0.038500,TRUE,FALSE,FALSE,FALSE,FALSE,FALSE,Disabled,0.000000,0.000000,0.000000,TRUE,-0.359039,1.745621,0.000000,-0.022293,0.150208,0.000000,0.040000,-0.062000,0.002000,0.000000,0.240000,2.500000,-0.264681,Hold,0.899658,0.000000,Hold,-270.000000,2.000000,Suck,-2130.000000,2181.818182,Speed,-2122.500000,2181.818182,Speed,On,On0.000000,0,,,,
02:18:38.719 PM 03/19/2016,Teleop Enabled,10,FALSE,0,NO ERROR,-0.000000,-0.025667,0.000000,-0.038500,TRUE,FALSE,FALSE,FALSE,FALSE,FALSE,Disabled,0.000000,0.000000,0.000000,TRUE,-0.359222,1.752060,0.000000,0.010147,0.133835,0.000000,-0.007000,-0.029000,-0.004000,0.000000,0.280000,2.510000,-0.277339,Hold,0.899658,0.000000,Hold,-270.000000,2.000000,Suck,-2122.500000,2181.818182,Speed,-2122.500000,2181.818182,Speed,On,On0.000000,0,,,,
02:18:38.820 PM 03/19/2016,Teleop Enabled,11,FALSE,0,NO ERROR,-0.000000,-0.025667,0.000000,-0.038500,TRUE,FALSE,FALSE,FALSE,FALSE,FALSE,Disabled,0.000000,0.000000,0.000000,TRUE,-0.358826,1.757629,0.000000,0.019089,0.094269,0.000000,0.036000,0.067000,0.118000,0.000000,0.280000,2.510000,-0.284242,Hold,0.899658,0.000000,Hold,-270.000000,2.000000,Suck,-2122.500000,2181.818182,Speed,-2115.000000,2181.818182,Speed,On,On0.000000,0,,,,
02:18:38.920 PM 03/19/2016,Teleop Enabled,10,FALSE,0,NO ERROR,-0.000000,-0.025667,0.000000,-0.038500,TRUE,FALSE,FALSE,FALSE,FALSE,FALSE,Disabled,0.000000,0.000000,0.000000,TRUE,-0.357513,1.763046,0.000000,0.027084,0.099350,0.000000,-0.038000,0.030000,0.052000,-0.010000,0.310000,2.530000,-0.288917,Hold,0.899658,0.000000,Hold,-270.000000,2.000000,Suck,-2122.500000,2181.818182,Speed,-2115.000000,2181.818182,Speed,On,On0.000000,0,,,,
02:18:39.020 PM 03/19/2016,Teleop Enabled,11,FALSE,0,NO ERROR,-0.000000,-0.025667,0.000000,-0.038500,TRUE,FALSE,FALSE,FALSE,FALSE,FALSE,Disabled,0.000000,0.000000,0.000000,TRUE,-0.356934,1.769821,0.000000,0.002197,0.172089,0.000000,0.058000,0.005000,0.082000,-0.010000,0.330000,2.550000,-0.288917,Hold,0.899658,0.000000,Hold,-270.000000,2.000000,Suck,-2122.500000,2181.818182,Speed,-2122.500000,2181.818182,Speed,On,On0.000000,0,,,,
02:18:39.120 PM 03/19/2016,Teleop Enabled,11,FALSE,0,NO ERROR,-0.000000,-0.025667,0.000000,-0.038500,TRUE,FALSE,FALSE,FALSE,FALSE,FALSE,Disabled,0.000000,0.000000,0.000000,TRUE,-0.356369,1.770477,0.000000,0.014969,0.041565,0.000000,0.039000,0.051000,-0.018000,0.000000,0.300000,2.550000,-0.286917,Hold,0.899658,0.000000,Hold,-270.000000,2.000000,Suck,-2122.500000,2181.818182,Speed,-2115.000000,2181.818182,Speed,On,On0.000000,0,,,,
02:18:39.221 PM 03/19/2016,Teleop Enabled,10,FALSE,0,NO ERROR,-0.000000,-0.025667,0.000000,-0.038500,TRUE,FALSE,FALSE,FALSE,FALSE,FALSE,Disabled,0.000000,0.000000,0.000000,TRUE,-0.354828,1.773773,0.000000,0.044556,0.061295,0.000000,0.013000,-0.049000,0.083000,0.000000,0.350000,2.520000,-0.307992,Hold,0.899658,0.000000,Hold,-270.000000,2.000000,Suck,-2130.000000,2181.818182,Speed,-2115.000000,2181.818182,Speed,On,On0.000000,0,,,,
02:18:39.321 PM 03/19/2016,Teleop Enabled,10,FALSE,0,NO ERROR,-0.000000,-0.025667,0.000000,-0.038500,TRUE,FALSE,FALSE,FALSE,FALSE,FALSE,Disabled,0.000000,0.000000,0.000000,TRUE,-0.352692,1.777893,0.000000,0.032974,0.094574,0.000000,-0.025000,-0.073000,-0.057000,0.000000,0.310000,2.560000,-0.305789,Hold,0.899658,0.000000,Hold,-270.000000,2.000000,Suck,-2130.000000,2181.818182,Speed,-2122.500000,2181.818182,Speed,On,On0.000000,0,,,,
02:18:39.421 PM 03/19/2016,Teleop Enabled,10,FALSE,0,NO ERROR,-0.000000,-0.025667,0.000000,-0.038500,TRUE,FALSE,FALSE,FALSE,FALSE,FALSE,Disabled,0.000000,0.000000,0.000000,TRUE,-0.350632,1.782043,0.000000,0.041061,0.076950,0.000000,0.023000,0.008000,-0.003000,0.000000,0.370000,2.540000,-0.306050,Hold,0.899658,0.000000,Hold,-270.000000,2.000000,Suck,-2130.000000,2181.818182,Speed,-2122.500000,2181.818182,Speed,On,On0.000000,0,,,,
02:18:39.521 PM 03/19/2016,Teleop Enabled,10,FALSE,0,NO ERROR,-0.000000,-0.025667,0.000000,-0.038500,TRUE,FALSE,FALSE,FALSE,FALSE,FALSE,Disabled,0.000000,0.000000,0.000000,TRUE,-0.350143,1.784882,0.000000,0.005569,0.062836,0.000000,0.065000,0.004000,-0.028000,0.000000,0.320000,2.570000,-0.285911,Hold,0.899658,0.000000,Hold,-270.000000,2.000000,Suck,-2122.500000,2181.818182,Speed,-2122.500000,2181.818182,Speed,On,On0.000000,0,,,,
02:18:39.621 PM 03/19/2016,Teleop Enabled,4,FALSE,0,NO ERROR,-0.000000,-0.025667,0.000000,-0.038500,TRUE,FALSE,FALSE,FALSE,FALSE,FALSE,Disabled,0.000000,0.000000,0.000000,TRUE,-0.348312,1.787918,0.000000,0.052994,0.043167,0.000000,-0.036000,-0.037000,0.007000,0.000000,0.340000,2.540000,-0.304759,Hold,0.899658,0.000000,Hold,-270.000000,2.000000,Suck,-2122.500000,2181.818182,Speed,-2115.000000,2181.818182,Speed,On,On0.000000,0,,,,
02:18:39.722 PM 03/19/2016,Teleop Enabled,10,FALSE,0,NO ERROR,-0.000000,-0.025667,0.000000,-0.038500,TRUE,FALSE,FALSE,FALSE,FALSE,FALSE,Disabled,0.000000,0.000000,0.000000,TRUE,-0.347351,1.790695,0.000000,-0.014282,0.079544,0.000000,0.051000,-0.004000,0.073000,0.000000,0.270000,2.540000,-0.299885,Hold,0.899658,0.000000,Hold,-270.000000,2.000000,Suck,-2122.500000,2181.818182,Speed,-2122.500000,2181.818182,Speed,On,On0.000000,0,,,,
02:18:39.822 PM 03/19/2016,Teleop Enabled,9,FALSE,0,NO ERROR,-0.000000,-0.025667,0.000000,-0.038500,TRUE,FALSE,FALSE,FALSE,FALSE,FALSE,Disabled,0.000000,0.000000,0.000000,TRUE,-0.347656,1.791977,0.000000,-0.005234,0.030075,0.000000,-0.025000,0.116000,0.097000,0.000000,0.260000,2.490000,-0.294401,Hold,0.899658,0.000000,Hold,-270.000000,2.000000,Suck,-2122.500000,2181.818182,Speed,-2122.500000,2181.818182,Speed,On,On0.000000,0,,,,
02:18:39.922 PM 03/19/2016,Teleop Enabled,8,FALSE,0,NO ERROR,-0.000000,-0.025667,0.000000,-0.038500,TRUE,FALSE,FALSE,FALSE,FALSE,FALSE,Disabled,0.000000,0.000000,0.000000,TRUE,-0.347656,1.795120,0.000000,0.021133,-0.003693,0.000000,0.066000,-0.020000,0.079000,0.000000,0.280000,2.490000,-0.292418,Hold,0.899658,0.000000,Hold,-270.000000,2.000000,Suck,-2122.500000,2181.818182,Speed,-2122.500000,2181.818182,Speed,On,On0.000000,0,,,,
02:18:40.022 PM 03/19/2016,Teleop Enabled,11,FALSE,0,NO ERROR,-0.000000,-0.025667,0.000000,-0.038500,TRUE,FALSE,FALSE,FALSE,FALSE,FALSE,Disabled,0.000000,0.000000,0.000000,TRUE,-0.346527,1.795532,0.000000,0.023499,0.020645,0.000000,-0.084000,0.021000,0.027000,0.000000,0.270000,2.460000,-0.284748,Hold,0.899658,0.000000,Hold,-270.000000,2.000000,Suck,-2122.500000,2181.818182,Speed,-2122.500000,2181.818182,Speed,On,On0.000000,0,,,,
02:18:40.122 PM 03/19/2016,Teleop Enabled,9,FALSE,0,NO ERROR,-0.000000,-0.025667,0.000000,-0.038500,TRUE,FALSE,FALSE,FALSE,FALSE,FALSE,Disabled,0.000000,0.000000,0.000000,TRUE,-0.346634,1.796204,0.000000,-0.009247,-0.005203,0.000000,0.018000,0.029000,0.049000,0.000000,0.240000,2.460000,-0.279019,Hold,0.899658,0.000000,Hold,-270.000000,2.000000,Suck,-2122.500000,2181.818182,Speed,-2122.500000,2181.818182,Speed,On,On0.000000,0,,,,
02:18:40.222 PM 03/19/2016,Teleop Enabled,11,FALSE,0,NO ERROR,-0.000000,-0.025667,0.000000,-0.038500,TRUE,FALSE,FALSE,FALSE,FALSE,FALSE,Disabled,0.000000,0.000000,0.000000,TRUE,-0.347107,1.795776,0.000000,0.000000,-0.010849,0.000000,0.005000,-0.070000,-0.070000,0.000000,0.210000,2.460000,-0.289908,Hold,0.899658,0.000000,Hold,-270.000000,2.000000,Suck,-2122.500000,2181.818182,Speed,-2122.500000,2181.818182,Speed,On,On0.000000,0,,,,
02:18:40.323 PM 03/19/2016,Teleop Enabled,13,FALSE,0,NO ERROR,-0.000000,-0.025667,0.000000,-0.038500,TRUE,FALSE,FALSE,FALSE,FALSE,FALSE,Disabled,0.000000,0.000000,0.000000,TRUE,-0.345596,1.794098,0.000000,0.056000,-0.045700,0.000000,0.010000,-0.065000,-0.044000,0.000000,0.260000,2.470000,-0.306766,Hold,0.899658,0.000000,Hold,-270.000000,2.000000,Suck,-2122.500000,2181.818182,Speed,-2115.000000,2181.818182,Speed,On,On0.000000,0,,,,
02:18:40.424 PM 03/19/2016,Teleop Enabled,11,FALSE,0,NO ERROR,-0.000000,-0.025667,0.000000,-0.038500,TRUE,FALSE,FALSE,FALSE,FALSE,FALSE,Disabled,0.000000,0.000000,0.000000,TRUE,-0.345352,1.790848,0.000000,-0.022736,-0.071030,0.000000,-0.104000,0.011000,-0.007000,0.000000,0.210000,2.430000,-0.305651,Hold,0.899658,0.000000,Hold,-270.000000,2.000000,Suck,-2122.500000,2181.818182,Speed,-2122.500000,2181.818182,Speed,On,On0.000000,0,,,,
02:18:40.526 PM 03/19/2016,Teleop Enabled,8,FALSE,0,NO ERROR,-0.000000,-0.025667,0.000000,-0.038500,TRUE,FALSE,FALSE,FALSE,FALSE,FALSE,Disabled,0.000000,0.000000,0.000000,TRUE,-0.348267,1.788055,0.000000,-0.074493,-0.038467,0.000000,0.020000,0.003000,0.027000,0.000000,0.250000,2.400000,-0.290862,Hold,0.899658,0.000000,Hold,-270.000000,2.000000,Suck,-2122.500000,2181.818182,Speed,-2122.500000,2181.818182,Speed,On,On0.000000,0,,,,
02:18:40.627 PM 03/19/2016,Teleop Enabled,6,FALSE,0,NO ERROR,-0.000000,-0.025667,0.000000,-0.038500,TRUE,FALSE,FALSE,FALSE,FALSE,FALSE,Disabled,0.000000,0.000000,0.000000,TRUE,-0.350494,1.787659,0.000000,0.007126,0.025711,0.000000,0.083000,0.132000,0.171000,0.000000,0.190000,2.360000,-0.304422,Hold,0.899658,0.000000,Hold,-270.000000,2.000000,Suck,-2122.500000,2181.818182,Speed,-2115.000000,2181.818182,Speed,On,On0.000000,0,,,,
02:18:40.727 PM 03/19/2016,Teleop Enabled,8,FALSE,0,NO ERROR,-0.000000,-0.025667,0.000000,-0.038500,TRUE,FALSE,FALSE,FALSE,FALSE,FALSE,Disabled,0.000000,0.000000,0.000000,TRUE,-0.349289,1.789581,0.000000,0.043900,0.044952,0.000000,-0.010000,-0.088000,0.000000,0.000000,0.280000,2.350000,-0.298563,Hold,0.899658,0.000000,Hold,-270.000000,2.000000,Suck,-2130.000000,2181.818182,Speed,-2115.000000,2181.818182,Speed,On,On0.000000,0,,,,
02:18:40.829 PM 03/19/2016,Teleop Enabled,10,FALSE,0,NO ERROR,-0.000000,-0.025667,0.000000,-0.038500,TRUE,FALSE,FALSE,FALSE,FALSE,FALSE,Disabled,0.000000,0.000000,0.000000,TRUE,-0.349655,1.790512,0.000000,-0.020859,0.009338,0.000000,0.023000,-0.004000,0.096000,0.000000,0.260000,2.350000,-0.294690,Hold,0.899658,0.000000,Hold,-270.000000,2.000000,Suck,-2130.000000,2181.818182,Speed,-2130.000000,2181.818182,Speed,On,On0.000000,0,,,,
02:18:40.930 PM 03/19/2016,Teleop Enabled,10,FALSE,0,NO ERROR,-0.000000,-0.025667,0.000000,-0.038500,TRUE,FALSE,FALSE,FALSE,FALSE,FALSE,Disabled,0.000000,0.000000,0.000000,TRUE,-0.350922,1.790970,0.000000,-0.022659,0.020630,0.000000,0.047000,-0.083000,-0.037000,0.000000,0.330000,2.390000,-0.301382,Hold,0.899658,0.000000,Hold,-270.000000,2.000000,Suck,-2122.500000,2181.818182,Speed,-2122.500000,2181.818182,Speed,On,On0.000000,0,,,,
02:18:41.030 PM 03/19/2016,Teleop Enabled,11,FALSE,0,NO ERROR,-0.000000,-0.025667,0.000000,-0.038500,TRUE,FALSE,FALSE,FALSE,FALSE,FALSE,Disabled,0.000000,0.000000,0.000000,TRUE,-0.350845,1.790939,0.000000,0.023285,-0.005051,0.000000,0.093000,0.004000,-0.026000,0.000000,0.300000,2.390000,-0.303441,Hold,0.899658,0.000000,Hold,-270.000000,2.000000,Suck,-2130.000000,2181.818182,Speed,-2115.000000,2181.818182,Speed,On,On0.000000,0,,,,
02:18:41.131 PM 03/19/2016,Teleop Enabled,9,FALSE,0,NO ERROR,-0.000000,-0.025667,0.000000,-0.038500,TRUE,FALSE,FALSE,FALSE,FALSE,FALSE,Disabled,0.000000,0.000000,0.000000,TRUE,-0.349854,1.789764,0.000000,0.003159,-0.043900,0.000000,-0.099000,0.039000,0.008000,0.000000,0.360000,2.430000,-0.312343,Hold,0.899658,0.000000,Hold,-270.000000,2.000000,Suck,-2130.000000,2181.818182,Speed,-2122.500000,2181.818182,Speed,On,On0.000000,0,,,,
02:18:41.231 PM 03/19/2016,Teleop Enabled,10,FALSE,0,NO ERROR,-0.000000,-0.025667,0.000000,-0.038500,TRUE,FALSE,FALSE,FALSE,FALSE,FALSE,Disabled,0.000000,0.000000,0.000000,TRUE,-0.351974,1.788269,0.000000,-0.059662,-0.030823,0.000000,0.022000,0.035000,0.133000,0.000000,0.390000,2.470000,-0.321483,Hold,0.899658,0.000000,Hold,-270.000000,2.000000,Suck,-2122.500000,2181.818182,Speed,-2122.500000,2181.818182,Speed,On,On0.000000,0,,,,
02:18:41.331 PM 03/19/2016,Teleop Enabled,9,FALSE,0,NO ERROR,-0.000000,-0.025667,0.000000,-0.038500,TRUE,FALSE,FALSE,FALSE,FALSE,FALSE,Disabled,0.000000,0.000000,0.000000,TRUE,-0.355637,1.787704,0.000000,-0.087250,0.015915,0.000000,0.004000,-0.004000,0.014000,0.000000,0.350000,2.440000,-0.326375,Hold,0.899658,0.000000,Hold,-270.000000,2.000000,Suck,-2130.000000,2181.818182,Speed,-2122.500000,2181.818182,Speed,On,On0.000000,0,,,,
02:18:41.432 PM 03/19/2016,Teleop Enabled,9,FALSE,0,NO ERROR,-0.000000,-0.025667,0.000000,-0.038500,TRUE,FALSE,FALSE,FALSE,FALSE,FALSE,Disabled,0.000000,0.000000,0.000000,TRUE,-0.359360,1.789856,0.000000,-0.070496,0.061523,0.000000,0.049000,0.047000,0.035000,0.000000,0.430000,2.450000,-0.350225,Hold,0.899658,0.000000,Hold,-270.000000,2.000000,Suck,-2130.000000,2181.818182,Speed,-2115.000000,2181.818182,Speed,On,On0.000000,0,,,,
02:18:41.532 PM 03/19/2016,Teleop Enabled,9,FALSE,0,NO ERROR,-0.000000,-0.025667,0.000000,-0.038500,TRUE,FALSE,FALSE,FALSE,FALSE,FALSE,Disabled,0.000000,0.000000,0.000000,TRUE,-0.362579,1.793198,0.000000,-0.068695,0.057373,0.000000,-0.049000,-0.053000,-0.072000,0.000000,0.360000,2.470000,-0.343226,Hold,0.899658,0.000000,Hold,-270.000000,2.000000,Suck,-2130.000000,2181.818182,Speed,-2122.500000,2181.818182,Speed,On,On0.000000,0,,,,
02:18:41.633 PM 03/19/2016,Teleop Enabled,10,FALSE,0,NO ERROR,-0.000000,-0.025667,0.000000,-0.038500,TRUE,FALSE,FALSE,FALSE,FALSE,FALSE,Disabled,0.000000,0.000000,0.000000,TRUE,-0.366699,1.795029,0.000000,-0.076782,0.025894,0.000000,0.002000,0.022000,0.077000,0.000000,0.390000,2.450000,-0.343130,Hold,0.899658,0.000000,Hold,-270.000000,2.000000,Suck,-2122.500000,2181.818182,Speed,-2122.500000,2181.818182,Speed,On,On0.000000,0,,,,
02:18:41.734 PM 03/19/2016,Teleop Enabled,10,FALSE,0,NO ERROR,-0.000000,-0.025667,0.000000,-0.038500,TRUE,FALSE,FALSE,FALSE,FALSE,FALSE,Disabled,0.000000,0.000000,0.000000,TRUE,-0.370895,1.796661,0.000000,-0.097382,0.046112,0.000000,0.042000,-0.015000,0.010000,0.000000,0.340000,2.490000,-0.343526,Hold,0.899658,0.000000,Hold,-270.000000,2.000000,Suck,-2130.000000,2181.818182,Speed,-2122.500000,2181.818182,Speed,On,On0.000000,0,,,,
02:18:41.835 PM 03/19/2016,Teleop Enabled,10,FALSE,0,NO ERROR,-0.000000,-0.025667,0.000000,-0.038500,TRUE,FALSE,FALSE,FALSE,FALSE,FALSE,Disabled,0.000000,0.000000,0.000000,TRUE,-0.374359,1.798462,0.000000,-0.046997,0.021973,0.000000,-0.027000,-0.005000,-0.007000,0.000000,0.360000,2.480000,-0.351557,Hold,0.899658,0.000000,Hold,-270.000000,2.000000,Suck,-2130.000000,2181.818182,Speed,-2115.000000,2181.818182,Speed,On,On0.000000,0,,,,
02:18:41.936 PM 03/19/2016,Teleop Enabled,11,FALSE,0,NO ERROR,-0.000000,-0.025667,0.000000,-0.038500,TRUE,FALSE,FALSE,FALSE,FALSE,FALSE,Disabled,0.000000,0.000000,0.000000,TRUE,-0.377243,1.799728,0.000000,-0.066086,0.024414,0.000000,-0.010000,-0.042000,0.025000,0.000000,0.300000,2.490000,-0.361014,Hold,0.899658,0.000000,Hold,-270.000000,2.000000,Suck,-2130.000000,2181.818182,Speed,-2122.500000,2181.818182,Speed,On,On0.000000,0,,,,
02:18:42.037 PM 03/19/2016,Teleop Enabled,11,FALSE,0,NO ERROR,-0.000000,-0.025667,0.000000,-0.038500,TRUE,FALSE,FALSE,FALSE,FALSE,FALSE,Disabled,0.000000,0.000000,0.000000,TRUE,-0.381348,1.800201,0.000000,-0.096252,0.018829,0.000000,-0.053000,-0.060000,-0.022000,0.000000,0.290000,2.480000,-0.369404,Hold,0.899658,0.000000,Hold,-270.000000,2.000000,Suck,-2122.500000,2181.818182,Speed,-2122.500000,2181.818182,Speed,On,On0.000000,0,,,,
02:18:42.137 PM 03/19/2016,Teleop Enabled,10,FALSE,0,NO ERROR,-0.000000,-0.025667,0.000000,-0.038500,TRUE,FALSE,FALSE,FALSE,FALSE,FALSE,Disabled,0.000000,0.000000,0.000000,TRUE,-0.388611,1.801315,0.000000,-0.126923,0.028809,0.000000,-0.009000,0.082000,0.058000,0.000000,0.290000,2.450000,-0.363131,Hold,0.899658,0.000000,Hold,-270.000000,2.000000,Suck,-2130.000000,2181.818182,Speed,-2115.000000,2181.818182,Speed,On,On0.000000,0,,,,
02:18:42.238 PM 03/19/2016,Teleop Enabled,12,FALSE,0,NO ERROR,-0.000000,-0.025667,0.000000,-0.038500,TRUE,FALSE,FALSE,FALSE,FALSE,FALSE,Disabled,0.000000,0.000000,0.000000,TRUE,-0.388641,1.803146,0.000000,-0.004379,0.000000,0.000000,-0.046000,0.001000,-0.042000,0.010000,0.230000,2.420000,-0.355258,Hold,0.899658,0.000000,Hold,-270.000000,2.000000,Suck,-2130.000000,2181.818182,Speed,-2122.500000,2181.818182,Speed,On,On0.000000,0,,,,
02:18:42.338 PM 03/19/2016,Teleop Enabled,10,FALSE,0,NO ERROR,-0.000000,-0.025667,0.000000,-0.038500,TRUE,FALSE,FALSE,FALSE,FALSE,FALSE,Disabled,0.000000,0.000000,0.000000,TRUE,-0.389069,1.802292,0.000000,0.003723,-0.030869,0.000000,0.017000,0.013000,0.000000,0.010000,0.260000,2.390000,-0.373232,Hold,0.899658,0.000000,Hold,-270.000000,2.000000,Suck,-2122.500000,2181.818182,Speed,-2122.500000,2181.818182,Speed,On,On0.000000,0,,,,
02:18:42.440 PM 03/19/2016,Teleop Enabled,12,FALSE,0,NO ERROR,-0.000000,-0.025667,0.000000,-0.038500,TRUE,FALSE,FALSE,FALSE,FALSE,FALSE,Disabled,0.000000,0.000000,0.000000,TRUE,-0.389481,1.802414,0.000000,-0.012634,-0.002991,0.000000,0.030000,-0.057000,0.013000,0.010000,0.190000,2.370000,-0.392579,Hold,0.899658,0.000000,Hold,-269.000000,2.000000,Suck,-2130.000000,2181.818182,Speed,-2115.000000,2181.818182,Speed,On,On0.000000,0,,,,
02:18:42.540 PM 03/19/2016,Teleop Enabled,11,FALSE,0,NO ERROR,-0.000000,-0.025667,0.000000,-0.038500,TRUE,FALSE,FALSE,FALSE,FALSE,FALSE,Disabled,0.000000,0.000000,0.000000,TRUE,-0.388901,1.801682,0.000000,0.016220,-0.009079,0.000000,0.023000,0.003000,0.035000,0.010000,0.250000,2.380000,-0.392297,Hold,0.899658,0.000000,Hold,-269.000000,2.000000,Suck,-2130.000000,2181.818182,Speed,-2115.000000,2181.818182,Speed,On,On0.000000,0,,,,
02:18:42.640 PM 03/19/2016,Teleop Enabled,11,FALSE,0,NO ERROR,-0.000000,-0.025667,0.000000,-0.038500,TRUE,FALSE,FALSE,FALSE,FALSE,FALSE,Disabled,0.000000,0.000000,0.000000,TRUE,-0.388428,1.801300,0.000000,-0.001923,-0.016998,0.000000,-0.026000,0.003000,0.064000,0.010000,0.190000,2.370000,-0.380788,Hold,0.899658,0.000000,Hold,-269.000000,2.000000,Suck,-2130.000000,2181.818182,Speed,-2122.500000,2181.818182,Speed,On,On0.000000,0,,,,
02:18:42.744 PM 03/19/2016,Teleop Enabled,10,FALSE,0,NO ERROR,-0.000000,-0.025667,0.000000,-0.038500,TRUE,FALSE,FALSE,FALSE,FALSE,FALSE,Disabled,0.000000,0.000000,0.000000,TRUE,-0.388672,1.800903,0.000000,0.003693,0.000000,0.000000,0.020000,-0.008000,0.014000,0.010000,0.230000,2.380000,-0.389192,Hold,0.899658,0.000000,Hold,-269.000000,2.000000,Suck,-2130.000000,2181.818182,Speed,-2122.500000,2181.818182,Speed,On,On0.000000,0,,,,
02:18:42.840 PM 03/19/2016,Teleop Enabled,10,FALSE,0,NO ERROR,-0.000000,-0.025667,0.000000,-0.038500,TRUE,FALSE,FALSE,FALSE,FALSE,FALSE,Disabled,0.000000,0.000000,0.000000,TRUE,-0.388962,1.800522,0.000000,-0.008560,-0.017929,0.000000,0.045000,0.006000,-0.010000,0.010000,0.180000,2.350000,-0.379914,Hold,0.899658,0.000000,Hold,-269.000000,2.000000,Suck,-2130.000000,2181.818182,Speed,-2122.500000,2181.818182,Speed,On,On0.000000,0,,,,
02:18:42.940 PM 03/19/2016,Teleop Enabled,11,FALSE,0,NO ERROR,-0.000000,-0.025667,0.000000,-0.038500,TRUE,FALSE,FALSE,FALSE,FALSE,FALSE,Disabled,0.000000,0.000000,0.000000,TRUE,-0.389053,1.800797,0.000000,-0.001450,0.000000,0.000000,-0.016000,-0.071000,-0.011000,0.010000,0.190000,2.360000,-0.389374,Hold,0.899658,0.000000,Hold,-269.000000,2.000000,Suck,-2122.500000,2181.818182,Speed,-2122.500000,2181.818182,Speed,On,On0.000000,0,,,,
02:18:43.041 PM 03/19/2016,Teleop Enabled,9,FALSE,0,NO ERROR,-0.000000,-0.025667,0.000000,-0.038500,TRUE,FALSE,FALSE,FALSE,FALSE,FALSE,Disabled,0.000000,0.000000,0.000000,TRUE,-0.389603,1.799591,0.000000,0.000000,-0.030640,0.000000,0.062000,0.019000,0.065000,0.010000,0.160000,2.320000,-0.388083,Hold,0.899658,0.000000,Hold,-269.000000,2.000000,Suck,-2130.000000,2181.818182,Speed,-2122.500000,2181.818182,Speed,On,On0.000000,0,,,,
02:18:43.141 PM 03/19/2016,Teleop Enabled,11,FALSE,0,NO ERROR,-0.000000,-0.025667,0.000000,-0.038500,TRUE,FALSE,FALSE,FALSE,FALSE,FALSE,Disabled,0.000000,0.000000,0.000000,TRUE,-0.389252,1.798889,0.000000,0.000000,0.000000,0.000000,-0.020000,0.012000,-0.016000,0.010000,0.200000,2.350000,-0.396459,Hold,0.899658,0.000000,Hold,-269.000000,2.000000,Suck,-2130.000000,2181.818182,Speed,-2122.500000,2181.818182,Speed,On,On0.000000,0,,,,
02:18:43.241 PM 03/19/2016,Teleop Enabled,11,FALSE,0,NO ERROR,-0.000000,-0.025667,0.000000,-0.038500,TRUE,FALSE,FALSE,FALSE,FALSE,FALSE,Disabled,0.000000,0.000000,0.000000,TRUE,-0.388229,1.798859,0.000000,0.041992,-0.003098,0.000000,0.024000,-0.070000,0.002000,0.010000,0.220000,2.350000,-0.391271,Hold,0.899658,0.000000,Hold,-269.000000,2.000000,Suck,-2130.000000,2181.818182,Speed,-2122.500000,2181.818182,Speed,On,On0.000000,0,,,,
02:18:43.341 PM 03/19/2016,Teleop Enabled,9,FALSE,0,NO ERROR,-0.000000,-0.025667,0.000000,-0.038500,TRUE,FALSE,FALSE,FALSE,FALSE,FALSE,Disabled,0.000000,0.000000,0.000000,TRUE,-0.385498,1.797226,0.000000,0.049927,-0.037643,0.000000,-0.065000,0.068000,0.038000,0.010000,0.190000,2.320000,-0.391684,Hold,0.899658,0.000000,Hold,-268.000000,2.000000,Suck,-2130.000000,2181.818182,Speed,-2122.500000,2181.818182,Speed,On,On0.000000,0,,,,
02:18:43.442 PM 03/19/2016,Teleop Enabled,11,FALSE,0,NO ERROR,-0.000000,-0.025667,0.000000,-0.038500,TRUE,FALSE,FALSE,FALSE,FALSE,FALSE,Disabled,0.000000,0.000000,0.000000,TRUE,-0.384537,1.796585,0.000000,0.011108,0.003250,0.000000,0.022000,0.020000,0.051000,0.020000,0.250000,2.300000,-0.389123,Hold,0.899658,0.000000,Hold,-268.000000,2.000000,Suck,-2130.000000,2181.818182,Speed,-2115.000000,2181.818182,Speed,On,On0.000000,0,,,,
02:18:43.542 PM 03/19/2016,Teleop Enabled,9,FALSE,0,NO ERROR,-0.000000,-0.025667,0.000000,-0.038500,TRUE,FALSE,FALSE,FALSE,FALSE,FALSE,Disabled,0.000000,0.000000,0.000000,TRUE,-0.384796,1.797638,0.000000,-0.007706,0.014847,0.000000,0.094000,-0.028000,0.005000,0.010000,0.200000,2.290000,-0.396765,Hold,0.899658,0.000000,Hold,-268.000000,2.000000,Suck,-2130.000000,2181.818182,Speed,-2122.500000,2181.818182,Speed,On,On0.000000,0,,,,
02:18:43.642 PM 03/19/2016,Teleop Enabled,10,FALSE,0,NO ERROR,-0.000000,-0.025667,0.000000,-0.038500,TRUE,FALSE,FALSE,FALSE,FALSE,FALSE,Disabled,0.000000,0.000000,0.000000,TRUE,-0.383591,1.797989,0.000000,0.034134,0.004547,0.000000,-0.007000,-0.117000,-0.074000,0.010000,0.280000,2.320000,-0.398135,Hold,0.899658,0.000000,Hold,-268.000000,2.000000,Suck,-2130.000000,2181.818182,Speed,-2122.500000,2181.818182,Speed,On,On0.000000,0,,,,
02:18:43.742 PM 03/19/2016,Teleop Enabled,11,FALSE,0,NO ERROR,-0.000000,-0.025667,0.000000,-0.038500,TRUE,FALSE,FALSE,FALSE,FALSE,FALSE,Disabled,0.000000,0.000000,0.000000,TRUE,-0.381699,1.795456,0.000000,0.024796,-0.068466,0.000000,-0.034000,0.014000,0.059000,0.010000,0.250000,2.320000,-0.400077,Hold,0.899658,0.000000,Hold,-268.000000,2.000000,Suck,-2130.000000,2181.818182,Speed,-2122.500000,2181.818182,Speed,On,On0.000000,0,,,,
02:18:43.842 PM 03/19/2016,Teleop Enabled,11,FALSE,0,NO ERROR,-0.000000,-0.025667,0.000000,-0.038500,TRUE,FALSE,FALSE,FALSE,FALSE,FALSE,Disabled,0.000000,0.000000,0.000000,TRUE,-0.380768,1.791855,0.000000,0.000000,-0.082779,0.000000,0.008000,0.050000,-0.022000,0.010000,0.310000,2.310000,-0.400969,Hold,0.899658,0.000000,Hold,-268.000000,2.000000,Suck,-2122.500000,2181.818182,Speed,-2122.500000,2181.818182,Speed,On,On0.000000,0,,,,
02:18:43.942 PM 03/19/2016,Teleop Enabled,10,FALSE,0,NO ERROR,-0.000000,-0.025667,0.000000,-0.038500,TRUE,FALSE,FALSE,FALSE,FALSE,FALSE,Disabled,0.000000,0.000000,0.000000,TRUE,-0.380493,1.788635,0.000000,0.019638,-0.059662,0.000000,0.071000,-0.010000,-0.003000,0.010000,0.270000,2.290000,-0.410683,Hold,0.899658,0.000000,Hold,-267.000000,2.000000,Suck,-2130.000000,2181.818182,Speed,-2115.000000,2181.818182,Speed,On,On0.000000,0,,,,
02:18:44.042 PM 03/19/2016,Teleop Enabled,11,FALSE,0,NO ERROR,-0.000000,-0.032083,0.000000,-0.057750,TRUE,FALSE,FALSE,FALSE,FALSE,FALSE,Disabled,0.000000,0.000000,0.000000,TRUE,-0.377655,1.786667,0.000000,0.066101,-0.026566,0.000000,-0.050000,-0.014000,0.007000,0.040000,0.310000,2.340000,-0.382864,Hold,0.899658,0.000000,Hold,-267.000000,2.000000,Suck,-2130.000000,2181.818182,Speed,-2115.000000,2181.818182,Speed,On,On0.000000,0,,,,
02:18:44.142 PM 03/19/2016,Teleop Enabled,11,FALSE,0,NO ERROR,-0.000000,-0.032083,0.000000,-0.064167,TRUE,FALSE,FALSE,FALSE,FALSE,FALSE,Disabled,0.000000,0.000000,0.000000,TRUE,-0.376038,1.785599,0.000000,0.000000,-0.013580,0.000000,0.000000,0.044000,0.086000,0.030000,0.310000,2.330000,-0.380110,Hold,0.899658,0.000000,Hold,-267.000000,2.000000,Suck,-2130.000000,2181.818182,Speed,-2122.500000,2181.818182,Speed,On,On0.000000,0,,,,
02:18:44.242 PM 03/19/2016,Teleop Enabled,10,FALSE,0,NO ERROR,-0.000000,-0.032083,0.000000,-0.064167,TRUE,FALSE,FALSE,FALSE,FALSE,FALSE,Disabled,0.000000,0.000000,0.000000,TRUE,-0.376389,1.785675,0.000000,-0.020416,0.014267,0.000000,-0.025000,0.034000,0.085000,0.030000,0.310000,2.340000,-0.384992,Hold,0.899658,0.000000,Hold,-266.000000,2.000000,Suck,-2130.000000,2181.818182,Speed,-2122.500000,2181.818182,Speed,On,On0.000000,0,,,,
02:18:44.341 PM 03/19/2016,Teleop Enabled,11,FALSE,0,NO ERROR,-0.000000,-0.032083,0.000000,-0.064167,TRUE,FALSE,FALSE,FALSE,FALSE,FALSE,Disabled,0.000000,0.000000,0.000000,TRUE,-0.377655,1.787918,0.000000,-0.019745,0.052567,0.000000,-0.001000,-0.089000,-0.026000,0.030000,0.340000,2.370000,-0.390052,Hold,0.899658,0.000000,Hold,-266.000000,2.000000,Suck,-2122.500000,2181.818182,Speed,-2122.500000,2181.818182,Speed,On,On0.000000,0,,,,
02:18:44.442 PM 03/19/2016,Teleop Enabled,9,FALSE,0,NO ERROR,-0.000000,-0.032083,0.000000,-0.070583,TRUE,FALSE,FALSE,FALSE,FALSE,FALSE,Disabled,0.000000,0.000000,0.000000,TRUE,-0.377502,1.789734,0.000000,0.014389,0.030304,0.000000,0.014000,-0.046000,-0.079000,0.030000,0.350000,2.410000,-0.378299,Hold,0.899658,0.000000,Hold,-266.000000,2.000000,Suck,-2130.000000,2181.818182,Speed,-2122.500000,2181.818182,Speed,On,On0.000000,0,,,,
02:18:44.542 PM 03/19/2016,Teleop Enabled,10,FALSE,0,NO ERROR,-0.000000,-0.032083,0.000000,-0.070583,TRUE,FALSE,FALSE,FALSE,FALSE,FALSE,Disabled,0.000000,0.000000,0.000000,TRUE,-0.377609,1.789093,0.000000,0.000870,-0.041351,0.000000,0.013000,-0.016000,0.019000,0.030000,0.390000,2.400000,-0.359999,Hold,0.899658,0.000000,Hold,-266.000000,2.000000,Suck,-2137.500000,2181.818182,Speed,-2122.500000,2181.818182,Speed,On,On0.000000,0,,,,
02:18:44.642 PM 03/19/2016,Teleop Enabled,11,FALSE,0,NO ERROR,-0.000000,-0.032083,0.000000,-0.070583,TRUE,FALSE,FALSE,FALSE,FALSE,FALSE,Disabled,0.000000,0.000000,0.000000,TRUE,-0.377960,1.788086,0.000000,-0.019806,-0.026184,0.000000,-0.030000,-0.006000,-0.061000,0.030000,0.350000,2.410000,-0.360746,Hold,0.899658,0.000000,Hold,-266.000000,2.000000,Suck,-2130.000000,2181.818182,Speed,-2122.500000,2181.818182,Speed,On,On0.000000,0,,,,
02:18:44.742 PM 03/19/2016,Teleop Enabled,11,FALSE,0,NO ERROR,-0.000000,-0.032083,0.000000,-0.070583,TRUE,FALSE,FALSE,FALSE,FALSE,FALSE,Disabled,0.000000,0.000000,0.000000,TRUE,-0.379013,1.787506,0.000000,-0.005280,0.000580,0.000000,0.057000,-0.011000,-0.073000,0.030000,0.370000,2.420000,-0.387670,Hold,0.899658,0.000000,Hold,-266.000000,2.000000,Suck,-2130.000000,2181.818182,Speed,-2122.500000,2181.818182,Speed,On,On0.000000,0,,,,
02:18:44.843 PM 03/19/2016,Teleop Enabled,10,FALSE,0,NO ERROR,-0.000000,-0.032083,0.000000,-0.070583,TRUE,FALSE,FALSE,FALSE,FALSE,FALSE,Disabled,0.000000,0.000000,0.000000,TRUE,-0.378738,1.788345,0.000000,-0.005203,0.032257,0.000000,-0.011000,0.062000,-0.026000,0.030000,0.370000,2.410000,-0.393746,Hold,0.899658,0.000000,Hold,-266.000000,2.000000,Suck,-2130.000000,2181.818182,Speed,-2122.500000,2181.818182,Speed,On,On0.000000,0,,,,
02:18:44.943 PM 03/19/2016,Teleop Enabled,10,FALSE,0,NO ERROR,-0.000000,-0.038500,0.000000,-0.070583,TRUE,FALSE,FALSE,FALSE,FALSE,FALSE,Disabled,0.000000,0.000000,0.000000,TRUE,-0.379425,1.790909,0.000000,-0.011276,0.069534,0.000000,0.013000,0.043000,0.064000,0.030000,0.410000,2.400000,-0.402442,Hold,0.899658,0.000000,Hold,-266.000000,2.000000,Suck,-2130.000000,2181.818182,Speed,-2122.500000,2181.818182,Speed,On,On0.000000,0,,,,
02:18:45.044 PM 03/19/2016,Teleop Enabled,10,FALSE,0,NO ERROR,-0.000000,-0.038500,0.000000,-0.070583,TRUE,FALSE,FALSE,FALSE,FALSE,FALSE,Disabled,0.000000,0.000000,0.000000,TRUE,-0.380692,1.791489,0.000000,-0.034653,-0.002716,0.000000,0.035000,0.122000,0.117000,0.030000,0.370000,2.370000,-0.404814,Hold,0.899658,0.000000,Hold,-266.000000,2.000000,Suck,-2130.000000,2181.818182,Speed,-2122.500000,2181.818182,Speed,On,On0.000000,0,,,,
02:18:45.144 PM 03/19/2016,Teleop Enabled,9,FALSE,0,NO ERROR,-0.000000,-0.038500,0.000000,-0.070583,TRUE,FALSE,FALSE,FALSE,FALSE,FALSE,Disabled,0.000000,0.000000,0.000000,TRUE,-0.381058,1.793716,0.000000,0.005264,0.059952,0.000000,-0.059000,-0.056000,-0.029000,0.020000,0.440000,2.430000,-0.394021,Hold,0.899658,0.000000,Hold,-266.000000,2.000000,Suck,-2137.500000,2181.818182,Speed,-2122.500000,2181.818182,Speed,On,On0.000000,0,,,,
02:18:45.245 PM 03/19/2016,Teleop Enabled,11,FALSE,0,NO ERROR,-0.000000,-0.038500,0.000000,-0.070583,TRUE,FALSE,FALSE,FALSE,FALSE,FALSE,Disabled,0.000000,0.000000,0.000000,TRUE,-0.381516,1.795776,0.000000,-0.023575,0.030807,0.000000,0.010000,-0.032000,0.030000,0.020000,0.370000,2.400000,-0.407341,Hold,0.899658,0.000000,Hold,-266.000000,2.000000,Suck,-2130.000000,2181.818182,Speed,-2122.500000,2181.818182,Speed,On,On0.000000,0,,,,
02:18:45.347 PM 03/19/2016,Teleop Enabled,11,FALSE,0,NO ERROR,-0.000000,-0.038500,0.000000,-0.070583,TRUE,FALSE,FALSE,FALSE,FALSE,FALSE,Disabled,0.000000,0.000000,0.000000,TRUE,-0.382339,1.796310,0.000000,-0.005539,0.008392,0.000000,0.010000,-0.032000,0.030000,0.020000,0.400000,2.440000,-0.400414,Hold,0.899658,0.000000,Hold,-266.000000,2.000000,Suck,-2130.000000,2181.818182,Speed,-2122.500000,2181.818182,Speed,On,On0.000000,0,,,,
02:18:45.447 PM 03/19/2016,Teleop Enabled,8,FALSE,0,NO ERROR,-0.000000,-0.038500,0.000000,-0.070583,TRUE,FALSE,FALSE,FALSE,FALSE,FALSE,Disabled,0.000000,0.000000,0.000000,TRUE,-0.382339,1.795959,0.000000,0.000000,-0.018112,0.000000,0.026000,-0.029000,0.000000,0.020000,0.400000,2.440000,-0.404325,Hold,0.899658,0.000000,Hold,-266.000000,2.000000,Suck,-2130.000000,2181.818182,Speed,-2122.500000,2181.818182,Speed,On,On0.000000,0,,,,
02:18:45.547 PM 03/19/2016,Teleop Enabled,10,FALSE,0,NO ERROR,-0.000000,-0.038500,0.000000,-0.070583,TRUE,FALSE,FALSE,FALSE,FALSE,FALSE,Disabled,0.000000,0.000000,0.000000,TRUE,-0.381790,1.794800,0.000000,0.014709,-0.038712,0.000000,0.063000,0.047000,0.000000,0.020000,0.340000,2.410000,-0.398889,Hold,0.899658,0.000000,Hold,-266.000000,2.000000,Suck,-2130.000000,2181.818182,Speed,-2122.500000,2181.818182,Speed,On,On0.000000,0,,,,
02:18:45.648 PM 03/19/2016,Teleop Enabled,10,FALSE,0,NO ERROR,-0.000000,-0.038500,0.000000,-0.070583,TRUE,FALSE,FALSE,FALSE,FALSE,FALSE,Disabled,0.000000,0.000000,0.000000,TRUE,-0.382172,1.796280,0.000000,0.000000,0.054367,0.000000,0.001000,-0.002000,-0.004000,0.010000,0.340000,2.420000,-0.387085,Hold,0.899658,0.000000,Hold,-266.000000,2.000000,Suck,-2130.000000,2181.818182,Speed,-2122.500000,2181.818182,Speed,On,On0.000000,0,,,,
02:18:45.748 PM 03/19/2016,Teleop Enabled,10,FALSE,0,NO ERROR,-0.000000,-0.038500,0.000000,-0.070583,TRUE,FALSE,FALSE,FALSE,FALSE,FALSE,Disabled,0.000000,0.000000,0.000000,TRUE,-0.382431,1.800018,0.000000,-0.016983,0.109131,0.000000,0.000000,-0.014000,0.054000,0.010000,0.310000,2.390000,-0.392393,Hold,0.899658,0.000000,Hold,-266.000000,2.000000,Suck,-2130.000000,2181.818182,Speed,-2122.500000,2181.818182,Speed,On,On0.000000,0,,,,
02:18:45.849 PM 03/19/2016,Teleop Enabled,9,FALSE,0,NO ERROR,-0.000000,-0.038500,0.000000,-0.070583,TRUE,FALSE,FALSE,FALSE,FALSE,FALSE,Disabled,0.000000,0.000000,0.000000,TRUE,-0.382919,1.804260,0.000000,0.007812,0.000000,0.000000,-0.075000,0.125000,0.162000,0.010000,0.340000,2.370000,-0.399650,Hold,0.899658,0.000000,Hold,-266.000000,2.000000,Suck,-2130.000000,2181.818182,Speed,-2122.500000,2181.818182,Speed,On,On0.000000,0,,,,
