Time,Robot Mode,Loop Time,Error Status,Error Code,Error Source,Left Motor Output,Left Motor Encoder,Right Motor Output,Right Motor Encoder,Is Level,Is Stalled,Ball Detector Photoeye,Vision Enabled,Vision Teleop Control,Vision Auto Control,Vision Current State,Vision X Output,Vision NavX Error,Vision NavX Target,NavX Connection Status,NavX Displacement X,NavX Displacement Y,NavX Displacement Z,NavX Velocity X,NavX Velocity Y,NavX Velocity Z,NavX Acceleration X,NavX Acceleration Y,NavX Acceleration Z,NavX Pitch,NavX Yaw,NavX Roll,Gyro Angle,Roller Arm State,Roller Arm Actual,Roller Arm Desired,Shooter Arm State,Shooter Arm Actual,Shooter Arm Desired,Shooter State,Actual RPM Left,Desired RPM Left,Control Mode Left,Actual RPM Right,Desired RPM Right,Scaler Motor Output,Auto To Run,Auto Current File,Auto File Status,Auto Current Command,Auto Trimmed Command
02:51:18.098 PM 03/19/2016,Autonomous Disabled,10,FALSE,0,NO ERROR,-0.000000,0.154000,0.000000,0.179666,TRUE,FALSE,FALSE,FALSE,FALSE,FALSE,Disabled,0.000000,0.000000,0.000000,TRUE,7.190414,22.546082,0.000000,0.000000,0.000000,0.000000,0.000000,0.000000,0.015000,0.030000,-0.230000,2.450000,1.238973,Hold,0.966064,0.000000,Hold,36.000000,2.000000,Suck,0.000000,2181.818182,Speed,0.000000,2181.818182,Speed,Off,On0.000000,0,,,,
02:51:18.199 PM 03/19/2016,Teleop Enabled,10,FALSE,0,NO ERROR,-0.000000,-0.006417,0.000000,0.000000,TRUE,TRUE,FALSE,FALSE,FALSE,FALSE,Disabled,0.000000,0.000000,0.000000,TRUE,7.191254,22.538971,0.000000,0.000000,0.000000,0.000000,0.000000,0.000000,0.015000,0.000000,-0.190000,2.410000,-0.000193,ResetBack,0.964600,-0.200000,ResetBack,36.000000,-0.300000,Empty,0.000000,0.000000,Speed,0.000000,0.000000,Speed,Off,Off0.000000,0,,,,
02:51:18.299 PM 03/19/2016,Teleop Enabled,10,FALSE,0,NO ERROR,-0.000000,-0.006417,0.000000,0.000000,TRUE,FALSE,FALSE,FALSE,FALSE,FALSE,Disabled,0.000000,0.000000,0.000000,TRUE,7.191254,22.538971,0.000000,0.000000,0.000000,0.000000,-0.007000,-0.001000,0.012000,0.000000,-0.190000,2.410000,-0.019092,ResetBack,0.301270,-0.200000,ResetBack,36.000000,-0.300000,Empty,0.000000,0.000000,Speed,0.000000,0.000000,Speed,Off,Off0.000000,0,,,,
02:51:18.399 PM 03/19/2016,Teleop Enabled,10,FALSE,0,NO ERROR,-0.000000,-0.006417,0.000000,-0.006417,TRUE,FALSE,FALSE,FALSE,FALSE,FALSE,Disabled,0.000000,0.000000,0.000000,TRUE,7.191498,22.539185,0.000000,0.012070,0.007050,0.000000,0.003000,-0.039000,0.006000,0.000000,-0.200000,2.430000,-0.020346,ResetBack,0.247803,-0.200000,ResetBack,8857.000000,-0.300000,Empty,0.000000,0.000000,Speed,0.000000,0.000000,Speed,Off,Off0.000000,0,,,,
02:51:18.500 PM 03/19/2016,Teleop Enabled,10,FALSE,0,NO ERROR,-0.000000,-0.006417,0.000000,-0.006417,TRUE,FALSE,FALSE,FALSE,FALSE,FALSE,Disabled,0.000000,0.000000,0.000000,TRUE,7.191315,22.539459,0.000000,-0.002899,0.000000,0.000000,0.034000,0.005000,0.035000,0.000000,-0.200000,2.440000,-0.025888,Reset,0.247803,0.000000,ResetBack,15369.000000,-0.300000,Empty,0.000000,0.000000,Speed,0.000000,0.000000,Speed,Off,Off0.000000,0,,,,
02:51:18.600 PM 03/19/2016,Teleop Enabled,10,FALSE,0,NO ERROR,-0.000000,-0.006417,0.000000,-0.006417,TRUE,FALSE,FALSE,FALSE,FALSE,FALSE,Disabled,0.000000,0.000000,0.000000,TRUE,7.191360,22.539459,0.000000,0.000000,0.000000,0.000000,-0.001000,0.021000,-0.017000,0.000000,-0.210000,2.450000,-0.028071,Hold,1.208984,0.000000,ResetBack,16876.000000,-0.300000,Empty,0.000000,0.000000,Speed,0.000000,0.000000,Speed,Off,Off0.000000,0,,,,
02:51:18.700 PM 03/19/2016,Teleop Enabled,10,FALSE,0,NO ERROR,-0.000000,-0.006417,0.000000,-0.006417,TRUE,FALSE,FALSE,FALSE,FALSE,FALSE,Disabled,0.000000,0.000000,0.000000,TRUE,7.191360,22.539658,0.000000,0.000000,0.010452,0.000000,0.009000,-0.020000,0.006000,0.000000,-0.210000,2.460000,-0.043937,Hold,0.886963,0.000000,ResetBack,17310.000000,-0.300000,Empty,0.000000,0.000000,Speed,0.000000,0.000000,Speed,Off,Off0.000000,0,,,,
02:51:18.800 PM 03/19/2016,Teleop Enabled,10,FALSE,0,NO ERROR,-0.000000,-0.006417,0.000000,-0.006417,TRUE,FALSE,FALSE,FALSE,FALSE,FALSE,Disabled,0.000000,0.000000,0.000000,TRUE,7.191360,22.539993,0.000000,0.000000,0.009338,0.000000,0.000000,-0.008000,0.021000,0.000000,-0.200000,2.460000,-0.046550,Hold,0.885986,0.000000,ResetBack,17487.000000,-0.300000,Empty,0.000000,0.000000,Speed,0.000000,0.000000,Speed,Off,Off0.000000,0,,,,
02:51:18.900 PM 03/19/2016,Teleop Enabled,9,FALSE,0,NO ERROR,-0.000000,-0.006417,0.000000,-0.012833,TRUE,FALSE,FALSE,FALSE,FALSE,FALSE,Disabled,0.000000,0.000000,0.000000,TRUE,7.191360,22.540115,0.000000,0.000000,0.002747,0.000000,0.000000,0.014000,0.028000,0.000000,-0.210000,2.460000,-0.047827,Hold,0.885986,0.000000,ResetBack,17705.000000,-0.300000,Empty,0.000000,0.000000,Speed,0.000000,0.000000,Speed,Off,Off0.000000,0,,,,
02:51:19.000 PM 03/19/2016,Teleop Enabled,8,FALSE,0,NO ERROR,-0.000000,-0.006417,0.000000,-0.012833,TRUE,FALSE,FALSE,FALSE,FALSE,FALSE,Disabled,0.000000,0.000000,0.000000,TRUE,7.191360,22.540237,0.000000,0.000000,0.000000,0.000000,-0.002000,0.019000,0.032000,0.000000,-0.210000,2.450000,-0.050940,Hold,0.885742,0.000000,ResetBack,17705.000000,-0.300000,Empty,0.000000,0.000000,Speed,0.000000,0.000000,Speed,Off,Off0.000000,0,,,,
02:51:19.100 PM 03/19/2016,Teleop Enabled,11,FALSE,0,NO ERROR,-0.000000,-0.006417,0.000000,-0.012833,TRUE,FALSE,FALSE,FALSE,FALSE,FALSE,Disabled,0.000000,0.000000,0.000000,TRUE,7.191360,22.540237,0.000000,0.000000,0.000000,0.000000,-0.001000,0.017000,0.021000,0.000000,-0.210000,2.440000,-0.053749,Hold,0.885742,0.000000,ResetBack,17705.000000,-0.300000,Empty,0.000000,0.000000,Speed,0.000000,0.000000,Speed,Off,Off0.000000,0,,,,
02:51:19.200 PM 03/19/2016,Teleop Enabled,10,FALSE,0,NO ERROR,-0.000000,-0.006417,0.000000,-0.012833,TRUE,FALSE,FALSE,FALSE,FALSE,FALSE,Disabled,0.000000,0.000000,0.000000,TRUE,7.191360,22.540237,0.000000,0.000000,0.000000,0.000000,0.000000,0.011000,0.023000,0.000000,-0.210000,2.440000,-0.071485,Hold,0.885742,0.000000,ResetBack,17706.000000,-0.300000,Empty,0.000000,0.000000,Speed,0.000000,0.000000,Speed,Off,Off0.000000,0,,,,
02:51:19.301 PM 03/19/2016,Teleop Enabled,9,FALSE,0,NO ERROR,-0.000000,-0.006417,0.000000,-0.012833,TRUE,FALSE,FALSE,FALSE,FALSE,FALSE,Disabled,0.000000,0.000000,0.000000,TRUE,7.191360,22.540237,0.000000,0.000000,0.000000,0.000000,0.002000,0.006000,0.024000,0.000000,-0.210000,2.440000,-0.083847,Hold,0.885742,0.000000,ResetBack,17706.000000,-0.300000,Empty,0.000000,0.000000,Speed,0.000000,0.000000,Speed,Off,On0.000000,0,,,,
02:51:19.401 PM 03/19/2016,Teleop Enabled,10,FALSE,0,NO ERROR,-0.000000,-0.006417,0.000000,-0.012833,TRUE,FALSE,FALSE,FALSE,FALSE,FALSE,Disabled,0.000000,0.000000,0.000000,TRUE,7.191360,22.540237,0.000000,0.000000,0.000000,0.000000,0.126000,0.001000,0.113000,0.000000,-0.220000,2.450000,-0.088897,Hold,0.885742,0.000000,Reset,17706.000000,2.000000,Suck,0.000000,2181.818182,Speed,0.000000,2181.818182,Speed,Off,On0.000000,0,,,,
02:51:19.502 PM 03/19/2016,Teleop Enabled,11,FALSE,0,NO ERROR,-0.000000,-0.006417,0.000000,-0.012833,TRUE,FALSE,FALSE,FALSE,FALSE,FALSE,Disabled,0.000000,0.000000,0.000000,TRUE,7.192017,22.540283,0.000000,-0.003845,0.007202,0.000000,-0.023000,0.064000,0.063000,0.000000,-0.160000,2.510000,-0.085981,Hold,0.885742,0.000000,Hold,-307.000000,2.000000,Suck,-30.000000,2181.818182,Speed,-45.000000,2181.818182,Speed,Off,On0.000000,0,,,,
02:51:19.604 PM 03/19/2016,Teleop Enabled,11,FALSE,0,NO ERROR,-0.000000,-0.006417,0.000000,-0.012833,TRUE,FALSE,FALSE,FALSE,FALSE,FALSE,Disabled,0.000000,0.000000,0.000000,TRUE,7.192215,22.541092,0.000000,0.009201,-0.005325,0.000000,0.030000,-0.045000,-0.008000,0.000000,-0.210000,2.520000,-0.096154,Hold,0.885742,0.000000,Hold,-307.000000,2.000000,Suck,-600.000000,2181.818182,Speed,-697.500000,2181.818182,Speed,Off,On0.000000,0,,,,
02:51:19.704 PM 03/19/2016,Teleop Enabled,10,FALSE,0,NO ERROR,-0.000000,-0.006417,0.000000,-0.012833,TRUE,FALSE,FALSE,FALSE,FALSE,FALSE,Disabled,0.000000,0.000000,0.000000,TRUE,7.193024,22.540451,0.000000,0.017883,-0.032349,0.000000,0.045000,0.008000,0.010000,0.000000,-0.170000,2.490000,-0.085293,Hold,0.885742,0.000000,Hold,-307.000000,2.000000,Suck,-1357.500000,2181.818182,Speed,-1462.500000,2181.818182,Speed,Off,On0.000000,0,,,,
02:51:19.805 PM 03/19/2016,Teleop Enabled,11,FALSE,0,NO ERROR,-0.000000,-0.006417,0.000000,-0.012833,TRUE,FALSE,FALSE,FALSE,FALSE,FALSE,Disabled,0.000000,0.000000,0.000000,TRUE,7.194077,22.538116,0.000000,0.016373,-0.033554,0.000000,-0.112000,0.106000,0.118000,0.000000,-0.190000,2.470000,-0.103576,Hold,0.885742,0.000000,Hold,-307.000000,2.000000,Suck,-1972.500000,2181.818182,Speed,-2070.000000,2181.818182,Speed,Off,On0.000000,0,,,,
02:51:19.906 PM 03/19/2016,Teleop Enabled,9,FALSE,0,NO ERROR,-0.000000,-0.006417,0.000000,-0.012833,TRUE,FALSE,FALSE,FALSE,FALSE,FALSE,Disabled,0.000000,0.000000,0.000000,TRUE,7.192963,22.537842,0.000000,-0.015228,-0.008789,0.000000,0.041000,-0.131000,0.036000,0.000000,-0.220000,2.560000,-0.108255,Hold,0.885742,0.000000,Hold,-292.000000,2.000000,Suck,-2280.000000,2181.818182,Speed,-2310.000000,2181.818182,Speed,Off,On0.000000,0,,,,
02:51:20.007 PM 03/19/2016,Teleop Enabled,10,FALSE,0,NO ERROR,-0.000000,-0.006417,0.000000,-0.012833,TRUE,FALSE,FALSE,FALSE,FALSE,FALSE,Disabled,0.000000,0.000000,0.000000,TRUE,7.193008,22.535477,0.000000,0.000565,-0.047882,0.000000,0.013000,0.065000,-0.047000,0.010000,-0.240000,2.510000,-0.099789,Hold,0.885742,0.000000,Hold,-256.000000,2.000000,Suck,-2227.500000,2181.818182,Speed,-2197.500000,2181.818182,Speed,Off,On0.000000,0,,,,
02:51:20.108 PM 03/19/2016,Teleop Enabled,11,FALSE,0,NO ERROR,-0.000000,-0.006417,0.000000,-0.012833,TRUE,FALSE,FALSE,FALSE,FALSE,FALSE,Disabled,0.000000,0.000000,0.000000,TRUE,7.192734,22.534607,0.000000,0.000000,0.000000,0.000000,0.047000,-0.063000,-0.017000,0.000000,-0.250000,2.510000,-0.114141,Hold,0.885742,0.000000,Hold,-255.000000,2.000000,Suck,-2077.500000,2181.818182,Speed,-2092.500000,2181.818182,Speed,Off,On0.000000,0,,,,
02:51:20.208 PM 03/19/2016,Teleop Enabled,10,FALSE,0,NO ERROR,-0.000000,-0.006417,0.000000,-0.012833,TRUE,FALSE,FALSE,FALSE,FALSE,FALSE,Disabled,0.000000,0.000000,0.000000,TRUE,7.193939,22.534210,0.000000,0.017746,0.009186,0.000000,-0.072000,0.010000,0.110000,0.000000,-0.270000,2.530000,-0.106213,Hold,0.885742,0.000000,Hold,-254.000000,2.000000,Suck,-2115.000000,2181.818182,Speed,-2130.000000,2181.818182,Speed,Off,On0.000000,0,,,,
02:51:20.309 PM 03/19/2016,Teleop Enabled,10,FALSE,0,NO ERROR,-0.000000,-0.006417,0.000000,-0.012833,TRUE,FALSE,FALSE,FALSE,FALSE,FALSE,Disabled,0.000000,0.000000,0.000000,TRUE,7.192337,22.535736,0.000000,-0.056473,0.047134,0.000000,-0.048000,0.005000,-0.043000,0.000000,-0.300000,2.580000,-0.110341,Hold,0.885742,0.000000,Hold,-254.000000,2.000000,Suck,-2167.500000,2181.818182,Speed,-2130.000000,2181.818182,Speed,Off,On0.000000,0,,,,
02:51:20.409 PM 03/19/2016,Teleop Enabled,11,FALSE,0,NO ERROR,-0.000000,-0.006417,0.000000,-0.012833,TRUE,FALSE,FALSE,FALSE,FALSE,FALSE,Disabled,0.000000,0.000000,0.000000,TRUE,7.186539,22.537262,0.000000,-0.122803,0.000000,0.000000,-0.049000,-0.017000,0.020000,0.000000,-0.240000,2.560000,-0.118992,Hold,0.885742,0.000000,Hold,-254.000000,2.000000,Suck,-2145.000000,2181.818182,Speed,-2145.000000,2181.818182,Speed,Off,On0.000000,0,,,,
02:51:20.510 PM 03/19/2016,Teleop Enabled,9,FALSE,0,NO ERROR,-0.000000,-0.006417,0.000000,-0.012833,TRUE,FALSE,FALSE,FALSE,FALSE,FALSE,Disabled,0.000000,0.000000,0.000000,TRUE,7.181580,22.537460,0.000000,-0.132248,0.014206,0.000000,0.029000,-0.040000,0.091000,0.000000,-0.250000,2.500000,-0.117705,Hold,0.885742,0.000000,Hold,-254.000000,2.000000,Suck,-2130.000000,2181.818182,Speed,-2137.500000,2181.818182,Speed,Off,On0.000000,0,,,,
02:51:20.610 PM 03/19/2016,Teleop Enabled,10,FALSE,0,NO ERROR,-0.000000,-0.006417,0.000000,-0.012833,TRUE,FALSE,FALSE,FALSE,FALSE,FALSE,Disabled,0.000000,0.000000,0.000000,TRUE,7.174408,22.538528,0.000000,-0.092239,0.000000,0.000000,0.112000,-0.036000,0.007000,0.000000,-0.250000,2.530000,-0.115140,Hold,0.885742,0.000000,Hold,-254.000000,2.000000,Suck,-2130.000000,2181.818182,Speed,-2145.000000,2181.818182,Speed,Off,On0.000000,0,,,,
02:51:20.712 PM 03/19/2016,Teleop Enabled,10,FALSE,0,NO ERROR,-0.000000,-0.006417,0.000000,-0.012833,TRUE,FALSE,FALSE,FALSE,FALSE,FALSE,Disabled,0.000000,0.000000,0.000000,TRUE,7.172073,22.537567,0.000000,0.000000,-0.027222,0.000000,-0.027000,0.025000,0.003000,0.000000,-0.150000,2.470000,-0.130001,Hold,0.885742,0.000000,Hold,-254.000000,2.000000,Suck,-2145.000000,2181.818182,Speed,-2145.000000,2181.818182,Speed,Off,On0.000000,0,,,,
02:51:20.812 PM 03/19/2016,Teleop Enabled,10,FALSE,0,NO ERROR,-0.000000,-0.006417,0.000000,-0.012833,TRUE,FALSE,FALSE,FALSE,FALSE,FALSE,Disabled,0.000000,0.000000,0.000000,TRUE,7.171646,22.536438,0.000000,-0.008606,-0.032745,0.000000,-0.076000,-0.076000,-0.078000,0.000000,-0.150000,2.420000,-0.127726,Hold,0.885742,0.000000,Hold,-254.000000,2.000000,Suck,-2137.500000,2181.818182,Speed,-2145.000000,2181.818182,Speed,Off,On0.000000,0,,,,
02:51:20.914 PM 03/19/2016,Teleop Enabled,11,FALSE,0,NO ERROR,-0.000000,-0.006417,0.000000,-0.012833,TRUE,FALSE,FALSE,FALSE,FALSE,FALSE,Disabled,0.000000,0.000000,0.000000,TRUE,7.167770,22.535080,0.000000,-0.088181,-0.008789,0.000000,-0.016000,-0.006000,-0.061000,0.000000,-0.270000,2.530000,-0.139885,Hold,0.885742,0.000000,Hold,-254.000000,2.000000,Suck,-2137.500000,2181.818182,Speed,-2145.000000,2181.818182,Speed,Off,On0.000000,0,,,,
02:51:21.015 PM 03/19/2016,Teleop Enabled,11,FALSE,0,NO ERROR,-0.000000,-0.006417,0.000000,-0.012833,TRUE,FALSE,FALSE,FALSE,FALSE,FALSE,Disabled,0.000000,0.000000,0.000000,TRUE,7.163727,22.534607,0.000000,-0.057220,-0.019348,0.000000,0.013000,0.001000,-0.003000,0.000000,-0.210000,2.510000,-0.145600,Hold,0.885742,0.000000,Hold,-254.000000,2.000000,Suck,-2145.000000,2181.818182,Speed,-2145.000000,2181.818182,Speed,Off,On0.000000,0,,,,
02:51:21.116 PM 03/19/2016,Teleop Enabled,11,FALSE,0,NO ERROR,-0.000000,-0.006417,0.000000,-0.012833,TRUE,FALSE,FALSE,FALSE,FALSE,FALSE,Disabled,0.000000,0.000000,0.000000,TRUE,7.162125,22.533340,0.000000,-0.017319,-0.030869,0.000000,-0.025000,-0.011000,-0.032000,0.000000,-0.190000,2.450000,-0.149521,Hold,0.885742,0.000000,Hold,-254.000000,2.000000,Suck,-2145.000000,2181.818182,Speed,-2145.000000,2181.818182,Speed,Off,On0.000000,0,,,,
02:51:21.220 PM 03/19/2016,Teleop Enabled,10,FALSE,0,NO ERROR,-0.000000,-0.006417,0.000000,-0.012833,TRUE,FALSE,FALSE,FALSE,FALSE,FALSE,Disabled,0.000000,0.000000,0.000000,TRUE,7.161133,22.533478,0.000000,-0.029617,0.011078,0.000000,0.036000,-0.004000,0.018000,0.010000,-0.250000,2.500000,-0.159370,Hold,0.885742,0.000000,Hold,-254.000000,2.000000,Suck,-2137.500000,2181.818182,Speed,-2145.000000,2181.818182,Speed,Off,On0.000000,0,,,,
02:51:21.320 PM 03/19/2016,Teleop Enabled,9,FALSE,0,NO ERROR,-0.000000,-0.006417,0.000000,-0.012833,TRUE,FALSE,FALSE,FALSE,FALSE,FALSE,Disabled,0.000000,0.000000,0.000000,TRUE,7.159195,22.534332,0.000000,-0.024216,-0.014923,0.000000,0.013000,-0.074000,0.044000,0.010000,-0.220000,2.530000,-0.154753,Hold,0.885742,0.000000,Hold,-254.000000,2.000000,Suck,-2137.500000,2181.818182,Speed,-2145.000000,2181.818182,Speed,Off,On0.000000,0,,,,
02:51:21.421 PM 03/19/2016,Teleop Enabled,9,FALSE,0,NO ERROR,-0.000000,-0.006417,0.000000,-0.012833,TRUE,FALSE,FALSE,FALSE,FALSE,FALSE,Disabled,0.000000,0.000000,0.000000,TRUE,7.158493,22.532654,0.000000,0.002075,-0.054276,0.000000,0.029000,-0.110000,0.007000,0.010000,-0.230000,2.490000,-0.161979,Hold,0.885742,0.000000,Hold,-254.000000,2.000000,Suck,-2137.500000,2181.818182,Speed,-2145.000000,2181.818182,Speed,Off,On0.000000,0,,,,
02:51:21.522 PM 03/19/2016,Teleop Enabled,9,FALSE,0,NO ERROR,-0.000000,-0.006417,0.000000,-0.012833,TRUE,FALSE,FALSE,FALSE,FALSE,FALSE,Disabled,0.000000,0.000000,0.000000,TRUE,7.159225,22.528961,0.000000,0.006470,-0.060654,0.000000,-0.054000,0.000000,0.052000,0.010000,-0.220000,2.500000,-0.169061,Hold,0.885742,0.000000,Hold,-254.000000,2.000000,Suck,-2137.500000,2181.818182,Speed,-2145.000000,2181.818182,Speed,Off,On0.000000,0,,,,
02:51:21.622 PM 03/19/2016,Teleop Enabled,9,FALSE,0,NO ERROR,-0.000000,-0.006417,0.000000,-0.012833,TRUE,FALSE,FALSE,FALSE,FALSE,FALSE,Disabled,0.000000,0.000000,0.000000,TRUE,7.159286,22.527618,0.000000,-0.004486,0.005478,0.000000,0.002000,0.073000,0.084000,0.010000,-0.210000,2.510000,-0.165078,Hold,0.885742,0.000000,Hold,-254.000000,2.000000,Suck,-2137.500000,2181.818182,Speed,-2145.000000,2181.818182,Speed,Off,On0.000000,0,,,,
02:51:21.722 PM 03/19/2016,Teleop Enabled,10,FALSE,0,NO ERROR,-0.000000,-0.006417,0.000000,-0.012833,TRUE,FALSE,FALSE,FALSE,FALSE,FALSE,Disabled,0.000000,0.000000,0.000000,TRUE,7.158508,22.527588,0.000000,-0.002060,-0.012589,0.000000,-0.037000,0.101000,0.155000,0.010000,-0.180000,2.460000,-0.178559,Hold,0.885742,0.000000,Hold,-254.000000,2.000000,Suck,-2137.500000,2181.818182,Speed,-2145.000000,2181.818182,Speed,Off,On0.000000,0,,,,
02:51:21.824 PM 03/19/2016,Teleop Enabled,9,FALSE,0,NO ERROR,-0.000000,-0.006417,0.000000,-0.012833,TRUE,FALSE,FALSE,FALSE,FALSE,FALSE,Disabled,0.000000,0.000000,0.000000,TRUE,7.157761,22.527573,0.000000,-0.015579,0.002090,0.000000,0.009000,0.040000,0.130000,0.020000,-0.290000,2.530000,-0.182194,Hold,0.885742,0.000000,Hold,-254.000000,2.000000,Suck,-2145.000000,2181.818182,Speed,-2145.000000,2181.818182,Speed,Off,On0.000000,0,,,,
02:51:21.924 PM 03/19/2016,Teleop Enabled,10,FALSE,0,NO ERROR,-0.000000,-0.006417,0.000000,-0.012833,TRUE,FALSE,FALSE,FALSE,FALSE,FALSE,Disabled,0.000000,0.000000,0.000000,TRUE,7.157791,22.529419,0.000000,0.012634,0.046646,0.000000,-0.043000,0.027000,0.116000,0.010000,-0.220000,2.460000,-0.183347,Hold,0.885742,0.000000,Hold,-254.000000,2.000000,Suck,-2137.500000,2181.818182,Speed,-2137.500000,2181.818182,Speed,Off,On0.000000,0,,,,
02:51:22.026 PM 03/19/2016,Teleop Enabled,10,FALSE,0,NO ERROR,-0.000000,-0.006417,0.000000,-0.012833,TRUE,FALSE,FALSE,FALSE,FALSE,FALSE,Disabled,0.000000,0.000000,0.000000,TRUE,7.157639,22.532166,0.000000,-0.014511,0.079437,0.000000,-0.038000,0.003000,-0.061000,0.000000,-0.190000,2.400000,-0.191895,Hold,0.885742,0.000000,Hold,-254.000000,2.000000,Suck,-2137.500000,2181.818182,Speed,-2137.500000,2181.818182,Speed,Off,On0.000000,0,,,,
02:51:22.126 PM 03/19/2016,Teleop Enabled,10,FALSE,0,NO ERROR,-0.000000,-0.006417,0.000000,-0.012833,TRUE,FALSE,FALSE,FALSE,FALSE,FALSE,Disabled,0.000000,0.000000,0.000000,TRUE,7.154434,22.536316,0.000000,-0.066895,0.077332,0.000000,0.038000,0.055000,-0.026000,0.020000,-0.280000,2.460000,-0.199131,Hold,0.885742,0.000000,Hold,-254.000000,2.000000,Suck,-2137.500000,2181.818182,Speed,-2145.000000,2181.818182,Speed,Off,On0.000000,0,,,,
02:51:22.226 PM 03/19/2016,Teleop Enabled,10,FALSE,0,NO ERROR,-0.000000,-0.006417,0.000000,-0.012833,TRUE,FALSE,FALSE,FALSE,FALSE,FALSE,Disabled,0.000000,0.000000,0.000000,TRUE,7.152435,22.539505,0.000000,-0.013809,0.046249,0.000000,0.066000,-0.016000,0.097000,0.000000,-0.190000,2.470000,-0.203541,Hold,0.885742,208896.000000,Hold,-254.000000,143360.000000,Suck,-2137.500000,2181.818182,Speed,-2145.000000,2181.818182,Speed,Off,On0.000000,0,,,,
02:51:22.327 PM 03/19/2016,Teleop Enabled,10,FALSE,0,NO ERROR,-0.000000,-0.006417,0.000000,-0.012833,TRUE,FALSE,FALSE,FALSE,FALSE,FALSE,Disabled,0.000000,0.000000,0.000000,TRUE,7.152924,22.540649,0.000000,0.008621,0.015518,0.000000,-0.027000,-0.072000,-0.030000,0.020000,-0.140000,2.540000,-0.196012,Hold,4.483643,208896.000000,Hold,-8823.000000,143360.000000,Suck,-2145.000000,2181.818182,Speed,-2137.500000,2181.818182,Speed,Off,On0.000000,0,,,,
02:51:22.427 PM 03/19/2016,Teleop Enabled,9,FALSE,0,NO ERROR,-0.000000,0.000000,0.000000,0.000000,TRUE,FALSE,FALSE,FALSE,FALSE,FALSE,Disabled,0.000000,0.000000,0.000000,TRUE,7.153122,22.541611,0.000000,-0.011551,0.020187,0.000000,-0.085000,-0.035000,-0.015000,0.020000,-0.210000,2.490000,-0.213056,Hold,8.437500,208896.000000,Hold,-8823.000000,143360.000000,Suck,-2145.000000,2181.818182,Speed,-2145.000000,2181.818182,Speed,Off,On0.000000,0,,,,
02:51:22.527 PM 03/19/2016,Teleop Enabled,10,FALSE,0,NO ERROR,-0.000000,0.070583,0.000000,0.064167,TRUE,FALSE,FALSE,FALSE,FALSE,FALSE,Disabled,0.000000,0.000000,0.000000,TRUE,7.152847,22.541611,0.000000,-0.004654,-0.003937,0.000000,0.065000,-0.029000,0.108000,0.020000,-0.270000,2.540000,-0.222472,Hold,14.167969,208896.000000,Hold,-22943.000000,143360.000000,Suck,-2145.000000,2181.818182,Speed,-2152.500000,2181.818182,Speed,Off,On0.000000,0,,,,
02:51:22.627 PM 03/19/2016,Teleop Enabled,10,FALSE,0,NO ERROR,-0.000000,0.089833,0.000000,0.077000,TRUE,FALSE,FALSE,FALSE,FALSE,FALSE,Disabled,0.000000,0.000000,0.000000,TRUE,7.154205,22.539932,0.000000,0.054993,-0.052856,0.000000,0.078000,0.062000,0.060000,0.020000,-0.150000,2.520000,-0.203039,Hold,20.800293,208896.000000,Hold,-34076.000000,143360.000000,Suck,-2152.500000,2181.818182,Speed,-2152.500000,2181.818182,Speed,Off,On0.000000,0,,,,
02:51:22.728 PM 03/19/2016,Teleop Enabled,10,FALSE,0,NO ERROR,-0.000000,0.089833,0.000000,0.077000,TRUE,FALSE,FALSE,FALSE,FALSE,FALSE,Disabled,0.000000,0.000000,0.000000,TRUE,7.155945,22.538437,0.000000,0.012939,-0.030746,0.000000,0.011000,0.037000,0.099000,0.030000,-0.130000,2.480000,-0.208113,Hold,28.705322,208896.000000,Hold,-46080.000000,143360.000000,Suck,-2152.500000,2181.818182,Speed,-2160.000000,2181.818182,Speed,Off,On0.000000,0,,,,
02:51:22.828 PM 03/19/2016,Teleop Enabled,11,FALSE,0,NO ERROR,-0.000000,0.089833,0.000000,0.077000,TRUE,FALSE,FALSE,FALSE,FALSE,FALSE,Disabled,0.000000,0.000000,0.000000,TRUE,7.157196,22.538208,0.000000,0.027405,0.036026,0.000000,0.037000,0.104000,0.042000,0.030000,-0.370000,2.470000,-0.219053,Hold,37.692139,208896.000000,Hold,-59186.000000,143360.000000,Suck,-2160.000000,2181.818182,Speed,-2152.500000,2181.818182,Speed,Off,On0.000000,0,,,,
02:51:22.929 PM 03/19/2016,Teleop Enabled,10,FALSE,0,NO ERROR,-0.000000,-0.044917,0.000000,-0.179666,TRUE,FALSE,FALSE,FALSE,FALSE,FALSE,Disabled,0.000000,0.000000,0.000000,TRUE,7.157623,22.542511,0.000000,-0.008926,0.081390,0.000000,0.122000,-0.061000,-0.220000,0.070000,-0.750000,2.480000,-0.160430,Hold,48.314453,208896.000000,Hold,-73806.000000,143360.000000,Suck,-2152.500000,2181.818182,Speed,-2152.500000,2181.818182,Speed,Off,On0.000000,0,,,,
02:51:23.029 PM 03/19/2016,Teleop Enabled,10,FALSE,0,NO ERROR,-0.000000,-0.205333,0.000000,-0.372166,TRUE,FALSE,FALSE,FALSE,FALSE,FALSE,Disabled,0.000000,0.000000,0.000000,TRUE,7.156448,22.546127,0.000000,-0.061050,0.096558,0.000000,-0.044000,0.049000,-0.063000,0.130000,-0.860000,2.510000,-0.116716,Hold,55.543457,208896.000000,Hold,-91046.000000,143360.000000,Suck,-2145.000000,2181.818182,Speed,-2160.000000,2181.818182,Speed,Off,On0.000000,0,,,,
02:51:23.131 PM 03/19/2016,Teleop Enabled,9,FALSE,0,NO ERROR,-0.000000,-0.263083,0.000000,-0.436332,TRUE,FALSE,FALSE,FALSE,FALSE,FALSE,Disabled,0.000000,0.000000,0.000000,TRUE,7.153275,22.551590,0.000000,-0.085281,0.156952,0.000000,0.031000,0.120000,0.154000,0.170000,-1.060000,2.440000,-0.096777,Hold,56.471436,208896.000000,Hold,-108597.000000,143360.000000,Suck,-2145.000000,2181.818182,Speed,-2160.000000,2181.818182,Speed,Off,On0.000000,0,,,,
02:51:23.232 PM 03/19/2016,Teleop Enabled,9,FALSE,0,NO ERROR,-0.000000,-0.256666,0.000000,-0.404249,TRUE,FALSE,FALSE,FALSE,FALSE,FALSE,Disabled,0.000000,0.000000,0.000000,TRUE,7.145721,22.565948,0.000000,-0.128540,0.308746,0.000000,0.014000,0.058000,-0.034000,0.170000,-1.060000,2.440000,-0.123371,Hold,55.961426,208896.000000,Hold,-108597.000000,143360.000000,Suck,-2152.500000,2181.818182,Speed,-2152.500000,2181.818182,Speed,Off,On0.000000,0,,,,
02:51:23.332 PM 03/19/2016,Teleop Enabled,11,FALSE,0,NO ERROR,-0.000000,-0.243833,0.000000,-0.359332,TRUE,FALSE,FALSE,FALSE,FALSE,FALSE,Disabled,0.000000,0.000000,0.000000,TRUE,7.144684,22.582794,0.000000,0.011383,0.341049,0.000000,-0.126000,-0.311000,0.088000,0.180000,-0.760000,2.480000,-0.074580,Hold,55.354980,208896.000000,Hold,-126569.000000,143360.000000,Suck,-2152.500000,2181.818182,Speed,-2160.000000,2181.818182,Speed,Off,On0.000000,0,,,,
02:51:23.432 PM 03/19/2016,Teleop Enabled,10,FALSE,0,NO ERROR,-0.000000,-0.243833,0.000000,-0.372166,TRUE,FALSE,FALSE,FALSE,FALSE,FALSE,Disabled,0.000000,0.000000,0.000000,TRUE,7.144699,22.597610,0.000000,-0.005600,0.294464,0.000000,-0.026000,0.030000,0.356000,0.210000,-0.650000,2.450000,-0.029055,Hold,55.348877,208896.000000,Hold,-144589.000000,143360.000000,Suck,-2145.000000,2181.818182,Speed,-2145.000000,2181.818182,Speed,Off,On0.000000,0,,,,
02:51:23.532 PM 03/19/2016,Teleop Enabled,9,FALSE,0,NO ERROR,-0.000000,-0.237416,0.000000,-0.359332,TRUE,FALSE,FALSE,FALSE,FALSE,FALSE,Disabled,0.000000,0.000000,0.000000,TRUE,7.145325,22.612167,0.000000,0.009949,0.307526,0.000000,0.024000,0.002000,0.069000,0.160000,-0.610000,2.430000,-0.062038,Hold,55.117676,208896.000000,Hold,-143500.000000,143360.000000,Suck,-2130.000000,2181.818182,Speed,-2130.000000,2181.818182,Speed,Off,On0.000000,0,,,,
02:51:23.632 PM 03/19/2016,Teleop Enabled,9,FALSE,0,NO ERROR,-0.000000,-0.237416,0.000000,-0.359332,TRUE,FALSE,FALSE,FALSE,FALSE,FALSE,Disabled,0.000000,0.000000,0.000000,TRUE,7.146973,22.627396,0.000000,0.056427,0.298187,0.000000,0.072000,-0.019000,0.066000,0.200000,-0.630000,2.430000,-0.033527,Hold,55.111816,208896.000000,Hold,-143449.000000,143360.000000,Suck,-2130.000000,2181.818182,Speed,-2152.500000,2181.818182,Speed,Off,On0.000000,0,,,,
02:51:23.733 PM 03/19/2016,Teleop Enabled,9,FALSE,0,NO ERROR,-0.000000,-0.237416,0.000000,-0.359332,TRUE,FALSE,FALSE,FALSE,FALSE,FALSE,Disabled,0.000000,0.000000,0.000000,TRUE,7.149429,22.641724,0.000000,0.020584,0.292404,0.000000,0.030000,0.020000,0.057000,0.180000,-0.670000,2.430000,-0.027079,Hold,55.111572,208896.000000,Hold,-143449.000000,143360.000000,Suck,-2145.000000,2181.818182,Speed,-2160.000000,2181.818182,Speed,Off,On0.000000,0,,,,
02:51:23.834 PM 03/19/2016,Teleop Enabled,10,FALSE,0,NO ERROR,-0.000000,-0.230999,0.000000,-0.359332,TRUE,FALSE,FALSE,FALSE,FALSE,FALSE,Disabled,0.000000,0.000000,0.000000,TRUE,7.150101,22.657150,0.000000,0.009781,0.319672,0.000000,-0.110000,-0.043000,0.063000,0.160000,-0.630000,2.450000,-0.038636,Hold,55.111572,208896.000000,Hold,-143449.000000,143360.000000,Suck,-2152.500000,2181.818182,Speed,-2152.500000,2181.818182,Speed,Off,On0.000000,0,,,,
02:51:23.935 PM 03/19/2016,Teleop Enabled,11,FALSE,0,NO ERROR,-0.000000,-0.230999,0.000000,-0.352916,TRUE,FALSE,FALSE,FALSE,FALSE,FALSE,Disabled,0.000000,0.000000,0.000000,TRUE,7.150894,22.675095,0.000000,0.031754,0.266373,0.000000,-0.110000,-0.043000,0.063000,0.160000,-0.630000,2.450000,-0.023210,Hold,55.110107,208896.000000,Hold,-143449.000000,143360.000000,Suck,-2152.500000,2181.818182,Speed,-2145.000000,2181.818182,Speed,Off,On0.000000,0,,,,
02:51:24.035 PM 03/19/2016,Teleop Enabled,10,FALSE,0,NO ERROR,-0.551181,-0.128333,0.551181,-0.359332,TRUE,FALSE,FALSE,FALSE,FALSE,FALSE,Disabled,0.000000,0.000000,0.000000,TRUE,7.150894,22.675095,0.000000,0.031754,0.266373,0.000000,0.055000,-0.033000,0.007000,0.190000,-0.640000,2.470000,-0.034037,Hold,55.109619,208896.000000,Hold,-143449.000000,143360.000000,Suck,-2145.000000,2181.818182,Speed,-2152.500000,2181.818182,Speed,Off,On0.000000,0,,,,
02:51:24.137 PM 03/19/2016,Teleop Enabled,10,FALSE,0,NO ERROR,-0.000000,1.058748,0.000000,-1.783829,TRUE,FALSE,FALSE,FALSE,FALSE,FALSE,Disabled,0.000000,0.000000,0.000000,TRUE,7.152802,22.686676,0.000000,0.021606,0.206573,0.000000,0.445000,0.179000,-0.023000,0.200000,-0.640000,2.410000,3.161081,Hold,55.075439,208896.000000,Hold,-143449.000000,143360.000000,Suck,-2137.500000,2181.818182,Speed,-2145.000000,2181.818182,Speed,Off,On0.000000,0,,,,
02:51:24.240 PM 03/19/2016,Teleop Enabled,9,FALSE,0,NO ERROR,-0.000000,1.392413,0.000000,-2.252245,FALSE,FALSE,FALSE,FALSE,FALSE,FALSE,Disabled,0.000000,0.000000,0.000000,TRUE,7.158020,22.715607,0.000000,-0.116882,0.157928,0.000000,-0.277000,-0.456000,-0.433000,5.580000,-0.070000,3.510000,7.236543,Hold,54.884033,208896.000000,Hold,-143449.000000,143360.000000,Suck,-2137.500000,2181.818182,Speed,-2122.500000,2181.818182,Speed,Off,On0.000000,0,,,,
02:51:24.340 PM 03/19/2016,Teleop Enabled,11,FALSE,0,NO ERROR,-0.000000,1.385997,0.000000,-2.149578,TRUE,FALSE,FALSE,FALSE,FALSE,FALSE,Disabled,0.000000,0.000000,0.000000,TRUE,7.150787,22.723343,0.000000,-0.155334,0.108368,0.000000,-0.127000,0.113000,-0.126000,7.710000,-0.770000,2.430000,6.650854,Hold,54.856934,208896.000000,Hold,-143449.000000,143360.000000,Suck,-2137.500000,2181.818182,Speed,-2160.000000,2181.818182,Speed,Off,On0.000000,0,,,,
02:51:24.440 PM 03/19/2016,Teleop Enabled,9,FALSE,0,NO ERROR,-0.000000,1.360330,0.000000,-2.130328,TRUE,FALSE,FALSE,FALSE,FALSE,FALSE,Disabled,0.000000,0.000000,0.000000,TRUE,7.145752,22.728439,0.000000,-0.048065,0.143417,0.000000,0.050000,-0.128000,-0.055000,6.320000,-0.840000,2.490000,5.896111,Hold,54.856445,208896.000000,Hold,-143449.000000,143360.000000,Suck,-2137.500000,2181.818182,Speed,-2167.500000,2181.818182,Speed,Off,On0.000000,0,,,,
02:51:24.540 PM 03/19/2016,Teleop Enabled,9,FALSE,0,NO ERROR,-0.000000,1.360330,0.000000,-2.136745,TRUE,FALSE,FALSE,FALSE,FALSE,FALSE,Disabled,0.000000,0.000000,0.000000,TRUE,7.145279,22.736023,0.000000,-0.008636,0.158890,0.000000,0.133000,-0.072000,0.095000,6.320000,-0.840000,2.490000,6.073330,Hold,54.847168,208896.000000,Hold,-143449.000000,143360.000000,Suck,-2152.500000,2181.818182,Speed,-2145.000000,2181.818182,Speed,Off,On0.000000,0,,,,
02:51:24.640 PM 03/19/2016,Teleop Enabled,14,FALSE,0,NO ERROR,-0.000000,1.360330,0.000000,-2.130328,TRUE,FALSE,FALSE,FALSE,FALSE,FALSE,Disabled,0.000000,0.000000,0.000000,TRUE,7.142654,22.744385,0.000000,-0.085342,0.169342,0.000000,-0.092000,0.005000,0.030000,6.520000,-0.780000,2.380000,5.974202,Hold,54.846924,208896.000000,Hold,-143449.000000,143360.000000,Suck,-2145.000000,2181.818182,Speed,-2152.500000,2181.818182,Speed,Off,On0.000000,0,,,,
02:51:24.741 PM 03/19/2016,Teleop Enabled,10,FALSE,0,NO ERROR,-0.000000,1.360330,0.000000,-2.130328,TRUE,FALSE,FALSE,FALSE,FALSE,FALSE,Disabled,0.000000,0.000000,0.000000,TRUE,7.142654,22.744385,0.000000,-0.085342,0.169342,0.000000,-0.108000,-0.023000,0.077000,6.420000,-0.830000,2.490000,5.994433,Hold,54.846924,208896.000000,Hold,-143449.000000,143360.000000,Suck,-2137.500000,2181.818182,Speed,-2160.000000,2181.818182,Speed,Off,On0.000000,0,,,,
02:51:24.841 PM 03/19/2016,Teleop Enabled,10,FALSE,0,NO ERROR,-0.000000,1.360330,0.000000,-2.130328,TRUE,FALSE,FALSE,FALSE,FALSE,FALSE,Disabled,0.000000,0.000000,0.000000,TRUE,7.134811,22.755096,0.000000,-0.143631,0.219101,0.000000,-0.004000,0.113000,0.017000,6.440000,-0.820000,2.510000,5.970725,Hold,54.670166,208896.000000,Hold,-143449.000000,143360.000000,Suck,-2145.000000,2181.818182,Speed,-2152.500000,2181.818182,Speed,Off,On0.000000,0,,,,
02:51:24.941 PM 03/19/2016,Teleop Enabled,10,FALSE,0,NO ERROR,-0.000000,1.360330,0.000000,-2.130328,TRUE,FALSE,FALSE,FALSE,FALSE,FALSE,Disabled,0.000000,0.000000,0.000000,TRUE,7.134796,22.766403,0.000000,-0.000748,0.218292,0.000000,0.103000,0.071000,0.004000,6.400000,-0.740000,2.450000,5.983059,Hold,53.719727,208896.000000,Hold,-143449.000000,143360.000000,Suck,-2122.500000,2181.818182,Speed,-1935.000000,2181.818182,Speed,Off,On0.000000,0,,,,
02:51:25.041 PM 03/19/2016,Teleop Enabled,10,FALSE,0,NO ERROR,-0.000000,1.360330,0.000000,-2.130328,TRUE,FALSE,TRUE,FALSE,FALSE,FALSE,Disabled,0.000000,0.000000,0.000000,TRUE,7.134506,22.778183,0.000000,-0.033569,0.266556,0.000000,-0.076000,0.112000,0.072000,6.440000,-0.630000,2.390000,5.962872,Hold,54.236084,208896.000000,Hold,-143449.000000,143360.000000,Suck,-1095.000000,2181.818182,Speed,-1080.000000,2181.818182,Speed,Off,Off0.000000,0,,,,
02:51:25.141 PM 03/19/2016,Teleop Enabled,9,FALSE,0,NO ERROR,-0.000000,1.360330,0.000000,-2.130328,TRUE,FALSE,TRUE,FALSE,FALSE,FALSE,Disabled,0.000000,0.000000,0.000000,TRUE,7.130569,22.791870,0.000000,-0.085754,0.252441,0.000000,-0.031000,0.023000,-0.013000,6.420000,-0.830000,2.320000,5.953147,Hold,54.568848,208896.000000,Hold,-143449.000000,143360.000000,Suck,-1200.000000,2181.818182,Speed,-1252.500000,2181.818182,Speed,Off,Off0.000000,0,,,,
02:51:25.242 PM 03/19/2016,Teleop Enabled,9,FALSE,0,NO ERROR,-0.000000,1.360330,0.000000,-2.130328,TRUE,FALSE,TRUE,FALSE,FALSE,FALSE,Disabled,0.000000,0.000000,0.000000,TRUE,7.127060,22.801773,0.000000,-0.067001,0.000000,0.000000,0.033000,0.010000,0.088000,6.420000,-0.830000,2.280000,5.953147,Hold,54.568848,208896.000000,Hold,-143449.000000,143360.000000,Suck,-1717.500000,2181.818182,Speed,-1920.000000,2181.818182,Speed,Off,Off0.000000,0,,,,
02:51:25.342 PM 03/19/2016,Teleop Enabled,10,FALSE,0,NO ERROR,-0.000000,1.360330,0.000000,-2.130328,TRUE,FALSE,TRUE,FALSE,FALSE,FALSE,Disabled,0.000000,0.000000,0.000000,TRUE,7.124359,22.801346,0.000000,-0.034042,-0.003159,0.000000,-0.121000,0.060000,0.095000,6.410000,-0.760000,2.360000,5.939797,Hold,54.568848,208896.000000,Hold,-143449.000000,143360.000000,Suck,-2220.000000,2181.818182,Speed,-2317.500000,2181.818182,Speed,Off,Off0.000000,0,,,,
02:51:25.443 PM 03/19/2016,Teleop Enabled,13,FALSE,0,NO ERROR,-0.000000,1.360330,0.000000,-2.130328,TRUE,FALSE,TRUE,FALSE,FALSE,FALSE,Disabled,0.000000,0.000000,0.000000,TRUE,7.121521,22.802383,0.000000,-0.071350,0.007965,0.000000,-0.056000,-0.023000,-0.023000,6.430000,-0.840000,2.370000,5.939618,Hold,54.568115,208896.000000,Hold,-143449.000000,143360.000000,Suck,-2250.000000,2181.818182,Speed,-2250.000000,2181.818182,Speed,Off,Off0.000000,0,,,,
02:51:25.543 PM 03/19/2016,Teleop Enabled,12,FALSE,0,NO ERROR,-0.000000,1.360330,0.000000,-2.130328,TRUE,FALSE,TRUE,FALSE,FALSE,FALSE,Disabled,0.000000,0.000000,0.000000,TRUE,7.117554,22.802994,0.000000,-0.043350,0.029572,0.000000,0.062000,0.047000,-0.062000,6.410000,-0.810000,2.350000,5.924818,Hold,54.568115,208896.000000,Hold,-143449.000000,143360.000000,Suck,-2115.000000,2181.818182,Speed,-2092.500000,2181.818182,Speed,Off,Off0.000000,0,,,,
02:51:25.644 PM 03/19/2016,Teleop Enabled,10,FALSE,0,NO ERROR,-0.000000,1.360330,0.000000,-2.130328,TRUE,FALSE,TRUE,FALSE,FALSE,FALSE,Disabled,0.000000,0.000000,0.000000,TRUE,7.116043,22.803787,0.000000,-0.049713,0.000000,0.000000,-0.067000,-0.007000,0.027000,6.420000,-0.820000,2.410000,5.918756,Hold,54.564941,208896.000000,Hold,-143449.000000,143360.000000,Suck,-2100.000000,2181.818182,Speed,-2122.500000,2181.818182,Speed,Off,Off0.000000,0,,,,
02:51:25.745 PM 03/19/2016,Teleop Enabled,11,FALSE,0,NO ERROR,-0.000000,1.360330,0.000000,-2.130328,TRUE,FALSE,TRUE,FALSE,FALSE,FALSE,Disabled,0.000000,0.000000,0.000000,TRUE,7.110748,22.804489,0.000000,-0.116287,0.000000,0.000000,-0.009000,0.019000,-0.106000,6.420000,-0.840000,2.380000,5.922453,Hold,54.564941,208896.000000,Hold,-143449.000000,143360.000000,Suck,-2160.000000,2181.818182,Speed,-2175.000000,2181.818182,Speed,Off,Off0.000000,0,,,,
02:51:25.845 PM 03/19/2016,Teleop Enabled,11,FALSE,0,NO ERROR,-0.000000,1.360330,0.000000,-2.130328,TRUE,FALSE,TRUE,FALSE,FALSE,FALSE,Disabled,0.000000,0.000000,0.000000,TRUE,7.105865,22.804565,0.000000,-0.120270,0.018143,0.000000,0.011000,-0.026000,-0.071000,6.420000,-0.900000,2.460000,5.902841,Hold,54.564697,208896.000000,Hold,-143449.000000,143360.000000,Suck,-2167.500000,2181.818182,Speed,-2167.500000,2181.818182,Speed,Off,Off0.000000,0,,,,
02:51:25.946 PM 03/19/2016,Teleop Enabled,10,FALSE,0,NO ERROR,-0.000000,1.360330,0.000000,-2.130328,TRUE,FALSE,TRUE,FALSE,FALSE,FALSE,Disabled,0.000000,0.000000,0.000000,TRUE,7.104446,22.804474,0.000000,-0.005142,-0.021347,0.000000,0.151000,0.044000,0.054000,6.420000,-0.880000,2.490000,5.906132,Hold,54.564697,208896.000000,Hold,-143449.000000,143360.000000,Suck,-2137.500000,2181.818182,Speed,-2145.000000,2181.818182,Speed,Off,Off0.000000,0,,,,
02:51:26.046 PM 03/19/2016,Teleop Enabled,11,FALSE,0,NO ERROR,-0.000000,1.360330,0.000000,-2.130328,TRUE,FALSE,TRUE,FALSE,FALSE,FALSE,Disabled,0.000000,0.000000,0.000000,TRUE,7.106750,22.803131,0.000000,0.019836,-0.039108,0.000000,0.203000,-0.015000,0.112000,6.410000,-0.870000,2.430000,5.893253,Hold,54.564453,208896.000000,Hold,-143449.000000,143360.000000,Suck,-2137.500000,2181.818182,Speed,-2152.500000,2181.818182,Speed,Off,Off0.000000,0,,,,
02:51:26.147 PM 03/19/2016,Teleop Enabled,10,FALSE,0,NO ERROR,-0.000000,1.360330,0.000000,-2.130328,TRUE,FALSE,TRUE,FALSE,FALSE,FALSE,Disabled,0.000000,0.000000,0.000000,TRUE,7.110184,22.801880,0.000000,0.084427,-0.039474,0.000000,0.053000,-0.142000,0.098000,6.400000,-0.830000,2.530000,5.881655,Hold,54.564453,208896.000000,Hold,-143449.000000,143360.000000,Suck,-2145.000000,2181.818182,Speed,-2160.000000,2181.818182,Speed,Off,Off0.000000,0,,,,
02:51:26.249 PM 03/19/2016,Teleop Enabled,11,FALSE,0,NO ERROR,-0.000000,1.360330,0.000000,-2.130328,TRUE,FALSE,TRUE,FALSE,FALSE,FALSE,Disabled,0.000000,0.000000,0.000000,TRUE,7.115219,22.799850,0.000000,0.094498,-0.041260,0.000000,-0.057000,-0.079000,-0.034000,6.390000,-0.800000,2.540000,5.889067,Hold,54.564453,208896.000000,Hold,-143449.000000,143360.000000,Hold,-2152.500000,2181.818182,Speed,-2152.500000,2181.818182,Speed,Off,Off0.000000,0,,,,
02:51:26.347 PM 03/19/2016,Teleop Enabled,11,FALSE,0,NO ERROR,-0.000000,1.360330,0.000000,-2.130328,TRUE,FALSE,TRUE,FALSE,FALSE,FALSE,Disabled,0.000000,0.000000,0.000000,TRUE,7.118561,22.796539,0.000000,0.060104,-0.060089,0.000000,-0.124000,-0.061000,0.054000,6.390000,-0.770000,2.430000,5.884268,Hold,54.564209,208896.000000,Hold,-143449.000000,143360.000000,Hold,-2152.500000,0.000000,Speed,-2152.500000,0.000000,Speed,Off,Off0.000000,0,,,,
02:51:26.447 PM 03/19/2016,Teleop Enabled,11,FALSE,0,NO ERROR,-0.000000,1.360330,0.000000,-2.130328,TRUE,FALSE,TRUE,FALSE,FALSE,FALSE,Disabled,0.000000,0.000000,0.000000,TRUE,7.119781,22.791458,0.000000,0.002853,-0.057068,0.000000,0.100000,-0.032000,-0.103000,6.400000,-0.770000,2.390000,5.887811,Hold,54.564209,208896.000000,Hold,-143449.000000,143360.000000,Hold,-2130.000000,0.000000,Speed,-2122.500000,0.000000,Speed,Off,Off0.000000,0,,,,
02:51:26.547 PM 03/19/2016,Teleop Enabled,10,FALSE,0,NO ERROR,-0.000000,1.360330,0.000000,-2.130328,TRUE,FALSE,TRUE,FALSE,FALSE,FALSE,Disabled,0.000000,0.000000,0.000000,TRUE,7.119461,22.789276,0.000000,-0.019089,-0.093643,0.000000,0.054000,0.020000,0.169000,6.400000,-0.760000,2.400000,5.892293,Hold,54.564209,208896.000000,Hold,-143449.000000,143360.000000,Hold,-1942.500000,0.000000,Speed,-1942.500000,0.000000,Speed,Off,Off0.000000,0,,,,
02:51:26.647 PM 03/19/2016,Teleop Enabled,10,FALSE,0,NO ERROR,-0.000000,1.360330,0.000000,-2.130328,TRUE,FALSE,TRUE,FALSE,FALSE,FALSE,Disabled,0.000000,0.000000,0.000000,TRUE,7.120010,22.784927,0.000000,0.030762,-0.060684,0.000000,-0.099000,-0.092000,-0.043000,6.400000,-0.790000,2.370000,5.897140,Hold,54.564209,208896.000000,Hold,-143449.000000,143360.000000,Hold,-1717.500000,0.000000,Speed,-1717.500000,0.000000,Speed,Off,Off0.000000,0,,,,
02:51:26.747 PM 03/19/2016,Teleop Enabled,10,FALSE,0,NO ERROR,-0.000000,1.360330,0.000000,-2.130328,TRUE,FALSE,TRUE,FALSE,FALSE,FALSE,Disabled,0.000000,0.000000,0.000000,TRUE,7.119217,22.780701,0.000000,-0.038223,-0.116394,0.000000,0.003000,0.117000,0.071000,6.390000,-0.810000,2.320000,5.885401,Hold,54.564209,208896.000000,Hold,-143449.000000,143360.000000,Hold,-1492.500000,0.000000,Speed,-1537.500000,0.000000,Speed,Off,Off0.000000,0,,,,
02:51:26.847 PM 03/19/2016,Teleop Enabled,10,FALSE,0,NO ERROR,-0.000000,1.360330,0.000000,-2.130328,TRUE,FALSE,TRUE,FALSE,FALSE,FALSE,Disabled,0.000000,0.000000,0.000000,TRUE,7.117859,22.776123,0.000000,-0.012024,-0.073257,0.000000,-0.075000,-0.134000,-0.004000,6.400000,-0.780000,2.310000,5.895591,Hold,54.563965,208896.000000,Hold,-143449.000000,143360.000000,Hold,-1260.000000,0.000000,Speed,-1320.000000,0.000000,Speed,Off,Off0.000000,0,,,,
02:51:26.947 PM 03/19/2016,Teleop Enabled,10,FALSE,0,NO ERROR,-0.000000,1.360330,0.000000,-2.130328,TRUE,FALSE,TRUE,FALSE,FALSE,FALSE,Disabled,0.000000,0.000000,0.000000,TRUE,7.116608,22.770828,0.000000,-0.016739,-0.101486,0.000000,0.037000,0.046000,0.029000,6.400000,-0.810000,2.310000,5.897481,Hold,54.563965,208896.000000,Hold,-143449.000000,143360.000000,Hold,-1035.000000,0.000000,Speed,-1110.000000,0.000000,Speed,Off,Off0.000000,0,,,,
02:51:27.047 PM 03/19/2016,Teleop Enabled,11,FALSE,0,NO ERROR,-0.000000,1.360330,0.000000,-2.130328,TRUE,FALSE,TRUE,FALSE,FALSE,FALSE,Disabled,0.000000,0.000000,0.000000,TRUE,7.115326,22.765579,0.000000,-0.055420,-0.131989,0.000000,0.045000,0.003000,0.014000,6.400000,-0.770000,2.340000,5.894011,Hold,54.563965,208896.000000,Hold,-143449.000000,143360.000000,Hold,-780.000000,0.000000,Speed,-855.000000,0.000000,Speed,Off,Off0.000000,0,,,,
02:51:27.147 PM 03/19/2016,Teleop Enabled,10,FALSE,0,NO ERROR,-0.000000,1.360330,0.000000,-2.130328,TRUE,FALSE,TRUE,FALSE,FALSE,FALSE,Disabled,0.000000,0.000000,0.000000,TRUE,7.113434,22.758438,0.000000,-0.009460,-0.101624,0.000000,-0.040000,-0.089000,-0.068000,6.390000,-0.720000,2.340000,5.891986,Hold,54.563965,208896.000000,Hold,-143449.000000,143360.000000,Hold,-562.500000,0.000000,Speed,-652.500000,0.000000,Speed,Off,Off0.000000,0,,,,
02:51:27.247 PM 03/19/2016,Teleop Enabled,10,FALSE,0,NO ERROR,-0.000000,1.360330,0.000000,-2.130328,TRUE,FALSE,TRUE,FALSE,FALSE,FALSE,Disabled,0.000000,0.000000,0.000000,TRUE,7.112549,22.751602,0.000000,-0.012100,-0.129288,0.000000,0.024000,0.119000,0.007000,6.400000,-0.720000,2.300000,5.899174,Hold,54.563965,208896.000000,Hold,-143449.000000,143360.000000,Hold,-367.500000,0.000000,Speed,-457.500000,0.000000,Speed,Off,Off0.000000,0,,,,
02:51:27.347 PM 03/19/2016,Teleop Enabled,9,FALSE,0,NO ERROR,-0.000000,1.360330,0.000000,-2.130328,TRUE,FALSE,TRUE,FALSE,FALSE,FALSE,Disabled,0.000000,0.000000,0.000000,TRUE,7.111496,22.747299,0.000000,-0.049561,-0.110840,0.000000,0.028000,0.016000,0.029000,6.400000,-0.740000,2.340000,5.899705,Hold,54.563965,208896.000000,Hold,-143449.000000,143360.000000,Hold,-240.000000,0.000000,Speed,-277.500000,0.000000,Speed,Off,Off0.000000,0,,,,
02:51:27.448 PM 03/19/2016,Teleop Enabled,11,FALSE,0,NO ERROR,-0.000000,1.360330,0.000000,-2.130328,TRUE,FALSE,TRUE,FALSE,FALSE,FALSE,Disabled,0.000000,0.000000,0.000000,TRUE,7.108902,22.741531,0.000000,-0.045029,-0.088089,0.000000,0.114000,0.065000,-0.086000,6.400000,-0.740000,2.330000,5.896090,Hold,54.563965,208896.000000,Hold,-143449.000000,143360.000000,Hold,-45.000000,0.000000,Speed,-75.000000,0.000000,Speed,Off,Off0.000000,0,,,,
02:51:27.548 PM 03/19/2016,Teleop Enabled,8,FALSE,0,NO ERROR,-0.000000,1.360330,0.000000,-2.130328,TRUE,FALSE,TRUE,FALSE,FALSE,FALSE,Disabled,0.000000,0.000000,0.000000,TRUE,7.106415,22.735367,0.000000,-0.037811,-0.123337,0.000000,0.028000,0.174000,-0.007000,6.400000,-0.730000,2.330000,5.893807,Hold,54.563965,208896.000000,Hold,-143449.000000,143360.000000,LowGoal,0.000000,-1454.545455,Speed,0.000000,-1454.545455,Speed,Off,Off0.000000,0,,,,
02:51:27.648 PM 03/19/2016,Teleop Enabled,9,FALSE,0,NO ERROR,-0.000000,1.360330,0.000000,-2.130328,TRUE,FALSE,TRUE,FALSE,FALSE,FALSE,Disabled,0.000000,0.000000,0.000000,TRUE,7.104126,22.731186,0.000000,-0.069717,-0.094254,0.000000,-0.092000,-0.060000,0.021000,6.400000,-0.720000,2.360000,5.913141,Hold,54.564453,208896.000000,Hold,-143449.000000,143360.000000,LowGoal,82.500000,-1454.545455,Speed,52.500000,-1454.545455,Speed,Off,Off0.000000,0,,,,
02:51:27.748 PM 03/19/2016,Teleop Enabled,7,FALSE,0,NO ERROR,-0.000000,1.360330,0.000000,-2.130328,TRUE,FALSE,TRUE,FALSE,FALSE,FALSE,Disabled,0.000000,0.000000,0.000000,TRUE,7.099838,22.726089,0.000000,-0.067551,-0.107941,0.000000,-0.074000,-0.033000,0.112000,6.390000,-0.690000,2.350000,5.882974,Hold,54.564453,208896.000000,Hold,-143449.000000,143360.000000,LowGoal,615.000000,-1454.545455,Speed,855.000000,-1454.545455,Speed,Off,Off0.000000,0,,,,
02:51:27.848 PM 03/19/2016,Teleop Enabled,8,FALSE,0,NO ERROR,-0.000000,1.360330,0.000000,-2.130328,TRUE,FALSE,TRUE,FALSE,FALSE,FALSE,Disabled,0.000000,0.000000,0.000000,TRUE,7.095459,22.720413,0.000000,-0.098221,-0.116165,0.000000,0.020000,-0.025000,0.104000,6.380000,-0.740000,2.380000,5.870718,Hold,54.564453,208896.000000,Hold,-143449.000000,143360.000000,LowGoal,1335.000000,-1454.545455,Speed,1410.000000,-1454.545455,Speed,Off,Off0.000000,0,,,,
02:51:27.950 PM 03/19/2016,Teleop Enabled,8,FALSE,0,NO ERROR,-0.000000,1.360330,0.000000,-2.130328,TRUE,FALSE,TRUE,FALSE,FALSE,FALSE,Disabled,0.000000,0.000000,0.000000,TRUE,7.090286,22.714722,0.000000,-0.109741,-0.123428,0.000000,-0.015000,-0.073000,0.106000,6.390000,-0.730000,2.410000,5.861275,Hold,54.564453,208896.000000,Hold,-143449.000000,143360.000000,LowGoal,1590.000000,-1454.545455,Speed,1590.000000,-1454.545455,Speed,Off,Off0.000000,0,,,,
02:51:28.050 PM 03/19/2016,Teleop Enabled,13,FALSE,0,NO ERROR,-0.000000,1.360330,0.000000,-2.130328,TRUE,FALSE,TRUE,FALSE,FALSE,FALSE,Disabled,0.000000,0.000000,0.000000,TRUE,7.085266,22.708374,0.000000,-0.107910,-0.143616,0.000000,-0.031000,0.066000,0.007000,6.390000,-0.730000,2.410000,5.859922,Hold,54.564453,208896.000000,Hold,-143449.000000,143360.000000,LowGoal,1387.500000,-1454.545455,Speed,1365.000000,-1454.545455,Speed,Off,Off0.000000,0,,,,
02:51:28.150 PM 03/19/2016,Teleop Enabled,11,FALSE,0,NO ERROR,-0.000000,1.360330,0.000000,-2.130328,TRUE,FALSE,TRUE,FALSE,FALSE,FALSE,Disabled,0.000000,0.000000,0.000000,TRUE,7.079315,22.702240,0.000000,-0.135254,-0.115158,0.000000,-0.007000,-0.045000,0.091000,6.390000,-0.700000,2.430000,5.861695,Hold,54.564453,208896.000000,Hold,-143449.000000,143360.000000,LowGoal,1312.500000,-1454.545455,Speed,1320.000000,-1454.545455,Speed,Off,Off0.000000,0,,,,
02:51:28.250 PM 03/19/2016,Teleop Enabled,7,FALSE,0,NO ERROR,-0.000000,1.360330,0.000000,-2.130328,TRUE,FALSE,TRUE,FALSE,FALSE,FALSE,Disabled,0.000000,0.000000,0.000000,TRUE,7.071793,22.695892,0.000000,-0.180313,-0.134613,0.000000,0.097000,-0.008000,0.136000,6.390000,-0.700000,2.450000,5.863754,Hold,54.564453,208896.000000,Hold,-143449.000000,143360.000000,LowGoal,1387.500000,-1454.545455,Speed,1402.500000,-1454.545455,Speed,Off,Off0.000000,0,,,,
02:51:28.351 PM 03/19/2016,Teleop Enabled,10,FALSE,0,NO ERROR,-0.000000,1.360330,0.000000,-2.130328,TRUE,FALSE,TRUE,FALSE,FALSE,FALSE,Disabled,0.000000,0.000000,0.000000,TRUE,7.063950,22.688629,0.000000,-0.159073,-0.164474,0.000000,0.040000,0.167000,-0.062000,6.390000,-0.690000,2.350000,5.874212,Hold,54.564453,208896.000000,Hold,-143449.000000,143360.000000,LowGoal,1410.000000,-1454.545455,Speed,1417.500000,-1454.545455,Speed,Off,Off0.000000,0,,,,
02:51:28.451 PM 03/19/2016,Teleop Enabled,9,FALSE,0,NO ERROR,-0.000000,1.360330,0.000000,-2.130328,TRUE,FALSE,TRUE,FALSE,FALSE,FALSE,Disabled,0.000000,0.000000,0.000000,TRUE,7.056686,22.679672,0.000000,-0.015289,-0.169250,0.000000,0.012000,0.087000,0.050000,6.400000,-0.680000,2.350000,5.853908,Hold,54.564453,208896.000000,Hold,-143449.000000,143360.000000,LowGoal,1380.000000,-1454.545455,Speed,1372.500000,-1454.545455,Speed,Off,Off0.000000,0,,,,
02:51:28.551 PM 03/19/2016,Teleop Enabled,10,FALSE,0,NO ERROR,-0.000000,1.360330,0.000000,-2.130328,TRUE,FALSE,TRUE,FALSE,FALSE,FALSE,Disabled,0.000000,0.000000,0.000000,TRUE,7.055939,22.671524,0.000000,-0.015854,-0.186981,0.000000,-0.094000,0.073000,0.125000,6.400000,-0.680000,2.350000,5.849216,Hold,54.564453,208896.000000,Hold,-143449.000000,143360.000000,LowGoal,1372.500000,-1454.545455,Speed,1380.000000,-1454.545455,Speed,Off,Off0.000000,0,,,,
02:51:28.652 PM 03/19/2016,Teleop Enabled,10,FALSE,0,NO ERROR,-0.000000,1.360330,0.000000,-2.130328,TRUE,FALSE,TRUE,FALSE,FALSE,FALSE,Disabled,0.000000,0.000000,0.000000,TRUE,7.055435,22.664841,0.000000,-0.009888,-0.178452,0.000000,0.037000,-0.042000,0.104000,6.390000,-0.700000,2.410000,5.853633,Hold,54.564453,208896.000000,Hold,-143449.000000,143360.000000,LowGoal,1387.500000,-1454.545455,Speed,1380.000000,-1454.545455,Speed,Off,Off0.000000,0,,,,
02:51:28.754 PM 03/19/2016,Teleop Enabled,9,FALSE,0,NO ERROR,-0.000000,1.360330,0.000000,-2.130328,TRUE,FALSE,TRUE,FALSE,FALSE,FALSE,Disabled,0.000000,0.000000,0.000000,TRUE,7.054504,22.654053,0.000000,-0.009125,-0.200790,0.000000,0.146000,0.057000,0.060000,6.380000,-0.660000,2.370000,5.859489,Hold,54.564209,208896.000000,Hold,-143449.000000,143360.000000,LowGoal,1387.500000,-1454.545455,Speed,1387.500000,-1454.545455,Speed,Off,Off0.000000,0,,,,
02:51:28.854 PM 03/19/2016,Teleop Enabled,10,FALSE,0,NO ERROR,-0.000000,1.360330,0.000000,-2.130328,TRUE,FALSE,TRUE,FALSE,FALSE,FALSE,Disabled,0.000000,0.000000,0.000000,TRUE,7.055405,22.645294,0.000000,0.002441,-0.171738,0.000000,0.146000,0.044000,0.105000,6.400000,-0.700000,2.360000,5.861516,Hold,54.564209,208896.000000,Hold,-143449.000000,143360.000000,LowGoal,1387.500000,-1454.545455,Speed,1387.500000,-1454.545455,Speed,Off,Off0.000000,0,,,,
02:51:28.954 PM 03/19/2016,Teleop Enabled,9,FALSE,0,NO ERROR,-0.000000,1.360330,0.000000,-2.130328,TRUE,FALSE,TRUE,FALSE,FALSE,FALSE,Disabled,0.000000,0.000000,0.000000,TRUE,7.057571,22.636520,0.000000,0.039658,-0.154480,0.000000,-0.013000,0.010000,0.094000,6.380000,-0.600000,2.340000,5.861217,Hold,54.564209,208896.000000,Hold,-143449.000000,143360.000000,LowGoal,1380.000000,-1454.545455,Speed,1380.000000,-1454.545455,Speed,Off,Off0.000000,0,,,,
02:51:29.056 PM 03/19/2016,Teleop Enabled,9,FALSE,0,NO ERROR,-0.000000,1.360330,0.000000,-2.130328,TRUE,FALSE,TRUE,FALSE,FALSE,FALSE,Disabled,0.000000,0.000000,0.000000,TRUE,7.060867,22.630722,0.000000,0.057938,-0.119080,0.000000,0.013000,-0.036000,0.143000,6.370000,-0.610000,2.400000,5.877393,Hold,54.564209,208896.000000,Hold,-143449.000000,143360.000000,LowGoal,1387.500000,-1454.545455,Speed,1387.500000,-1454.545455,Speed,Off,Off0.000000,0,,,,
02:51:29.155 PM 03/19/2016,Teleop Enabled,10,FALSE,0,NO ERROR,-0.000000,1.360330,0.000000,-2.130328,TRUE,FALSE,TRUE,FALSE,FALSE,FALSE,Disabled,0.000000,0.000000,0.000000,TRUE,7.064850,22.625717,0.000000,0.076752,-0.107346,0.000000,0.032000,0.014000,0.019000,6.370000,-0.590000,2.390000,5.867658,Hold,54.564209,208896.000000,Hold,-143449.000000,143360.000000,LowGoal,1387.500000,-1454.545455,Speed,1387.500000,-1454.545455,Speed,Off,Off0.000000,0,,,,
02:51:29.256 PM 03/19/2016,Teleop Enabled,10,FALSE,0,NO ERROR,-0.000000,1.360330,0.000000,-2.130328,TRUE,FALSE,TRUE,FALSE,FALSE,FALSE,Disabled,0.000000,0.000000,0.000000,TRUE,7.068634,22.620880,0.000000,0.060501,-0.105026,0.000000,0.030000,0.062000,0.171000,6.370000,-0.590000,2.460000,5.859478,Hold,54.563965,208896.000000,Hold,-143449.000000,143360.000000,LowGoal,1387.500000,-1454.545455,Speed,1387.500000,-1454.545455,Speed,Off,Off0.000000,0,,,,
02:51:29.357 PM 03/19/2016,Teleop Enabled,11,FALSE,0,NO ERROR,-0.000000,1.360330,0.000000,-2.130328,TRUE,FALSE,TRUE,FALSE,FALSE,FALSE,Disabled,0.000000,0.000000,0.000000,TRUE,7.071228,22.616089,0.000000,0.048462,-0.103699,0.000000,0.030000,0.062000,0.171000,6.370000,-0.620000,2.450000,5.863289,Hold,54.563965,208896.000000,Hold,-143449.000000,143360.000000,LowGoal,1380.000000,-1454.545455,Speed,1387.500000,-1454.545455,Speed,Off,Off0.000000,0,,,,
02:51:29.457 PM 03/19/2016,Teleop Enabled,9,FALSE,0,NO ERROR,-0.000000,1.360330,0.000000,-2.130328,TRUE,FALSE,TRUE,FALSE,FALSE,FALSE,Disabled,0.000000,0.000000,0.000000,TRUE,7.073242,22.609512,0.000000,0.017273,-0.114975,0.000000,0.075000,0.041000,0.059000,6.370000,-0.610000,2.470000,5.852965,Hold,54.563965,208896.000000,Hold,-143449.000000,143360.000000,LowGoal,1387.500000,-1454.545455,Speed,1387.500000,-1454.545455,Speed,Off,Off0.000000,0,,,,
02:51:29.558 PM 03/19/2016,Teleop Enabled,10,FALSE,0,NO ERROR,-0.000000,1.360330,0.000000,-2.130328,TRUE,FALSE,TRUE,FALSE,FALSE,FALSE,Disabled,0.000000,0.000000,0.000000,TRUE,7.073120,22.604187,0.000000,-0.026077,-0.136703,0.000000,0.064000,0.031000,-0.004000,6.380000,-0.610000,2.460000,5.843842,Hold,54.563965,208896.000000,Hold,-143449.000000,143360.000000,LowGoal,1380.000000,-1454.545455,Speed,1387.500000,-1454.545455,Speed,Off,Off0.000000,0,,,,
02:51:29.658 PM 03/19/2016,Teleop Enabled,10,FALSE,0,NO ERROR,-0.000000,1.360330,0.000000,-2.130328,TRUE,FALSE,TRUE,FALSE,FALSE,FALSE,Disabled,0.000000,0.000000,0.000000,TRUE,7.072647,22.597321,0.000000,-0.006927,-0.142212,0.000000,-0.017000,0.064000,0.025000,6.380000,-0.600000,2.400000,5.844761,Hold,54.563721,208896.000000,Hold,-143449.000000,143360.000000,LowGoal,1387.500000,-1454.545455,Speed,1380.000000,-1454.545455,Speed,Off,Off0.000000,0,,,,
02:51:29.758 PM 03/19/2016,Teleop Enabled,9,FALSE,0,NO ERROR,-0.000000,1.360330,0.000000,-2.130328,TRUE,FALSE,TRUE,FALSE,FALSE,FALSE,Disabled,0.000000,0.000000,0.000000,TRUE,7.072113,22.590439,0.000000,0.000885,-0.149902,0.000000,0.102000,-0.017000,-0.046000,6.380000,-0.630000,2.410000,5.837735,Hold,54.563721,208896.000000,Hold,-143449.000000,143360.000000,LowGoal,1387.500000,-1454.545455,Speed,1387.500000,-1454.545455,Speed,Off,Off0.000000,0,,,,
02:51:29.858 PM 03/19/2016,Teleop Enabled,10,FALSE,0,NO ERROR,-0.000000,1.360330,0.000000,-2.130328,TRUE,FALSE,TRUE,FALSE,FALSE,FALSE,Disabled,0.000000,0.000000,0.000000,TRUE,7.072662,22.591415,0.000000,0.026245,0.018143,0.000000,-0.059000,0.097000,0.183000,6.380000,-0.640000,2.420000,5.838035,Hold,54.563721,208896.000000,Hold,-143449.000000,143360.000000,LowGoal,1380.000000,-1454.545455,Speed,1395.000000,-1454.545455,Speed,Off,Off0.000000,0,,,,
02:51:29.959 PM 03/19/2016,Teleop Enabled,9,FALSE,0,NO ERROR,-0.000000,1.360330,0.000000,-2.130328,TRUE,FALSE,TRUE,FALSE,FALSE,FALSE,Disabled,0.000000,0.000000,0.000000,TRUE,7.073090,22.594345,0.000000,0.003082,0.059387,0.000000,-0.059000,0.097000,0.183000,6.370000,-0.670000,2.390000,5.834217,Hold,54.563477,208896.000000,Hold,-143449.000000,143360.000000,LowGoal,1387.500000,-1454.545455,Speed,1387.500000,-1454.545455,Speed,Off,Off0.000000,0,,,,
02:51:30.060 PM 03/19/2016,Teleop Enabled,9,FALSE,0,NO ERROR,-0.000000,1.360330,0.000000,-2.130328,TRUE,FALSE,TRUE,FALSE,FALSE,FALSE,Disabled,0.000000,0.000000,0.000000,TRUE,7.074448,22.598083,0.000000,0.032272,0.072479,0.000000,0.115000,0.121000,0.079000,6.370000,-0.690000,2.410000,5.830282,Hold,54.563477,208896.000000,Hold,-143449.000000,143360.000000,LowGoal,1387.500000,-1454.545455,Speed,1387.500000,-1454.545455,Speed,Off,Off0.000000,0,,,,
02:51:30.160 PM 03/19/2016,Teleop Enabled,9,FALSE,0,NO ERROR,-0.000000,1.360330,0.000000,-2.130328,TRUE,FALSE,TRUE,FALSE,FALSE,FALSE,Disabled,0.000000,0.000000,0.000000,TRUE,7.077362,22.602081,0.000000,0.048569,0.078156,0.000000,0.125000,0.064000,0.033000,6.370000,-0.690000,2.420000,5.832957,Hold,54.563477,208896.000000,Hold,-143449.000000,143360.000000,LowGoal,1380.000000,-1454.545455,Speed,1387.500000,-1454.545455,Speed,Off,Off0.000000,0,,,,
02:51:30.260 PM 03/19/2016,Teleop Enabled,9,FALSE,0,NO ERROR,-0.000000,1.360330,0.000000,-2.130328,TRUE,FALSE,TRUE,FALSE,FALSE,FALSE,Disabled,0.000000,0.000000,0.000000,TRUE,7.079926,22.605026,0.000000,0.052139,0.058456,0.000000,0.101000,0.053000,0.156000,6.360000,-0.700000,2.390000,5.833391,Hold,54.563477,208896.000000,Hold,-143449.000000,143360.000000,LowGoal,1380.000000,-1454.545455,Speed,1387.500000,-1454.545455,Speed,Off,Off0.000000,0,,,,
02:51:30.360 PM 03/19/2016,Teleop Enabled,9,FALSE,0,NO ERROR,-0.000000,1.360330,0.000000,-2.130328,TRUE,FALSE,TRUE,FALSE,FALSE,FALSE,Disabled,0.000000,0.000000,0.000000,TRUE,7.083069,22.608719,0.000000,0.041885,0.047836,0.000000,-0.007000,0.101000,0.087000,6.360000,-0.670000,2.400000,5.835649,Hold,54.563232,208896.000000,Hold,-143449.000000,143360.000000,LowGoal,1387.500000,-1454.545455,Speed,1387.500000,-1454.545455,Speed,Off,Off0.000000,0,,,,
02:51:30.460 PM 03/19/2016,Teleop Enabled,9,FALSE,0,NO ERROR,-0.000000,1.360330,0.000000,-2.130328,TRUE,FALSE,TRUE,FALSE,FALSE,FALSE,Disabled,0.000000,0.000000,0.000000,TRUE,7.084320,22.610962,0.000000,0.007111,0.032333,0.000000,-0.007000,0.101000,0.087000,6.360000,-0.660000,2.390000,5.838851,Hold,54.563232,208896.000000,Hold,-143449.000000,143360.000000,LowGoal,1380.000000,-1454.545455,Speed,1387.500000,-1454.545455,Speed,Off,Off0.000000,0,,,,
02:51:30.560 PM 03/19/2016,Teleop Enabled,10,FALSE,0,NO ERROR,-0.000000,1.360330,0.000000,-2.130328,TRUE,FALSE,TRUE,FALSE,FALSE,FALSE,Disabled,0.000000,0.000000,0.000000,TRUE,7.084045,22.612122,0.000000,-0.021332,0.010284,0.000000,-0.015000,0.050000,-0.014000,6.360000,-0.650000,2.380000,5.838231,Hold,54.563232,208896.000000,Hold,-143449.000000,143360.000000,LowGoal,1387.500000,-1454.545455,Speed,1387.500000,-1454.545455,Speed,Off,Off0.000000,0,,,,
02:51:30.661 PM 03/19/2016,Teleop Enabled,10,FALSE,0,NO ERROR,-0.000000,1.360330,0.000000,-2.130328,TRUE,FALSE,TRUE,FALSE,FALSE,FALSE,Disabled,0.000000,0.000000,0.000000,TRUE,7.083115,22.613235,0.000000,-0.029846,-0.003479,0.000000,-0.034000,-0.004000,0.088000,6.370000,-0.620000,2.340000,5.838689,Hold,54.563232,208896.000000,Hold,-143449.000000,143360.000000,LowGoal,1380.000000,-1454.545455,Speed,1380.000000,-1454.545455,Speed,Off,Off0.000000,0,,,,
02:51:30.761 PM 03/19/2016,Teleop Enabled,10,FALSE,0,NO ERROR,-0.000000,1.360330,0.000000,-2.130328,TRUE,FALSE,TRUE,FALSE,FALSE,FALSE,Disabled,0.000000,0.000000,0.000000,TRUE,7.082047,22.613693,0.000000,-0.017090,-0.006668,0.000000,-0.034000,-0.004000,0.088000,6.370000,-0.620000,2.340000,5.821968,Hold,54.563232,208896.000000,Hold,-143449.000000,143360.000000,LowGoal,1387.500000,-1454.545455,Speed,1395.000000,-1454.545455,Speed,Off,Off0.000000,0,,,,
02:51:30.861 PM 03/19/2016,Teleop Enabled,11,FALSE,0,NO ERROR,-0.000000,1.360330,0.000000,-2.130328,TRUE,FALSE,TRUE,FALSE,FALSE,FALSE,Disabled,0.000000,0.000000,0.000000,TRUE,7.081451,22.613876,0.000000,-0.008209,-0.008286,0.000000,0.091000,0.100000,-0.060000,6.370000,-0.600000,2.350000,5.821445,Hold,54.562988,208896.000000,Hold,-143449.000000,143360.000000,LowGoal,1380.000000,-1454.545455,Speed,1380.000000,-1454.545455,Speed,Off,Off0.000000,0,,,,
02:51:30.961 PM 03/19/2016,Teleop Enabled,10,FALSE,0,NO ERROR,-0.000000,1.360330,0.000000,-2.130328,TRUE,FALSE,TRUE,FALSE,FALSE,FALSE,Disabled,0.000000,0.000000,0.000000,TRUE,7.081451,22.613876,0.000000,-0.008209,-0.008286,0.000000,-0.022000,0.176000,-0.052000,6.370000,-0.600000,2.350000,5.840272,Hold,54.562988,208896.000000,Hold,-143449.000000,143360.000000,LowGoal,1387.500000,-1454.545455,Speed,1387.500000,-1454.545455,Speed,Off,Off0.000000,0,,,,
02:51:31.062 PM 03/19/2016,Teleop Enabled,11,FALSE,0,NO ERROR,-0.000000,1.360330,0.000000,-2.130328,TRUE,FALSE,TRUE,FALSE,FALSE,FALSE,Disabled,0.000000,0.000000,0.000000,TRUE,7.082062,22.616745,0.000000,0.013168,0.040268,0.000000,0.025000,0.079000,-0.121000,6.370000,-0.610000,2.360000,5.833931,Hold,54.562988,208896.000000,Hold,-143449.000000,143360.000000,LowGoal,1380.000000,-1454.545455,Speed,1380.000000,-1454.545455,Speed,Off,Off0.000000,0,,,,
02:51:31.162 PM 03/19/2016,Teleop Enabled,10,FALSE,0,NO ERROR,-0.000000,1.360330,0.000000,-2.130328,TRUE,FALSE,TRUE,FALSE,FALSE,FALSE,Disabled,0.000000,0.000000,0.000000,TRUE,7.082062,22.616745,0.000000,0.013168,0.040268,0.000000,0.061000,0.000000,0.126000,6.370000,-0.610000,2.380000,5.817810,Hold,54.562744,208896.000000,Hold,-143449.000000,143360.000000,LowGoal,1380.000000,-1454.545455,Speed,1387.500000,-1454.545455,Speed,Off,Off0.000000,0,,,,
02:51:31.262 PM 03/19/2016,Teleop Enabled,11,FALSE,0,NO ERROR,-0.000000,1.360330,0.000000,-2.130328,TRUE,FALSE,TRUE,FALSE,FALSE,FALSE,Disabled,0.000000,0.000000,0.000000,TRUE,7.085800,22.623749,0.000000,0.034698,0.081299,0.000000,0.016000,0.096000,0.101000,6.350000,-0.560000,2.410000,5.821145,Hold,54.562744,208896.000000,Hold,-143449.000000,143360.000000,LowGoal,1380.000000,-1454.545455,Speed,1380.000000,-1454.545455,Speed,Off,Off0.000000,0,,,,
02:51:31.362 PM 03/19/2016,Teleop Enabled,11,FALSE,0,NO ERROR,-0.000000,1.360330,0.000000,-2.130328,TRUE,FALSE,TRUE,FALSE,FALSE,FALSE,Disabled,0.000000,0.000000,0.000000,TRUE,7.087158,22.629105,0.000000,0.024124,0.115265,0.000000,0.016000,0.096000,0.101000,6.350000,-0.560000,2.410000,5.800225,Hold,54.562744,208896.000000,Hold,-143449.000000,143360.000000,LowGoal,1387.500000,-1454.545455,Speed,1387.500000,-1454.545455,Speed,Off,Off0.000000,0,,,,
