Time,Robot Mode,Loop Time,Error Status,Error Code,Error Source,Left Motor Output,Left Motor Encoder,Right Motor Output,Right Motor Encoder,Is Level,Is Stalled,Ball Detector Photoeye,Vision Enabled,Vision Teleop Control,Vision Auto Control,Vision Current State,Vision X Output,Vision NavX Error,Vision NavX Target,NavX Connection Status,NavX Displacement X,NavX Displacement Y,NavX Displacement Z,NavX Velocity X,NavX Velocity Y,NavX Velocity Z,NavX Acceleration X,NavX Acceleration Y,NavX Acceleration Z,NavX Pitch,NavX Yaw,NavX Roll,Gyro Angle,Roller Arm State,Roller Arm Actual,Roller Arm Desired,Shooter Arm State,Shooter Arm Actual,Shooter Arm Desired,Shooter State,Actual RPM Left,Desired RPM Left,Control Mode Left,Actual RPM Right,Desired RPM Right,Scaler Motor Output,Auto To Run,Auto Current File,Auto File Status,Auto Current Command,Auto Trimmed Command
01:43:50.148 PM 03/19/2016,Teleop Enabled,10,FALSE,0,NO ERROR,-0.000000,0.000000,0.000000,0.000000,TRUE,FALSE,FALSE,FALSE,FALSE,FALSE,Disabled,0.000000,0.000000,0.000000,TRUE,11.221222,-1.088104,0.000000,0.000000,0.000000,0.000000,-0.004000,0.000000,0.018000,0.000000,-0.100000,2.570000,0.015240,ResetBack,0.722656,-0.200000,ResetBack,-25298.000000,-0.300000,Suck,0.000000,2181.818182,Speed,0.000000,2181.818182,Speed,On,Off0.000000,0,,,,
01:43:50.249 PM 03/19/2016,Teleop Enabled,9,FALSE,0,NO ERROR,-0.000000,-0.096250,0.000000,0.000000,TRUE,FALSE,FALSE,FALSE,FALSE,FALSE,Disabled,0.000000,0.000000,0.000000,TRUE,11.221283,-1.088165,0.000000,0.004379,-0.008896,0.000000,0.078000,-0.050000,0.001000,0.000000,-0.090000,2.510000,-0.003931,ResetBack,0.014160,-0.200000,ResetBack,-21576.000000,-0.300000,Suck,-367.500000,2181.818182,Speed,-322.500000,2181.818182,Speed,On,Off0.000000,0,,,,
01:43:50.349 PM 03/19/2016,Teleop Enabled,11,FALSE,0,NO ERROR,-0.000000,-0.096250,0.000000,-0.012833,TRUE,FALSE,FALSE,FALSE,FALSE,FALSE,Disabled,0.000000,0.000000,0.000000,TRUE,11.222000,-1.089371,0.000000,0.023331,-0.043564,0.000000,-0.045000,-0.048000,-0.014000,0.000000,-0.100000,2.500000,0.002954,ResetBack,0.014160,-0.200000,ResetBack,-14682.000000,-0.300000,Suck,-1005.000000,2181.818182,Speed,-1147.500000,2181.818182,Speed,On,Off0.000000,0,,,,
01:43:50.449 PM 03/19/2016,Teleop Enabled,11,FALSE,0,NO ERROR,-0.000000,-0.096250,0.000000,-0.032083,TRUE,FALSE,FALSE,FALSE,FALSE,FALSE,Disabled,0.000000,0.000000,0.000000,TRUE,11.222565,-1.092926,0.000000,0.005035,-0.060608,0.000000,-0.125000,0.074000,0.070000,-0.010000,-0.160000,2.570000,-0.007956,Reset,0.014160,-0.200000,ResetBack,-14682.000000,-0.300000,Suck,-1657.500000,2181.818182,Speed,-1807.500000,2181.818182,Speed,On,Off0.000000,0,,,,
01:43:50.550 PM 03/19/2016,Teleop Enabled,10,FALSE,0,NO ERROR,-0.000000,-0.057750,0.000000,-0.025667,TRUE,FALSE,FALSE,FALSE,FALSE,FALSE,Disabled,0.000000,0.000000,0.000000,TRUE,11.222076,-1.094376,0.000000,-0.009552,-0.014282,0.000000,0.013000,0.195000,0.074000,0.020000,-0.130000,2.540000,0.042085,Hold,0.812012,0.000000,ResetBack,-7626.000000,-0.300000,Suck,-2145.000000,2181.818182,Speed,-2190.000000,2181.818182,Speed,On,Off0.000000,0,,,,
01:43:50.652 PM 03/19/2016,Teleop Enabled,9,FALSE,0,NO ERROR,-0.000000,-0.057750,0.000000,-0.019250,TRUE,FALSE,FALSE,FALSE,FALSE,FALSE,Disabled,0.000000,0.000000,0.000000,TRUE,11.221832,-1.089417,0.000000,0.011734,0.138092,0.000000,0.029000,-0.028000,0.037000,0.000000,-0.040000,2.560000,0.024026,Hold,0.812012,0.000000,ResetBack,-3155.000000,-0.300000,Suck,-2242.500000,2181.818182,Speed,-2250.000000,2181.818182,Speed,On,Off0.000000,0,,,,
01:43:50.753 PM 03/19/2016,Teleop Enabled,8,FALSE,0,NO ERROR,-0.000000,-0.057750,0.000000,-0.025667,TRUE,FALSE,FALSE,FALSE,FALSE,FALSE,Disabled,0.000000,0.000000,0.000000,TRUE,11.223969,-1.085663,0.000000,0.040131,0.004227,0.000000,-0.070000,0.036000,-0.067000,0.000000,-0.050000,2.560000,0.015133,Hold,0.923584,0.000000,ResetBack,-1304.000000,-0.300000,Suck,-2077.500000,2181.818182,Speed,-2092.500000,2181.818182,Speed,On,Off0.000000,0,,,,
01:43:50.854 PM 03/19/2016,Teleop Enabled,9,FALSE,0,NO ERROR,-0.000000,-0.070583,0.000000,-0.025667,TRUE,FALSE,FALSE,FALSE,FALSE,FALSE,Disabled,0.000000,0.000000,0.000000,TRUE,11.224854,-1.084061,0.000000,-0.001312,0.054169,0.000000,0.058000,-0.014000,0.099000,0.000000,-0.130000,2.540000,0.017908,Hold,0.923584,0.000000,ResetBack,-701.000000,-0.300000,Suck,-2055.000000,2181.818182,Speed,-2077.500000,2181.818182,Speed,On,Off0.000000,0,,,,
01:43:50.956 PM 03/19/2016,Teleop Enabled,9,FALSE,0,NO ERROR,-0.000000,-0.070583,0.000000,-0.025667,TRUE,FALSE,FALSE,FALSE,FALSE,FALSE,Disabled,0.000000,0.000000,0.000000,TRUE,11.225647,-1.080734,0.000000,0.020554,0.081589,0.000000,0.042000,-0.031000,-0.029000,0.000000,-0.120000,2.520000,0.030150,Hold,0.923584,0.000000,ResetBack,-398.000000,-0.300000,Suck,-2115.000000,2181.818182,Speed,-2130.000000,2181.818182,Speed,On,Off0.000000,0,,,,
01:43:51.056 PM 03/19/2016,Teleop Enabled,10,FALSE,0,NO ERROR,-0.000000,-0.070583,0.000000,-0.025667,TRUE,FALSE,FALSE,FALSE,FALSE,FALSE,Disabled,0.000000,0.000000,0.000000,TRUE,11.226868,-1.078033,0.000000,0.031036,0.052612,0.000000,0.005000,-0.055000,-0.076000,0.000000,-0.080000,2.540000,0.035207,Hold,0.923584,0.000000,ResetBack,-396.000000,-0.300000,Suck,-2122.500000,2181.818182,Speed,-2130.000000,2181.818182,Speed,On,Off0.000000,0,,,,
01:43:51.160 PM 03/19/2016,Teleop Enabled,11,FALSE,0,NO ERROR,-0.000000,-0.070583,0.000000,-0.025667,TRUE,FALSE,FALSE,FALSE,FALSE,FALSE,Disabled,0.000000,0.000000,0.000000,TRUE,11.227722,-1.077423,0.000000,0.003342,-0.017395,0.000000,0.049000,-0.052000,0.021000,0.000000,-0.150000,2.560000,0.030511,Hold,0.923584,0.000000,ResetBack,-396.000000,-0.300000,Suck,-2100.000000,2181.818182,Speed,-2107.500000,2181.818182,Speed,On,Off0.000000,0,,,,
01:43:51.258 PM 03/19/2016,Teleop Enabled,11,FALSE,0,NO ERROR,-0.000000,-0.070583,0.000000,-0.025667,TRUE,FALSE,FALSE,FALSE,FALSE,FALSE,Disabled,0.000000,0.000000,0.000000,TRUE,11.227814,-1.077652,0.000000,-0.004883,0.000000,0.000000,0.032000,0.029000,-0.030000,0.000000,-0.170000,2.540000,0.045879,Hold,0.923584,0.000000,ResetBack,-396.000000,-0.300000,Suck,-2100.000000,2181.818182,Speed,-2107.500000,2181.818182,Speed,On,Off0.000000,0,,,,
01:43:51.359 PM 03/19/2016,Teleop Enabled,9,FALSE,0,NO ERROR,-0.000000,-0.070583,0.000000,-0.025667,TRUE,FALSE,FALSE,FALSE,FALSE,FALSE,Disabled,0.000000,0.000000,0.000000,TRUE,11.229141,-1.077606,0.000000,0.059326,-0.004272,0.000000,0.041000,-0.029000,-0.047000,0.000000,-0.130000,2.560000,0.065354,Hold,0.923584,0.000000,Reset,-396.000000,2.000000,Suck,-2107.500000,2181.818182,Speed,-2107.500000,2181.818182,Speed,On,Off0.000000,0,,,,
01:43:51.460 PM 03/19/2016,Teleop Enabled,11,FALSE,0,NO ERROR,-0.000000,-0.070583,0.000000,-0.025667,TRUE,FALSE,FALSE,FALSE,FALSE,FALSE,Disabled,0.000000,0.000000,0.000000,TRUE,11.231461,-1.077942,0.000000,0.005920,0.004913,0.000000,0.026000,-0.015000,0.111000,0.000000,-0.150000,2.580000,0.077230,Hold,0.923584,0.000000,Hold,-396.000000,2.000000,Suck,-2107.500000,2181.818182,Speed,-2115.000000,2181.818182,Speed,On,Off0.000000,0,,,,
01:43:51.561 PM 03/19/2016,Teleop Enabled,11,FALSE,0,NO ERROR,-0.000000,-0.070583,0.000000,-0.025667,TRUE,FALSE,FALSE,FALSE,FALSE,FALSE,Disabled,0.000000,0.000000,0.000000,TRUE,11.231903,-1.077454,0.000000,0.013016,0.016769,0.000000,0.030000,0.016000,0.024000,0.000000,-0.140000,2.560000,0.082353,Hold,0.923584,0.000000,Hold,-291.000000,2.000000,Suck,-2115.000000,2181.818182,Speed,-2115.000000,2181.818182,Speed,On,Off0.000000,0,,,,
01:43:51.661 PM 03/19/2016,Teleop Enabled,11,FALSE,0,NO ERROR,-0.000000,-0.070583,0.000000,-0.025667,TRUE,FALSE,FALSE,FALSE,FALSE,FALSE,Disabled,0.000000,0.000000,0.000000,TRUE,11.232941,-1.077118,0.000000,0.030792,0.010544,0.000000,-0.031000,-0.075000,-0.061000,0.000000,-0.120000,2.630000,0.084043,Hold,0.923584,0.000000,Hold,-255.000000,2.000000,Suck,-2107.500000,2181.818182,Speed,-2115.000000,2181.818182,Speed,On,Off0.000000,0,,,,
01:43:51.762 PM 03/19/2016,Teleop Enabled,11,FALSE,0,NO ERROR,-0.000000,-0.070583,0.000000,-0.025667,TRUE,FALSE,FALSE,FALSE,FALSE,FALSE,Disabled,0.000000,0.000000,0.000000,TRUE,11.234787,-1.078110,0.000000,0.026321,-0.047668,0.000000,-0.050000,0.016000,-0.033000,0.000000,-0.120000,2.630000,0.080855,Hold,0.923584,0.000000,Hold,-247.000000,2.000000,Suck,-2107.500000,2181.818182,Speed,-2115.000000,2181.818182,Speed,On,Off0.000000,0,,,,
01:43:51.864 PM 03/19/2016,Teleop Enabled,9,FALSE,0,NO ERROR,-0.000000,-0.070583,0.000000,-0.025667,TRUE,FALSE,FALSE,FALSE,FALSE,FALSE,Disabled,0.000000,0.000000,0.000000,TRUE,11.235397,-1.080826,0.000000,0.008850,-0.062759,0.000000,-0.044000,-0.075000,0.000000,0.000000,-0.100000,2.620000,0.085826,Hold,0.923584,0.000000,Hold,-247.000000,2.000000,Suck,-2107.500000,2181.818182,Speed,-2115.000000,2181.818182,Speed,On,Off0.000000,0,,,,
01:43:51.964 PM 03/19/2016,Teleop Enabled,11,FALSE,0,NO ERROR,-0.000000,-0.070583,0.000000,-0.025667,TRUE,FALSE,FALSE,FALSE,FALSE,FALSE,Disabled,0.000000,0.000000,0.000000,TRUE,11.236801,-1.082291,0.000000,0.039246,0.018600,0.000000,0.060000,0.021000,-0.047000,0.000000,-0.160000,2.630000,0.091145,Hold,0.923584,0.000000,Hold,-242.000000,2.000000,Suck,-2100.000000,2181.818182,Speed,-2115.000000,2181.818182,Speed,On,Off0.000000,0,,,,
01:43:52.064 PM 03/19/2016,Teleop Enabled,11,FALSE,0,NO ERROR,-0.000000,-0.070583,0.000000,-0.025667,TRUE,FALSE,FALSE,FALSE,FALSE,FALSE,Disabled,0.000000,0.000000,0.000000,TRUE,11.238998,-1.082077,0.000000,0.031296,-0.026871,0.000000,-0.026000,0.000000,-0.002000,0.000000,-0.150000,2.550000,0.107401,Hold,0.923584,0.000000,Hold,-238.000000,2.000000,Suck,-2107.500000,2181.818182,Speed,-2115.000000,2181.818182,Speed,On,Off0.000000,0,,,,
01:43:52.163 PM 03/19/2016,Teleop Enabled,10,FALSE,0,NO ERROR,-0.000000,-0.070583,0.000000,-0.025667,TRUE,FALSE,FALSE,FALSE,FALSE,FALSE,Disabled,0.000000,0.000000,0.000000,TRUE,11.239807,-1.082748,0.000000,0.010345,0.000000,0.000000,0.068000,-0.037000,0.021000,0.000000,-0.130000,2.640000,0.129547,Hold,0.923584,0.000000,Hold,-237.000000,2.000000,Suck,-2107.500000,2181.818182,Speed,-2107.500000,2181.818182,Speed,On,Off0.000000,0,,,,
01:43:52.263 PM 03/19/2016,Teleop Enabled,11,FALSE,0,NO ERROR,-0.000000,-0.070583,0.000000,-0.025667,TRUE,FALSE,FALSE,FALSE,FALSE,FALSE,Disabled,0.000000,0.000000,0.000000,TRUE,11.240479,-1.082794,0.000000,0.013535,0.006271,0.000000,-0.042000,0.003000,-0.117000,0.000000,-0.160000,2.650000,0.138336,Hold,0.923584,0.000000,Hold,-236.000000,2.000000,Suck,-2107.500000,2181.818182,Speed,-2115.000000,2181.818182,Speed,On,Off0.000000,0,,,,
01:43:52.364 PM 03/19/2016,Teleop Enabled,10,FALSE,0,NO ERROR,-0.000000,-0.070583,0.000000,-0.025667,TRUE,FALSE,FALSE,FALSE,FALSE,FALSE,Disabled,0.000000,0.000000,0.000000,TRUE,11.241318,-1.083389,0.000000,0.000000,-0.009476,0.000000,-0.027000,0.000000,0.001000,0.000000,-0.120000,2.660000,0.116551,Hold,0.923584,0.000000,Hold,-235.000000,2.000000,Suck,-2107.500000,2181.818182,Speed,-2115.000000,2181.818182,Speed,On,Off0.000000,0,,,,
01:43:52.465 PM 03/19/2016,Teleop Enabled,11,FALSE,0,NO ERROR,-0.000000,-0.070583,0.000000,-0.025667,TRUE,FALSE,FALSE,FALSE,FALSE,FALSE,Disabled,0.000000,0.000000,0.000000,TRUE,11.239838,-1.084320,0.000000,-0.026138,-0.038574,0.000000,0.051000,-0.048000,0.046000,0.000000,-0.160000,2.690000,0.126982,Hold,0.923584,0.000000,Hold,-235.000000,2.000000,Suck,-2100.000000,2181.818182,Speed,-2115.000000,2181.818182,Speed,On,Off0.000000,0,,,,
01:43:52.565 PM 03/19/2016,Teleop Enabled,11,FALSE,0,NO ERROR,-0.000000,-0.070583,0.000000,-0.025667,TRUE,FALSE,FALSE,FALSE,FALSE,FALSE,Disabled,0.000000,0.000000,0.000000,TRUE,11.239334,-1.085220,0.000000,-0.006683,-0.012695,0.000000,0.018000,-0.037000,0.019000,0.000000,-0.120000,2.710000,0.130838,Hold,0.923584,0.000000,Hold,-235.000000,2.000000,Suck,-2107.500000,2181.818182,Speed,-2115.000000,2181.818182,Speed,On,Off0.000000,0,,,,
01:43:52.665 PM 03/19/2016,Teleop Enabled,11,FALSE,0,NO ERROR,-0.000000,-0.070583,0.000000,-0.025667,TRUE,FALSE,FALSE,FALSE,FALSE,FALSE,Disabled,0.000000,0.000000,0.000000,TRUE,11.239227,-1.086792,0.000000,0.003418,-0.040955,0.000000,0.063000,0.014000,0.078000,0.000000,-0.130000,2.730000,0.130621,Hold,0.923584,0.000000,Hold,-234.000000,2.000000,Suck,-2107.500000,2181.818182,Speed,-2122.500000,2181.818182,Speed,On,Off0.000000,0,,,,
01:43:52.766 PM 03/19/2016,Teleop Enabled,11,FALSE,0,NO ERROR,-0.000000,-0.070583,0.000000,-0.025667,TRUE,FALSE,FALSE,FALSE,FALSE,FALSE,Disabled,0.000000,0.000000,0.000000,TRUE,11.240646,-1.089874,0.000000,0.019974,-0.064453,0.000000,-0.033000,0.009000,0.041000,0.000000,-0.120000,2.670000,0.128611,Hold,0.923584,0.000000,Hold,-234.000000,2.000000,Suck,-2107.500000,2181.818182,Speed,-2115.000000,2181.818182,Speed,On,Off0.000000,0,,,,
01:43:52.868 PM 03/19/2016,Teleop Enabled,9,FALSE,0,NO ERROR,-0.000000,-0.070583,0.000000,-0.025667,TRUE,FALSE,FALSE,FALSE,FALSE,FALSE,Disabled,0.000000,0.000000,0.000000,TRUE,11.240570,-1.090607,0.000000,-0.012115,-0.007629,0.000000,-0.012000,-0.031000,0.068000,0.000000,-0.130000,2.690000,0.113381,Hold,0.923584,0.000000,Hold,-234.000000,2.000000,Suck,-2107.500000,2181.818182,Speed,-2115.000000,2181.818182,Speed,On,Off0.000000,0,,,,
01:43:52.967 PM 03/19/2016,Teleop Enabled,10,FALSE,0,NO ERROR,-0.000000,-0.070583,0.000000,-0.025667,TRUE,FALSE,FALSE,FALSE,FALSE,FALSE,Disabled,0.000000,0.000000,0.000000,TRUE,11.240189,-1.091309,0.000000,-0.007416,-0.001404,0.000000,-0.009000,0.069000,0.031000,0.000000,-0.160000,2.680000,0.126727,Hold,0.923584,0.000000,Hold,-234.000000,2.000000,Suck,-2107.500000,2181.818182,Speed,-2122.500000,2181.818182,Speed,On,Off0.000000,0,,,,
01:43:53.068 PM 03/19/2016,Teleop Enabled,10,FALSE,0,NO ERROR,-0.000000,-0.070583,0.000000,-0.025667,TRUE,FALSE,FALSE,FALSE,FALSE,FALSE,Disabled,0.000000,0.000000,0.000000,TRUE,11.239899,-1.089966,0.000000,0.008179,0.030716,0.000000,0.081000,-0.044000,0.024000,0.000000,-0.100000,2.650000,0.108905,Hold,0.923584,0.000000,Hold,-234.000000,2.000000,Suck,-2107.500000,2181.818182,Speed,-2122.500000,2181.818182,Speed,On,Off0.000000,0,,,,
01:43:53.168 PM 03/19/2016,Teleop Enabled,10,FALSE,0,NO ERROR,-0.000000,-0.070583,0.000000,-0.025667,TRUE,FALSE,FALSE,FALSE,FALSE,FALSE,Disabled,0.000000,0.000000,0.000000,TRUE,11.240463,-1.089035,0.000000,0.009689,0.029480,0.000000,0.047000,-0.005000,0.089000,0.000000,-0.100000,2.650000,0.116011,Hold,0.923584,0.000000,Hold,-234.000000,2.000000,Suck,-2107.500000,2181.818182,Speed,-2115.000000,2181.818182,Speed,On,Off0.000000,0,,,,
01:43:53.269 PM 03/19/2016,Teleop Enabled,10,FALSE,0,NO ERROR,-0.000000,-0.070583,0.000000,-0.025667,TRUE,FALSE,FALSE,FALSE,FALSE,FALSE,Disabled,0.000000,0.000000,0.000000,TRUE,11.241257,-1.087769,0.000000,0.008881,0.009186,0.000000,0.013000,0.005000,0.017000,0.000000,-0.040000,2.640000,0.131939,Hold,0.923584,0.000000,Hold,-234.000000,2.000000,Suck,-2107.500000,2181.818182,Speed,-2115.000000,2181.818182,Speed,On,Off0.000000,0,,,,
01:43:53.369 PM 03/19/2016,Teleop Enabled,11,FALSE,0,NO ERROR,-0.000000,-0.070583,0.000000,-0.025667,TRUE,FALSE,FALSE,FALSE,FALSE,FALSE,Disabled,0.000000,0.000000,0.000000,TRUE,11.242905,-1.087860,0.000000,0.065628,-0.006729,0.000000,0.043000,-0.075000,-0.067000,0.000000,-0.020000,2.660000,0.126452,Hold,0.923584,0.000000,Hold,-234.000000,2.000000,Suck,-2107.500000,2181.818182,Speed,-2115.000000,2181.818182,Speed,On,Off0.000000,0,,,,
01:43:53.470 PM 03/19/2016,Teleop Enabled,9,FALSE,0,NO ERROR,-0.000000,-0.070583,0.000000,-0.025667,TRUE,FALSE,FALSE,FALSE,FALSE,FALSE,Disabled,0.000000,0.000000,0.000000,TRUE,11.247696,-1.089828,0.000000,0.069672,-0.048355,0.000000,-0.006000,-0.050000,0.008000,0.000000,-0.040000,2.640000,0.133933,Hold,0.923584,208896.000000,Hold,-233.000000,2.000000,Suck,-2107.500000,2181.818182,Speed,-2122.500000,2181.818182,Speed,On,Off0.000000,0,,,,
01:43:53.569 PM 03/19/2016,Teleop Enabled,10,FALSE,0,NO ERROR,-0.000000,-0.070583,0.000000,-0.025667,TRUE,FALSE,FALSE,FALSE,FALSE,FALSE,Disabled,0.000000,0.000000,0.000000,TRUE,11.250580,-1.091339,0.000000,0.017044,0.035339,0.000000,-0.062000,0.097000,0.201000,0.000000,-0.020000,2.640000,0.123674,Hold,4.032227,208896.000000,Hold,-233.000000,143360.000000,Suck,-2107.500000,2181.818182,Speed,-2115.000000,2181.818182,Speed,On,Off0.000000,0,,,,
01:43:53.670 PM 03/19/2016,Teleop Enabled,10,FALSE,0,NO ERROR,-0.000000,-0.057750,0.000000,-0.025667,TRUE,FALSE,FALSE,FALSE,FALSE,FALSE,Disabled,0.000000,0.000000,0.000000,TRUE,11.251266,-1.089325,0.000000,0.033371,0.071198,0.000000,0.092000,-0.099000,0.011000,0.000000,-0.110000,2.680000,0.146374,Hold,7.753174,208896.000000,Hold,-6029.000000,143360.000000,Suck,-2107.500000,2181.818182,Speed,-2115.000000,2181.818182,Speed,On,Off0.000000,0,,,,
01:43:53.770 PM 03/19/2016,Teleop Enabled,9,FALSE,0,NO ERROR,-0.000000,-0.057750,0.000000,-0.025667,TRUE,FALSE,FALSE,FALSE,FALSE,FALSE,Disabled,0.000000,0.000000,0.000000,TRUE,11.252060,-1.087677,0.000000,-0.015793,-0.000092,0.000000,0.036000,-0.079000,-0.020000,-0.010000,0.000000,2.620000,0.144622,Hold,13.094727,208896.000000,Hold,-19996.000000,143360.000000,Suck,-2115.000000,2181.818182,Speed,-2122.500000,2181.818182,Speed,On,Off0.000000,0,,,,
01:43:53.870 PM 03/19/2016,Teleop Enabled,10,FALSE,0,NO ERROR,-0.000000,-0.057750,0.000000,-0.025667,TRUE,FALSE,FALSE,FALSE,FALSE,FALSE,Disabled,0.000000,0.000000,0.000000,TRUE,11.251602,-1.091110,0.000000,0.003586,-0.133911,0.000000,0.028000,-0.165000,0.105000,0.000000,-0.020000,2.650000,0.172982,Hold,18.097412,208896.000000,Hold,-19996.000000,143360.000000,Suck,-2115.000000,2181.818182,Speed,-2130.000000,2181.818182,Speed,On,Off0.000000,0,,,,
01:43:53.970 PM 03/19/2016,Teleop Enabled,10,FALSE,0,NO ERROR,-0.000000,-0.057750,0.000000,0.000000,TRUE,FALSE,FALSE,FALSE,FALSE,FALSE,Disabled,0.000000,0.000000,0.000000,TRUE,11.252304,-1.099792,0.000000,0.023804,-0.171204,0.000000,-0.007000,0.090000,0.072000,0.000000,0.050000,2.650000,0.175622,Hold,25.359863,208896.000000,Hold,-31609.000000,143360.000000,Suck,-2115.000000,2181.818182,Speed,-2130.000000,2181.818182,Speed,On,Off0.000000,0,,,,
01:43:54.070 PM 03/19/2016,Teleop Enabled,10,FALSE,0,NO ERROR,-0.000000,-0.057750,0.000000,-0.006417,TRUE,FALSE,FALSE,FALSE,FALSE,FALSE,Disabled,0.000000,0.000000,0.000000,TRUE,11.252945,-1.106644,0.000000,0.006165,-0.128830,0.000000,0.029000,0.039000,0.117000,-0.010000,-0.010000,2.600000,0.168561,Hold,33.641113,208896.000000,Hold,-42846.000000,143360.000000,Suck,-2115.000000,2181.818182,Speed,-2130.000000,2181.818182,Speed,On,Off0.000000,0,,,,
01:43:54.169 PM 03/19/2016,Teleop Enabled,11,FALSE,0,NO ERROR,-0.000000,-0.096250,0.000000,-0.019250,TRUE,FALSE,FALSE,FALSE,FALSE,FALSE,Disabled,0.000000,0.000000,0.000000,TRUE,11.253464,-1.112305,0.000000,0.005981,-0.100784,0.000000,-0.056000,0.058000,-0.075000,-0.050000,-0.100000,2.570000,0.142969,Hold,44.006592,208896.000000,Hold,-55560.000000,143360.000000,Suck,-2122.500000,2181.818182,Speed,-2130.000000,2181.818182,Speed,On,Off0.000000,0,,,,
01:43:54.270 PM 03/19/2016,Teleop Enabled,10,FALSE,0,NO ERROR,-0.000000,-0.128333,0.000000,-0.083416,TRUE,FALSE,FALSE,FALSE,FALSE,FALSE,Disabled,0.000000,0.000000,0.000000,TRUE,11.253738,-1.114624,0.000000,0.018219,-0.011948,0.000000,0.022000,-0.073000,-0.159000,-0.010000,-0.690000,2.680000,0.147710,Hold,53.286865,208896.000000,Hold,-68795.000000,143360.000000,Suck,-2122.500000,2181.818182,Speed,-2130.000000,2181.818182,Speed,On,Off0.000000,0,,,,
01:43:54.370 PM 03/19/2016,Teleop Enabled,10,FALSE,0,NO ERROR,-0.000000,-0.198916,0.000000,-0.442749,TRUE,FALSE,FALSE,FALSE,FALSE,FALSE,Disabled,0.000000,0.000000,0.000000,TRUE,11.253571,-1.115021,0.000000,-0.035736,0.015976,0.000000,-0.053000,0.113000,0.043000,0.010000,-0.730000,2.700000,0.182989,Hold,56.320312,208896.000000,Hold,-85860.000000,143360.000000,Suck,-2122.500000,2181.818182,Speed,-2130.000000,2181.818182,Speed,On,Off0.000000,0,,,,
01:43:54.470 PM 03/19/2016,Teleop Enabled,10,FALSE,0,NO ERROR,-0.000000,-0.198916,0.000000,-0.468416,TRUE,FALSE,FALSE,FALSE,FALSE,FALSE,Disabled,0.000000,0.000000,0.000000,TRUE,11.251022,-1.113678,0.000000,-0.077820,0.044601,0.000000,-0.005000,0.024000,-0.171000,0.270000,-0.490000,2.660000,0.437291,Hold,56.149414,208896.000000,Hold,-85860.000000,143360.000000,Suck,-2107.500000,2181.818182,Speed,-2122.500000,2181.818182,Speed,On,Off0.000000,0,,,,
01:43:54.570 PM 03/19/2016,Teleop Enabled,9,FALSE,0,NO ERROR,-0.000000,-0.198916,0.000000,-0.468416,TRUE,FALSE,FALSE,FALSE,FALSE,FALSE,Disabled,0.000000,0.000000,0.000000,TRUE,11.245514,-1.112732,0.000000,-0.105728,-0.007507,0.000000,-0.012000,-0.064000,0.021000,0.240000,-0.420000,2.750000,0.405372,Hold,55.677002,208896.000000,Hold,-102677.000000,143360.000000,Suck,-2107.500000,2181.818182,Speed,-2130.000000,2181.818182,Speed,On,Off0.000000,0,,,,
01:43:54.672 PM 03/19/2016,Teleop Enabled,10,FALSE,0,NO ERROR,-0.000000,-0.198916,0.000000,-0.474832,TRUE,FALSE,FALSE,FALSE,FALSE,FALSE,Disabled,0.000000,0.000000,0.000000,TRUE,11.241913,-1.114792,0.000000,-0.080704,-0.072052,0.000000,0.081000,-0.146000,-0.092000,0.210000,-0.590000,2.690000,0.391997,Hold,55.526855,208896.000000,Hold,-119251.000000,143360.000000,Suck,-2115.000000,2181.818182,Speed,-2137.500000,2181.818182,Speed,On,Off0.000000,0,,,,
01:43:54.772 PM 03/19/2016,Teleop Enabled,9,FALSE,0,NO ERROR,-0.000000,-0.198916,0.000000,-0.513332,TRUE,FALSE,FALSE,FALSE,FALSE,FALSE,Disabled,0.000000,0.000000,0.000000,TRUE,11.237488,-1.122192,0.000000,-0.110733,-0.180588,0.000000,0.088000,-0.028000,-0.162000,0.250000,-0.440000,2.790000,0.439250,Hold,55.491455,208896.000000,Hold,-136937.000000,143360.000000,Suck,-2122.500000,2181.818182,Speed,-2137.500000,2181.818182,Speed,On,Off0.000000,0,,,,
01:43:54.872 PM 03/19/2016,Teleop Enabled,10,FALSE,0,NO ERROR,-0.000000,-0.198916,0.000000,-0.513332,TRUE,FALSE,FALSE,FALSE,FALSE,FALSE,Disabled,0.000000,0.000000,0.000000,TRUE,11.234421,-1.132874,0.000000,0.005661,-0.232666,0.000000,-0.050000,-0.096000,0.080000,0.390000,-0.460000,2.750000,0.551326,Hold,55.432617,208896.000000,Hold,-142805.000000,143360.000000,Suck,-2107.500000,2181.818182,Speed,-2122.500000,2181.818182,Speed,On,Off0.000000,0,,,,
01:43:54.972 PM 03/19/2016,Teleop Enabled,9,FALSE,0,NO ERROR,-0.000000,-0.198916,0.000000,-0.513332,TRUE,FALSE,FALSE,FALSE,FALSE,FALSE,Disabled,0.000000,0.000000,0.000000,TRUE,11.234146,-1.148849,0.000000,-0.009415,-0.289108,0.000000,-0.060000,-0.074000,0.064000,0.330000,-0.450000,2.720000,0.530137,Hold,55.432617,208896.000000,Hold,-143265.000000,143360.000000,Suck,-2100.000000,2181.818182,Speed,-2122.500000,2181.818182,Speed,On,Off0.000000,0,,,,
01:43:55.073 PM 03/19/2016,Teleop Enabled,9,FALSE,0,NO ERROR,-0.000000,-0.198916,0.000000,-0.513332,TRUE,FALSE,FALSE,FALSE,FALSE,FALSE,Disabled,0.000000,0.000000,0.000000,TRUE,11.233871,-1.160004,0.000000,-0.005295,-0.278961,0.000000,0.032000,-0.005000,-0.048000,0.340000,-0.460000,2.660000,0.533696,Hold,55.432617,208896.000000,Hold,-143453.000000,143360.000000,Suck,-2115.000000,2181.818182,Speed,-2130.000000,2181.818182,Speed,On,Off0.000000,0,,,,
01:43:55.174 PM 03/19/2016,Teleop Enabled,10,FALSE,0,NO ERROR,-0.338583,-0.442749,-0.338583,-0.577499,TRUE,FALSE,FALSE,FALSE,FALSE,FALSE,Disabled,0.000000,0.000000,0.000000,TRUE,11.233459,-1.174850,0.000000,-0.007416,-0.304535,0.000000,0.109000,0.028000,0.008000,0.330000,-0.420000,2.640000,0.552135,Hold,55.432617,208896.000000,Hold,-143453.000000,143360.000000,Suck,-2115.000000,2181.818182,Speed,-2130.000000,2181.818182,Speed,On,Off0.000000,0,,,,
01:43:55.274 PM 03/19/2016,Teleop Enabled,9,FALSE,0,NO ERROR,-0.582677,-1.764579,-0.582677,-0.635249,TRUE,FALSE,FALSE,FALSE,FALSE,FALSE,Disabled,0.000000,0.000000,0.000000,TRUE,11.236969,-1.191971,0.000000,0.110138,-0.369370,0.000000,0.269000,0.012000,-0.053000,-1.460000,0.640000,2.210000,-0.659629,Hold,55.432617,208896.000000,Hold,-143453.000000,143360.000000,Suck,-2115.000000,2181.818182,Speed,-2122.500000,2181.818182,Speed,On,Off0.000000,0,,,,
01:43:55.375 PM 03/19/2016,Teleop Enabled,9,FALSE,0,NO ERROR,-0.590551,-4.498073,-0.590551,-2.669327,FALSE,FALSE,FALSE,FALSE,FALSE,FALSE,Disabled,0.000000,0.000000,0.000000,TRUE,11.255402,-1.208740,0.000000,0.635605,-0.244553,0.000000,0.082000,-0.235000,0.290000,-3.840000,3.210000,2.440000,-3.290697,Hold,55.455811,208896.000000,Hold,-143453.000000,143360.000000,Suck,-2085.000000,2181.818182,Speed,-2100.000000,2181.818182,Speed,On,Off0.000000,0,,,,
01:43:55.476 PM 03/19/2016,Teleop Enabled,9,FALSE,0,NO ERROR,-0.590551,-8.149148,-0.590551,-6.038069,FALSE,FALSE,FALSE,FALSE,FALSE,FALSE,Disabled,0.000000,0.000000,0.000000,TRUE,11.302979,-1.216522,0.000000,0.856567,0.032562,0.000000,0.050000,0.015000,0.215000,-4.420000,3.240000,2.320000,-3.969266,Hold,55.155029,208896.000000,Hold,-143452.000000,143360.000000,Suck,-2062.500000,2181.818182,Speed,-2077.500000,2181.818182,Speed,On,Off0.000000,0,,,,
01:43:55.576 PM 03/19/2016,Teleop Enabled,6,FALSE,0,NO ERROR,-0.322835,-12.165972,-0.322835,-9.862394,FALSE,FALSE,FALSE,FALSE,FALSE,FALSE,Disabled,0.000000,0.000000,0.000000,TRUE,11.346527,-1.215149,0.000000,0.888794,0.023438,0.000000,-0.011000,-0.008000,0.066000,-4.900000,3.060000,2.450000,-4.435784,Hold,55.221191,208896.000000,Hold,-143451.000000,143360.000000,Suck,-2077.500000,2181.818182,Speed,-2100.000000,2181.818182,Speed,On,Off0.000000,0,,,,
01:43:55.678 PM 03/19/2016,Teleop Enabled,11,FALSE,0,NO ERROR,-0.267717,-14.533716,0.267717,-12.801220,TRUE,FALSE,FALSE,FALSE,FALSE,FALSE,Disabled,0.000000,0.000000,0.000000,TRUE,11.383606,-1.214920,0.000000,0.479416,0.015533,0.000000,-0.011000,-0.008000,0.066000,-5.150000,1.130000,2.860000,-4.813003,Hold,55.162842,208896.000000,Hold,-143451.000000,143360.000000,Suck,-2100.000000,2181.818182,Speed,-2122.500000,2181.818182,Speed,On,Off0.000000,0,,,,
01:43:55.778 PM 03/19/2016,Teleop Enabled,9,FALSE,0,NO ERROR,-0.708661,-14.431050,0.708661,-15.181798,FALSE,FALSE,FALSE,FALSE,FALSE,FALSE,Disabled,0.000000,0.000000,0.000000,TRUE,11.383606,-1.214920,0.000000,0.479416,0.015533,0.000000,-0.591000,0.191000,-0.081000,-1.230000,-2.380000,3.950000,-1.751198,Hold,54.680664,208896.000000,Hold,-143427.000000,143360.000000,Suck,-2115.000000,2181.818182,Speed,-2122.500000,2181.818182,Speed,On,Off0.000000,0,,,,
01:43:55.879 PM 03/19/2016,Teleop Enabled,10,FALSE,0,NO ERROR,-0.000000,-12.300721,0.000000,-17.652209,TRUE,FALSE,FALSE,FALSE,FALSE,FALSE,Disabled,0.000000,0.000000,0.000000,TRUE,11.396118,-1.195587,0.000000,0.050797,0.020798,0.000000,-0.017000,0.120000,-0.438000,6.870000,0.250000,2.450000,7.343544,Hold,53.755127,208896.000000,Hold,-143427.000000,143360.000000,Suck,-1807.500000,2181.818182,Speed,-2085.000000,2181.818182,Speed,On,Off0.000000,0,,,,
01:43:55.979 PM 03/19/2016,Teleop Enabled,10,FALSE,0,NO ERROR,-0.000000,-11.286890,0.000000,-18.505623,FALSE,FALSE,FALSE,FALSE,FALSE,FALSE,Disabled,0.000000,0.000000,0.000000,TRUE,11.396118,-1.195587,0.000000,0.050797,0.020798,0.000000,-0.002000,0.241000,-0.039000,15.450000,-0.580000,3.330000,15.340380,Hold,53.420166,208896.000000,Hold,-143507.000000,143360.000000,Suck,-1380.000000,2181.818182,Speed,-1785.000000,2181.818182,Speed,On,Off0.000000,0,,,,
01:43:56.080 PM 03/19/2016,Teleop Enabled,9,FALSE,0,NO ERROR,-0.000000,-11.152141,0.000000,-18.877789,FALSE,FALSE,FALSE,FALSE,FALSE,FALSE,Disabled,0.000000,0.000000,0.000000,TRUE,11.389572,-1.190399,0.000000,-0.299057,-0.076233,0.000000,-0.410000,0.142000,0.741000,15.450000,-0.580000,3.330000,16.036720,Hold,54.251953,208896.000000,Hold,-143463.000000,143360.000000,Suck,-1530.000000,2181.818182,Speed,-1455.000000,2181.818182,Speed,On,Off0.000000,0,,,,
01:43:56.181 PM 03/19/2016,Teleop Enabled,9,FALSE,0,NO ERROR,-0.000000,-11.267640,0.000000,-18.743040,TRUE,FALSE,TRUE,FALSE,FALSE,FALSE,Disabled,0.000000,0.000000,0.000000,TRUE,11.374329,-1.193985,0.000000,-0.276352,-0.026047,0.000000,-0.032000,-0.125000,0.027000,16.260000,-1.650000,1.730000,14.594450,Hold,54.651855,208896.000000,Hold,-143463.000000,143360.000000,Suck,-637.500000,2181.818182,Speed,-682.500000,2181.818182,Speed,On,Off0.000000,0,,,,
01:43:56.281 PM 03/19/2016,Teleop Enabled,9,FALSE,0,NO ERROR,-0.000000,-11.306140,0.000000,-18.691706,TRUE,FALSE,TRUE,FALSE,FALSE,FALSE,Disabled,0.000000,0.000000,0.000000,TRUE,11.362961,-1.193039,0.000000,-0.203018,0.029495,0.000000,0.069000,0.126000,0.084000,14.770000,-1.500000,2.280000,14.459660,Hold,54.753662,208896.000000,Hold,-143463.000000,143360.000000,Suck,-1125.000000,2181.818182,Speed,-1185.000000,2181.818182,Speed,On,Off0.000000,0,,,,
01:43:56.381 PM 03/19/2016,Teleop Enabled,8,FALSE,0,NO ERROR,-0.000000,-11.299724,0.000000,-18.691706,TRUE,FALSE,TRUE,FALSE,FALSE,FALSE,Disabled,0.000000,0.000000,0.000000,TRUE,11.351532,-1.190384,0.000000,-0.244537,0.069473,0.000000,-0.092000,0.088000,0.115000,14.800000,-1.340000,2.320000,14.523461,Hold,54.783691,208896.000000,Hold,-143463.000000,143360.000000,Suck,-1740.000000,2181.818182,Speed,-1822.500000,2181.818182,Speed,On,Off0.000000,0,,,,
01:43:56.481 PM 03/19/2016,Teleop Enabled,11,FALSE,0,NO ERROR,-0.000000,-11.299724,0.000000,-18.691706,TRUE,FALSE,TRUE,FALSE,FALSE,FALSE,Disabled,0.000000,0.000000,0.000000,TRUE,11.340668,-1.185272,0.000000,-0.218307,0.132889,0.000000,0.075000,0.043000,0.106000,14.810000,-1.330000,2.330000,14.485603,Hold,54.783691,208896.000000,Hold,-143463.000000,143360.000000,Suck,-2190.000000,2181.818182,Speed,-2242.500000,2181.818182,Speed,On,Off0.000000,0,,,,
01:43:56.582 PM 03/19/2016,Teleop Enabled,9,FALSE,0,NO ERROR,-0.000000,-11.299724,0.000000,-18.691706,TRUE,FALSE,TRUE,FALSE,FALSE,FALSE,Disabled,0.000000,0.000000,0.000000,TRUE,11.340668,-1.185272,0.000000,-0.218307,0.132889,0.000000,-0.096000,0.057000,-0.008000,14.790000,-1.230000,2.490000,14.491958,Hold,54.783691,208896.000000,Hold,-143463.000000,143360.000000,Suck,-2257.500000,2181.818182,Speed,-2205.000000,2181.818182,Speed,On,Off0.000000,0,,,,
01:43:56.683 PM 03/19/2016,Teleop Enabled,10,FALSE,0,NO ERROR,-0.000000,-11.299724,0.000000,-18.691706,TRUE,FALSE,TRUE,FALSE,FALSE,FALSE,Disabled,0.000000,0.000000,0.000000,TRUE,11.326874,-1.177368,0.000000,-0.232483,0.121689,0.000000,0.003000,-0.054000,-0.078000,14.790000,-1.200000,2.520000,14.489283,Hold,54.783691,208896.000000,Hold,-143463.000000,143360.000000,Suck,-2107.500000,2181.818182,Speed,-2085.000000,2181.818182,Speed,On,Off0.000000,0,,,,
01:43:56.783 PM 03/19/2016,Teleop Enabled,11,FALSE,0,NO ERROR,-0.000000,-11.299724,0.000000,-18.691706,TRUE,FALSE,TRUE,FALSE,FALSE,FALSE,Disabled,0.000000,0.000000,0.000000,TRUE,11.305618,-1.173080,0.000000,-0.241394,-0.004166,0.000000,0.033000,-0.016000,-0.006000,14.770000,-1.100000,2.500000,14.489534,Hold,54.783691,208896.000000,Hold,-143463.000000,143360.000000,Suck,-2070.000000,2181.818182,Speed,-2100.000000,2181.818182,Speed,On,Off0.000000,0,,,,
01:43:56.883 PM 03/19/2016,Teleop Enabled,12,FALSE,0,NO ERROR,0.228346,-11.299724,0.228346,-18.691706,TRUE,FALSE,TRUE,FALSE,FALSE,FALSE,Disabled,0.000000,0.000000,0.000000,TRUE,11.292023,-1.172913,0.000000,-0.208099,-0.012329,0.000000,-0.070000,0.041000,-0.032000,14.770000,-1.060000,2.530000,14.495225,Hold,54.783447,208896.000000,Hold,-143463.000000,143360.000000,Suck,-2130.000000,2181.818182,Speed,-2137.500000,2181.818182,Speed,On,Off0.000000,0,,,,
01:43:56.984 PM 03/19/2016,Teleop Enabled,11,FALSE,0,NO ERROR,0.338583,-10.715808,0.338583,-18.030791,TRUE,FALSE,TRUE,FALSE,FALSE,FALSE,Disabled,0.000000,0.000000,0.000000,TRUE,11.283569,-1.173111,0.000000,-0.258591,0.031555,0.000000,0.075000,-0.126000,0.162000,14.770000,-1.060000,2.530000,14.815011,Hold,54.783447,208896.000000,Hold,-143463.000000,143360.000000,Suck,-2137.500000,2181.818182,Speed,-2130.000000,2181.818182,Speed,On,Off0.000000,0,,,,
01:43:57.084 PM 03/19/2016,Teleop Enabled,10,FALSE,0,NO ERROR,0.338583,-9.304145,0.338583,-16.676878,FALSE,FALSE,TRUE,FALSE,FALSE,FALSE,Disabled,0.000000,0.000000,0.000000,TRUE,11.283569,-1.173111,0.000000,-0.258591,0.031555,0.000000,-0.393000,0.052000,-0.285000,15.240000,-3.390000,2.470000,14.858088,Hold,54.814941,208896.000000,Hold,-143440.000000,143360.000000,Suck,-2092.500000,2181.818182,Speed,-2107.500000,2181.818182,Speed,On,Off0.000000,0,,,,
01:43:57.185 PM 03/19/2016,Teleop Enabled,12,FALSE,0,NO ERROR,-0.000000,-8.027231,0.000000,-15.342214,TRUE,FALSE,TRUE,FALSE,FALSE,FALSE,Disabled,0.000000,0.000000,0.000000,TRUE,11.227264,-1.163422,0.000000,-0.542786,0.126190,0.000000,-0.017000,0.100000,0.020000,15.190000,-2.620000,2.470000,14.836499,Hold,54.800049,208896.000000,Hold,-143440.000000,143360.000000,Suck,-2085.000000,2181.818182,Speed,-2107.500000,2181.818182,Speed,On,Off0.000000,0,,,,
01:43:57.286 PM 03/19/2016,Teleop Enabled,12,FALSE,0,NO ERROR,-0.000000,-7.270066,0.000000,-14.629966,TRUE,FALSE,TRUE,FALSE,FALSE,FALSE,Disabled,0.000000,0.000000,0.000000,TRUE,11.214050,-1.161209,0.000000,-0.142593,0.008423,0.000000,0.849000,-0.192000,-0.157000,15.190000,-2.620000,2.470000,14.784317,Hold,54.813721,208896.000000,Hold,-143440.000000,143360.000000,Suck,-2115.000000,2181.818182,Speed,-2130.000000,2181.818182,Speed,On,Off0.000000,0,,,,
01:43:57.387 PM 03/19/2016,Teleop Enabled,10,FALSE,0,NO ERROR,-0.000000,-7.167400,0.000000,-14.546549,TRUE,FALSE,TRUE,FALSE,FALSE,FALSE,Disabled,0.000000,0.000000,0.000000,TRUE,11.211472,-1.160049,0.000000,-0.034866,0.049591,0.000000,0.381000,-0.015000,0.124000,15.070000,-0.670000,2.490000,14.890568,Hold,54.725830,208896.000000,Hold,-143455.000000,143360.000000,Hold,-2130.000000,0.000000,Speed,-2130.000000,0.000000,Speed,Off,Off0.000000,0,,,,
01:43:57.488 PM 03/19/2016,Teleop Enabled,8,FALSE,0,NO ERROR,-0.000000,-7.167400,0.000000,-14.546549,TRUE,FALSE,TRUE,FALSE,FALSE,FALSE,Disabled,0.000000,0.000000,0.000000,TRUE,11.211472,-1.160049,0.000000,-0.034866,0.049591,0.000000,-0.017000,0.044000,0.010000,15.150000,-0.470000,2.500000,14.878984,Hold,54.726074,208896.000000,Hold,-143455.000000,143360.000000,Hold,-2085.000000,0.000000,Speed,-2092.500000,0.000000,Speed,Off,Off0.000000,0,,,,
01:43:57.588 PM 03/19/2016,Teleop Enabled,11,FALSE,0,NO ERROR,-0.000000,-7.167400,0.000000,-14.546549,TRUE,FALSE,TRUE,FALSE,FALSE,FALSE,Disabled,0.000000,0.000000,0.000000,TRUE,11.203064,-1.152924,0.000000,-0.123596,0.100082,0.000000,-0.127000,0.112000,0.026000,15.110000,-0.510000,2.470000,14.812794,Hold,54.724365,208896.000000,Hold,-143455.000000,143360.000000,Hold,-1875.000000,0.000000,Speed,-1912.500000,0.000000,Speed,Off,Off0.000000,0,,,,
01:43:57.689 PM 03/19/2016,Teleop Enabled,8,FALSE,0,NO ERROR,-0.000000,-7.167400,0.000000,-14.552966,TRUE,FALSE,TRUE,FALSE,FALSE,FALSE,Disabled,0.000000,0.000000,0.000000,TRUE,11.203064,-1.152924,0.000000,-0.123596,0.100082,0.000000,-0.036000,0.020000,0.070000,15.130000,-0.540000,2.390000,14.851388,Hold,54.724365,208896.000000,Hold,-143455.000000,143360.000000,Hold,-1650.000000,0.000000,Speed,-1702.500000,0.000000,Speed,Off,Off0.000000,0,,,,
01:43:57.791 PM 03/19/2016,Teleop Enabled,8,FALSE,0,NO ERROR,-0.000000,-7.167400,0.000000,-14.552966,TRUE,FALSE,TRUE,FALSE,FALSE,FALSE,Disabled,0.000000,0.000000,0.000000,TRUE,11.196182,-1.147141,0.000000,-0.133087,0.130081,0.000000,0.065000,0.087000,-0.060000,15.130000,-0.540000,2.390000,14.857193,Hold,54.724365,208896.000000,Hold,-143455.000000,143360.000000,Hold,-1425.000000,0.000000,Speed,-1507.500000,0.000000,Speed,Off,Off0.000000,0,,,,
01:43:57.889 PM 03/19/2016,Teleop Enabled,8,FALSE,0,NO ERROR,-0.000000,-7.167400,0.000000,-14.552966,TRUE,FALSE,TRUE,FALSE,FALSE,FALSE,Disabled,0.000000,0.000000,0.000000,TRUE,11.189987,-1.139420,0.000000,-0.116318,0.178497,0.000000,-0.019000,0.126000,0.014000,15.140000,-0.590000,2.440000,14.829976,Hold,54.724365,208896.000000,Hold,-143455.000000,143360.000000,Hold,-1260.000000,0.000000,Speed,-1320.000000,0.000000,Speed,Off,Off0.000000,0,,,,
01:43:57.990 PM 03/19/2016,Teleop Enabled,9,FALSE,0,NO ERROR,-0.000000,-7.167400,0.000000,-14.552966,TRUE,FALSE,TRUE,FALSE,FALSE,FALSE,Disabled,0.000000,0.000000,0.000000,TRUE,11.183609,-1.128662,0.000000,-0.102402,0.178757,0.000000,0.088000,0.060000,0.131000,15.110000,-0.510000,2.460000,14.822278,Hold,54.724365,208896.000000,Hold,-143455.000000,143360.000000,Hold,-1035.000000,0.000000,Speed,-1140.000000,0.000000,Speed,Off,Off0.000000,0,,,,
01:43:58.091 PM 03/19/2016,Teleop Enabled,10,FALSE,0,NO ERROR,-0.000000,-7.167400,0.000000,-14.552966,TRUE,FALSE,TRUE,FALSE,FALSE,FALSE,Disabled,0.000000,0.000000,0.000000,TRUE,11.179230,-1.119888,0.000000,-0.087006,0.163589,0.000000,0.036000,0.024000,0.030000,15.110000,-0.530000,2.460000,14.822278,Hold,54.724365,208896.000000,Hold,-143455.000000,143360.000000,Hold,-825.000000,0.000000,Speed,-967.500000,0.000000,Speed,Off,Off0.000000,0,,,,
01:43:58.191 PM 03/19/2016,Teleop Enabled,11,FALSE,0,NO ERROR,-0.000000,-7.167400,0.000000,-14.552966,TRUE,FALSE,TRUE,FALSE,FALSE,FALSE,Disabled,0.000000,0.000000,0.000000,TRUE,11.177139,-1.112885,0.000000,-0.043869,0.173508,0.000000,-0.042000,-0.035000,0.071000,15.120000,-0.510000,2.480000,14.822998,Hold,54.724365,208896.000000,Hold,-143455.000000,143360.000000,Hold,-637.500000,0.000000,Speed,-795.000000,0.000000,Speed,Off,Off0.000000,0,,,,
01:43:58.292 PM 03/19/2016,Teleop Enabled,10,FALSE,0,NO ERROR,-0.000000,-7.167400,0.000000,-14.552966,TRUE,FALSE,TRUE,FALSE,FALSE,FALSE,Disabled,0.000000,0.000000,0.000000,TRUE,11.175049,-1.104218,0.000000,-0.029892,0.133057,0.000000,0.028000,-0.094000,0.037000,15.130000,-0.500000,2.500000,14.817407,Hold,54.724365,208896.000000,Hold,-143455.000000,143360.000000,Hold,-450.000000,0.000000,Speed,-667.500000,0.000000,Speed,Off,Off0.000000,0,,,,
01:43:58.393 PM 03/19/2016,Teleop Enabled,10,FALSE,0,NO ERROR,-0.000000,-7.167400,0.000000,-14.552966,TRUE,FALSE,TRUE,FALSE,FALSE,FALSE,Disabled,0.000000,0.000000,0.000000,TRUE,11.173782,-1.098770,0.000000,-0.027435,0.095612,0.000000,-0.080000,-0.107000,0.077000,15.110000,-0.500000,2.480000,14.804993,Hold,54.724365,208896.000000,Hold,-143455.000000,143360.000000,Hold,-270.000000,0.000000,Speed,-510.000000,0.000000,Speed,Off,Off0.000000,0,,,,
01:43:58.494 PM 03/19/2016,Teleop Enabled,10,FALSE,0,NO ERROR,-0.000000,-7.167400,0.000000,-14.552966,TRUE,FALSE,TRUE,FALSE,FALSE,FALSE,Disabled,0.000000,0.000000,0.000000,TRUE,11.172440,-1.096909,0.000000,-0.026642,-0.006500,0.000000,0.031000,-0.058000,-0.045000,15.110000,-0.520000,2.470000,14.818178,Hold,54.724365,208896.000000,Hold,-143455.000000,143360.000000,Hold,-97.500000,0.000000,Speed,-352.500000,0.000000,Speed,Off,Off0.000000,0,,,,
01:43:58.594 PM 03/19/2016,Teleop Enabled,11,FALSE,0,NO ERROR,-0.000000,-7.167400,0.000000,-14.552966,TRUE,FALSE,TRUE,FALSE,FALSE,FALSE,Disabled,0.000000,0.000000,0.000000,TRUE,11.171936,-1.098618,0.000000,0.001892,-0.031464,0.000000,-0.057000,-0.118000,0.062000,15.110000,-0.500000,2.460000,14.813393,Hold,54.724365,208896.000000,Hold,-143455.000000,143360.000000,LowGoal,-97.500000,0.000000,Speed,-217.500000,0.000000,Speed,Off,Off0.000000,0,,,,
01:43:58.695 PM 03/19/2016,Teleop Enabled,9,FALSE,0,NO ERROR,-0.000000,-7.167400,0.000000,-14.552966,TRUE,FALSE,TRUE,FALSE,FALSE,FALSE,Disabled,0.000000,0.000000,0.000000,TRUE,11.171921,-1.100937,0.000000,-0.005753,-0.057800,0.000000,0.080000,0.021000,-0.039000,15.110000,-0.530000,2.480000,14.820753,Hold,54.724365,208896.000000,Hold,-143455.000000,143360.000000,LowGoal,7.500000,-1454.545455,Speed,-217.500000,-1454.545455,Speed,Off,Off0.000000,0,,,,
01:43:58.794 PM 03/19/2016,Teleop Enabled,10,FALSE,0,NO ERROR,-0.000000,-7.167400,0.000000,-14.552966,TRUE,FALSE,TRUE,FALSE,FALSE,FALSE,Disabled,0.000000,0.000000,0.000000,TRUE,11.171463,-1.103943,0.000000,-0.022079,-0.069855,0.000000,0.001000,-0.071000,-0.104000,15.110000,-0.510000,2.510000,14.839701,Hold,54.725098,208896.000000,Hold,-143455.000000,143360.000000,LowGoal,7.500000,-1454.545455,Speed,-52.500000,-1454.545455,Speed,Off,Off0.000000,0,,,,
01:43:58.895 PM 03/19/2016,Teleop Enabled,10,FALSE,0,NO ERROR,-0.000000,-7.167400,0.000000,-14.552966,TRUE,FALSE,TRUE,FALSE,FALSE,FALSE,Disabled,0.000000,0.000000,0.000000,TRUE,11.170105,-1.105225,0.000000,-0.023300,0.015015,0.000000,0.029000,0.056000,0.005000,15.120000,-0.530000,2.520000,14.840080,Hold,54.725342,208896.000000,Hold,-143455.000000,143360.000000,LowGoal,487.500000,-1454.545455,Speed,637.500000,-1454.545455,Speed,Off,Off0.000000,0,,,,
01:43:58.995 PM 03/19/2016,Teleop Enabled,10,FALSE,0,NO ERROR,-0.000000,-7.167400,0.000000,-14.552966,TRUE,FALSE,TRUE,FALSE,FALSE,FALSE,Disabled,0.000000,0.000000,0.000000,TRUE,11.169052,-1.104294,0.000000,-0.026474,0.018097,0.000000,-0.052000,0.112000,0.019000,15.110000,-0.530000,2.530000,14.810288,Hold,54.725342,208896.000000,Hold,-143455.000000,143360.000000,LowGoal,1215.000000,-1454.545455,Speed,1365.000000,-1454.545455,Speed,Off,Off0.000000,0,,,,
01:43:59.094 PM 03/19/2016,Teleop Enabled,9,FALSE,0,NO ERROR,-0.000000,-7.167400,0.000000,-14.552966,TRUE,FALSE,TRUE,FALSE,FALSE,FALSE,Disabled,0.000000,0.000000,0.000000,TRUE,11.168045,-1.102768,0.000000,0.000000,0.035446,0.000000,-0.061000,0.102000,-0.039000,15.110000,-0.470000,2.480000,14.829649,Hold,54.725342,208896.000000,Hold,-143455.000000,143360.000000,LowGoal,1560.000000,-1454.545455,Speed,1582.500000,-1454.545455,Speed,Off,Off0.000000,0,,,,
01:43:59.195 PM 03/19/2016,Teleop Enabled,9,FALSE,0,NO ERROR,-0.000000,-7.167400,0.000000,-14.552966,TRUE,FALSE,TRUE,FALSE,FALSE,FALSE,Disabled,0.000000,0.000000,0.000000,TRUE,11.166763,-1.098892,0.000000,-0.032806,0.070374,0.000000,0.063000,-0.024000,0.064000,15.110000,-0.490000,2.490000,14.825263,Hold,54.725342,208896.000000,Hold,-143455.000000,143360.000000,LowGoal,1387.500000,-1454.545455,Speed,1425.000000,-1454.545455,Speed,Off,Off0.000000,0,,,,
01:43:59.297 PM 03/19/2016,Teleop Enabled,9,FALSE,0,NO ERROR,-0.000000,-7.167400,0.000000,-14.552966,TRUE,FALSE,TRUE,FALSE,FALSE,FALSE,Disabled,0.000000,0.000000,0.000000,TRUE,11.165634,-1.096207,0.000000,-0.027771,0.065582,0.000000,-0.073000,-0.002000,-0.007000,15.100000,-0.470000,2.520000,14.802167,Hold,54.725342,208896.000000,Hold,-143455.000000,143360.000000,LowGoal,1282.500000,-1454.545455,Speed,1312.500000,-1454.545455,Speed,Off,Off0.000000,0,,,,
01:43:59.398 PM 03/19/2016,Teleop Enabled,11,FALSE,0,NO ERROR,-0.000000,-7.167400,0.000000,-14.552966,TRUE,FALSE,TRUE,FALSE,FALSE,FALSE,Disabled,0.000000,0.000000,0.000000,TRUE,11.164017,-1.095703,0.000000,-0.017334,0.005112,0.000000,0.042000,-0.030000,0.066000,15.130000,-0.540000,2.490000,14.807269,Hold,54.725342,208896.000000,Hold,-143455.000000,143360.000000,LowGoal,1357.500000,-1454.545455,Speed,1372.500000,-1454.545455,Speed,Off,Off0.000000,0,,,,
01:43:59.498 PM 03/19/2016,Teleop Enabled,11,FALSE,0,NO ERROR,-0.000000,-7.167400,0.000000,-14.552966,TRUE,FALSE,TRUE,FALSE,FALSE,FALSE,Disabled,0.000000,0.000000,0.000000,TRUE,11.163071,-1.095978,0.000000,-0.033768,-0.011429,0.000000,0.010000,0.030000,-0.057000,15.110000,-0.490000,2.470000,14.806742,Hold,54.725342,208896.000000,HighGoal,-143455.000000,46284.800000,HighGoal,1395.000000,-3272.727273,Speed,1402.500000,-3272.727273,Speed,Off,Off0.000000,0,,,,
01:43:59.597 PM 03/19/2016,Teleop Enabled,11,FALSE,0,NO ERROR,-0.000000,-7.167400,0.000000,-14.552966,TRUE,FALSE,TRUE,FALSE,FALSE,FALSE,Disabled,0.000000,0.000000,0.000000,TRUE,11.162628,-1.097153,0.000000,0.007263,-0.013504,0.000000,-0.092000,0.000000,-0.042000,15.150000,-0.730000,2.460000,14.819201,Hold,54.725342,208896.000000,Hold,-141796.000000,46284.800000,HighGoal,1335.000000,-3272.727273,Speed,1402.500000,-3272.727273,Speed,Off,Off0.000000,0,,,,
01:43:59.697 PM 03/19/2016,Teleop Enabled,11,FALSE,0,NO ERROR,-0.000000,-7.167400,0.000000,-14.559383,TRUE,FALSE,TRUE,FALSE,FALSE,FALSE,Disabled,0.000000,0.000000,0.000000,TRUE,11.161789,-1.097397,0.000000,-0.032166,-0.006256,0.000000,-0.050000,0.002000,0.034000,15.090000,-0.670000,2.510000,14.766388,Hold,54.725586,208896.000000,HighGoal,-136875.000000,46284.800000,HighGoal,1605.000000,-3272.727273,Speed,1822.500000,-3272.727273,Speed,Off,Off0.000000,0,,,,
01:43:59.798 PM 03/19/2016,Teleop Enabled,9,FALSE,0,NO ERROR,-0.000000,-7.167400,0.000000,-14.565799,TRUE,FALSE,TRUE,FALSE,FALSE,FALSE,Disabled,0.000000,0.000000,0.000000,TRUE,11.159424,-1.098724,0.000000,-0.066162,-0.048187,0.000000,0.141000,-0.050000,0.157000,15.100000,-0.590000,2.550000,14.779732,Hold,54.725586,208896.000000,Hold,-131168.000000,46284.800000,HighGoal,2085.000000,-3272.727273,Speed,2220.000000,-3272.727273,Speed,Off,Off0.000000,0,,,,
01:43:59.898 PM 03/19/2016,Teleop Enabled,11,FALSE,0,NO ERROR,-0.000000,-7.167400,0.000000,-14.565799,TRUE,FALSE,TRUE,FALSE,FALSE,FALSE,Disabled,0.000000,0.000000,0.000000,TRUE,11.156082,-1.100830,0.000000,-0.057739,-0.044754,0.000000,-0.116000,0.218000,0.397000,15.150000,-0.630000,2.540000,14.820798,Hold,54.747314,208896.000000,HighGoal,-124960.000000,46284.800000,HighGoal,2467.500000,-3272.727273,Speed,2625.000000,-3272.727273,Speed,Off,Off0.000000,0,,,,
01:43:59.998 PM 03/19/2016,Teleop Enabled,9,FALSE,0,NO ERROR,-0.000000,-7.167400,0.000000,-14.572216,TRUE,FALSE,TRUE,FALSE,FALSE,FALSE,Disabled,0.000000,0.000000,0.000000,TRUE,11.152557,-1.102615,0.000000,-0.024521,-0.054276,0.000000,0.004000,-0.128000,-0.032000,15.100000,-0.630000,2.660000,14.756711,Hold,54.746826,208896.000000,Hold,-124960.000000,46284.800000,HighGoal,2775.000000,-3272.727273,Speed,2962.500000,-3272.727273,Speed,Off,Off0.000000,0,,,,
01:44:00.099 PM 03/19/2016,Teleop Enabled,11,FALSE,0,NO ERROR,-0.000000,-7.167400,0.000000,-14.578633,TRUE,FALSE,TRUE,FALSE,FALSE,FALSE,Disabled,0.000000,0.000000,0.000000,TRUE,11.152924,-1.106125,0.000000,0.018158,-0.104446,0.000000,-0.068000,-0.078000,-0.171000,15.120000,-0.680000,2.560000,14.780881,Hold,54.746826,208896.000000,Hold,-118526.000000,46284.800000,HighGoal,2977.500000,-3272.727273,Speed,3217.500000,-3272.727273,Speed,Off,Off0.000000,0,,,,
01:44:00.201 PM 03/19/2016,Teleop Enabled,11,FALSE,0,NO ERROR,-0.000000,-7.167400,0.000000,-14.578633,TRUE,FALSE,TRUE,FALSE,FALSE,FALSE,Disabled,0.000000,0.000000,0.000000,TRUE,11.155045,-1.111984,0.000000,0.062988,-0.115845,0.000000,-0.035000,0.083000,0.196000,15.130000,-0.570000,2.540000,14.792486,Hold,54.746826,208896.000000,Hold,-111509.000000,46284.800000,HighGoal,3232.500000,-3272.727273,Speed,3262.500000,-3272.727273,Speed,Off,Off0.000000,0,,,,
01:44:00.301 PM 03/19/2016,Teleop Enabled,10,FALSE,0,NO ERROR,-0.000000,-7.167400,0.000000,-14.578633,TRUE,FALSE,TRUE,FALSE,FALSE,FALSE,Disabled,0.000000,0.000000,0.000000,TRUE,11.158630,-1.118530,0.000000,0.060562,-0.101578,0.000000,-0.153000,0.143000,0.086000,15.120000,-0.610000,2.630000,14.774936,Hold,54.746826,208896.000000,Hold,-103479.000000,46284.800000,HighGoal,3247.500000,-3272.727273,Speed,3210.000000,-3272.727273,Speed,Off,Off0.000000,0,,,,
01:44:00.400 PM 03/19/2016,Teleop Enabled,9,FALSE,0,NO ERROR,-0.000000,-7.167400,0.000000,-14.578633,TRUE,FALSE,TRUE,FALSE,FALSE,FALSE,Disabled,0.000000,0.000000,0.000000,TRUE,11.159729,-1.124054,0.000000,-0.007721,-0.120148,0.000000,0.170000,-0.022000,0.192000,15.110000,-0.570000,2.550000,14.781057,Hold,54.746582,208896.000000,Hold,-95083.000000,46284.800000,HighGoal,3165.000000,-3272.727273,Speed,3195.000000,-3272.727273,Speed,Off,Off0.000000,0,,,,
01:44:00.501 PM 03/19/2016,Teleop Enabled,11,FALSE,0,NO ERROR,-0.000000,-7.167400,0.000000,-14.578633,TRUE,FALSE,TRUE,FALSE,FALSE,FALSE,Disabled,0.000000,0.000000,0.000000,TRUE,11.160431,-1.129028,0.000000,0.019363,-0.067764,0.000000,-0.017000,-0.003000,-0.163000,15.120000,-0.600000,2.610000,14.787708,Hold,54.746338,208896.000000,Hold,-86507.000000,46284.800000,HighGoal,3150.000000,-3272.727273,Speed,3202.500000,-3272.727273,Speed,Off,Off0.000000,0,,,,
01:44:00.600 PM 03/19/2016,Teleop Enabled,10,FALSE,0,NO ERROR,-0.000000,-7.167400,0.000000,-14.578633,TRUE,FALSE,TRUE,FALSE,FALSE,FALSE,Disabled,0.000000,0.000000,0.000000,TRUE,11.162201,-1.128906,0.000000,0.047180,0.026749,0.000000,-0.128000,0.119000,-0.093000,15.100000,-0.610000,2.710000,14.764639,Hold,54.746338,208896.000000,Hold,-86507.000000,46284.800000,HighGoal,3180.000000,-3272.727273,Speed,3210.000000,-3272.727273,Speed,Off,Off0.000000,0,,,,
01:44:00.701 PM 03/19/2016,Teleop Enabled,10,FALSE,0,NO ERROR,-0.000000,-7.167400,0.000000,-14.578633,TRUE,FALSE,TRUE,FALSE,FALSE,FALSE,Disabled,0.000000,0.000000,0.000000,TRUE,11.163681,-1.131165,0.000000,0.009415,-0.110291,0.000000,0.083000,-0.023000,0.342000,15.110000,-0.590000,2.720000,14.750325,Hold,54.746338,208896.000000,Hold,-77744.000000,46284.800000,HighGoal,3187.500000,-3272.727273,Speed,3202.500000,-3272.727273,Speed,Off,Off0.000000,0,,,,
01:44:00.800 PM 03/19/2016,Teleop Enabled,11,FALSE,0,NO ERROR,0.212598,-7.167400,-0.212598,-14.578633,TRUE,FALSE,TRUE,FALSE,FALSE,FALSE,Disabled,0.000000,0.000000,0.000000,TRUE,11.164764,-1.136444,0.000000,0.039108,-0.131226,0.000000,0.024000,-0.026000,-0.039000,15.100000,-0.580000,2.660000,14.750463,Hold,54.746094,208896.000000,Hold,-68600.000000,46284.800000,HighGoal,3180.000000,-3272.727273,Speed,3210.000000,-3272.727273,Speed,Off,Off0.000000,0,,,,
01:44:00.901 PM 03/19/2016,Teleop Enabled,9,FALSE,0,NO ERROR,0.251969,-7.468983,-0.251969,-14.277050,TRUE,FALSE,TRUE,FALSE,FALSE,FALSE,Disabled,0.000000,0.000000,0.000000,TRUE,11.168198,-1.140350,0.000000,0.093445,-0.063644,0.000000,-0.372000,0.073000,0.226000,14.910000,-0.270000,2.500000,14.690576,Hold,54.746094,208896.000000,Hold,-59051.000000,46284.800000,HighGoal,3180.000000,-3272.727273,Speed,3210.000000,-3272.727273,Speed,Off,Off0.000000,0,,,,
01:44:01.001 PM 03/19/2016,Teleop Enabled,10,FALSE,0,NO ERROR,0.480315,-8.194064,-0.480315,-13.731635,TRUE,FALSE,TRUE,FALSE,FALSE,FALSE,Disabled,0.000000,0.000000,0.000000,TRUE,11.169006,-1.144348,0.000000,-0.029434,-0.088867,0.000000,-0.372000,0.073000,0.226000,14.910000,-0.270000,2.500000,12.632939,Hold,54.745117,208896.000000,Hold,-49267.000000,46284.800000,HighGoal,3172.500000,-3272.727273,Speed,3202.500000,-3272.727273,Speed,Off,Off0.000000,0,,,,
01:44:01.101 PM 03/19/2016,Teleop Enabled,10,FALSE,0,NO ERROR,0.527559,-9.503061,-0.527559,-12.531721,TRUE,FALSE,TRUE,FALSE,FALSE,FALSE,Disabled,0.000000,0.000000,0.000000,TRUE,11.163803,-1.151459,0.000000,-0.183990,-0.191101,0.000000,-0.153000,-0.202000,0.052000,8.040000,-0.770000,2.020000,8.696904,Hold,54.744873,208896.000000,Hold,-45931.000000,46284.800000,HighGoal,3157.500000,-3272.727273,Speed,3187.500000,-3272.727273,Speed,Off,Off0.000000,0,,,,
01:44:01.201 PM 03/19/2016,Teleop Enabled,11,FALSE,0,NO ERROR,-0.000000,-11.479390,0.000000,-10.555392,TRUE,FALSE,TRUE,FALSE,FALSE,FALSE,Disabled,0.000000,0.000000,0.000000,TRUE,11.163803,-1.151459,0.000000,-0.183990,-0.191101,0.000000,-0.153000,-0.202000,0.052000,8.040000,-0.770000,2.020000,-0.939619,Hold,54.743896,208896.000000,Hold,-46379.000000,46284.800000,HighGoal,3142.500000,-3272.727273,Speed,3150.000000,-3272.727273,Speed,Off,Off0.000000,0,,,,
01:44:01.301 PM 03/19/2016,Teleop Enabled,10,FALSE,0,NO ERROR,-0.000000,-12.178805,0.000000,-10.138310,TRUE,FALSE,TRUE,FALSE,FALSE,FALSE,Disabled,0.000000,0.000000,0.000000,TRUE,11.150726,-1.167831,0.000000,0.046371,0.125183,0.000000,-0.078000,0.186000,0.019000,-5.460000,-0.140000,2.530000,-5.102288,Hold,54.742432,208896.000000,Hold,-46378.000000,46284.800000,HighGoal,3157.500000,-3272.727273,Speed,3180.000000,-3272.727273,Speed,Off,Off0.000000,0,,,,
01:44:01.402 PM 03/19/2016,Teleop Enabled,11,FALSE,0,NO ERROR,-0.000000,-12.133888,0.000000,-10.228143,TRUE,FALSE,TRUE,FALSE,FALSE,FALSE,Disabled,0.000000,0.000000,0.000000,TRUE,11.153229,-1.161240,0.000000,0.059708,0.152557,0.000000,-0.118000,0.012000,0.093000,-4.060000,-0.160000,2.770000,-3.949902,Hold,54.741943,208896.000000,Hold,-46378.000000,46284.800000,HighGoal,3187.500000,-3272.727273,Speed,3232.500000,-3272.727273,Speed,Off,Off0.000000,0,,,,
01:44:01.502 PM 03/19/2016,Teleop Enabled,12,FALSE,0,NO ERROR,-0.000000,-12.121055,0.000000,-10.221726,TRUE,FALSE,TRUE,FALSE,FALSE,FALSE,Disabled,0.000000,0.000000,0.000000,TRUE,11.153870,-1.155716,0.000000,-0.009216,0.073776,0.000000,-0.264000,0.035000,-0.064000,-3.960000,-0.200000,2.530000,-3.739159,Hold,54.745605,208896.000000,Hold,-46374.000000,46284.800000,HighGoal,3187.500000,-3272.727273,Speed,3217.500000,-3272.727273,Speed,Off,Off0.000000,0,,,,
01:44:01.602 PM 03/19/2016,Teleop Enabled,10,FALSE,0,NO ERROR,-0.000000,-12.121055,0.000000,-10.221726,TRUE,FALSE,TRUE,FALSE,FALSE,FALSE,Disabled,0.000000,0.000000,0.000000,TRUE,11.151016,-1.150055,0.000000,-0.083160,0.132950,0.000000,-0.264000,0.035000,-0.064000,-3.980000,-0.130000,2.600000,-3.750058,Hold,54.739014,208896.000000,Hold,-46374.000000,46284.800000,HighGoal,3187.500000,-3272.727273,Speed,3210.000000,-3272.727273,Speed,Off,Off0.000000,0,,,,
01:44:01.702 PM 03/19/2016,Teleop Enabled,7,FALSE,0,NO ERROR,-0.000000,-12.127472,0.000000,-10.221726,TRUE,FALSE,TRUE,FALSE,FALSE,FALSE,Disabled,0.000000,0.000000,0.000000,TRUE,11.149246,-1.143875,0.000000,0.002090,0.107697,0.000000,0.037000,-0.140000,0.048000,-3.990000,-0.170000,2.570000,-3.778796,Hold,54.740967,208896.000000,Hold,-46370.000000,46284.800000,HighGoal,3195.000000,-3272.727273,Speed,3217.500000,-3272.727273,Speed,Off,Off0.000000,0,,,,
01:44:01.802 PM 03/19/2016,Teleop Enabled,9,FALSE,0,NO ERROR,-0.000000,-12.127472,0.000000,-10.221726,TRUE,FALSE,TRUE,FALSE,FALSE,FALSE,Disabled,0.000000,0.000000,0.000000,TRUE,11.151199,-1.140305,0.000000,0.044861,0.053925,0.000000,0.037000,-0.140000,0.048000,-3.990000,-0.110000,2.570000,-3.774042,Hold,54.740967,208896.000000,Hold,-46369.000000,46284.800000,HighGoal,3187.500000,-3272.727273,Speed,3225.000000,-3272.727273,Speed,Off,Off0.000000,0,,,,
01:44:01.904 PM 03/19/2016,Teleop Enabled,11,FALSE,0,NO ERROR,-0.000000,-12.127472,0.000000,-10.221726,TRUE,FALSE,TRUE,FALSE,FALSE,FALSE,Disabled,0.000000,0.000000,0.000000,TRUE,11.151932,-1.136002,0.000000,-0.016312,0.114258,0.000000,0.156000,0.012000,0.040000,-3.990000,-0.170000,2.560000,-3.772341,Hold,54.740967,208896.000000,Hold,-46367.000000,46284.800000,HighGoal,3195.000000,-3272.727273,Speed,3217.500000,-3272.727273,Speed,Off,Off0.000000,0,,,,
01:44:02.004 PM 03/19/2016,Teleop Enabled,9,FALSE,0,NO ERROR,-0.000000,-12.127472,0.000000,-10.221726,TRUE,FALSE,TRUE,FALSE,FALSE,FALSE,Disabled,0.000000,0.000000,0.000000,TRUE,11.148468,-1.130066,0.000000,-0.082687,0.105286,0.000000,-0.297000,0.069000,-0.097000,-3.980000,-0.150000,2.590000,-3.770124,Hold,54.740479,208896.000000,Hold,-46367.000000,46284.800000,HighGoal,3202.500000,-3272.727273,Speed,3217.500000,-3272.727273,Speed,Off,Off0.000000,0,,,,
01:44:02.104 PM 03/19/2016,Teleop Enabled,11,FALSE,0,NO ERROR,-0.000000,-12.127472,0.000000,-10.221726,TRUE,FALSE,TRUE,FALSE,FALSE,FALSE,Disabled,0.000000,0.000000,0.000000,TRUE,11.144867,-1.126053,0.000000,-0.025070,0.057785,0.000000,0.079000,-0.122000,-0.155000,-3.980000,-0.150000,2.590000,-3.775099,Hold,54.740479,208896.000000,Hold,-46366.000000,46284.800000,HighGoal,3195.000000,-3272.727273,Speed,3217.500000,-3272.727273,Speed,Off,Off0.000000,0,,,,
01:44:02.205 PM 03/19/2016,Teleop Enabled,10,FALSE,0,NO ERROR,-0.000000,-12.127472,0.000000,-10.221726,TRUE,FALSE,TRUE,FALSE,FALSE,FALSE,Disabled,0.000000,0.000000,0.000000,TRUE,11.144852,-1.123047,0.000000,0.008347,0.090363,0.000000,0.142000,-0.006000,0.045000,-3.980000,-0.200000,2.590000,-3.764757,Hold,54.740234,208896.000000,Hold,-46366.000000,46284.800000,HighGoal,3195.000000,-3272.727273,Speed,3217.500000,-3272.727273,Speed,Off,Off0.000000,0,,,,
01:44:02.306 PM 03/19/2016,Teleop Enabled,2,FALSE,0,NO ERROR,-0.000000,-12.127472,0.000000,-10.221726,TRUE,FALSE,TRUE,FALSE,FALSE,FALSE,Disabled,0.000000,0.000000,0.000000,TRUE,11.144852,-1.123047,0.000000,0.008347,0.090363,0.000000,-0.104000,0.096000,0.200000,-4.000000,-0.210000,2.600000,-3.764265,Hold,54.740234,208896.000000,Hold,-46366.000000,46284.800000,HighGoal,3195.000000,-3272.727273,Speed,3217.500000,-3272.727273,Speed,Off,Off0.000000,0,,,,
01:44:02.407 PM 03/19/2016,Teleop Enabled,10,FALSE,0,NO ERROR,-0.000000,-12.127472,0.000000,-10.221726,TRUE,FALSE,TRUE,FALSE,FALSE,FALSE,Disabled,0.000000,0.000000,0.000000,TRUE,11.143387,-1.116684,0.000000,-0.065414,0.096008,0.000000,-0.305000,-0.066000,0.043000,-4.000000,-0.210000,2.600000,-3.762127,Hold,54.740234,208896.000000,Hold,-46365.000000,46284.800000,HighGoal,3187.500000,-3272.727273,Speed,3217.500000,-3272.727273,Speed,Off,Off0.000000,0,,,,
01:44:02.508 PM 03/19/2016,Teleop Enabled,10,FALSE,0,NO ERROR,-0.000000,-12.127472,0.000000,-10.221726,TRUE,FALSE,TRUE,FALSE,FALSE,FALSE,Disabled,0.000000,0.000000,0.000000,TRUE,11.134857,-1.111588,0.000000,-0.024200,0.030655,0.000000,0.148000,0.024000,0.160000,-3.990000,-0.240000,2.570000,-3.762072,Hold,54.740234,208896.000000,Hold,-46365.000000,46284.800000,HighGoal,3195.000000,-3272.727273,Speed,3225.000000,-3272.727273,Speed,Off,Off0.000000,0,,,,
01:44:02.607 PM 03/19/2016,Teleop Enabled,9,FALSE,0,NO ERROR,-0.000000,-12.127472,0.000000,-10.221726,TRUE,FALSE,TRUE,FALSE,FALSE,FALSE,Disabled,0.000000,0.000000,0.000000,TRUE,11.134933,-1.108429,0.000000,0.012512,0.076111,0.000000,0.083000,0.107000,0.259000,-3.990000,-0.230000,2.540000,-3.775188,Hold,54.740234,208896.000000,Hold,-46364.000000,46284.800000,HighGoal,3202.500000,-3272.727273,Speed,3217.500000,-3272.727273,Speed,Off,Off0.000000,0,,,,
01:44:02.708 PM 03/19/2016,Teleop Enabled,11,FALSE,0,NO ERROR,-0.000000,-12.127472,0.000000,-10.221726,TRUE,FALSE,TRUE,FALSE,FALSE,FALSE,Disabled,0.000000,0.000000,0.000000,TRUE,11.135117,-1.106033,0.000000,-0.013474,0.025116,0.000000,-0.055000,-0.055000,-0.060000,-4.000000,-0.260000,2.550000,-3.766007,Hold,54.740234,208896.000000,Hold,-46364.000000,46284.800000,HighGoal,3202.500000,-3272.727273,Speed,3217.500000,-3272.727273,Speed,Off,Off0.000000,0,,,,
01:44:02.808 PM 03/19/2016,Teleop Enabled,14,FALSE,0,NO ERROR,-0.000000,-12.127472,0.000000,-10.221726,TRUE,FALSE,TRUE,FALSE,FALSE,FALSE,Disabled,0.000000,0.000000,0.000000,TRUE,11.135117,-1.106033,0.000000,-0.013474,0.025116,0.000000,0.058000,0.161000,0.323000,-3.990000,-0.240000,2.560000,-3.762640,Hold,54.740234,208896.000000,Hold,-46364.000000,46284.800000,HighGoal,3195.000000,-3272.727273,Speed,3225.000000,-3272.727273,Speed,Off,Off0.000000,0,,,,
01:44:02.909 PM 03/19/2016,Teleop Enabled,9,FALSE,0,NO ERROR,-0.000000,-12.127472,0.000000,-10.221726,TRUE,FALSE,TRUE,FALSE,FALSE,FALSE,Disabled,0.000000,0.000000,0.000000,TRUE,11.126495,-1.099564,0.000000,-0.111252,0.078140,0.000000,0.000000,-0.137000,-0.182000,-3.990000,-0.240000,2.560000,-3.758082,Hold,54.740234,208896.000000,Hold,-46364.000000,46284.800000,HighGoal,3195.000000,-3272.727273,Speed,3217.500000,-3272.727273,Speed,Off,Off0.000000,0,,,,
01:44:03.009 PM 03/19/2016,Teleop Enabled,10,FALSE,0,NO ERROR,-0.000000,-12.127472,0.000000,-10.221726,TRUE,FALSE,TRUE,FALSE,FALSE,FALSE,Disabled,0.000000,0.000000,0.000000,TRUE,11.124451,-1.097336,0.000000,0.008011,0.029602,0.000000,0.132000,-0.093000,0.130000,-3.990000,-0.300000,2.630000,-3.756888,Hold,54.740234,208896.000000,Hold,-46364.000000,46284.800000,HighGoal,3202.500000,-3272.727273,Speed,3217.500000,-3272.727273,Speed,Off,Off0.000000,0,,,,
01:44:03.110 PM 03/19/2016,Teleop Enabled,10,FALSE,0,NO ERROR,-0.000000,-12.127472,0.000000,-10.221726,TRUE,FALSE,TRUE,FALSE,FALSE,FALSE,Disabled,0.000000,0.000000,0.000000,TRUE,11.124451,-1.097336,0.000000,0.008011,0.029602,0.000000,0.148000,0.108000,0.144000,-3.990000,-0.300000,2.630000,-3.754003,Hold,54.740234,208896.000000,Hold,-46364.000000,46284.800000,HighGoal,3202.500000,-3272.727273,Speed,3217.500000,-3272.727273,Speed,Off,Off0.000000,0,,,,
01:44:03.212 PM 03/19/2016,Teleop Enabled,10,FALSE,0,NO ERROR,-0.000000,-12.127472,0.000000,-10.221726,TRUE,FALSE,TRUE,FALSE,FALSE,FALSE,Disabled,0.000000,0.000000,0.000000,TRUE,11.121460,-1.087311,0.000000,-0.087250,0.099182,0.000000,-0.208000,0.003000,0.011000,-3.990000,-0.280000,2.620000,-3.753425,Hold,54.740234,208896.000000,Hold,-46364.000000,46284.800000,HighGoal,3187.500000,-3272.727273,Speed,3217.500000,-3272.727273,Speed,Off,Off0.000000,0,,,,
