Time,Robot Mode,Loop Time,Error Status,Error Code,Error Source,Left Motor Output,Left Motor Encoder,Right Motor Output,Right Motor Encoder,Is Level,Is Stalled,Ball Detector Photoeye,Vision Enabled,Vision Teleop Control,Vision Auto Control,Vision Current State,Vision X Output,Vision NavX Error,Vision NavX Target,NavX Connection Status,NavX Displacement X,NavX Displacement Y,NavX Displacement Z,NavX Velocity X,NavX Velocity Y,NavX Velocity Z,NavX Acceleration X,NavX Acceleration Y,NavX Acceleration Z,NavX Pitch,NavX Yaw,NavX Roll,Gyro Angle,Roller Arm State,Roller Arm Actual,Roller Arm Desired,Shooter Arm State,Shooter Arm Actual,Shooter Arm Desired,Shooter State,Actual RPM Left,Desired RPM Left,Control Mode Left,Actual RPM Right,Desired RPM Right,Scaler Motor Output,Auto To Run,Auto Current File,Auto File Status,Auto Current Command,Auto Trimmed Command
09:26:50.408 AM 03/20/2016,Teleop Enabled,10,FALSE,0,NO ERROR,-0.000000,-0.089833,0.000000,-0.218166,TRUE,TRUE,FALSE,FALSE,FALSE,FALSE,Disabled,0.000000,-0.000000,0.030000,TRUE,2.295151,-0.399521,0.000000,0.000000,0.000000,0.000000,-0.003000,0.000000,0.020000,-0.170000,-0.330000,2.460000,1.170446,ResetBack,0.677246,-0.200000,ResetBack,-16648.000000,-0.300000,Suck,0.000000,2181.818182,Speed,0.000000,2181.818182,Speed,Off,On0.000000,0,,,,
09:26:50.508 AM 03/20/2016,Teleop Enabled,10,FALSE,0,NO ERROR,-0.000000,-0.230999,0.000000,-0.288749,TRUE,FALSE,FALSE,FALSE,FALSE,FALSE,Disabled,0.000000,-0.000000,0.030000,TRUE,2.298874,-0.399246,0.000000,0.072739,-0.008255,0.000000,0.038000,-0.028000,0.076000,-0.170000,-0.280000,2.420000,1.147625,ResetBack,0.069824,-0.200000,ResetBack,-10188.000000,-0.300000,Suck,-187.500000,0.000000,Speed,-217.500000,0.000000,Speed,Off,On0.000000,0,,,,
09:26:50.610 AM 03/20/2016,Teleop Enabled,10,FALSE,0,NO ERROR,-0.000000,-0.263083,0.000000,-0.314416,TRUE,FALSE,FALSE,FALSE,FALSE,FALSE,Disabled,0.000000,-0.000000,0.030000,TRUE,2.298874,-0.399246,0.000000,0.072739,-0.008255,0.000000,-0.083000,-0.019000,0.185000,-0.240000,-0.090000,2.480000,1.154300,ResetBack,-0.008057,-0.200000,ResetBack,-3251.000000,-0.300000,Suck,-1027.500000,2181.818182,Speed,-982.500000,2181.818182,Speed,Off,On0.000000,0,,,,
09:26:50.711 AM 03/20/2016,Teleop Enabled,10,FALSE,0,NO ERROR,-0.000000,-0.295166,0.000000,-0.327249,TRUE,FALSE,FALSE,FALSE,FALSE,FALSE,Disabled,0.000000,-0.000000,0.030000,TRUE,2.302094,-0.400955,0.000000,0.056274,-0.033417,0.000000,0.039000,0.111000,0.079000,-0.200000,-0.240000,2.360000,1.115434,Reset,-0.008057,0.000000,ResetBack,-3251.000000,-0.300000,Suck,-1102.500000,2181.818182,Speed,-1020.000000,2181.818182,Speed,Off,On0.000000,0,,,,
09:26:50.812 AM 03/20/2016,Teleop Enabled,11,FALSE,0,NO ERROR,-0.000000,-0.295166,0.000000,-0.340083,TRUE,FALSE,FALSE,FALSE,FALSE,FALSE,Disabled,0.000000,-0.000000,0.030000,TRUE,2.305557,-0.402252,0.000000,0.066254,-0.040451,0.000000,0.001000,-0.069000,-0.026000,-0.240000,-0.300000,2.300000,1.109375,Hold,0.923340,0.000000,ResetBack,-1461.000000,-0.300000,Suck,-1470.000000,2181.818182,Speed,-1462.500000,2181.818182,Speed,Off,On0.000000,0,,,,
09:26:50.912 AM 03/20/2016,Teleop Enabled,11,FALSE,0,NO ERROR,-0.000000,-0.301583,0.000000,-0.340083,TRUE,FALSE,FALSE,FALSE,FALSE,FALSE,Disabled,0.000000,-0.000000,0.030000,TRUE,2.308060,-0.402954,0.000000,0.073212,-0.013107,0.000000,0.110000,-0.052000,0.039000,-0.230000,-0.310000,2.260000,1.095095,Hold,0.990723,0.000000,ResetBack,-1311.000000,-0.300000,Suck,-2145.000000,2181.818182,Speed,-2137.500000,2181.818182,Speed,Off,On0.000000,0,,,,
09:26:51.013 AM 03/20/2016,Teleop Enabled,9,FALSE,0,NO ERROR,-0.000000,-0.301583,0.000000,-0.340083,TRUE,FALSE,FALSE,FALSE,FALSE,FALSE,Disabled,0.000000,-0.000000,0.030000,TRUE,2.312378,-0.403214,0.000000,0.084366,0.028046,0.000000,-0.046000,0.013000,-0.049000,-0.230000,-0.240000,2.230000,1.096496,Hold,0.943115,0.000000,ResetBack,-639.000000,-0.300000,Suck,-2325.000000,2181.818182,Speed,-2332.500000,2181.818182,Speed,Off,On0.000000,0,,,,
09:26:51.113 AM 03/20/2016,Teleop Enabled,11,FALSE,0,NO ERROR,-0.000000,-0.307999,0.000000,-0.340083,TRUE,FALSE,FALSE,FALSE,FALSE,FALSE,Disabled,0.000000,-0.000000,0.030000,TRUE,2.316010,-0.402542,0.000000,0.042511,0.015579,0.000000,-0.038000,-0.030000,0.064000,-0.230000,-0.260000,2.250000,1.105295,Hold,0.943115,0.000000,ResetBack,-154.000000,-0.300000,Suck,-2100.000000,2181.818182,Speed,-2107.500000,2181.818182,Speed,Off,On0.000000,0,,,,
09:26:51.214 AM 03/20/2016,Teleop Enabled,9,FALSE,0,NO ERROR,-0.000000,-0.307999,0.000000,-0.340083,TRUE,FALSE,FALSE,FALSE,FALSE,FALSE,Disabled,0.000000,-0.000000,0.030000,TRUE,2.317322,-0.400574,0.000000,0.021210,0.071274,0.000000,-0.036000,0.052000,0.009000,-0.230000,-0.270000,2.310000,1.091184,Hold,0.943115,0.000000,ResetBack,81.000000,-0.300000,Suck,-2077.500000,2181.818182,Speed,-2047.500000,2181.818182,Speed,Off,On0.000000,0,,,,
09:26:51.316 AM 03/20/2016,Teleop Enabled,9,FALSE,0,NO ERROR,-0.000000,-0.307999,0.000000,-0.346499,TRUE,FALSE,FALSE,FALSE,FALSE,FALSE,Disabled,0.000000,-0.000000,0.030000,TRUE,2.319427,-0.397568,0.000000,0.074219,0.054779,0.000000,0.164000,0.013000,0.058000,-0.230000,-0.300000,2.320000,1.094479,Hold,0.943115,0.000000,ResetBack,81.000000,-0.300000,Suck,-2167.500000,2181.818182,Speed,-2160.000000,2181.818182,Speed,Off,On0.000000,0,,,,
09:26:51.415 AM 03/20/2016,Teleop Enabled,10,FALSE,0,NO ERROR,-0.000000,-0.307999,0.000000,-0.346499,TRUE,FALSE,FALSE,FALSE,FALSE,FALSE,Disabled,0.000000,-0.000000,0.030000,TRUE,2.324585,-0.395782,0.000000,0.154709,0.034225,0.000000,0.082000,-0.021000,0.009000,-0.230000,-0.310000,2.290000,1.086575,Hold,0.943115,0.000000,ResetBack,82.000000,-0.300000,Suck,-2175.000000,2181.818182,Speed,-2175.000000,2181.818182,Speed,Off,On0.000000,0,,,,
09:26:51.516 AM 03/20/2016,Teleop Enabled,11,FALSE,0,NO ERROR,-0.000000,-0.314416,0.000000,-0.346499,TRUE,FALSE,FALSE,FALSE,FALSE,FALSE,Disabled,0.000000,-0.000000,0.030000,TRUE,2.336380,-0.393616,0.000000,0.210587,0.039642,0.000000,0.013000,-0.006000,0.037000,-0.220000,-0.310000,2.270000,1.083721,Hold,0.943115,0.000000,ResetBack,82.000000,-0.300000,Suck,-2130.000000,2181.818182,Speed,-2115.000000,2181.818182,Speed,Off,On0.000000,0,,,,
09:26:51.617 AM 03/20/2016,Teleop Enabled,11,FALSE,0,NO ERROR,-0.000000,-0.314416,0.000000,-0.352916,TRUE,FALSE,FALSE,FALSE,FALSE,FALSE,Disabled,0.000000,-0.000000,0.030000,TRUE,2.336700,-0.391129,0.000000,0.007935,0.067047,0.000000,0.045000,-0.036000,0.020000,-0.230000,-0.290000,2.310000,1.090926,Hold,0.943115,0.000000,Reset,83.000000,2.000000,Suck,-2145.000000,2181.818182,Speed,-2122.500000,2181.818182,Speed,Off,On0.000000,0,,,,
09:26:51.717 AM 03/20/2016,Teleop Enabled,10,FALSE,0,NO ERROR,-0.000000,-0.320833,0.000000,-0.352916,TRUE,FALSE,FALSE,FALSE,FALSE,FALSE,Disabled,0.000000,-0.000000,0.030000,TRUE,2.337997,-0.387833,0.000000,0.047226,0.066589,0.000000,0.073000,0.028000,0.010000,-0.220000,-0.340000,2.320000,1.097787,Hold,0.943115,0.000000,Hold,-183.000000,2.000000,Suck,-2152.500000,2181.818182,Speed,-2152.500000,2181.818182,Speed,Off,On0.000000,0,,,,
09:26:51.818 AM 03/20/2016,Teleop Enabled,11,FALSE,0,NO ERROR,-0.000000,-0.320833,0.000000,-0.359332,TRUE,FALSE,FALSE,FALSE,FALSE,FALSE,Disabled,0.000000,-0.000000,0.030000,TRUE,2.342529,-0.383759,0.000000,0.115921,0.089630,0.000000,0.089000,-0.009000,0.056000,-0.220000,-0.350000,2.340000,1.112342,Hold,0.943115,0.000000,Hold,-225.000000,2.000000,Suck,-2145.000000,2181.818182,Speed,-2145.000000,2181.818182,Speed,Off,On0.000000,0,,,,
09:26:51.918 AM 03/20/2016,Teleop Enabled,11,FALSE,0,NO ERROR,-0.000000,-0.320833,0.000000,-0.359332,TRUE,FALSE,FALSE,FALSE,FALSE,FALSE,Disabled,0.000000,-0.000000,0.030000,TRUE,2.348648,-0.379135,0.000000,0.117249,0.088913,0.000000,-0.140000,0.049000,0.013000,-0.220000,-0.340000,2.350000,1.114666,Hold,0.943115,0.000000,Hold,-225.000000,2.000000,Suck,-2145.000000,2181.818182,Speed,-2130.000000,2181.818182,Speed,Off,On0.000000,0,,,,
09:26:52.019 AM 03/20/2016,Teleop Enabled,9,FALSE,0,NO ERROR,-0.000000,-0.327249,0.000000,-0.365749,TRUE,FALSE,FALSE,FALSE,FALSE,FALSE,Disabled,0.000000,-0.000000,0.030000,TRUE,2.351837,-0.373260,0.000000,0.036240,0.137146,0.000000,-0.034000,0.030000,0.072000,-0.210000,-0.370000,2.380000,1.130151,Hold,0.943115,0.000000,Hold,-225.000000,2.000000,Suck,-2152.500000,2181.818182,Speed,-2145.000000,2181.818182,Speed,Off,On0.000000,0,,,,
09:26:52.125 AM 03/20/2016,Teleop Enabled,11,FALSE,0,NO ERROR,-0.000000,-0.333666,0.000000,-0.372166,TRUE,FALSE,FALSE,FALSE,FALSE,FALSE,Disabled,0.000000,-0.000000,0.030000,TRUE,2.352570,-0.365509,0.000000,0.000000,0.170273,0.000000,-0.010000,0.068000,0.104000,-0.210000,-0.370000,2.410000,1.130863,Hold,0.943115,0.000000,Hold,-222.000000,2.000000,Suck,-2152.500000,2181.818182,Speed,-2145.000000,2181.818182,Speed,Off,On0.000000,0,,,,
09:26:52.227 AM 03/20/2016,Teleop Enabled,9,FALSE,0,NO ERROR,-0.000000,-0.333666,0.000000,-0.378582,TRUE,FALSE,FALSE,FALSE,FALSE,FALSE,Disabled,0.000000,-0.000000,0.030000,TRUE,2.353226,-0.353668,0.000000,0.000198,0.205170,0.000000,-0.062000,0.029000,0.027000,-0.210000,-0.330000,2.360000,1.142234,Hold,0.943115,0.000000,Hold,-222.000000,2.000000,Suck,-2152.500000,2181.818182,Speed,-2137.500000,2181.818182,Speed,Off,On0.000000,0,,,,
09:26:52.326 AM 03/20/2016,Teleop Enabled,9,FALSE,0,NO ERROR,-0.000000,-0.346499,0.000000,-0.384999,TRUE,FALSE,FALSE,FALSE,FALSE,FALSE,Disabled,0.000000,-0.000000,0.030000,TRUE,2.352478,-0.345398,0.000000,-0.028275,0.201370,0.000000,-0.011000,0.038000,0.098000,-0.200000,-0.380000,2.400000,1.140557,Hold,0.943115,0.000000,Hold,-222.000000,2.000000,Suck,-2152.500000,2181.818182,Speed,-2137.500000,2181.818182,Speed,Off,On0.000000,0,,,,
09:26:52.427 AM 03/20/2016,Teleop Enabled,11,FALSE,0,NO ERROR,-0.000000,-0.365749,0.000000,-0.461999,TRUE,FALSE,FALSE,FALSE,FALSE,FALSE,Disabled,0.000000,-0.000000,0.030000,TRUE,2.349869,-0.334946,0.000000,-0.062790,0.211700,0.000000,0.044000,-0.074000,0.019000,-0.200000,-0.370000,2.440000,1.156992,Hold,0.943115,0.000000,Hold,-221.000000,2.000000,Suck,-2145.000000,2181.818182,Speed,-2137.500000,2181.818182,Speed,Off,On0.000000,0,,,,
09:26:52.526 AM 03/20/2016,Teleop Enabled,10,FALSE,0,NO ERROR,-0.000000,-0.481249,0.000000,-0.461999,TRUE,FALSE,FALSE,FALSE,FALSE,FALSE,Disabled,0.000000,-0.000000,0.030000,TRUE,2.348343,-0.326843,0.000000,-0.001480,0.123505,0.000000,0.032000,-0.105000,-0.025000,-0.160000,-0.300000,2.360000,1.064807,Hold,0.943115,0.000000,Hold,-220.000000,2.000000,Suck,-2152.500000,2181.818182,Speed,-2137.500000,2181.818182,Speed,Off,On0.000000,0,,,,
09:26:52.626 AM 03/20/2016,Teleop Enabled,9,FALSE,0,NO ERROR,-0.000000,-0.474832,0.000000,-0.468416,TRUE,FALSE,FALSE,FALSE,FALSE,FALSE,Disabled,0.000000,-0.000000,0.030000,TRUE,2.348999,-0.323563,0.000000,0.012924,0.025360,0.000000,-0.043000,-0.186000,-0.146000,-0.270000,-0.310000,2.350000,1.072560,Hold,0.943115,0.000000,Hold,-220.000000,2.000000,Suck,-2160.000000,2181.818182,Speed,-2137.500000,2181.818182,Speed,Off,On0.000000,0,,,,
09:26:52.726 AM 03/20/2016,Teleop Enabled,10,FALSE,0,NO ERROR,-0.000000,-0.474832,0.000000,-0.468416,TRUE,FALSE,FALSE,FALSE,FALSE,FALSE,Disabled,0.000000,-0.000000,0.030000,TRUE,2.348343,-0.325531,0.000000,-0.035553,-0.077148,0.000000,-0.049000,-0.073000,-0.036000,-0.280000,-0.390000,2.330000,1.072560,Hold,0.943115,0.000000,Hold,-220.000000,2.000000,Suck,-2160.000000,2181.818182,Speed,-2137.500000,2181.818182,Speed,Off,On0.000000,0,,,,
09:26:52.826 AM 03/20/2016,Teleop Enabled,10,FALSE,0,NO ERROR,-0.000000,-0.474832,0.000000,-0.468416,TRUE,FALSE,FALSE,FALSE,FALSE,FALSE,Disabled,0.000000,-0.000000,0.030000,TRUE,2.347626,-0.329651,0.000000,-0.003143,-0.122879,0.000000,0.106000,-0.059000,-0.013000,-0.280000,-0.330000,2.350000,1.078591,Hold,0.943115,0.000000,Hold,-220.000000,2.000000,Suck,-2145.000000,2181.818182,Speed,-2137.500000,2181.818182,Speed,Off,On0.000000,0,,,,
09:26:52.926 AM 03/20/2016,Teleop Enabled,11,FALSE,0,NO ERROR,-0.000000,-0.474832,0.000000,-0.468416,TRUE,FALSE,FALSE,FALSE,FALSE,FALSE,Disabled,0.000000,-0.000000,0.030000,TRUE,2.349243,-0.334625,0.000000,0.044571,0.000000,0.000000,0.070000,-0.006000,0.009000,-0.290000,-0.390000,2.410000,1.070863,Hold,0.943115,0.000000,Hold,-220.000000,2.000000,Suck,-2152.500000,2181.818182,Speed,-2137.500000,2181.818182,Speed,Off,On0.000000,0,,,,
09:26:53.026 AM 03/20/2016,Teleop Enabled,11,FALSE,0,NO ERROR,-0.000000,-0.474832,0.000000,-0.468416,TRUE,FALSE,FALSE,FALSE,FALSE,FALSE,Disabled,0.000000,-0.000000,0.030000,TRUE,2.351837,-0.334076,0.000000,0.043152,0.032791,0.000000,-0.086000,0.152000,-0.003000,-0.280000,-0.410000,2.430000,1.081638,Hold,0.943115,0.000000,Hold,-220.000000,2.000000,Suck,-2160.000000,2181.818182,Speed,-2137.500000,2181.818182,Speed,Off,On0.000000,0,,,,
09:26:53.126 AM 03/20/2016,Teleop Enabled,11,FALSE,0,NO ERROR,-0.000000,-0.474832,0.000000,-0.468416,TRUE,FALSE,FALSE,FALSE,FALSE,FALSE,Disabled,0.000000,-0.000000,0.030000,TRUE,2.352570,-0.328537,0.000000,0.007797,0.161835,0.000000,0.014000,0.055000,0.094000,-0.280000,-0.440000,2.470000,1.081132,Hold,0.943115,0.000000,Hold,-220.000000,2.000000,Suck,-2145.000000,2181.818182,Speed,-2145.000000,2181.818182,Speed,Off,On0.000000,0,,,,
09:26:53.226 AM 03/20/2016,Teleop Enabled,11,FALSE,0,NO ERROR,-0.000000,-0.474832,0.000000,-0.468416,TRUE,FALSE,FALSE,FALSE,FALSE,FALSE,Disabled,0.000000,-0.000000,0.030000,TRUE,2.354828,-0.316452,0.000000,0.070297,0.234970,0.000000,-0.010000,0.126000,0.076000,-0.290000,-0.350000,2.370000,1.088929,Hold,0.943115,0.000000,Hold,-220.000000,2.000000,Suck,-2152.500000,2181.818182,Speed,-2137.500000,2181.818182,Speed,Off,On0.000000,0,,,,
09:26:53.326 AM 03/20/2016,Teleop Enabled,11,FALSE,0,NO ERROR,-0.000000,-0.474832,0.000000,-0.468416,TRUE,FALSE,FALSE,FALSE,FALSE,FALSE,Disabled,0.000000,-0.000000,0.030000,TRUE,2.358154,-0.302307,0.000000,0.050415,0.304489,0.000000,-0.072000,0.057000,-0.004000,-0.280000,-0.370000,2.370000,1.088361,Hold,0.943115,0.000000,Hold,-220.000000,2.000000,Suck,-2152.500000,2181.818182,Speed,-2137.500000,2181.818182,Speed,Off,On0.000000,0,,,,
09:26:53.426 AM 03/20/2016,Teleop Enabled,11,FALSE,0,NO ERROR,-0.000000,-0.474832,0.000000,-0.468416,TRUE,FALSE,FALSE,FALSE,FALSE,FALSE,Disabled,0.000000,-0.000000,0.030000,TRUE,2.359421,-0.285156,0.000000,0.005356,0.363220,0.000000,-0.057000,-0.009000,-0.001000,-0.280000,-0.400000,2.450000,1.104170,Hold,0.943115,0.000000,Hold,-220.000000,2.000000,Suck,-2145.000000,2181.818182,Speed,-2137.500000,2181.818182,Speed,Off,On0.000000,0,,,,
09:26:53.526 AM 03/20/2016,Teleop Enabled,10,FALSE,0,NO ERROR,-0.000000,-0.474832,0.000000,-0.468416,TRUE,FALSE,FALSE,FALSE,FALSE,FALSE,Disabled,0.000000,-0.000000,0.030000,TRUE,2.359375,-0.271347,0.000000,0.006912,0.324448,0.000000,0.120000,-0.064000,0.076000,-0.280000,-0.360000,2.410000,1.120422,Hold,0.943115,0.000000,Hold,-220.000000,2.000000,Suck,-2152.500000,2181.818182,Speed,-2137.500000,2181.818182,Speed,Off,On0.000000,0,,,,
09:26:53.626 AM 03/20/2016,Teleop Enabled,10,FALSE,0,NO ERROR,-0.000000,-0.474832,0.000000,-0.468416,TRUE,FALSE,FALSE,FALSE,FALSE,FALSE,Disabled,0.000000,-0.000000,0.030000,TRUE,2.361084,-0.256531,0.000000,0.040955,0.280136,0.000000,-0.008000,-0.045000,0.060000,-0.280000,-0.390000,2.440000,1.132491,Hold,0.943115,0.000000,Hold,-220.000000,2.000000,Suck,-2160.000000,2181.818182,Speed,-2137.500000,2181.818182,Speed,Off,On0.000000,0,,,,
09:26:53.726 AM 03/20/2016,Teleop Enabled,10,FALSE,0,NO ERROR,-0.000000,-0.474832,0.000000,-0.468416,TRUE,FALSE,FALSE,FALSE,FALSE,FALSE,Disabled,0.000000,-0.000000,0.030000,TRUE,2.360855,-0.242035,0.000000,-0.007629,0.220490,0.000000,-0.118000,-0.005000,-0.040000,-0.270000,-0.400000,2.460000,1.119751,Hold,0.943115,0.000000,Hold,-220.000000,2.000000,Suck,-2160.000000,2181.818182,Speed,-2137.500000,2181.818182,Speed,Off,On0.000000,0,,,,
09:26:53.826 AM 03/20/2016,Teleop Enabled,11,FALSE,0,NO ERROR,-0.000000,-0.474832,0.000000,-0.468416,TRUE,FALSE,FALSE,FALSE,FALSE,FALSE,Disabled,0.000000,-0.000000,0.030000,TRUE,2.359985,-0.232803,0.000000,-0.009689,0.147690,0.000000,0.126000,-0.015000,0.043000,-0.270000,-0.440000,2.500000,1.137552,Hold,0.943115,0.000000,Hold,-220.000000,2.000000,Suck,-2152.500000,2181.818182,Speed,-2137.500000,2181.818182,Speed,Off,On0.000000,0,,,,
09:26:53.927 AM 03/20/2016,Teleop Enabled,11,FALSE,0,NO ERROR,-0.000000,-0.474832,0.000000,-0.468416,TRUE,FALSE,FALSE,FALSE,FALSE,FALSE,Disabled,0.000000,-0.000000,0.030000,TRUE,2.361404,-0.231613,0.000000,0.063293,-0.012054,0.000000,0.010000,-0.059000,-0.009000,-0.270000,-0.410000,2.520000,1.136774,Hold,0.943115,0.000000,Hold,-220.000000,2.000000,Suck,-2145.000000,2181.818182,Speed,-2137.500000,2181.818182,Speed,Off,On0.000000,0,,,,
09:26:54.028 AM 03/20/2016,Teleop Enabled,10,FALSE,0,NO ERROR,-0.000000,-0.474832,0.000000,-0.468416,TRUE,FALSE,FALSE,FALSE,FALSE,FALSE,Disabled,0.000000,-0.000000,0.030000,TRUE,2.364792,-0.233429,0.000000,0.052567,-0.051788,0.000000,-0.022000,-0.025000,-0.006000,-0.270000,-0.370000,2.480000,1.136915,Hold,0.943115,0.000000,Hold,-220.000000,2.000000,Suck,-2160.000000,2181.818182,Speed,-2137.500000,2181.818182,Speed,Off,On0.000000,0,,,,
09:26:54.129 AM 03/20/2016,Teleop Enabled,11,FALSE,0,NO ERROR,-0.000000,-0.474832,0.000000,-0.468416,TRUE,FALSE,FALSE,FALSE,FALSE,FALSE,Disabled,0.000000,-0.000000,0.030000,TRUE,2.364746,-0.236115,0.000000,-0.039978,-0.028488,0.000000,0.034000,-0.061000,0.080000,-0.270000,-0.430000,2.510000,1.122580,Hold,0.943115,0.000000,Hold,-220.000000,2.000000,Suck,-2152.500000,2181.818182,Speed,-2137.500000,2181.818182,Speed,Off,On0.000000,0,,,,
09:26:54.230 AM 03/20/2016,Teleop Enabled,9,FALSE,0,NO ERROR,-0.000000,-0.474832,0.000000,-0.468416,TRUE,FALSE,FALSE,FALSE,FALSE,FALSE,Disabled,0.000000,-0.000000,0.030000,TRUE,2.363098,-0.235947,0.000000,-0.011749,0.041550,0.000000,0.007000,0.048000,0.076000,-0.270000,-0.380000,2.470000,1.115169,Hold,0.943115,0.000000,Hold,-220.000000,2.000000,Suck,-2145.000000,2181.818182,Speed,-2137.500000,2181.818182,Speed,Off,On0.000000,0,,,,
09:26:54.330 AM 03/20/2016,Teleop Enabled,11,FALSE,0,NO ERROR,-0.000000,-0.474832,0.000000,-0.468416,TRUE,FALSE,FALSE,FALSE,FALSE,FALSE,Disabled,0.000000,-0.000000,0.030000,TRUE,2.362076,-0.232574,0.000000,-0.039856,0.100098,0.000000,0.014000,0.020000,0.045000,-0.270000,-0.400000,2.460000,1.126181,Hold,0.943115,0.000000,Hold,-220.000000,2.000000,Suck,-2152.500000,2181.818182,Speed,-2137.500000,2181.818182,Speed,Off,On0.000000,0,,,,
09:26:54.432 AM 03/20/2016,Teleop Enabled,9,FALSE,0,NO ERROR,-0.000000,-0.474832,0.000000,-0.468416,TRUE,FALSE,FALSE,FALSE,FALSE,FALSE,Disabled,0.000000,-0.000000,0.030000,TRUE,2.357666,-0.225189,0.000000,-0.103638,0.138824,0.000000,-0.012000,-0.043000,-0.021000,-0.270000,-0.460000,2.580000,1.125768,Hold,0.943115,0.000000,Hold,-220.000000,2.000000,Suck,-2160.000000,2181.818182,Speed,-2137.500000,2181.818182,Speed,Off,On0.000000,0,,,,
09:26:54.533 AM 03/20/2016,Teleop Enabled,10,FALSE,0,NO ERROR,-0.000000,-0.474832,0.000000,-0.468416,TRUE,FALSE,FALSE,FALSE,FALSE,FALSE,Disabled,0.000000,-0.000000,0.030000,TRUE,2.357437,-0.218521,0.000000,0.046417,0.132980,0.000000,0.101000,-0.022000,-0.021000,-0.270000,-0.440000,2.540000,1.121351,Hold,0.943115,0.000000,Hold,-220.000000,2.000000,Suck,-2152.500000,2181.818182,Speed,-2137.500000,2181.818182,Speed,Off,On0.000000,0,,,,
09:26:54.633 AM 03/20/2016,Teleop Enabled,10,FALSE,0,NO ERROR,-0.000000,-0.474832,0.000000,-0.468416,TRUE,FALSE,FALSE,FALSE,FALSE,FALSE,Disabled,0.000000,-0.000000,0.030000,TRUE,2.361710,-0.216080,0.000000,0.108948,-0.009750,0.000000,0.102000,-0.056000,-0.032000,-0.270000,-0.470000,2.560000,1.132726,Hold,0.943115,0.000000,Hold,-220.000000,2.000000,Suck,-2152.500000,2181.818182,Speed,-2137.500000,2181.818182,Speed,Off,On0.000000,0,,,,
09:26:54.733 AM 03/20/2016,Teleop Enabled,11,FALSE,0,NO ERROR,-0.000000,-0.474832,0.000000,-0.468416,TRUE,FALSE,FALSE,FALSE,FALSE,FALSE,Disabled,0.000000,-0.000000,0.030000,TRUE,2.368256,-0.216461,0.000000,0.139725,-0.002991,0.000000,-0.006000,-0.024000,-0.087000,-0.270000,-0.400000,2.540000,1.128054,Hold,0.943115,0.000000,Hold,-220.000000,2.000000,Suck,-2152.500000,2181.818182,Speed,-2137.500000,2181.818182,Speed,Off,On0.000000,0,,,,
09:26:54.833 AM 03/20/2016,Teleop Enabled,11,FALSE,0,NO ERROR,-0.000000,-0.474832,0.000000,-0.468416,TRUE,FALSE,FALSE,FALSE,FALSE,FALSE,Disabled,0.000000,-0.000000,0.030000,TRUE,2.375336,-0.216476,0.000000,0.151520,-0.004440,0.000000,0.067000,-0.049000,-0.003000,-0.270000,-0.470000,2.560000,1.132629,Hold,0.943115,0.000000,Hold,-220.000000,2.000000,Suck,-2152.500000,2181.818182,Speed,-2145.000000,2181.818182,Speed,Off,On0.000000,0,,,,
09:26:54.934 AM 03/20/2016,Teleop Enabled,10,FALSE,0,NO ERROR,-0.000000,-0.474832,0.000000,-0.468416,TRUE,FALSE,FALSE,FALSE,FALSE,FALSE,Disabled,0.000000,-0.000000,0.030000,TRUE,2.384811,-0.217789,0.000000,0.216339,-0.036087,0.000000,-0.008000,-0.067000,-0.063000,-0.270000,-0.440000,2.520000,1.139958,Hold,0.943115,0.000000,Hold,-220.000000,2.000000,Suck,-2152.500000,2181.818182,Speed,-2137.500000,2181.818182,Speed,Off,On0.000000,0,,,,
09:26:55.034 AM 03/20/2016,Teleop Enabled,10,FALSE,0,NO ERROR,-0.000000,-0.474832,0.000000,-0.468416,TRUE,FALSE,FALSE,FALSE,FALSE,FALSE,Disabled,0.000000,-0.000000,0.030000,TRUE,2.395370,-0.220428,0.000000,0.192566,-0.065842,0.000000,-0.113000,0.000000,-0.021000,-0.270000,-0.430000,2.510000,1.137555,Hold,0.943115,0.000000,Hold,-220.000000,2.000000,Suck,-2160.000000,2181.818182,Speed,-2137.500000,2181.818182,Speed,Off,On0.000000,0,,,,
09:26:55.134 AM 03/20/2016,Teleop Enabled,8,FALSE,0,NO ERROR,-0.000000,-0.474832,0.000000,-0.468416,TRUE,FALSE,FALSE,FALSE,FALSE,FALSE,Disabled,0.000000,-0.000000,0.030000,TRUE,2.402740,-0.222641,0.000000,0.082230,-0.023239,0.000000,0.010000,-0.084000,0.084000,-0.270000,-0.450000,2.530000,1.150909,Hold,0.943115,0.000000,Hold,-220.000000,2.000000,Suck,-2152.500000,2181.818182,Speed,-2137.500000,2181.818182,Speed,Off,On0.000000,0,,,,
09:26:55.235 AM 03/20/2016,Teleop Enabled,11,FALSE,0,NO ERROR,-0.000000,-0.474832,0.000000,-0.468416,TRUE,FALSE,FALSE,FALSE,FALSE,FALSE,Disabled,0.000000,-0.000000,0.030000,TRUE,2.403519,-0.224487,0.000000,0.028915,-0.025787,0.000000,0.030000,0.079000,0.068000,-0.280000,-0.360000,2.440000,1.168001,Hold,0.943115,0.000000,Hold,-220.000000,2.000000,Suck,-2152.500000,2181.818182,Speed,-2137.500000,2181.818182,Speed,Off,On0.000000,0,,,,
09:26:55.335 AM 03/20/2016,Teleop Enabled,9,FALSE,0,NO ERROR,-0.000000,-0.474832,0.000000,-0.468416,TRUE,FALSE,FALSE,FALSE,FALSE,FALSE,Disabled,0.000000,-0.000000,0.030000,TRUE,2.405029,-0.224609,0.000000,0.010452,0.008301,0.000000,-0.086000,0.032000,0.031000,-0.280000,-0.370000,2.420000,1.173492,Hold,0.943115,0.000000,Hold,-220.000000,2.000000,Suck,-2160.000000,2181.818182,Speed,-2145.000000,2181.818182,Speed,Off,On0.000000,0,,,,
09:26:55.436 AM 03/20/2016,Teleop Enabled,11,FALSE,0,NO ERROR,-0.000000,-0.474832,0.000000,-0.468416,TRUE,FALSE,FALSE,FALSE,FALSE,FALSE,Disabled,0.000000,-0.000000,0.030000,TRUE,2.403824,-0.223557,0.000000,-0.036591,0.021271,0.000000,-0.034000,-0.047000,-0.033000,-0.270000,-0.420000,2.500000,1.166394,Hold,0.943115,0.000000,Hold,-220.000000,2.000000,Suck,-2152.500000,2181.818182,Speed,-2137.500000,2181.818182,Speed,Off,On0.000000,0,,,,
09:26:55.536 AM 03/20/2016,Teleop Enabled,8,FALSE,0,NO ERROR,-0.000000,-0.474832,0.000000,-0.468416,TRUE,FALSE,FALSE,FALSE,FALSE,FALSE,Disabled,0.000000,-0.000000,0.030000,TRUE,2.402084,-0.224228,0.000000,-0.018784,-0.044266,0.000000,0.081000,-0.091000,0.081000,-0.280000,-0.340000,2.450000,1.172573,Hold,0.943115,0.000000,Hold,-220.000000,2.000000,Suck,-2152.500000,2181.818182,Speed,-2137.500000,2181.818182,Speed,Off,On0.000000,0,,,,
09:26:55.636 AM 03/20/2016,Teleop Enabled,10,FALSE,0,NO ERROR,-0.000000,-0.474832,0.000000,-0.468416,TRUE,FALSE,FALSE,FALSE,FALSE,FALSE,Disabled,0.000000,-0.000000,0.030000,TRUE,2.403351,-0.228546,0.000000,0.045883,-0.109421,0.000000,-0.033000,-0.074000,-0.074000,-0.280000,-0.360000,2.410000,1.173279,Hold,0.943115,208896.000000,Hold,-220.000000,143360.000000,Suck,-2152.500000,2181.818182,Speed,-2137.500000,2181.818182,Speed,Off,On0.000000,0,,,,
09:26:55.736 AM 03/20/2016,Teleop Enabled,10,FALSE,0,NO ERROR,-0.000000,-0.474832,0.000000,-0.468416,TRUE,FALSE,FALSE,FALSE,FALSE,FALSE,Disabled,0.000000,-0.000000,0.030000,TRUE,2.405746,-0.236008,0.000000,0.041397,-0.176422,0.000000,-0.058000,-0.061000,-0.090000,-0.280000,-0.320000,2.430000,1.187593,Hold,4.011719,208896.000000,Hold,-5987.000000,143360.000000,Suck,-2152.500000,2181.818182,Speed,-2137.500000,2181.818182,Speed,Off,On0.000000,0,,,,
09:26:55.836 AM 03/20/2016,Teleop Enabled,11,FALSE,0,NO ERROR,-0.000000,-0.468416,0.000000,-0.468416,TRUE,FALSE,FALSE,FALSE,FALSE,FALSE,Disabled,0.000000,-0.000000,0.030000,TRUE,2.407593,-0.245850,0.000000,0.036423,-0.191650,0.000000,0.010000,-0.022000,-0.048000,-0.270000,-0.270000,2.400000,1.203539,Hold,4.011719,208896.000000,Hold,-20408.000000,143360.000000,Suck,-2152.500000,2181.818182,Speed,-2145.000000,2181.818182,Speed,Off,On0.000000,0,,,,
09:26:55.936 AM 03/20/2016,Teleop Enabled,10,FALSE,0,NO ERROR,-0.000000,-0.468416,0.000000,-0.468416,TRUE,FALSE,FALSE,FALSE,FALSE,FALSE,Disabled,0.000000,-0.000000,0.030000,TRUE,2.407791,-0.256363,0.000000,0.000153,-0.164154,0.000000,0.028000,0.063000,-0.012000,-0.280000,-0.340000,2.450000,1.204069,Hold,11.655762,208896.000000,Hold,-20408.000000,143360.000000,Suck,-2160.000000,2181.818182,Speed,-2145.000000,2181.818182,Speed,Off,On0.000000,0,,,,
09:26:56.036 AM 03/20/2016,Teleop Enabled,10,FALSE,0,NO ERROR,-0.000000,-0.449166,0.000000,-0.461999,TRUE,FALSE,FALSE,FALSE,FALSE,FALSE,Disabled,0.000000,-0.000000,0.030000,TRUE,2.408600,-0.261627,0.000000,0.040344,-0.075195,0.000000,0.106000,0.083000,0.058000,-0.240000,-0.180000,2.450000,1.239242,Hold,17.364502,208896.000000,Hold,-32233.000000,143360.000000,Suck,-2160.000000,2181.818182,Speed,-2145.000000,2181.818182,Speed,Off,On0.000000,0,,,,
09:26:56.137 AM 03/20/2016,Teleop Enabled,8,FALSE,0,NO ERROR,-0.000000,-0.455582,0.000000,-0.461999,TRUE,FALSE,FALSE,FALSE,FALSE,FALSE,Disabled,0.000000,-0.000000,0.030000,TRUE,2.410614,-0.263519,0.000000,0.024231,-0.004272,0.000000,-0.026000,0.083000,-0.105000,-0.260000,-0.420000,2.500000,1.200286,Hold,24.120361,208896.000000,Hold,-43680.000000,143360.000000,Suck,-2160.000000,2181.818182,Speed,-2145.000000,2181.818182,Speed,Off,On0.000000,0,,,,
09:26:56.238 AM 03/20/2016,Teleop Enabled,9,FALSE,0,NO ERROR,-0.000000,-0.449166,0.000000,-0.461999,TRUE,FALSE,FALSE,FALSE,FALSE,FALSE,Disabled,0.000000,-0.000000,0.030000,TRUE,2.410721,-0.261948,0.000000,-0.006363,0.069046,0.000000,0.019000,0.121000,0.044000,-0.250000,-0.310000,2.410000,1.205553,Hold,30.229736,208896.000000,Hold,-56827.000000,143360.000000,Suck,-2160.000000,2181.818182,Speed,-2145.000000,2181.818182,Speed,Off,On0.000000,0,,,,
09:26:56.339 AM 03/20/2016,Teleop Enabled,10,FALSE,0,NO ERROR,-0.000000,-0.449166,0.000000,-0.461999,TRUE,FALSE,FALSE,FALSE,FALSE,FALSE,Disabled,0.000000,-0.000000,0.030000,TRUE,2.411224,-0.252914,0.000000,0.026855,0.209274,0.000000,0.114000,0.204000,0.250000,-0.260000,-0.330000,2.420000,1.205921,Hold,38.872803,208896.000000,Hold,-70746.000000,143360.000000,Suck,-2160.000000,2181.818182,Speed,-2145.000000,2181.818182,Speed,Off,On0.000000,0,,,,
09:26:56.441 AM 03/20/2016,Teleop Enabled,9,FALSE,0,NO ERROR,-0.000000,-0.500499,0.000000,-0.468416,TRUE,FALSE,FALSE,FALSE,FALSE,FALSE,Disabled,0.000000,-0.000000,0.030000,TRUE,2.414307,-0.236786,0.000000,0.081787,0.396347,0.000000,0.008000,0.118000,0.107000,-0.250000,-0.690000,2.490000,1.210125,Hold,49.336426,208896.000000,Hold,-88788.000000,143360.000000,Suck,-2167.500000,2181.818182,Speed,-2152.500000,2181.818182,Speed,Off,On0.000000,0,,,,
09:26:56.540 AM 03/20/2016,Teleop Enabled,11,FALSE,0,NO ERROR,-0.000000,-0.577499,0.000000,-0.519749,TRUE,FALSE,FALSE,FALSE,FALSE,FALSE,Disabled,0.000000,-0.000000,0.030000,TRUE,2.414841,-0.213913,0.000000,-0.011871,0.489670,0.000000,0.008000,-0.055000,0.210000,-0.350000,-0.910000,2.580000,1.093821,Hold,55.683350,208896.000000,Hold,-88788.000000,143360.000000,Suck,-2175.000000,2181.818182,Speed,-2152.500000,2181.818182,Speed,Off,On0.000000,0,,,,
09:26:56.644 AM 03/20/2016,Teleop Enabled,10,FALSE,0,NO ERROR,-0.000000,-0.564665,0.000000,-0.519749,TRUE,FALSE,FALSE,FALSE,FALSE,FALSE,Disabled,0.000000,-0.000000,0.030000,TRUE,2.416977,-0.185669,0.000000,0.042343,0.599167,0.000000,-0.082000,-0.047000,-0.216000,-0.160000,-1.270000,2.610000,1.274115,Hold,56.555664,208896.000000,Hold,-106505.000000,143360.000000,Suck,-2160.000000,2181.818182,Speed,-2145.000000,2181.818182,Speed,Off,On0.000000,0,,,,
09:26:56.744 AM 03/20/2016,Teleop Enabled,10,FALSE,0,NO ERROR,-0.000000,-0.506915,0.000000,-0.519749,TRUE,FALSE,FALSE,FALSE,FALSE,FALSE,Disabled,0.000000,-0.000000,0.030000,TRUE,2.419128,-0.156006,0.000000,0.053528,0.594086,0.000000,0.093000,0.035000,0.173000,-0.200000,-0.720000,2.520000,1.250767,Hold,55.757812,208896.000000,Hold,-125402.000000,143360.000000,Suck,-2160.000000,2181.818182,Speed,-2145.000000,2181.818182,Speed,Off,On0.000000,0,,,,
09:26:56.845 AM 03/20/2016,Teleop Enabled,11,FALSE,0,NO ERROR,-0.000000,-0.455582,0.000000,-0.513332,TRUE,FALSE,FALSE,FALSE,FALSE,FALSE,Disabled,0.000000,-0.000000,0.030000,TRUE,2.424637,-0.137772,0.000000,0.153381,-0.004990,0.000000,0.292000,0.082000,-0.094000,-0.140000,-0.720000,2.520000,1.311146,Hold,55.757812,208896.000000,Hold,-144246.000000,143360.000000,Suck,-2167.500000,2181.818182,Speed,-2152.500000,2181.818182,Speed,Off,On0.000000,0,,,,
09:26:56.945 AM 03/20/2016,Teleop Enabled,10,FALSE,0,NO ERROR,-0.000000,-0.455582,0.000000,-0.513332,TRUE,FALSE,FALSE,FALSE,FALSE,FALSE,Disabled,0.000000,-0.000000,0.030000,TRUE,2.434906,-0.142502,0.000000,0.191071,-0.182480,0.000000,-0.180000,0.147000,0.117000,-0.220000,-0.790000,2.350000,1.244199,Hold,55.684082,208896.000000,Hold,-144246.000000,143360.000000,Suck,-2145.000000,2181.818182,Speed,-2130.000000,2181.818182,Speed,Off,On0.000000,0,,,,
09:26:57.045 AM 03/20/2016,Teleop Enabled,9,FALSE,0,NO ERROR,-0.322835,-0.455582,-0.322835,-0.494082,TRUE,FALSE,FALSE,FALSE,FALSE,FALSE,Disabled,0.000000,-0.000000,0.030000,TRUE,2.441940,-0.150925,0.000000,0.112473,-0.181961,0.000000,-0.042000,-0.028000,0.104000,-0.220000,-0.780000,2.490000,1.247277,Hold,55.640625,208896.000000,Hold,-143572.000000,143360.000000,Suck,-2145.000000,2181.818182,Speed,-2130.000000,2181.818182,Speed,Off,On0.000000,0,,,,
09:26:57.146 AM 03/20/2016,Teleop Enabled,10,FALSE,0,NO ERROR,-0.425197,-1.077997,-0.425197,-1.071581,TRUE,FALSE,FALSE,FALSE,FALSE,FALSE,Disabled,0.000000,-0.000000,0.030000,TRUE,2.450546,-0.160858,0.000000,0.299606,-0.206238,0.000000,0.311000,0.111000,0.999000,-0.330000,0.970000,2.310000,1.215619,Hold,55.410156,208896.000000,Hold,-143413.000000,143360.000000,Suck,-2160.000000,2181.818182,Speed,-2130.000000,2181.818182,Speed,Off,On0.000000,0,,,,
09:26:57.246 AM 03/20/2016,Teleop Enabled,10,FALSE,0,NO ERROR,-0.425197,-3.015826,-0.425197,-3.015826,TRUE,FALSE,FALSE,FALSE,FALSE,FALSE,Disabled,0.000000,-0.000000,0.030000,TRUE,2.474319,-0.169937,0.000000,0.563080,-0.180176,0.000000,0.151000,0.095000,0.041000,-0.380000,2.020000,2.270000,1.164356,Hold,55.410889,208896.000000,Hold,-143447.000000,143360.000000,Suck,-2137.500000,2181.818182,Speed,-2122.500000,2181.818182,Speed,Off,On0.000000,0,,,,
09:26:57.346 AM 03/20/2016,Teleop Enabled,10,FALSE,0,NO ERROR,-0.425197,-5.531154,-0.425197,-5.543987,TRUE,FALSE,FALSE,FALSE,FALSE,FALSE,Disabled,0.000000,-0.000000,0.030000,TRUE,2.505981,-0.177567,0.000000,0.665527,-0.138290,0.000000,-0.008000,-0.029000,-0.020000,-0.460000,1.820000,2.330000,1.101450,Hold,55.079834,208896.000000,Hold,-143447.000000,143360.000000,Suck,-2137.500000,2181.818182,Speed,-2122.500000,2181.818182,Speed,Off,On0.000000,0,,,,
09:26:57.447 AM 03/20/2016,Teleop Enabled,10,FALSE,0,NO ERROR,-0.425197,-8.546980,-0.425197,-8.521313,TRUE,FALSE,FALSE,FALSE,FALSE,FALSE,Disabled,0.000000,-0.000000,0.030000,TRUE,2.545471,-0.185455,0.000000,0.644058,-0.116180,0.000000,-0.070000,-0.010000,0.107000,-0.710000,1.970000,2.420000,0.865790,Hold,55.081055,208896.000000,Hold,-143447.000000,143360.000000,Suck,-2152.500000,2181.818182,Speed,-2122.500000,2181.818182,Speed,Off,On0.000000,0,,,,
09:26:57.547 AM 03/20/2016,Teleop Enabled,10,FALSE,0,NO ERROR,-0.401575,-11.562806,-0.401575,-11.505056,TRUE,FALSE,FALSE,FALSE,FALSE,FALSE,Disabled,0.000000,-0.000000,0.030000,TRUE,2.577423,-0.189163,0.000000,0.653931,-0.045044,0.000000,-0.049000,0.061000,0.000000,-0.900000,1.600000,2.510000,0.703886,Hold,55.062988,208896.000000,Hold,-143447.000000,143360.000000,Suck,-2152.500000,2181.818182,Speed,-2137.500000,2181.818182,Speed,Off,On0.000000,0,,,,
09:26:57.647 AM 03/20/2016,Teleop Enabled,10,FALSE,0,NO ERROR,-0.452483,-14.520883,-0.350667,-14.578633,TRUE,FALSE,FALSE,FALSE,FALSE,FALSE,Disabled,0.000000,-0.000000,0.030000,TRUE,2.609344,-0.190903,0.000000,0.609848,-0.026306,0.000000,0.098000,0.138000,0.069000,-0.940000,1.380000,2.450000,0.612765,Hold,55.064941,208896.000000,Hold,-143447.000000,143360.000000,Suck,-2152.500000,2181.818182,Speed,-2137.500000,2181.818182,Speed,Off,On0.000000,0,,,,
09:26:57.748 AM 03/20/2016,Teleop Enabled,11,FALSE,0,NO ERROR,-0.465764,-17.286460,-0.337386,-17.780542,TRUE,FALSE,FALSE,FALSE,FALSE,FALSE,Disabled,0.000000,-0.000000,0.030000,TRUE,2.640976,-0.190262,0.000000,0.653412,0.008820,0.000000,-0.068000,-0.051000,0.130000,-0.460000,1.170000,2.500000,1.093580,Hold,55.053223,208896.000000,Hold,-143447.000000,143360.000000,Suck,-2152.500000,2181.818182,Speed,-2130.000000,2181.818182,Speed,Off,On0.000000,0,,,,
09:26:57.848 AM 03/20/2016,Teleop Enabled,11,FALSE,0,NO ERROR,-0.400533,-20.071286,-0.182144,-21.117201,TRUE,FALSE,FALSE,FALSE,FALSE,FALSE,Disabled,0.000000,-0.000000,0.030000,TRUE,2.673584,-0.191559,0.000000,0.655716,-0.043503,0.000000,0.070000,-0.021000,0.140000,0.390000,0.910000,2.400000,1.926025,Hold,55.039062,208896.000000,Hold,-143447.000000,143360.000000,Suck,-2145.000000,2181.818182,Speed,-2137.500000,2181.818182,Speed,Off,On0.000000,0,,,,
09:26:57.948 AM 03/20/2016,Teleop Enabled,10,FALSE,0,NO ERROR,-0.000000,-21.996282,0.000000,-24.415360,TRUE,FALSE,FALSE,FALSE,FALSE,FALSE,Disabled,0.000000,-0.000000,0.030000,TRUE,2.704239,-0.195206,0.000000,0.517609,-0.067368,0.000000,-0.452000,0.359000,0.539000,1.980000,0.580000,2.870000,3.082308,Hold,54.922607,208896.000000,Hold,-143447.000000,143360.000000,Suck,-2152.500000,2181.818182,Speed,-2137.500000,2181.818182,Speed,Off,On0.000000,0,,,,
09:26:58.048 AM 03/20/2016,Teleop Enabled,11,FALSE,0,NO ERROR,-0.000000,-22.265781,0.000000,-26.167105,FALSE,FALSE,FALSE,FALSE,FALSE,FALSE,Disabled,0.000000,-0.000000,0.030000,TRUE,2.719147,-0.189926,0.000000,0.179947,0.167450,0.000000,-0.559000,-0.042000,-0.587000,6.670000,-2.170000,3.340000,7.393344,Hold,53.408936,208896.000000,Hold,-143448.000000,143360.000000,Suck,-2047.500000,2181.818182,Speed,-2115.000000,2181.818182,Speed,Off,On0.000000,0,,,,
09:26:58.148 AM 03/20/2016,Teleop Enabled,10,FALSE,0,NO ERROR,-0.000000,-22.625114,0.000000,-26.597021,TRUE,FALSE,FALSE,FALSE,FALSE,FALSE,Disabled,0.000000,-0.000000,0.030000,TRUE,2.715393,-0.185974,0.000000,-0.197693,-0.013092,0.000000,-0.107000,0.072000,0.068000,6.610000,-2.610000,1.980000,7.908520,Hold,53.728760,208896.000000,Hold,-143448.000000,143360.000000,Suck,-1065.000000,2181.818182,Speed,-847.500000,2181.818182,Speed,Off,On0.000000,0,,,,
09:26:58.248 AM 03/20/2016,Teleop Enabled,10,FALSE,0,NO ERROR,-0.000000,-22.811197,0.000000,-26.481521,TRUE,FALSE,TRUE,FALSE,FALSE,FALSE,Disabled,0.000000,-0.000000,0.030000,TRUE,2.701752,-0.183899,0.000000,-0.294891,0.099304,0.000000,0.194000,0.031000,0.006000,5.330000,-2.600000,2.340000,6.665908,Hold,55.070068,208896.000000,Hold,-143506.000000,143360.000000,Suck,-262.500000,2181.818182,Speed,-202.500000,2181.818182,Speed,Off,Off0.000000,0,,,,
09:26:58.348 AM 03/20/2016,Teleop Enabled,11,FALSE,0,NO ERROR,-0.000000,-22.817613,0.000000,-26.443021,TRUE,FALSE,TRUE,FALSE,FALSE,FALSE,Disabled,0.000000,-0.000000,0.030000,TRUE,2.689316,-0.178284,0.000000,-0.178741,0.094162,0.000000,-0.039000,0.010000,-0.015000,5.380000,-2.150000,2.490000,6.588912,Hold,55.217041,208896.000000,Hold,-143501.000000,143360.000000,Suck,-1050.000000,2181.818182,Speed,-1012.500000,2181.818182,Speed,Off,Off0.000000,0,,,,
09:26:58.448 AM 03/20/2016,Teleop Enabled,12,FALSE,0,NO ERROR,-0.000000,-22.817613,0.000000,-26.436605,TRUE,FALSE,TRUE,FALSE,FALSE,FALSE,Disabled,0.000000,-0.000000,0.030000,TRUE,2.682434,-0.175934,0.000000,-0.158600,0.031662,0.000000,0.054000,0.020000,0.034000,5.300000,-2.050000,2.440000,6.537208,Hold,55.217041,208896.000000,Hold,-143501.000000,143360.000000,Suck,-1867.500000,2181.818182,Speed,-1785.000000,2181.818182,Speed,Off,Off0.000000,0,,,,
09:26:58.548 AM 03/20/2016,Teleop Enabled,10,FALSE,0,NO ERROR,-0.000000,-22.817613,0.000000,-26.436605,TRUE,FALSE,TRUE,FALSE,FALSE,FALSE,Disabled,0.000000,-0.000000,0.030000,TRUE,2.673645,-0.172836,0.000000,-0.153946,0.067093,0.000000,-0.138000,-0.035000,-0.023000,5.300000,-1.970000,2.420000,6.561147,Hold,55.217285,208896.000000,Hold,-143501.000000,143360.000000,Suck,-2347.500000,2181.818182,Speed,-2242.500000,2181.818182,Speed,Off,Off0.000000,0,,,,
09:26:58.648 AM 03/20/2016,Teleop Enabled,11,FALSE,0,NO ERROR,0.244094,-22.650780,0.244094,-26.244105,TRUE,FALSE,TRUE,FALSE,FALSE,FALSE,Disabled,0.000000,-0.000000,0.030000,TRUE,2.665283,-0.168884,0.000000,-0.171814,0.095886,0.000000,-0.180000,0.084000,-0.014000,5.350000,-2.040000,2.480000,6.582116,Hold,55.209961,208896.000000,Hold,-143498.000000,143360.000000,Suck,-2227.500000,2181.818182,Speed,-2295.000000,2181.818182,Speed,Off,Off0.000000,0,,,,
09:26:58.748 AM 03/20/2016,Teleop Enabled,11,FALSE,0,NO ERROR,0.251969,-21.925699,0.251969,-25.377857,FALSE,FALSE,TRUE,FALSE,FALSE,FALSE,Disabled,0.000000,-0.000000,0.030000,TRUE,2.650101,-0.163651,0.000000,-0.345047,0.095810,0.000000,-0.032000,0.030000,-0.145000,5.550000,-3.490000,2.290000,6.800157,Hold,55.176270,208896.000000,Hold,-143498.000000,143360.000000,Suck,-2085.000000,2181.818182,Speed,-2070.000000,2181.818182,Speed,Off,Off0.000000,0,,,,
09:26:58.848 AM 03/20/2016,Teleop Enabled,11,FALSE,0,NO ERROR,0.259843,-20.828451,0.259843,-24.133027,FALSE,FALSE,TRUE,FALSE,FALSE,FALSE,Disabled,0.000000,-0.000000,0.030000,TRUE,2.633575,-0.159775,0.000000,-0.309418,0.000000,0.000000,0.052000,-0.019000,0.043000,5.260000,-3.290000,2.300000,6.491756,Hold,55.179443,208896.000000,Hold,-143497.000000,143360.000000,Suck,-2115.000000,2181.818182,Speed,-2070.000000,2181.818182,Speed,Off,Off0.000000,0,,,,
09:26:58.948 AM 03/20/2016,Teleop Enabled,10,FALSE,0,NO ERROR,0.251969,-19.346205,0.251969,-22.599447,TRUE,FALSE,TRUE,FALSE,FALSE,FALSE,Disabled,0.000000,-0.000000,0.030000,TRUE,2.620163,-0.159714,0.000000,-0.238266,-0.007843,0.000000,0.052000,-0.019000,0.043000,5.110000,-2.840000,2.370000,6.323060,Hold,55.120605,208896.000000,Hold,-143497.000000,143360.000000,Suck,-2197.500000,2181.818182,Speed,-2167.500000,2181.818182,Speed,Off,Off0.000000,0,,,,
09:26:59.048 AM 03/20/2016,Teleop Enabled,11,FALSE,0,NO ERROR,0.251969,-17.671459,0.251969,-20.956784,TRUE,FALSE,TRUE,FALSE,FALSE,FALSE,Disabled,0.000000,-0.000000,0.030000,TRUE,2.612381,-0.160080,0.000000,0.000000,-0.014267,0.000000,0.106000,-0.048000,-0.005000,5.180000,-2.990000,2.460000,6.380499,Hold,55.124023,208896.000000,Hold,-143494.000000,143360.000000,Suck,-2160.000000,2181.818182,Speed,-2152.500000,2181.818182,Speed,Off,Off0.000000,0,,,,
09:26:59.148 AM 03/20/2016,Teleop Enabled,11,FALSE,0,NO ERROR,0.311687,-16.048046,0.192250,-19.262788,TRUE,FALSE,TRUE,FALSE,FALSE,FALSE,Disabled,0.000000,-0.000000,0.030000,TRUE,2.612183,-0.160995,0.000000,-0.010010,-0.031281,0.000000,-0.030000,-0.084000,-0.013000,5.180000,-2.990000,2.460000,6.380179,Hold,55.150635,208896.000000,Hold,-143494.000000,143360.000000,Suck,-2137.500000,2181.818182,Speed,-2115.000000,2181.818182,Speed,Off,Off0.000000,0,,,,
09:26:59.248 AM 03/20/2016,Teleop Enabled,10,FALSE,0,NO ERROR,0.622047,-15.727213,-0.622047,-17.158127,TRUE,FALSE,TRUE,FALSE,FALSE,FALSE,Disabled,0.000000,-0.000000,0.030000,TRUE,2.611237,-0.164932,0.000000,-0.016083,-0.132599,0.000000,0.070000,-0.391000,-0.200000,4.550000,-2.890000,2.280000,5.513670,Hold,55.150635,208896.000000,Hold,-143493.000000,143360.000000,Suck,-2167.500000,2181.818182,Speed,-2130.000000,2181.818182,Speed,Off,Off0.000000,0,,,,
09:26:59.348 AM 03/20/2016,Teleop Enabled,11,FALSE,0,NO ERROR,0.637795,-17.523876,-0.637795,-14.135884,TRUE,FALSE,TRUE,FALSE,FALSE,FALSE,Disabled,0.000000,-0.000000,0.030000,TRUE,2.611893,-0.178436,0.000000,0.030060,-0.291656,0.000000,0.117000,-0.324000,0.083000,4.550000,-2.890000,2.280000,-1.898939,Hold,55.193848,208896.000000,Hold,-143493.000000,143360.000000,Suck,-2167.500000,2181.818182,Speed,-2137.500000,2181.818182,Speed,Off,Off0.000000,0,,,,
09:26:59.448 AM 03/20/2016,Teleop Enabled,10,FALSE,0,NO ERROR,0.724409,-20.866951,-0.724409,-10.446309,TRUE,FALSE,TRUE,FALSE,FALSE,FALSE,Disabled,0.000000,-0.000000,0.030000,TRUE,2.617432,-0.204147,0.000000,0.194244,-0.699890,0.000000,0.117000,-0.324000,0.083000,-18.750000,-2.270000,-0.210000,-15.257245,Hold,55.096191,208896.000000,Hold,-143493.000000,143360.000000,Hold,-2092.500000,0.000000,Speed,-2092.500000,0.000000,Speed,Off,Off0.000000,0,,,,
09:26:59.548 AM 03/20/2016,Teleop Enabled,11,FALSE,0,NO ERROR,0.724409,-24.986442,-0.724409,-6.243402,TRUE,FALSE,TRUE,FALSE,FALSE,FALSE,Disabled,0.000000,-0.000000,0.030000,TRUE,2.632355,-0.238602,0.000000,0.364563,-0.634750,0.000000,0.144000,-0.039000,0.055000,-18.750000,-2.270000,-0.210000,-31.060949,Hold,55.035400,208896.000000,Hold,-143489.000000,143360.000000,Hold,-2062.500000,0.000000,Speed,-2032.500000,0.000000,Speed,Off,Off0.000000,0,,,,
09:26:59.648 AM 03/20/2016,Teleop Enabled,10,FALSE,0,NO ERROR,0.724409,-29.362598,-0.724409,-2.046912,TRUE,FALSE,TRUE,FALSE,FALSE,FALSE,Disabled,0.000000,-0.000000,0.030000,TRUE,2.655960,-0.270340,0.000000,0.514679,-0.636353,0.000000,0.280000,-0.133000,-0.180000,-52.340000,-1.550000,-0.070000,-47.668847,Hold,55.036377,208896.000000,Hold,-143499.000000,143360.000000,Hold,-1890.000000,0.000000,Speed,-1875.000000,0.000000,Speed,Off,Off0.000000,0,,,,
09:26:59.748 AM 03/20/2016,Teleop Enabled,10,FALSE,0,NO ERROR,-0.000000,-33.738754,0.000000,2.078995,TRUE,FALSE,TRUE,FALSE,FALSE,FALSE,Disabled,0.000000,-0.000000,0.030000,TRUE,2.684937,-0.298218,0.000000,0.656036,-0.540237,0.000000,0.051000,0.153000,0.054000,-52.340000,-1.550000,-0.070000,-65.260743,Hold,55.035400,208896.000000,Hold,-143499.000000,143360.000000,Hold,-1680.000000,0.000000,Speed,-1620.000000,0.000000,Speed,Off,Off0.000000,0,,,,
09:26:59.848 AM 03/20/2016,Teleop Enabled,10,FALSE,0,NO ERROR,-0.000000,-35.586750,0.000000,3.593325,TRUE,FALSE,TRUE,FALSE,FALSE,FALSE,Disabled,0.000000,-0.000000,0.030000,TRUE,2.715668,-0.314468,0.000000,0.503906,-0.143890,0.000000,0.017000,0.352000,-0.107000,-70.530000,-1.840000,-0.710000,-77.045452,Hold,55.034668,208896.000000,Hold,-143499.000000,143360.000000,Hold,-1485.000000,0.000000,Speed,-1380.000000,0.000000,Speed,Off,Off0.000000,0,,,,
09:26:59.949 AM 03/20/2016,Teleop Enabled,10,FALSE,0,NO ERROR,-0.000000,-35.869083,0.000000,3.574075,TRUE,FALSE,TRUE,FALSE,FALSE,FALSE,Disabled,0.000000,-0.000000,0.030000,TRUE,2.732117,-0.316666,0.000000,0.262909,-0.010559,0.000000,-0.336000,0.150000,0.133000,-81.490000,-0.180000,1.310000,-78.017403,Hold,55.029785,208896.000000,Hold,-143499.000000,143360.000000,Hold,-1350.000000,0.000000,Speed,-1110.000000,0.000000,Speed,Off,Off0.000000,0,,,,
09:27:00.050 AM 03/20/2016,Teleop Enabled,9,FALSE,0,NO ERROR,-0.000000,-35.740750,0.000000,3.413659,TRUE,FALSE,TRUE,FALSE,FALSE,FALSE,Disabled,0.000000,-0.000000,0.030000,TRUE,2.732117,-0.316666,0.000000,0.262909,-0.010559,0.000000,-0.028000,-0.001000,-0.001000,-82.050000,0.290000,2.070000,-76.707510,Hold,55.029785,208896.000000,Hold,-143499.000000,143360.000000,Hold,-1192.500000,0.000000,Speed,-855.000000,0.000000,Speed,Off,Off0.000000,0,,,,
09:27:00.150 AM 03/20/2016,Teleop Enabled,10,FALSE,0,NO ERROR,-0.000000,-35.740750,0.000000,3.407242,TRUE,FALSE,TRUE,FALSE,FALSE,FALSE,Disabled,0.000000,-0.000000,0.030000,TRUE,2.746933,-0.319290,0.000000,0.243301,-0.100098,0.000000,0.094000,-0.058000,0.043000,-80.700000,-0.110000,2.130000,-76.762780,Hold,55.029785,208896.000000,Hold,-143499.000000,143360.000000,Hold,-1042.500000,0.000000,Speed,-615.000000,0.000000,Speed,Off,Off0.000000,0,,,,
09:27:00.250 AM 03/20/2016,Teleop Enabled,10,FALSE,0,NO ERROR,-0.000000,-35.740750,0.000000,3.445742,TRUE,FALSE,TRUE,FALSE,FALSE,FALSE,Disabled,0.000000,-0.000000,0.030000,TRUE,2.776657,-0.333023,0.000000,0.252502,-0.135513,0.000000,-0.020000,0.021000,0.079000,-80.820000,-0.090000,1.850000,-77.034704,Hold,55.029053,208896.000000,Hold,-143499.000000,143360.000000,Hold,-885.000000,0.000000,Speed,-427.500000,0.000000,Speed,Off,Off0.000000,0,,,,
09:27:00.350 AM 03/20/2016,Teleop Enabled,10,FALSE,0,NO ERROR,0.275591,-35.740750,0.275591,3.445742,TRUE,FALSE,TRUE,FALSE,FALSE,FALSE,Disabled,0.000000,-0.000000,0.030000,TRUE,2.776657,-0.333023,0.000000,0.252502,-0.135513,0.000000,-0.019000,0.046000,0.072000,-81.080000,-0.080000,2.030000,-76.906676,Hold,55.029053,208896.000000,Hold,-143498.000000,143360.000000,Hold,-735.000000,0.000000,Speed,-202.500000,0.000000,Speed,Off,Off0.000000,0,,,,
09:27:00.450 AM 03/20/2016,Teleop Enabled,11,FALSE,0,NO ERROR,0.338583,-34.829585,0.338583,4.472406,TRUE,FALSE,TRUE,FALSE,FALSE,FALSE,Disabled,0.000000,-0.000000,0.030000,TRUE,2.788101,-0.338882,0.000000,0.208603,-0.105423,0.000000,-0.012000,-0.082000,-0.042000,-80.900000,-0.090000,2.120000,-77.018559,Hold,55.027344,208896.000000,Hold,-143498.000000,143360.000000,Hold,-592.500000,0.000000,Speed,-60.000000,0.000000,Speed,Off,Off0.000000,0,,,,
09:27:00.550 AM 03/20/2016,Teleop Enabled,10,FALSE,0,NO ERROR,0.338583,-33.161256,0.338583,6.179236,TRUE,FALSE,TRUE,FALSE,FALSE,FALSE,Disabled,0.000000,-0.000000,0.030000,TRUE,2.798965,-0.350739,0.000000,0.225098,-0.367935,0.000000,0.096000,-0.133000,-0.408000,-81.100000,-2.510000,2.080000,-77.018559,Hold,55.029053,208896.000000,Hold,-143493.000000,143360.000000,Hold,-480.000000,0.000000,Speed,0.000000,0.000000,Speed,Off,Off0.000000,0,,,,
09:27:00.651 AM 03/20/2016,Teleop Enabled,11,FALSE,0,NO ERROR,0.330709,-33.161256,0.330709,6.179236,TRUE,FALSE,TRUE,FALSE,FALSE,FALSE,Disabled,0.000000,-0.000000,0.030000,TRUE,2.813019,-0.378250,0.000000,0.214096,-0.528702,0.000000,-0.043000,-0.090000,0.166000,-81.180000,-2.700000,2.090000,-77.150433,Hold,55.312744,208896.000000,Hold,-143489.000000,143360.000000,LowGoal,-360.000000,-1454.545455,Speed,0.000000,-1454.545455,Speed,Off,Off0.000000,0,,,,
09:27:00.752 AM 03/20/2016,Teleop Enabled,10,FALSE,0,NO ERROR,-0.000000,-31.011677,0.000000,8.386564,TRUE,FALSE,TRUE,FALSE,FALSE,FALSE,Disabled,0.000000,-0.000000,0.030000,TRUE,2.822342,-0.406693,0.000000,0.171661,-0.576447,0.000000,-0.092000,0.061000,0.027000,-81.240000,-2.250000,2.040000,-77.215928,Hold,55.284912,208896.000000,Hold,-143489.000000,143360.000000,LowGoal,-195.000000,-1454.545455,Speed,112.500000,-1454.545455,Speed,Off,Off0.000000,0,,,,
09:27:00.852 AM 03/20/2016,Teleop Enabled,9,FALSE,0,NO ERROR,-0.000000,-28.958349,0.000000,10.471976,TRUE,FALSE,TRUE,FALSE,FALSE,FALSE,Disabled,0.000000,-0.000000,0.030000,TRUE,2.821503,-0.434280,0.000000,-0.019760,-0.518707,0.000000,-0.118000,0.493000,-0.125000,-81.300000,-2.250000,2.120000,-77.307014,Hold,55.477051,208896.000000,Hold,-143486.000000,143360.000000,LowGoal,630.000000,-1454.545455,Speed,907.500000,-1454.545455,Speed,Off,Off0.000000,0,,,,
09:27:00.952 AM 03/20/2016,Teleop Enabled,10,FALSE,0,NO ERROR,-0.188976,-27.989435,0.188976,11.351057,TRUE,FALSE,TRUE,FALSE,FALSE,FALSE,Disabled,0.000000,-0.000000,0.030000,TRUE,2.821182,-0.446716,0.000000,0.013138,-0.100861,0.000000,0.038000,0.268000,-0.127000,-81.050000,0.180000,2.160000,-77.149490,Hold,55.330566,208896.000000,Hold,-143477.000000,143360.000000,LowGoal,1492.500000,-1454.545455,Speed,1575.000000,-1454.545455,Speed,Off,Off0.000000,0,,,,
09:27:01.052 AM 03/20/2016,Teleop Enabled,11,FALSE,0,NO ERROR,-0.314961,-27.668602,0.314961,11.582056,TRUE,FALSE,TRUE,FALSE,FALSE,FALSE,Disabled,0.000000,-0.000000,0.030000,TRUE,2.822281,-0.446976,0.000000,0.025604,0.031479,0.000000,-0.057000,0.265000,0.082000,-80.930000,0.140000,2.210000,-76.992619,Hold,55.177490,208896.000000,Hold,-143472.000000,143360.000000,LowGoal,1642.500000,-1454.545455,Speed,1567.500000,-1454.545455,Speed,Off,Off0.000000,0,,,,
09:27:01.152 AM 03/20/2016,Teleop Enabled,11,FALSE,0,NO ERROR,-0.527559,-26.982020,0.527559,10.850558,TRUE,FALSE,TRUE,FALSE,FALSE,FALSE,Disabled,0.000000,-0.000000,0.030000,TRUE,2.820786,-0.439682,0.000000,-0.097992,0.171341,0.000000,0.047000,0.111000,-0.165000,-79.580000,0.210000,2.800000,-75.750303,Hold,55.175537,208896.000000,Hold,-143481.000000,143360.000000,LowGoal,1320.000000,-1454.545455,Speed,1282.500000,-1454.545455,Speed,Off,Off0.000000,0,,,,
09:27:01.252 AM 03/20/2016,Teleop Enabled,11,FALSE,0,NO ERROR,-0.322835,-25.647357,0.322835,9.220728,FALSE,FALSE,TRUE,FALSE,FALSE,FALSE,Disabled,0.000000,-0.000000,0.030000,TRUE,2.815079,-0.428726,0.000000,-0.126602,0.246201,0.000000,-0.012000,0.146000,0.183000,-74.610000,0.790000,3.200000,-71.032680,Hold,55.175293,208896.000000,Hold,-143481.000000,143360.000000,LowGoal,1267.500000,-1454.545455,Speed,1305.000000,-1454.545455,Speed,Off,Off0.000000,0,,,,
09:27:01.352 AM 03/20/2016,Teleop Enabled,11,FALSE,0,NO ERROR,-0.000000,-23.497778,0.000000,7.000567,FALSE,FALSE,TRUE,FALSE,FALSE,FALSE,Disabled,0.000000,-0.000000,0.030000,TRUE,2.808380,-0.411072,0.000000,-0.092133,0.304260,0.000000,0.136000,-0.103000,0.076000,-63.720000,0.590000,3.890000,-62.495143,Hold,55.149902,208896.000000,Hold,-143481.000000,143360.000000,LowGoal,1410.000000,-1454.545455,Speed,1410.000000,-1454.545455,Speed,Off,Off0.000000,0,,,,
09:27:01.452 AM 03/20/2016,Teleop Enabled,11,FALSE,0,NO ERROR,-0.000000,-22.522447,0.000000,5.961069,TRUE,FALSE,TRUE,FALSE,FALSE,FALSE,Disabled,0.000000,-0.000000,0.030000,TRUE,2.808029,-0.404495,0.000000,0.061646,0.017395,0.000000,0.036000,-0.216000,-0.032000,-57.670000,-0.500000,2.730000,-54.998952,Hold,55.170654,208896.000000,Hold,-143481.000000,143360.000000,LowGoal,1462.500000,-1454.545455,Speed,1387.500000,-1454.545455,Speed,Off,Off0.000000,0,,,,
09:27:01.552 AM 03/20/2016,Teleop Enabled,10,FALSE,0,NO ERROR,-0.000000,-22.509614,0.000000,5.941819,TRUE,FALSE,TRUE,FALSE,FALSE,FALSE,Disabled,0.000000,-0.000000,0.030000,TRUE,2.814377,-0.410919,0.000000,0.121628,-0.133896,0.000000,0.025000,0.014000,-0.020000,-58.590000,-0.660000,2.230000,-55.062522,Hold,55.144775,208896.000000,Hold,-143481.000000,143360.000000,LowGoal,1410.000000,-1454.545455,Speed,1357.500000,-1454.545455,Speed,Off,Off0.000000,0,,,,
09:27:01.652 AM 03/20/2016,Teleop Enabled,10,FALSE,0,NO ERROR,-0.000000,-22.580197,0.000000,6.025236,TRUE,FALSE,TRUE,FALSE,FALSE,FALSE,Disabled,0.000000,-0.000000,0.030000,TRUE,2.818390,-0.415466,0.000000,0.049240,-0.028336,0.000000,-0.061000,0.032000,-0.006000,-59.380000,-0.610000,2.750000,-56.199530,Hold,55.144775,208896.000000,Hold,-143481.000000,143360.000000,LowGoal,1395.000000,-1454.545455,Speed,1380.000000,-1454.545455,Speed,Off,Off0.000000,0,,,,
09:27:01.752 AM 03/20/2016,Teleop Enabled,11,FALSE,0,NO ERROR,-0.000000,-22.580197,0.000000,6.018819,TRUE,FALSE,TRUE,FALSE,FALSE,FALSE,Disabled,0.000000,-0.000000,0.030000,TRUE,2.819733,-0.417526,0.000000,0.008331,-0.071075,0.000000,-0.081000,-0.067000,0.239000,-59.050000,-0.640000,2.650000,-55.886392,Hold,55.144775,208896.000000,Hold,-143481.000000,143360.000000,LowGoal,1425.000000,-1454.545455,Speed,1387.500000,-1454.545455,Speed,Off,Off0.000000,0,,,,
09:27:01.852 AM 03/20/2016,Teleop Enabled,10,FALSE,0,NO ERROR,-0.000000,-22.580197,0.000000,6.018819,TRUE,FALSE,TRUE,FALSE,FALSE,FALSE,Disabled,0.000000,-0.000000,0.030000,TRUE,2.819351,-0.421860,0.000000,-0.036224,-0.093185,0.000000,0.071000,0.027000,0.088000,-59.230000,-0.810000,2.650000,-56.007212,Hold,55.144775,208896.000000,Hold,-143481.000000,143360.000000,LowGoal,1417.500000,-1454.545455,Speed,1372.500000,-1454.545455,Speed,Off,Off0.000000,0,,,,
09:27:01.952 AM 03/20/2016,Teleop Enabled,11,FALSE,0,NO ERROR,-0.000000,-22.580197,0.000000,6.018819,TRUE,FALSE,TRUE,FALSE,FALSE,FALSE,Disabled,0.000000,-0.000000,0.030000,TRUE,2.817902,-0.425476,0.000000,-0.021133,-0.078400,0.000000,0.140000,0.043000,0.051000,-59.210000,-0.720000,2.650000,-56.036536,Hold,55.144775,208896.000000,Hold,-143481.000000,143360.000000,LowGoal,1410.000000,-1454.545455,Speed,1372.500000,-1454.545455,Speed,Off,Off0.000000,0,,,,
09:27:02.052 AM 03/20/2016,Teleop Enabled,10,FALSE,0,NO ERROR,-0.000000,-22.580197,0.000000,6.018819,TRUE,FALSE,TRUE,FALSE,FALSE,FALSE,Disabled,0.000000,-0.000000,0.030000,TRUE,2.817734,-0.429001,0.000000,0.004364,-0.060623,0.000000,-0.081000,0.096000,-0.008000,-59.210000,-0.710000,2.590000,-56.050874,Hold,55.144775,208896.000000,Hold,-143481.000000,143360.000000,LowGoal,1410.000000,-1454.545455,Speed,1387.500000,-1454.545455,Speed,Off,Off0.000000,0,,,,
09:27:02.152 AM 03/20/2016,Teleop Enabled,9,FALSE,0,NO ERROR,-0.000000,-22.580197,0.000000,6.018819,TRUE,FALSE,TRUE,FALSE,FALSE,FALSE,Disabled,0.000000,-0.000000,0.030000,TRUE,2.818222,-0.431992,0.000000,0.014435,-0.058350,0.000000,-0.036000,0.038000,-0.034000,-59.230000,-0.720000,2.620000,-56.054716,Hold,55.144775,208896.000000,Hold,-143481.000000,143360.000000,LowGoal,1417.500000,-1454.545455,Speed,1380.000000,-1454.545455,Speed,Off,Off0.000000,0,,,,
09:27:02.252 AM 03/20/2016,Teleop Enabled,12,FALSE,0,NO ERROR,-0.000000,-22.580197,0.000000,6.018819,TRUE,FALSE,TRUE,FALSE,FALSE,FALSE,Disabled,0.000000,-0.000000,0.030000,TRUE,2.818619,-0.433563,0.000000,0.013809,-0.009750,0.000000,-0.030000,-0.061000,0.067000,-59.230000,-0.670000,2.620000,-56.060644,Hold,55.144775,208896.000000,Hold,-143481.000000,143360.000000,LowGoal,1417.500000,-1454.545455,Speed,1380.000000,-1454.545455,Speed,Off,Off0.000000,0,,,,
09:27:02.352 AM 03/20/2016,Teleop Enabled,10,FALSE,0,NO ERROR,-0.000000,-22.580197,0.000000,6.018819,TRUE,FALSE,TRUE,FALSE,FALSE,FALSE,Disabled,0.000000,-0.000000,0.030000,TRUE,2.820328,-0.435516,0.000000,0.029373,-0.056274,0.000000,0.092000,0.066000,-0.008000,-59.220000,-0.730000,2.600000,-56.069112,Hold,55.144775,208896.000000,Hold,-143481.000000,143360.000000,LowGoal,1410.000000,-1454.545455,Speed,1380.000000,-1454.545455,Speed,Off,Off0.000000,0,,,,
09:27:02.452 AM 03/20/2016,Teleop Enabled,10,FALSE,0,NO ERROR,-0.000000,-22.580197,0.000000,6.018819,TRUE,FALSE,TRUE,FALSE,FALSE,FALSE,Disabled,0.000000,-0.000000,0.030000,TRUE,2.822983,-0.437729,0.000000,0.079498,-0.035843,0.000000,0.015000,0.078000,0.093000,-59.230000,-0.680000,2.620000,-56.075371,Hold,55.144775,208896.000000,Hold,-143481.000000,143360.000000,LowGoal,1410.000000,-1454.545455,Speed,1387.500000,-1454.545455,Speed,Off,Off0.000000,0,,,,
09:27:02.555 AM 03/20/2016,Teleop Enabled,11,FALSE,0,NO ERROR,-0.000000,-22.580197,0.000000,6.018819,TRUE,FALSE,TRUE,FALSE,FALSE,FALSE,Disabled,0.000000,-0.000000,0.030000,TRUE,2.826736,-0.438599,0.000000,0.069305,-0.002975,0.000000,-0.076000,0.029000,0.085000,-59.240000,-0.690000,2.610000,-56.072913,Hold,55.144775,208896.000000,Hold,-143481.000000,143360.000000,LowGoal,1417.500000,-1454.545455,Speed,1372.500000,-1454.545455,Speed,Off,Off0.000000,0,,,,
09:27:02.656 AM 03/20/2016,Teleop Enabled,9,FALSE,0,NO ERROR,-0.000000,-22.573781,0.000000,6.018819,TRUE,FALSE,TRUE,FALSE,FALSE,FALSE,Disabled,0.000000,-0.000000,0.030000,TRUE,2.827927,-0.437424,0.000000,0.006287,0.023163,0.000000,0.060000,-0.023000,0.199000,-59.230000,-0.670000,2.630000,-56.084656,Hold,55.144775,208896.000000,Hold,-143481.000000,143360.000000,LowGoal,1410.000000,-1454.545455,Speed,1380.000000,-1454.545455,Speed,Off,Off0.000000,0,,,,
09:27:02.759 AM 03/20/2016,Teleop Enabled,10,FALSE,0,NO ERROR,-0.000000,-22.573781,0.000000,6.018819,TRUE,FALSE,TRUE,FALSE,FALSE,FALSE,Disabled,0.000000,-0.000000,0.030000,TRUE,2.828186,-0.436996,0.000000,-0.030334,-0.008499,0.000000,-0.021000,-0.127000,-0.094000,-59.220000,-0.670000,2.570000,-56.091682,Hold,55.144775,208896.000000,Hold,-143481.000000,143360.000000,LowGoal,1410.000000,-1454.545455,Speed,1380.000000,-1454.545455,Speed,Off,Off0.000000,0,,,,
09:27:02.860 AM 03/20/2016,Teleop Enabled,10,FALSE,0,NO ERROR,-0.000000,-22.573781,0.000000,6.018819,TRUE,FALSE,TRUE,FALSE,FALSE,FALSE,Disabled,0.000000,-0.000000,0.030000,TRUE,2.828247,-0.438004,0.000000,0.013840,-0.031662,0.000000,-0.103000,0.060000,0.212000,-59.250000,-0.650000,2.490000,-56.100949,Hold,55.144775,208896.000000,Hold,-143481.000000,143360.000000,LowGoal,1417.500000,-1454.545455,Speed,1380.000000,-1454.545455,Speed,Off,Off0.000000,0,,,,
09:27:02.961 AM 03/20/2016,Teleop Enabled,9,FALSE,0,NO ERROR,-0.000000,-22.573781,0.000000,6.018819,TRUE,FALSE,TRUE,FALSE,FALSE,FALSE,Disabled,0.000000,-0.000000,0.030000,TRUE,2.830551,-0.439819,0.000000,0.055115,-0.028336,0.000000,-0.039000,-0.051000,-0.023000,-59.250000,-0.720000,2.470000,-56.107239,Hold,55.144775,208896.000000,Hold,-143481.000000,143360.000000,LowGoal,1410.000000,-1454.545455,Speed,1372.500000,-1454.545455,Speed,Off,Off0.000000,0,,,,
09:27:03.062 AM 03/20/2016,Teleop Enabled,10,FALSE,0,NO ERROR,-0.000000,-22.573781,0.000000,6.018819,TRUE,FALSE,TRUE,FALSE,FALSE,FALSE,Disabled,0.000000,-0.000000,0.030000,TRUE,2.833435,-0.441025,0.000000,0.082565,-0.015121,0.000000,0.056000,0.048000,0.013000,-59.250000,-0.740000,2.470000,-56.109408,Hold,55.144775,208896.000000,Hold,-143481.000000,143360.000000,LowGoal,1417.500000,-1454.545455,Speed,1380.000000,-1454.545455,Speed,Off,Off0.000000,0,,,,
09:27:03.164 AM 03/20/2016,Teleop Enabled,9,FALSE,0,NO ERROR,-0.000000,-22.573781,0.000000,6.018819,TRUE,FALSE,TRUE,FALSE,FALSE,FALSE,Disabled,0.000000,-0.000000,0.030000,TRUE,2.838715,-0.443039,0.000000,0.077957,-0.054947,0.000000,0.068000,-0.049000,-0.112000,-59.240000,-0.800000,2.540000,-56.103294,Hold,55.144775,208896.000000,Hold,-143481.000000,143360.000000,LowGoal,1410.000000,-1454.545455,Speed,1380.000000,-1454.545455,Speed,Off,Off0.000000,0,,,,
09:27:03.265 AM 03/20/2016,Teleop Enabled,11,FALSE,0,NO ERROR,-0.000000,-22.573781,0.000000,6.018819,TRUE,FALSE,TRUE,FALSE,FALSE,FALSE,Disabled,0.000000,-0.000000,0.030000,TRUE,2.841797,-0.446548,0.000000,0.060165,-0.103470,0.000000,0.066000,-0.066000,0.127000,-59.240000,-0.830000,2.620000,-56.117415,Hold,55.144775,208896.000000,Hold,-143481.000000,143360.000000,LowGoal,1410.000000,-1454.545455,Speed,1380.000000,-1454.545455,Speed,Off,Off0.000000,0,,,,
09:27:03.367 AM 03/20/2016,Teleop Enabled,12,FALSE,0,NO ERROR,-0.000000,-22.573781,0.000000,6.018819,TRUE,FALSE,TRUE,FALSE,FALSE,FALSE,Disabled,0.000000,-0.000000,0.030000,TRUE,2.845535,-0.451477,0.000000,0.085785,-0.081024,0.000000,-0.156000,-0.026000,0.005000,-59.240000,-0.840000,2.660000,-56.124693,Hold,55.144775,208896.000000,HighGoal,-143481.000000,69632.000000,HighGoal,1417.500000,-3272.727273,Speed,1380.000000,-3272.727273,Speed,Off,Off0.000000,0,,,,
09:27:03.467 AM 03/20/2016,Teleop Enabled,12,FALSE,0,NO ERROR,-0.000000,-22.573781,0.000000,6.018819,TRUE,FALSE,TRUE,FALSE,FALSE,FALSE,Disabled,0.000000,-0.000000,0.030000,TRUE,2.849762,-0.454544,0.000000,0.078125,-0.017365,0.000000,-0.059000,0.239000,0.196000,-59.240000,-0.900000,2.690000,-56.142012,Hold,55.144775,208896.000000,Hold,-143466.000000,69632.000000,HighGoal,1395.000000,-3272.727273,Speed,1350.000000,-3272.727273,Speed,Off,Off0.000000,0,,,,
09:27:03.568 AM 03/20/2016,Teleop Enabled,10,FALSE,0,NO ERROR,-0.000000,-22.573781,0.000000,6.018819,TRUE,FALSE,TRUE,FALSE,FALSE,FALSE,Disabled,0.000000,-0.000000,0.030000,TRUE,2.854584,-0.454010,0.000000,0.096954,0.014008,0.000000,0.020000,-0.095000,-0.171000,-59.250000,-0.880000,2.750000,-56.161834,Hold,55.147461,208896.000000,HighGoal,-138503.000000,69632.000000,HighGoal,1785.000000,-3272.727273,Speed,1620.000000,-3272.727273,Speed,Off,Off0.000000,0,,,,
