Time,Robot Mode,Loop Time,Error Status,Error Code,Error Source,Left Motor Output,Left Motor Encoder,Right Motor Output,Right Motor Encoder,Is Level,Is Stalled,Ball Detector Photoeye,Vision Enabled,Vision Teleop Control,Vision Auto Control,Vision Current State,Vision X Output,Vision NavX Error,Vision NavX Target,NavX Connection Status,NavX Displacement X,NavX Displacement Y,NavX Displacement Z,NavX Velocity X,NavX Velocity Y,NavX Velocity Z,NavX Acceleration X,NavX Acceleration Y,NavX Acceleration Z,NavX Pitch,NavX Yaw,NavX Roll,Gyro Angle,Roller Arm State,Roller Arm Actual,Roller Arm Desired,Shooter Arm State,Shooter Arm Actual,Shooter Arm Desired,Shooter State,Actual RPM Left,Desired RPM Left,Control Mode Left,Actual RPM Right,Desired RPM Right,Scaler Motor Output,Auto To Run,Auto Current File,Auto File Status,Auto Current Command,Auto Trimmed Command
02:11:25.381 PM 03/19/2016,Autonomous Disabled,11,FALSE,0,NO ERROR,-0.000000,0.307999,0.000000,-0.032083,TRUE,FALSE,TRUE,FALSE,FALSE,FALSE,Disabled,0.000000,0.000000,0.000000,TRUE,-0.257050,1.790695,0.000000,0.000000,0.000000,0.000000,0.000000,0.000000,0.016000,-0.640000,0.020000,2.510000,-1.469449,Hold,0.925781,3.000000,Hold,92225.000000,122880.000000,LowGoal,0.000000,0.000000,Speed,0.000000,0.000000,Speed,Off,Off0.000000,0,,,,
02:11:25.486 PM 03/19/2016,Teleop Enabled,10,FALSE,0,NO ERROR,-0.000000,-0.230999,0.000000,-0.173250,TRUE,FALSE,TRUE,FALSE,FALSE,FALSE,Disabled,0.000000,0.000000,0.000000,TRUE,-0.256042,1.789261,0.000000,0.001465,0.000000,0.000000,-0.046000,0.014000,0.006000,-0.050000,0.050000,2.480000,-0.183691,ResetBack,0.925781,-0.200000,ResetBack,58394.000000,-0.300000,Empty,0.000000,0.000000,Speed,0.000000,0.000000,Speed,On,Off0.000000,0,,,,
02:11:25.588 PM 03/19/2016,Teleop Enabled,10,FALSE,0,NO ERROR,-0.000000,-0.269499,0.000000,-0.263083,TRUE,FALSE,TRUE,FALSE,FALSE,FALSE,Disabled,0.000000,0.000000,0.000000,TRUE,-0.256104,1.789261,0.000000,-0.005615,0.000000,0.000000,-0.048000,0.117000,0.119000,-0.130000,-0.050000,2.500000,-0.043135,ResetBack,-0.143066,-0.200000,ResetBack,58761.000000,-0.300000,Empty,0.000000,0.000000,Speed,0.000000,0.000000,Speed,On,Off0.000000,0,,,,
02:11:25.688 PM 03/19/2016,Teleop Enabled,9,FALSE,0,NO ERROR,-0.000000,-0.269499,0.000000,-0.263083,TRUE,FALSE,TRUE,FALSE,FALSE,FALSE,Disabled,0.000000,0.000000,0.000000,TRUE,-0.253098,1.790161,0.000000,0.086823,-0.002289,0.000000,-0.048000,0.117000,0.119000,-0.130000,-0.050000,2.500000,-0.043135,ResetBack,-0.266357,-0.200000,ResetBack,58761.000000,-0.300000,Empty,0.000000,0.000000,Speed,0.000000,0.000000,Speed,On,Off0.000000,0,,,,
02:11:25.789 PM 03/19/2016,Teleop Enabled,9,FALSE,0,NO ERROR,-0.000000,-0.333666,0.000000,-0.333666,TRUE,FALSE,TRUE,FALSE,FALSE,FALSE,Disabled,0.000000,0.000000,0.000000,TRUE,-0.253098,1.790161,0.000000,0.086823,-0.002289,0.000000,0.028000,-0.070000,0.075000,-0.010000,-0.280000,2.610000,0.073289,Reset,-0.288330,0.000000,ResetBack,64293.000000,-0.300000,Empty,0.000000,0.000000,Speed,0.000000,0.000000,Speed,On,Off0.000000,0,,,,
02:11:25.890 PM 03/19/2016,Teleop Enabled,10,FALSE,0,NO ERROR,-0.000000,-0.333666,0.000000,-0.301583,TRUE,FALSE,TRUE,FALSE,FALSE,FALSE,Disabled,0.000000,0.000000,0.000000,TRUE,-0.251678,1.785980,0.000000,-0.001572,-0.046783,0.000000,-0.016000,-0.046000,0.005000,0.050000,-0.070000,2.530000,-0.024735,Hold,0.983398,0.000000,ResetBack,74352.000000,-0.300000,Empty,0.000000,0.000000,Speed,0.000000,0.000000,Speed,On,Off0.000000,0,,,,
02:11:25.991 PM 03/19/2016,Teleop Enabled,10,FALSE,0,NO ERROR,-0.000000,-0.327249,0.000000,-0.288749,TRUE,FALSE,TRUE,FALSE,FALSE,FALSE,Disabled,0.000000,0.000000,0.000000,TRUE,-0.251511,1.785156,0.000000,0.000000,-0.006119,0.000000,0.000000,0.029000,0.109000,0.050000,-0.070000,2.530000,-0.005061,Hold,0.925293,0.000000,ResetBack,84167.000000,-0.300000,Empty,0.000000,0.000000,Speed,0.000000,0.000000,Speed,On,Off0.000000,0,,,,
02:11:26.091 PM 03/19/2016,Teleop Enabled,11,FALSE,0,NO ERROR,-0.000000,-0.327249,0.000000,-0.282333,TRUE,FALSE,TRUE,FALSE,FALSE,FALSE,Disabled,0.000000,0.000000,0.000000,TRUE,-0.251617,1.784988,0.000000,-0.025681,-0.010818,0.000000,0.020000,0.021000,0.016000,0.070000,-0.030000,2.500000,-0.035596,Hold,0.886475,0.000000,ResetBack,95419.000000,-0.300000,Empty,0.000000,0.000000,Speed,0.000000,0.000000,Speed,On,Off0.000000,0,,,,
02:11:26.192 PM 03/19/2016,Teleop Enabled,9,FALSE,0,NO ERROR,-0.000000,-0.243833,0.000000,-0.211750,TRUE,FALSE,TRUE,FALSE,FALSE,FALSE,Disabled,0.000000,0.000000,0.000000,TRUE,-0.252380,1.783264,0.000000,0.006653,-0.045502,0.000000,0.019000,0.008000,0.216000,0.050000,-0.050000,2.490000,0.011681,Hold,0.886475,0.000000,ResetBack,105538.000000,-0.300000,Empty,0.000000,0.000000,Speed,0.000000,0.000000,Speed,On,Off0.000000,0,,,,
02:11:26.293 PM 03/19/2016,Teleop Enabled,10,FALSE,0,NO ERROR,-0.000000,-0.243833,0.000000,-0.211750,TRUE,FALSE,TRUE,FALSE,FALSE,FALSE,Disabled,0.000000,0.000000,0.000000,TRUE,-0.252197,1.781784,0.000000,0.005203,-0.013763,0.000000,0.080000,-0.019000,0.152000,0.100000,-0.060000,2.530000,-0.045067,Hold,0.886475,0.000000,ResetBack,108691.000000,-0.300000,Empty,0.000000,0.000000,Speed,0.000000,0.000000,Speed,On,Off0.000000,0,,,,
02:11:26.393 PM 03/19/2016,Teleop Enabled,11,FALSE,0,NO ERROR,-0.000000,-0.243833,0.000000,-0.211750,TRUE,FALSE,TRUE,FALSE,FALSE,FALSE,Disabled,0.000000,0.000000,0.000000,TRUE,-0.251892,1.781174,0.000000,0.000000,0.000000,0.000000,0.050000,0.033000,0.095000,0.060000,0.000000,2.520000,-0.104117,Hold,0.886475,0.000000,ResetBack,108691.000000,-0.300000,Empty,0.000000,0.000000,Speed,0.000000,0.000000,Speed,On,Off0.000000,0,,,,
02:11:26.494 PM 03/19/2016,Teleop Enabled,10,FALSE,0,NO ERROR,-0.000000,-0.243833,0.000000,-0.211750,TRUE,FALSE,TRUE,FALSE,FALSE,FALSE,Disabled,0.000000,0.000000,0.000000,TRUE,-0.251999,1.781311,0.000000,-0.002441,0.000000,0.000000,0.019000,0.025000,0.046000,0.020000,-0.040000,2.510000,-0.072005,Hold,0.886475,0.000000,ResetBack,109288.000000,-0.300000,Empty,0.000000,0.000000,Speed,0.000000,0.000000,Speed,On,Off0.000000,0,,,,
02:11:26.594 PM 03/19/2016,Teleop Enabled,11,FALSE,0,NO ERROR,-0.000000,-0.243833,0.000000,-0.211750,TRUE,FALSE,TRUE,FALSE,FALSE,FALSE,Disabled,0.000000,0.000000,0.000000,TRUE,-0.251984,1.781311,0.000000,0.000000,0.000000,0.000000,0.001000,0.008000,0.011000,0.050000,-0.010000,2.520000,-0.069536,Hold,0.886475,0.000000,ResetBack,109292.000000,-0.300000,Empty,0.000000,0.000000,Speed,0.000000,0.000000,Speed,On,Off0.000000,0,,,,
02:11:26.694 PM 03/19/2016,Teleop Enabled,9,FALSE,0,NO ERROR,-0.000000,-0.243833,0.000000,-0.211750,TRUE,FALSE,TRUE,FALSE,FALSE,FALSE,Disabled,0.000000,0.000000,0.000000,TRUE,-0.251984,1.781311,0.000000,0.000000,0.000000,0.000000,-0.004000,0.005000,0.033000,0.040000,-0.010000,2.510000,-0.090481,Hold,0.886475,0.000000,Reset,109292.000000,2.000000,Suck,0.000000,2181.818182,Speed,0.000000,2181.818182,Speed,On,Off0.000000,0,,,,
02:11:26.793 PM 03/19/2016,Teleop Enabled,11,FALSE,0,NO ERROR,-0.000000,-0.243833,0.000000,-0.211750,TRUE,FALSE,TRUE,FALSE,FALSE,FALSE,Disabled,0.000000,0.000000,0.000000,TRUE,-0.251770,1.781311,0.000000,0.009995,0.000000,0.000000,-0.004000,-0.002000,0.020000,0.040000,-0.020000,2.510000,-0.090374,Hold,0.886475,0.000000,Hold,-268.000000,2.000000,Hold,-60.000000,0.000000,Speed,-67.500000,0.000000,Speed,Off,Off0.000000,0,,,,
02:11:26.894 PM 03/19/2016,Teleop Enabled,10,FALSE,0,NO ERROR,-0.000000,-0.243833,0.000000,-0.211750,TRUE,FALSE,TRUE,FALSE,FALSE,FALSE,Disabled,0.000000,0.000000,0.000000,TRUE,-0.251678,1.781143,0.000000,-0.005737,0.002670,0.000000,0.018000,0.004000,0.012000,0.050000,-0.020000,2.530000,-0.055177,Hold,0.886475,0.000000,Hold,-241.000000,2.000000,Hold,-585.000000,0.000000,Speed,-622.500000,0.000000,Speed,Off,Off0.000000,0,,,,
02:11:26.996 PM 03/19/2016,Teleop Enabled,10,FALSE,0,NO ERROR,-0.000000,-0.243833,0.000000,-0.211750,TRUE,FALSE,TRUE,FALSE,FALSE,FALSE,Disabled,0.000000,0.000000,0.000000,TRUE,-0.251831,1.782089,0.000000,0.001862,0.023499,0.000000,0.004000,0.010000,0.046000,0.050000,-0.050000,2.560000,-0.069250,Hold,0.886475,0.000000,Hold,-237.000000,2.000000,Hold,-630.000000,0.000000,Speed,-622.500000,0.000000,Speed,Off,Off0.000000,0,,,,
02:11:27.096 PM 03/19/2016,Teleop Enabled,10,FALSE,0,NO ERROR,-0.000000,-0.243833,0.000000,-0.211750,TRUE,FALSE,TRUE,FALSE,FALSE,FALSE,Disabled,0.000000,0.000000,0.000000,TRUE,-0.251831,1.782089,0.000000,0.001862,0.023499,0.000000,0.028000,-0.007000,0.041000,0.040000,-0.030000,2.580000,-0.075247,Hold,0.886475,0.000000,Hold,-237.000000,2.000000,Hold,-442.500000,0.000000,Speed,-465.000000,0.000000,Speed,Off,Off0.000000,0,,,,
02:11:27.196 PM 03/19/2016,Teleop Enabled,11,FALSE,0,NO ERROR,-0.000000,-0.243833,0.000000,-0.211750,TRUE,FALSE,TRUE,FALSE,FALSE,FALSE,Disabled,0.000000,0.000000,0.000000,TRUE,-0.251694,1.783188,0.000000,0.000000,0.000000,0.000000,0.010000,0.007000,0.021000,0.040000,-0.030000,2.590000,-0.084966,Hold,0.886475,0.000000,Hold,-237.000000,2.000000,Hold,-247.500000,0.000000,Speed,-285.000000,0.000000,Speed,Off,Off0.000000,0,,,,
02:11:27.296 PM 03/19/2016,Teleop Enabled,11,FALSE,0,NO ERROR,-0.000000,-0.243833,0.000000,-0.211750,TRUE,FALSE,TRUE,FALSE,FALSE,FALSE,Disabled,0.000000,0.000000,0.000000,TRUE,-0.251694,1.783142,0.000000,0.000000,-0.003738,0.000000,0.000000,0.010000,0.034000,0.040000,-0.020000,2.580000,-0.084966,Hold,0.886475,0.000000,Hold,-237.000000,2.000000,Hold,-120.000000,0.000000,Speed,-60.000000,0.000000,Speed,Off,Off0.000000,0,,,,
02:11:27.397 PM 03/19/2016,Teleop Enabled,9,FALSE,0,NO ERROR,-0.000000,-0.243833,0.000000,-0.211750,TRUE,FALSE,TRUE,FALSE,FALSE,FALSE,Disabled,0.000000,0.000000,0.000000,TRUE,-0.251694,1.783096,0.000000,0.000000,0.000000,0.000000,-0.005000,-0.003000,0.009000,0.040000,-0.020000,2.580000,-0.095948,Hold,0.886475,0.000000,Hold,-237.000000,2.000000,Hold,-15.000000,0.000000,Speed,0.000000,0.000000,Speed,Off,Off0.000000,0,,,,
02:11:27.496 PM 03/19/2016,Teleop Enabled,9,FALSE,0,NO ERROR,-0.000000,-0.243833,0.000000,-0.211750,TRUE,FALSE,TRUE,FALSE,FALSE,FALSE,Disabled,0.000000,0.000000,0.000000,TRUE,-0.251694,1.783096,0.000000,0.000000,0.000000,0.000000,0.000000,-0.004000,0.016000,0.040000,-0.020000,2.580000,-0.115536,Hold,0.886475,0.000000,Hold,-237.000000,2.000000,Hold,0.000000,0.000000,Speed,0.000000,0.000000,Speed,Off,Off0.000000,0,,,,
02:11:27.597 PM 03/19/2016,Teleop Enabled,8,FALSE,0,NO ERROR,-0.000000,-0.243833,0.000000,-0.211750,TRUE,FALSE,TRUE,FALSE,FALSE,FALSE,Disabled,0.000000,0.000000,0.000000,TRUE,-0.251694,1.783096,0.000000,0.000000,0.000000,0.000000,0.000000,-0.001000,0.019000,0.030000,-0.020000,2.570000,-0.131974,Hold,0.886475,0.000000,Hold,-237.000000,2.000000,Hold,0.000000,0.000000,Speed,0.000000,0.000000,Speed,Off,Off0.000000,0,,,,
02:11:27.697 PM 03/19/2016,Teleop Enabled,10,FALSE,0,NO ERROR,-0.000000,-0.243833,0.000000,-0.211750,TRUE,FALSE,TRUE,FALSE,FALSE,FALSE,Disabled,0.000000,0.000000,0.000000,TRUE,-0.251694,1.783096,0.000000,0.000000,0.000000,0.000000,0.003000,-0.005000,0.019000,0.040000,-0.020000,2.570000,-0.143527,Hold,0.886475,0.000000,Hold,-237.000000,2.000000,Hold,0.000000,0.000000,Speed,0.000000,0.000000,Speed,Off,Off0.000000,0,,,,
02:11:27.797 PM 03/19/2016,Teleop Enabled,9,FALSE,0,NO ERROR,-0.000000,-0.243833,0.000000,-0.211750,TRUE,FALSE,TRUE,FALSE,FALSE,FALSE,Disabled,0.000000,0.000000,0.000000,TRUE,-0.251694,1.783096,0.000000,0.000000,0.000000,0.000000,-0.001000,-0.005000,0.016000,0.030000,-0.010000,2.560000,-0.146650,Hold,0.886475,0.000000,Hold,-237.000000,2.000000,Hold,0.000000,0.000000,Speed,0.000000,0.000000,Speed,Off,Off0.000000,0,,,,
02:11:27.897 PM 03/19/2016,Teleop Enabled,9,FALSE,0,NO ERROR,-0.000000,-0.243833,0.000000,-0.211750,TRUE,FALSE,TRUE,FALSE,FALSE,FALSE,Disabled,0.000000,0.000000,0.000000,TRUE,-0.251694,1.783096,0.000000,0.000000,0.000000,0.000000,0.000000,-0.002000,0.013000,0.030000,-0.010000,2.560000,-0.174362,Hold,0.886475,0.000000,Hold,-237.000000,2.000000,Hold,0.000000,0.000000,Speed,0.000000,0.000000,Speed,Off,Off0.000000,0,,,,
02:11:27.998 PM 03/19/2016,Teleop Enabled,10,FALSE,0,NO ERROR,-0.000000,-0.243833,0.000000,-0.211750,TRUE,FALSE,TRUE,FALSE,FALSE,FALSE,Disabled,0.000000,0.000000,0.000000,TRUE,-0.251694,1.783096,0.000000,0.000000,0.000000,0.000000,0.000000,-0.001000,0.022000,0.030000,-0.010000,2.550000,-0.180986,Hold,0.886475,0.000000,Hold,-237.000000,2.000000,LowGoal,0.000000,-1454.545455,Speed,0.000000,-1454.545455,Speed,Off,Off0.000000,0,,,,
02:11:28.099 PM 03/19/2016,Teleop Enabled,9,FALSE,0,NO ERROR,-0.000000,-0.243833,0.000000,-0.211750,TRUE,FALSE,TRUE,FALSE,FALSE,FALSE,Disabled,0.000000,0.000000,0.000000,TRUE,-0.251694,1.783096,0.000000,0.000000,0.000000,0.000000,-0.030000,-0.004000,0.022000,0.030000,-0.010000,2.550000,-0.181746,Hold,0.886475,0.000000,Hold,-260.000000,2.000000,LowGoal,45.000000,-1454.545455,Speed,37.500000,-1454.545455,Speed,Off,Off0.000000,0,,,,
02:11:28.199 PM 03/19/2016,Teleop Enabled,11,FALSE,0,NO ERROR,-0.000000,-0.243833,0.000000,-0.211750,TRUE,FALSE,TRUE,FALSE,FALSE,FALSE,Disabled,0.000000,0.000000,0.000000,TRUE,-0.251984,1.783691,0.000000,-0.002655,0.017517,0.000000,0.056000,-0.010000,0.006000,0.030000,-0.040000,2.590000,-0.181478,Hold,0.886475,0.000000,Hold,-260.000000,2.000000,LowGoal,652.500000,-1454.545455,Speed,652.500000,-1454.545455,Speed,Off,Off0.000000,0,,,,
02:11:28.300 PM 03/19/2016,Teleop Enabled,9,FALSE,0,NO ERROR,-0.000000,-0.243833,0.000000,-0.211750,TRUE,FALSE,TRUE,FALSE,FALSE,FALSE,Disabled,0.000000,0.000000,0.000000,TRUE,-0.251511,1.784561,0.000000,0.013489,0.023239,0.000000,-0.061000,0.005000,0.059000,0.030000,-0.010000,2.580000,-0.176541,Hold,0.886475,0.000000,Hold,-260.000000,2.000000,LowGoal,1305.000000,-1454.545455,Speed,1327.500000,-1454.545455,Speed,Off,Off0.000000,0,,,,
02:11:28.402 PM 03/19/2016,Teleop Enabled,9,FALSE,0,NO ERROR,-0.000000,-0.243833,0.000000,-0.211750,TRUE,FALSE,TRUE,FALSE,FALSE,FALSE,Disabled,0.000000,0.000000,0.000000,TRUE,-0.250946,1.785507,0.000000,0.017242,0.020798,0.000000,0.026000,-0.028000,-0.006000,0.030000,0.020000,2.600000,-0.178166,Hold,0.886475,0.000000,Hold,-260.000000,2.000000,LowGoal,1545.000000,-1454.545455,Speed,1552.500000,-1454.545455,Speed,Off,Off0.000000,0,,,,
02:11:28.502 PM 03/19/2016,Teleop Enabled,9,FALSE,0,NO ERROR,-0.000000,-0.243833,0.000000,-0.211750,TRUE,FALSE,TRUE,FALSE,FALSE,FALSE,Disabled,0.000000,0.000000,0.000000,TRUE,-0.249420,1.786057,0.000000,0.022629,-0.003204,0.000000,-0.079000,-0.051000,-0.026000,0.030000,0.020000,2.520000,-0.192604,Hold,0.886475,0.000000,Hold,-260.000000,2.000000,LowGoal,1417.500000,-1454.545455,Speed,1372.500000,-1454.545455,Speed,Off,Off0.000000,0,,,,
02:11:28.603 PM 03/19/2016,Teleop Enabled,9,FALSE,0,NO ERROR,-0.000000,-0.243833,0.000000,-0.211750,TRUE,FALSE,TRUE,FALSE,FALSE,FALSE,Disabled,0.000000,0.000000,0.000000,TRUE,-0.248962,1.784592,0.000000,0.007233,-0.031479,0.000000,-0.050000,-0.005000,-0.018000,0.030000,0.030000,2.490000,-0.213969,Hold,0.886475,0.000000,Hold,-260.000000,2.000000,LowGoal,1290.000000,-1454.545455,Speed,1297.500000,-1454.545455,Speed,Off,Off0.000000,0,,,,
02:11:28.704 PM 03/19/2016,Teleop Enabled,11,FALSE,0,NO ERROR,-0.000000,-0.243833,0.000000,-0.211750,TRUE,FALSE,TRUE,FALSE,FALSE,FALSE,Disabled,0.000000,0.000000,0.000000,TRUE,-0.248917,1.782776,0.000000,-0.003204,-0.022522,0.000000,0.037000,0.001000,0.042000,0.030000,0.010000,2.460000,-0.226906,Hold,0.886475,0.000000,Hold,-260.000000,2.000000,LowGoal,1357.500000,-1454.545455,Speed,1350.000000,-1454.545455,Speed,Off,Off0.000000,0,,,,
02:11:28.804 PM 03/19/2016,Teleop Enabled,10,FALSE,0,NO ERROR,-0.000000,-0.243833,0.000000,-0.211750,TRUE,FALSE,TRUE,FALSE,FALSE,FALSE,Disabled,0.000000,0.000000,0.000000,TRUE,-0.248886,1.781891,0.000000,-0.000214,-0.013260,0.000000,-0.007000,0.002000,-0.003000,0.030000,0.000000,2.540000,-0.232042,Hold,0.886475,0.000000,Hold,-260.000000,2.000000,LowGoal,1395.000000,-1454.545455,Speed,1387.500000,-1454.545455,Speed,Off,Off0.000000,0,,,,
02:11:28.904 PM 03/19/2016,Teleop Enabled,10,FALSE,0,NO ERROR,-0.000000,-0.243833,0.000000,-0.211750,TRUE,FALSE,TRUE,FALSE,FALSE,FALSE,Disabled,0.000000,0.000000,0.000000,TRUE,-0.249023,1.781006,0.000000,-0.008591,-0.007858,0.000000,-0.013000,-0.033000,0.021000,0.030000,-0.030000,2.500000,-0.242084,Hold,0.886475,0.000000,Hold,-260.000000,2.000000,LowGoal,1372.500000,-1454.545455,Speed,1365.000000,-1454.545455,Speed,Off,Off0.000000,0,,,,
02:11:29.005 PM 03/19/2016,Teleop Enabled,8,FALSE,0,NO ERROR,-0.000000,-0.243833,0.000000,-0.211750,TRUE,FALSE,TRUE,FALSE,FALSE,FALSE,Disabled,0.000000,0.000000,0.000000,TRUE,-0.249359,1.780380,0.000000,-0.005890,-0.012497,0.000000,-0.015000,-0.039000,-0.012000,0.030000,-0.030000,2.530000,-0.246642,Hold,0.886475,0.000000,Hold,-260.000000,2.000000,LowGoal,1357.500000,-1454.545455,Speed,1350.000000,-1454.545455,Speed,Off,Off0.000000,0,,,,
02:11:29.106 PM 03/19/2016,Teleop Enabled,10,FALSE,0,NO ERROR,-0.000000,-0.243833,0.000000,-0.211750,TRUE,FALSE,TRUE,FALSE,FALSE,FALSE,Disabled,0.000000,0.000000,0.000000,TRUE,-0.249527,1.779495,0.000000,-0.014984,0.000000,0.000000,0.068000,0.029000,0.005000,0.030000,-0.060000,2.540000,-0.253090,Hold,0.886475,0.000000,Hold,-260.000000,2.000000,LowGoal,1357.500000,-1454.545455,Speed,1357.500000,-1454.545455,Speed,Off,Off0.000000,0,,,,
02:11:29.206 PM 03/19/2016,Teleop Enabled,9,FALSE,0,NO ERROR,-0.000000,-0.243833,0.000000,-0.211750,TRUE,FALSE,TRUE,FALSE,FALSE,FALSE,Disabled,0.000000,0.000000,0.000000,TRUE,-0.249893,1.779861,0.000000,-0.006042,0.012283,0.000000,0.054000,0.105000,0.023000,0.030000,-0.070000,2.540000,-0.259225,Hold,0.886475,0.000000,Hold,-260.000000,2.000000,LowGoal,1365.000000,-1454.545455,Speed,1357.500000,-1454.545455,Speed,Off,Off0.000000,0,,,,
02:11:29.307 PM 03/19/2016,Teleop Enabled,10,FALSE,0,NO ERROR,-0.000000,-0.243833,0.000000,-0.211750,TRUE,FALSE,TRUE,FALSE,FALSE,FALSE,Disabled,0.000000,0.000000,0.000000,TRUE,-0.250488,1.780365,0.000000,-0.009506,0.011124,0.000000,0.038000,0.015000,0.042000,0.030000,-0.050000,2.530000,-0.263542,Hold,0.886475,0.000000,Hold,-260.000000,2.000000,LowGoal,1365.000000,-1454.545455,Speed,1365.000000,-1454.545455,Speed,Off,Off0.000000,0,,,,
02:11:29.408 PM 03/19/2016,Teleop Enabled,9,FALSE,0,NO ERROR,-0.000000,-0.243833,0.000000,-0.211750,TRUE,FALSE,TRUE,FALSE,FALSE,FALSE,Disabled,0.000000,0.000000,0.000000,TRUE,-0.250946,1.781372,0.000000,-0.006454,0.026917,0.000000,-0.091000,-0.023000,-0.028000,0.030000,-0.050000,2.550000,-0.256767,Hold,0.886475,0.000000,Hold,-260.000000,2.000000,LowGoal,1365.000000,-1454.545455,Speed,1365.000000,-1454.545455,Speed,Off,Off0.000000,0,,,,
02:11:29.509 PM 03/19/2016,Teleop Enabled,9,FALSE,0,NO ERROR,-0.000000,-0.243833,0.000000,-0.211750,TRUE,FALSE,TRUE,FALSE,FALSE,FALSE,Disabled,0.000000,0.000000,0.000000,TRUE,-0.251724,1.783325,0.000000,-0.017487,0.036957,0.000000,0.080000,0.037000,0.129000,0.030000,-0.080000,2.570000,-0.281009,Hold,0.886475,0.000000,Hold,-260.000000,2.000000,LowGoal,1365.000000,-1454.545455,Speed,1357.500000,-1454.545455,Speed,Off,Off0.000000,0,,,,
02:11:29.610 PM 03/19/2016,Teleop Enabled,10,FALSE,0,NO ERROR,-0.000000,-0.243833,0.000000,-0.211750,TRUE,FALSE,TRUE,FALSE,FALSE,FALSE,Disabled,0.000000,0.000000,0.000000,TRUE,-0.251892,1.784744,0.000000,0.009949,0.007462,0.000000,-0.001000,0.064000,0.000000,0.030000,-0.050000,2.540000,-0.298986,Hold,0.886475,0.000000,Hold,-260.000000,2.000000,LowGoal,1365.000000,-1454.545455,Speed,1350.000000,-1454.545455,Speed,Off,Off0.000000,0,,,,
02:11:29.712 PM 03/19/2016,Teleop Enabled,10,FALSE,0,NO ERROR,-0.000000,-0.243833,0.000000,-0.211750,TRUE,FALSE,TRUE,FALSE,FALSE,FALSE,Disabled,0.000000,0.000000,0.000000,TRUE,-0.252075,1.785309,0.000000,-0.004333,0.016586,0.000000,-0.024000,0.038000,0.058000,0.030000,0.020000,2.510000,-0.321511,Hold,0.886475,0.000000,Hold,-260.000000,2.000000,LowGoal,1365.000000,-1454.545455,Speed,1350.000000,-1454.545455,Speed,Off,Off0.000000,0,,,,
02:11:29.813 PM 03/19/2016,Teleop Enabled,11,FALSE,0,NO ERROR,-0.000000,-0.243833,0.000000,-0.211750,TRUE,FALSE,TRUE,FALSE,FALSE,FALSE,Disabled,0.000000,0.000000,0.000000,TRUE,-0.251846,1.785873,0.000000,0.018005,0.000000,0.000000,-0.048000,0.001000,0.040000,0.030000,0.000000,2.540000,-0.318261,Hold,0.886475,0.000000,Hold,-260.000000,2.000000,LowGoal,1365.000000,-1454.545455,Speed,1357.500000,-1454.545455,Speed,Off,Off0.000000,0,,,,
02:11:29.913 PM 03/19/2016,Teleop Enabled,10,FALSE,0,NO ERROR,-0.000000,-0.243833,0.000000,-0.211750,TRUE,FALSE,TRUE,FALSE,FALSE,FALSE,Disabled,0.000000,0.000000,0.000000,TRUE,-0.251373,1.785950,0.000000,0.002594,0.019226,0.000000,0.045000,-0.006000,-0.035000,0.030000,-0.060000,2.620000,-0.313008,Hold,0.886475,0.000000,Hold,-260.000000,2.000000,LowGoal,1365.000000,-1454.545455,Speed,1357.500000,-1454.545455,Speed,Off,Off0.000000,0,,,,
02:11:30.015 PM 03/19/2016,Teleop Enabled,11,FALSE,0,NO ERROR,-0.000000,-0.243833,0.000000,-0.211750,TRUE,FALSE,TRUE,FALSE,FALSE,FALSE,Disabled,0.000000,0.000000,0.000000,TRUE,-0.251251,1.785873,0.000000,0.001785,-0.017944,0.000000,-0.078000,0.024000,0.046000,0.030000,-0.050000,2.560000,-0.320523,Hold,0.886475,0.000000,Hold,-260.000000,2.000000,LowGoal,1365.000000,-1454.545455,Speed,1365.000000,-1454.545455,Speed,Off,Off0.000000,0,,,,
02:11:30.117 PM 03/19/2016,Teleop Enabled,10,FALSE,0,NO ERROR,-0.000000,-0.243833,0.000000,-0.211750,TRUE,FALSE,TRUE,FALSE,FALSE,FALSE,Disabled,0.000000,0.000000,0.000000,TRUE,-0.251160,1.785248,0.000000,0.002121,-0.001541,0.000000,-0.010000,0.097000,0.030000,0.030000,-0.040000,2.510000,-0.330148,Hold,0.886475,0.000000,Hold,-260.000000,2.000000,LowGoal,1365.000000,-1454.545455,Speed,1357.500000,-1454.545455,Speed,Off,Off0.000000,0,,,,
02:11:30.216 PM 03/19/2016,Teleop Enabled,10,FALSE,0,NO ERROR,-0.000000,-0.243833,0.000000,-0.211750,TRUE,FALSE,TRUE,FALSE,FALSE,FALSE,Disabled,0.000000,0.000000,0.000000,TRUE,-0.251297,1.785706,0.000000,-0.011597,0.000000,0.000000,0.072000,0.003000,0.034000,0.030000,-0.040000,2.530000,-0.342896,Hold,0.886475,0.000000,Hold,-244.000000,2.000000,LowGoal,1365.000000,-1454.545455,Speed,1357.500000,-1454.545455,Speed,Off,Off0.000000,0,,,,
02:11:30.317 PM 03/19/2016,Teleop Enabled,11,FALSE,0,NO ERROR,-0.000000,-0.243833,0.000000,-0.211750,TRUE,FALSE,TRUE,FALSE,FALSE,FALSE,Disabled,0.000000,0.000000,0.000000,TRUE,-0.251541,1.785248,0.000000,0.001312,0.002335,0.000000,-0.081000,-0.010000,-0.130000,0.020000,0.020000,2.520000,-0.340765,Hold,0.886475,0.000000,Hold,-244.000000,2.000000,LowGoal,1365.000000,-1454.545455,Speed,1365.000000,-1454.545455,Speed,Off,Off0.000000,0,,,,
02:11:30.416 PM 03/19/2016,Teleop Enabled,10,FALSE,0,NO ERROR,-0.000000,-0.243833,0.000000,-0.211750,TRUE,FALSE,TRUE,FALSE,FALSE,FALSE,Disabled,0.000000,0.000000,0.000000,TRUE,-0.252121,1.785004,0.000000,-0.008759,-0.014038,0.000000,-0.003000,-0.067000,-0.076000,0.020000,0.000000,2.540000,-0.352253,Hold,0.886475,0.000000,Hold,-244.000000,2.000000,LowGoal,1365.000000,-1454.545455,Speed,1357.500000,-1454.545455,Speed,Off,Off0.000000,0,,,,
02:11:30.516 PM 03/19/2016,Teleop Enabled,10,FALSE,0,NO ERROR,-0.000000,-0.243833,0.000000,-0.211750,TRUE,FALSE,TRUE,FALSE,FALSE,FALSE,Disabled,0.000000,0.000000,0.000000,TRUE,-0.252686,1.783966,0.000000,-0.018631,-0.003769,0.000000,0.007000,-0.009000,0.093000,0.020000,-0.050000,2.550000,-0.356770,Hold,0.886475,0.000000,Hold,-244.000000,2.000000,LowGoal,1372.500000,-1454.545455,Speed,1357.500000,-1454.545455,Speed,Off,Off0.000000,0,,,,
02:11:30.616 PM 03/19/2016,Teleop Enabled,10,FALSE,0,NO ERROR,-0.000000,-0.243833,0.000000,-0.211750,TRUE,FALSE,TRUE,FALSE,FALSE,FALSE,Disabled,0.000000,0.000000,0.000000,TRUE,-0.253632,1.783539,0.000000,-0.017654,-0.018463,0.000000,0.050000,-0.067000,-0.006000,0.020000,-0.060000,2.550000,-0.351681,Hold,0.886475,0.000000,Hold,-244.000000,2.000000,LowGoal,1365.000000,-1454.545455,Speed,1357.500000,-1454.545455,Speed,Off,Off0.000000,0,,,,
02:11:30.717 PM 03/19/2016,Teleop Enabled,9,FALSE,0,NO ERROR,-0.000000,-0.243833,0.000000,-0.211750,TRUE,FALSE,TRUE,FALSE,FALSE,FALSE,Disabled,0.000000,0.000000,0.000000,TRUE,-0.254272,1.781998,0.000000,-0.011734,-0.008270,0.000000,0.038000,0.063000,0.014000,0.020000,-0.060000,2.520000,-0.364684,Hold,0.886475,0.000000,Hold,-244.000000,2.000000,LowGoal,1365.000000,-1454.545455,Speed,1357.500000,-1454.545455,Speed,Off,Off0.000000,0,,,,
02:11:30.817 PM 03/19/2016,Teleop Enabled,10,FALSE,0,NO ERROR,-0.000000,-0.243833,0.000000,-0.211750,TRUE,FALSE,TRUE,FALSE,FALSE,FALSE,Disabled,0.000000,0.000000,0.000000,TRUE,-0.254593,1.781509,0.000000,-0.005005,-0.027618,0.000000,0.041000,-0.030000,0.041000,0.020000,-0.040000,2.510000,-0.374165,Hold,0.886475,0.000000,Hold,-244.000000,2.000000,LowGoal,1365.000000,-1454.545455,Speed,1350.000000,-1454.545455,Speed,Off,Off0.000000,0,,,,
02:11:30.916 PM 03/19/2016,Teleop Enabled,11,FALSE,0,NO ERROR,-0.000000,-0.243833,0.000000,-0.211750,TRUE,FALSE,TRUE,FALSE,FALSE,FALSE,Disabled,0.000000,0.000000,0.000000,TRUE,-0.254822,1.780899,0.000000,-0.002563,0.013275,0.000000,0.015000,0.024000,0.043000,0.020000,-0.010000,2.560000,-0.379724,Hold,0.886475,0.000000,Hold,-244.000000,2.000000,LowGoal,1372.500000,-1454.545455,Speed,1357.500000,-1454.545455,Speed,Off,Off0.000000,0,,,,
02:11:31.016 PM 03/19/2016,Teleop Enabled,9,FALSE,0,NO ERROR,-0.000000,-0.243833,0.000000,-0.211750,TRUE,FALSE,TRUE,FALSE,FALSE,FALSE,Disabled,0.000000,0.000000,0.000000,TRUE,-0.254608,1.781342,0.000000,0.012756,0.001358,0.000000,-0.050000,-0.086000,0.007000,0.020000,-0.010000,2.520000,-0.399313,Hold,0.886475,0.000000,Hold,-244.000000,2.000000,LowGoal,1365.000000,-1454.545455,Speed,1357.500000,-1454.545455,Speed,Off,Off0.000000,0,,,,
02:11:31.117 PM 03/19/2016,Teleop Enabled,11,FALSE,0,NO ERROR,-0.000000,-0.243833,0.000000,-0.211750,TRUE,FALSE,TRUE,FALSE,FALSE,FALSE,Disabled,0.000000,0.000000,0.000000,TRUE,-0.254654,1.781052,0.000000,-0.011765,-0.007675,0.000000,0.038000,0.002000,0.056000,0.020000,-0.030000,2.470000,-0.408590,Hold,0.886475,0.000000,Hold,-244.000000,2.000000,LowGoal,1365.000000,-1454.545455,Speed,1365.000000,-1454.545455,Speed,Off,Off0.000000,0,,,,
02:11:31.216 PM 03/19/2016,Teleop Enabled,11,FALSE,0,NO ERROR,-0.000000,-0.243833,0.000000,-0.211750,TRUE,FALSE,TRUE,FALSE,FALSE,FALSE,Disabled,0.000000,0.000000,0.000000,TRUE,-0.255295,1.779724,0.000000,-0.009033,-0.033020,0.000000,0.070000,0.123000,0.005000,0.020000,-0.040000,2.480000,-0.415524,Hold,0.886475,0.000000,Hold,-244.000000,2.000000,LowGoal,1365.000000,-1454.545455,Speed,1365.000000,-1454.545455,Speed,Off,Off0.000000,0,,,,
02:11:31.317 PM 03/19/2016,Teleop Enabled,11,FALSE,0,NO ERROR,-0.000000,-0.243833,0.000000,-0.211750,TRUE,FALSE,TRUE,FALSE,FALSE,FALSE,Disabled,0.000000,0.000000,0.000000,TRUE,-0.255753,1.778763,0.000000,0.000000,-0.000290,0.000000,-0.002000,-0.030000,0.035000,0.020000,0.000000,2.540000,-0.427576,Hold,0.886475,0.000000,Hold,-244.000000,2.000000,LowGoal,1365.000000,-1454.545455,Speed,1365.000000,-1454.545455,Speed,Off,Off0.000000,0,,,,
02:11:31.417 PM 03/19/2016,Teleop Enabled,11,FALSE,0,NO ERROR,-0.000000,-0.243833,0.000000,-0.211750,TRUE,FALSE,TRUE,FALSE,FALSE,FALSE,Disabled,0.000000,0.000000,0.000000,TRUE,-0.255829,1.778168,0.000000,-0.003082,0.000000,0.000000,-0.058000,-0.004000,0.074000,0.020000,-0.030000,2.580000,-0.426344,Hold,0.886475,0.000000,Hold,-244.000000,2.000000,LowGoal,1365.000000,-1454.545455,Speed,1357.500000,-1454.545455,Speed,Off,Off0.000000,0,,,,
02:11:31.517 PM 03/19/2016,Teleop Enabled,9,FALSE,0,NO ERROR,-0.000000,-0.243833,0.000000,-0.211750,TRUE,FALSE,TRUE,FALSE,FALSE,FALSE,Disabled,0.000000,0.000000,0.000000,TRUE,-0.255844,1.778793,0.000000,-0.003464,0.019272,0.000000,-0.012000,-0.011000,0.005000,0.030000,-0.070000,2.540000,-0.436392,Hold,0.886475,3.000000,LowGoal,-244.000000,122880.000000,LowGoal,1365.000000,-1454.545455,Speed,1357.500000,-1454.545455,Speed,Off,Off0.000000,0,,,,
02:11:31.617 PM 03/19/2016,Teleop Enabled,11,FALSE,0,NO ERROR,-0.000000,-0.243833,0.000000,-0.211750,TRUE,FALSE,TRUE,FALSE,FALSE,FALSE,Disabled,0.000000,0.000000,0.000000,TRUE,-0.255188,1.779068,0.000000,0.028503,0.000000,0.000000,-0.017000,-0.014000,0.013000,0.040000,0.010000,2.520000,-0.428117,Hold,0.886475,3.000000,Hold,-6484.000000,122880.000000,LowGoal,1372.500000,-1454.545455,Speed,1357.500000,-1454.545455,Speed,Off,Off0.000000,0,,,,
02:11:31.717 PM 03/19/2016,Teleop Enabled,9,FALSE,0,NO ERROR,-0.000000,-0.243833,0.000000,-0.211750,TRUE,FALSE,TRUE,FALSE,FALSE,FALSE,Disabled,0.000000,0.000000,0.000000,TRUE,-0.254944,1.778946,0.000000,0.000000,-0.013763,0.000000,-0.033000,0.001000,0.026000,0.020000,0.000000,2.490000,-0.456407,Hold,0.886475,3.000000,LowGoal,-21323.000000,122880.000000,LowGoal,1365.000000,-1454.545455,Speed,1365.000000,-1454.545455,Speed,Off,Off0.000000,0,,,,
02:11:31.818 PM 03/19/2016,Teleop Enabled,10,FALSE,0,NO ERROR,-0.000000,-0.230999,0.000000,-0.205333,TRUE,FALSE,TRUE,FALSE,FALSE,FALSE,Disabled,0.000000,0.000000,0.000000,TRUE,-0.256287,1.778854,0.000000,-0.019943,-0.004837,0.000000,-0.033000,0.001000,0.026000,0.020000,0.000000,2.490000,-0.423662,Hold,0.886475,3.000000,Hold,-33929.000000,122880.000000,LowGoal,1372.500000,-1454.545455,Speed,1372.500000,-1454.545455,Speed,Off,Off0.000000,0,,,,
02:11:31.918 PM 03/19/2016,Teleop Enabled,10,FALSE,0,NO ERROR,-0.000000,-0.230999,0.000000,-0.192500,TRUE,FALSE,TRUE,FALSE,FALSE,FALSE,Disabled,0.000000,0.000000,0.000000,TRUE,-0.256104,1.778763,0.000000,-0.002838,0.002731,0.000000,-0.062000,0.005000,0.020000,0.030000,0.040000,2.550000,-0.480616,Hold,0.886475,3.000000,LowGoal,-33929.000000,122880.000000,LowGoal,1372.500000,-1454.545455,Speed,1365.000000,-1454.545455,Speed,Off,Off0.000000,0,,,,
02:11:32.017 PM 03/19/2016,Teleop Enabled,9,FALSE,0,NO ERROR,-0.000000,-0.230999,0.000000,-0.192500,TRUE,FALSE,TRUE,FALSE,FALSE,FALSE,Disabled,0.000000,0.000000,0.000000,TRUE,-0.256165,1.778320,0.000000,-0.001740,-0.026398,0.000000,-0.062000,0.005000,0.020000,0.030000,0.040000,2.550000,-0.515258,Hold,0.886475,3.000000,Hold,-47032.000000,122880.000000,LowGoal,1365.000000,-1454.545455,Speed,1365.000000,-1454.545455,Speed,Off,Off0.000000,0,,,,
02:11:32.118 PM 03/19/2016,Teleop Enabled,11,FALSE,0,NO ERROR,-0.000000,-0.230999,0.000000,-0.192500,TRUE,FALSE,TRUE,FALSE,FALSE,FALSE,Disabled,0.000000,0.000000,0.000000,TRUE,-0.256165,1.776520,0.000000,0.014175,-0.036346,0.000000,0.156000,-0.007000,0.083000,0.070000,-0.060000,2.570000,-0.450824,Hold,0.886475,3.000000,LowGoal,-60869.000000,122880.000000,LowGoal,1365.000000,-1454.545455,Speed,1372.500000,-1454.545455,Speed,Off,Off0.000000,0,,,,
02:11:32.218 PM 03/19/2016,Teleop Enabled,10,FALSE,0,NO ERROR,-0.000000,-0.320833,0.000000,-0.250249,TRUE,FALSE,TRUE,FALSE,FALSE,FALSE,Disabled,0.000000,0.000000,0.000000,TRUE,-0.254593,1.773727,0.000000,0.031113,-0.066360,0.000000,-0.007000,0.018000,-0.125000,-0.120000,-0.100000,2.430000,-0.694619,Hold,0.886475,3.000000,Hold,-76655.000000,122880.000000,LowGoal,1372.500000,-1454.545455,Speed,1372.500000,-1454.545455,Speed,Off,Off0.000000,0,,,,
02:11:32.318 PM 03/19/2016,Teleop Enabled,9,FALSE,0,NO ERROR,-0.000000,-0.307999,0.000000,-0.250249,TRUE,FALSE,TRUE,FALSE,FALSE,FALSE,Disabled,0.000000,0.000000,0.000000,TRUE,-0.254684,1.772202,0.000000,-0.004395,-0.008774,0.000000,0.006000,-0.051000,0.072000,-0.030000,-0.250000,2.590000,-0.563003,Hold,0.886475,3.000000,Hold,-94376.000000,122880.000000,LowGoal,1365.000000,-1454.545455,Speed,1372.500000,-1454.545455,Speed,Off,Off0.000000,0,,,,
02:11:32.420 PM 03/19/2016,Teleop Enabled,9,FALSE,0,NO ERROR,-0.000000,-0.295166,0.000000,-0.250249,TRUE,FALSE,TRUE,FALSE,FALSE,FALSE,Disabled,0.000000,0.000000,0.000000,TRUE,-0.255096,1.770355,0.000000,-0.007767,-0.055237,0.000000,0.006000,-0.051000,0.072000,-0.030000,-0.250000,2.590000,-0.533941,Hold,0.886475,3.000000,Hold,-112284.000000,122880.000000,LowGoal,1365.000000,-1454.545455,Speed,1372.500000,-1454.545455,Speed,Off,Off0.000000,0,,,,
02:11:32.520 PM 03/19/2016,Teleop Enabled,9,FALSE,0,NO ERROR,-0.000000,-0.282333,0.000000,-0.250249,TRUE,FALSE,TRUE,FALSE,FALSE,FALSE,Disabled,0.000000,0.000000,0.000000,TRUE,-0.255005,1.767929,0.000000,0.008591,-0.047775,0.000000,0.042000,0.012000,0.127000,0.040000,-0.190000,2.490000,-0.480550,Hold,0.886475,3.000000,Hold,-112284.000000,122880.000000,LowGoal,1365.000000,-1454.545455,Speed,1365.000000,-1454.545455,Speed,Off,Off0.000000,0,,,,
02:11:32.621 PM 03/19/2016,Teleop Enabled,10,FALSE,0,NO ERROR,-0.000000,-0.365749,0.000000,-0.327249,TRUE,FALSE,TRUE,FALSE,FALSE,FALSE,Disabled,0.000000,0.000000,0.000000,TRUE,-0.253571,1.766052,0.000000,0.024231,-0.029053,0.000000,0.109000,0.058000,0.112000,0.090000,-0.600000,2.530000,-0.597074,Hold,0.886475,3.000000,Hold,-124290.000000,122880.000000,LowGoal,1372.500000,-1454.545455,Speed,1357.500000,-1454.545455,Speed,Off,Off0.000000,0,,,,
02:11:32.722 PM 03/19/2016,Teleop Enabled,11,FALSE,0,NO ERROR,-0.000000,-0.256666,0.000000,-0.224583,TRUE,FALSE,TRUE,FALSE,FALSE,FALSE,Disabled,0.000000,0.000000,0.000000,TRUE,-0.254715,1.765060,0.000000,-0.025757,-0.002884,0.000000,-0.153000,-0.078000,0.030000,-0.090000,-0.080000,2.440000,-0.531934,Hold,0.886475,3.000000,Hold,-122918.000000,122880.000000,LowGoal,1357.500000,-1454.545455,Speed,1357.500000,-1454.545455,Speed,Off,Off0.000000,0,,,,
02:11:32.823 PM 03/19/2016,Teleop Enabled,11,FALSE,0,NO ERROR,-0.000000,-0.230999,0.000000,-0.224583,TRUE,FALSE,TRUE,FALSE,FALSE,FALSE,Disabled,0.000000,0.000000,0.000000,TRUE,-0.254745,1.763565,0.000000,0.007706,-0.037796,0.000000,0.057000,-0.071000,0.124000,0.020000,-0.590000,2.560000,-0.506930,Hold,0.886475,3.000000,Hold,-122969.000000,122880.000000,LowGoal,1365.000000,-1454.545455,Speed,1372.500000,-1454.545455,Speed,Off,Off0.000000,0,,,,
02:11:32.923 PM 03/19/2016,Teleop Enabled,9,FALSE,0,NO ERROR,-0.000000,-0.230999,0.000000,-0.211750,TRUE,FALSE,TRUE,FALSE,FALSE,FALSE,Disabled,0.000000,0.000000,0.000000,TRUE,-0.254745,1.763565,0.000000,0.007706,-0.037796,0.000000,-0.085000,0.029000,0.094000,0.130000,-0.260000,2.440000,-0.492313,Hold,0.886475,3.000000,Hold,-123008.000000,122880.000000,LowGoal,1365.000000,-1454.545455,Speed,1365.000000,-1454.545455,Speed,Off,Off0.000000,0,,,,
02:11:33.024 PM 03/19/2016,Teleop Enabled,10,FALSE,0,NO ERROR,-0.000000,-0.237416,0.000000,-0.211750,TRUE,FALSE,TRUE,FALSE,FALSE,FALSE,Disabled,0.000000,0.000000,0.000000,TRUE,-0.255066,1.762329,0.000000,-0.013168,-0.000504,0.000000,0.018000,0.006000,0.005000,0.090000,-0.250000,2.560000,-0.590894,Hold,0.886475,3.000000,Hold,-122996.000000,122880.000000,LowGoal,1365.000000,-1454.545455,Speed,1365.000000,-1454.545455,Speed,Off,Off0.000000,0,,,,
02:11:33.126 PM 03/19/2016,Teleop Enabled,11,FALSE,0,NO ERROR,-0.000000,-0.237416,0.000000,-0.211750,TRUE,FALSE,TRUE,FALSE,FALSE,FALSE,Disabled,0.000000,0.000000,0.000000,TRUE,-0.254929,1.762177,0.000000,0.013885,0.002991,0.000000,-0.037000,-0.050000,-0.028000,0.020000,-0.270000,2.490000,-0.552754,Hold,0.886475,3.000000,Hold,-122996.000000,122880.000000,LowGoal,1372.500000,-1454.545455,Speed,1357.500000,-1454.545455,Speed,Off,Off0.000000,0,,,,
02:11:33.226 PM 03/19/2016,Teleop Enabled,11,FALSE,0,NO ERROR,-0.000000,-0.237416,0.000000,-0.211750,TRUE,FALSE,TRUE,FALSE,FALSE,FALSE,Disabled,0.000000,0.000000,0.000000,TRUE,-0.254257,1.762711,0.000000,0.025742,0.010315,0.000000,0.099000,0.034000,0.042000,0.030000,-0.170000,2.510000,-0.567974,Hold,0.886475,3.000000,Hold,-122996.000000,122880.000000,LowGoal,1365.000000,-1454.545455,Speed,1365.000000,-1454.545455,Speed,Off,Off0.000000,0,,,,
02:11:33.327 PM 03/19/2016,Teleop Enabled,10,FALSE,0,NO ERROR,-0.000000,-0.237416,0.000000,-0.211750,TRUE,FALSE,TRUE,FALSE,FALSE,FALSE,Disabled,0.000000,0.000000,0.000000,TRUE,-0.253265,1.762787,0.000000,0.015854,0.001968,0.000000,0.099000,0.034000,0.042000,0.030000,-0.170000,2.510000,-0.580016,Hold,0.886475,3.000000,Hold,-122996.000000,122880.000000,LowGoal,1365.000000,-1454.545455,Speed,1365.000000,-1454.545455,Speed,Off,Off0.000000,0,,,,
02:11:33.427 PM 03/19/2016,Teleop Enabled,9,FALSE,0,NO ERROR,-0.000000,-0.237416,0.000000,-0.211750,TRUE,FALSE,TRUE,FALSE,FALSE,FALSE,Disabled,0.000000,0.000000,0.000000,TRUE,-0.253265,1.762787,0.000000,0.015854,0.001968,0.000000,-0.021000,0.045000,0.012000,0.030000,-0.220000,2.490000,-0.591259,Hold,0.886475,3.000000,Hold,-122996.000000,122880.000000,LowGoal,1365.000000,-1454.545455,Speed,1365.000000,-1454.545455,Speed,Off,Off0.000000,0,,,,
02:11:33.527 PM 03/19/2016,Teleop Enabled,10,FALSE,0,NO ERROR,-0.000000,-0.237416,0.000000,-0.211750,TRUE,FALSE,TRUE,FALSE,FALSE,FALSE,Disabled,0.000000,0.000000,0.000000,TRUE,-0.252869,1.762924,0.000000,0.009628,-0.007614,0.000000,-0.041000,-0.040000,0.065000,0.040000,-0.200000,2.490000,-0.591259,Hold,0.886475,3.000000,Hold,-122996.000000,122880.000000,LowGoal,1365.000000,-1454.545455,Speed,1365.000000,-1454.545455,Speed,Off,Off0.000000,0,,,,
02:11:33.627 PM 03/19/2016,Teleop Enabled,8,FALSE,0,NO ERROR,-0.000000,-0.237416,0.000000,-0.211750,TRUE,FALSE,TRUE,FALSE,FALSE,FALSE,Disabled,0.000000,0.000000,0.000000,TRUE,-0.252747,1.762497,0.000000,0.001419,-0.007034,0.000000,-0.006000,0.046000,0.064000,0.030000,-0.200000,2.480000,-0.597287,Hold,0.886475,3.000000,Hold,-122996.000000,122880.000000,LowGoal,1365.000000,-1454.545455,Speed,1365.000000,-1454.545455,Speed,Off,Off0.000000,0,,,,
02:11:33.728 PM 03/19/2016,Teleop Enabled,10,FALSE,0,NO ERROR,-0.000000,-0.237416,0.000000,-0.211750,TRUE,FALSE,TRUE,FALSE,FALSE,FALSE,Disabled,0.000000,0.000000,0.000000,TRUE,-0.252518,1.762070,0.000000,0.004211,-0.018723,0.000000,0.027000,-0.087000,0.019000,0.030000,-0.170000,2.500000,-0.609811,Hold,0.886475,3.000000,Hold,-122996.000000,122880.000000,LowGoal,1372.500000,-1454.545455,Speed,1365.000000,-1454.545455,Speed,Off,Off0.000000,0,,,,
02:11:33.828 PM 03/19/2016,Teleop Enabled,10,FALSE,0,NO ERROR,-0.000000,-0.237416,0.000000,-0.211750,TRUE,FALSE,TRUE,FALSE,FALSE,FALSE,Disabled,0.000000,0.000000,0.000000,TRUE,-0.252304,1.760941,0.000000,0.008133,-0.001709,0.000000,-0.040000,-0.104000,-0.077000,0.020000,-0.130000,2.480000,-0.598678,Hold,0.886475,3.000000,Hold,-122996.000000,122880.000000,LowGoal,1365.000000,-1454.545455,Speed,1357.500000,-1454.545455,Speed,Off,Off0.000000,0,,,,
02:11:33.929 PM 03/19/2016,Teleop Enabled,10,FALSE,0,NO ERROR,-0.000000,-0.237416,0.000000,-0.211750,TRUE,FALSE,TRUE,FALSE,FALSE,FALSE,Disabled,0.000000,0.000000,0.000000,TRUE,-0.251343,1.759521,0.000000,0.014832,-0.034546,0.000000,-0.028000,0.024000,0.082000,0.020000,-0.130000,2.430000,-0.612256,Hold,0.886475,3.000000,Hold,-122996.000000,122880.000000,LowGoal,1365.000000,-1454.545455,Speed,1365.000000,-1454.545455,Speed,Off,Off0.000000,0,,,,
02:11:34.030 PM 03/19/2016,Teleop Enabled,13,FALSE,0,NO ERROR,-0.000000,-0.237416,0.000000,-0.211750,TRUE,FALSE,TRUE,FALSE,FALSE,FALSE,Disabled,0.000000,0.000000,0.000000,TRUE,-0.251419,1.758026,0.000000,-0.014862,-0.023483,0.000000,-0.041000,0.087000,0.084000,0.030000,-0.170000,2.440000,-0.602079,Hold,0.886475,3.000000,Hold,-122996.000000,122880.000000,LowGoal,1365.000000,-1454.545455,Speed,1372.500000,-1454.545455,Speed,Off,Off0.000000,0,,,,
02:11:34.130 PM 03/19/2016,Teleop Enabled,10,FALSE,0,NO ERROR,-0.000000,-0.237416,0.000000,-0.211750,TRUE,FALSE,TRUE,FALSE,FALSE,FALSE,Disabled,0.000000,0.000000,0.000000,TRUE,-0.252121,1.756912,0.000000,-0.032349,-0.028610,0.000000,0.022000,0.048000,-0.008000,0.040000,-0.190000,2.450000,-0.629117,Hold,0.886475,3.000000,Hold,-122996.000000,122880.000000,LowGoal,1372.500000,-1454.545455,Speed,1365.000000,-1454.545455,Speed,Off,Off0.000000,0,,,,
02:11:34.230 PM 03/19/2016,Teleop Enabled,10,FALSE,0,NO ERROR,-0.000000,-0.237416,0.000000,-0.211750,TRUE,FALSE,TRUE,FALSE,FALSE,FALSE,Disabled,0.000000,0.000000,0.000000,TRUE,-0.254379,1.755692,0.000000,-0.045654,-0.011490,0.000000,-0.027000,-0.103000,0.012000,0.030000,-0.170000,2.470000,-0.637648,Hold,0.886475,3.000000,Hold,-122996.000000,122880.000000,LowGoal,1365.000000,-1454.545455,Speed,1365.000000,-1454.545455,Speed,Off,Off0.000000,0,,,,
02:11:34.331 PM 03/19/2016,Teleop Enabled,10,FALSE,0,NO ERROR,-0.000000,-0.237416,0.000000,-0.211750,TRUE,FALSE,TRUE,FALSE,FALSE,FALSE,Disabled,0.000000,0.000000,0.000000,TRUE,-0.257004,1.754044,0.000000,-0.048203,-0.035721,0.000000,0.014000,0.064000,0.075000,0.020000,-0.140000,2.480000,-0.639861,Hold,0.886475,3.000000,Hold,-122996.000000,122880.000000,LowGoal,1365.000000,-1454.545455,Speed,1365.000000,-1454.545455,Speed,Off,Off0.000000,0,,,,
02:11:34.432 PM 03/19/2016,Teleop Enabled,11,FALSE,0,NO ERROR,-0.000000,-0.237416,0.000000,-0.211750,TRUE,FALSE,TRUE,FALSE,FALSE,FALSE,Disabled,0.000000,0.000000,0.000000,TRUE,-0.257401,1.752411,0.000000,0.007324,-0.037430,0.000000,0.033000,-0.031000,0.058000,0.020000,-0.140000,2.480000,-0.645676,Hold,0.886475,3.000000,Hold,-122996.000000,122880.000000,LowGoal,1365.000000,-1454.545455,Speed,1365.000000,-1454.545455,Speed,Off,Off0.000000,0,,,,
02:11:34.532 PM 03/19/2016,Teleop Enabled,11,FALSE,0,NO ERROR,-0.000000,-0.237416,0.000000,-0.211750,TRUE,FALSE,TRUE,FALSE,FALSE,FALSE,Disabled,0.000000,0.000000,0.000000,TRUE,-0.256699,1.750198,0.000000,0.015320,-0.040207,0.000000,0.002000,0.011000,-0.047000,0.020000,-0.150000,2.440000,-0.659171,Hold,0.886475,3.000000,Hold,-122996.000000,122880.000000,LowGoal,1365.000000,-1454.545455,Speed,1372.500000,-1454.545455,Speed,Off,Off0.000000,0,,,,
02:11:34.634 PM 03/19/2016,Teleop Enabled,11,FALSE,0,NO ERROR,-0.000000,-0.237416,0.000000,-0.211750,TRUE,FALSE,TRUE,FALSE,FALSE,FALSE,Disabled,0.000000,0.000000,0.000000,TRUE,-0.255707,1.749741,0.000000,0.025726,-0.005600,0.000000,-0.088000,0.033000,0.093000,0.030000,-0.180000,2.480000,-0.669853,Hold,0.886475,3.000000,Hold,-122996.000000,122880.000000,LowGoal,1365.000000,-1454.545455,Speed,1372.500000,-1454.545455,Speed,Off,Off0.000000,0,,,,
02:11:34.734 PM 03/19/2016,Teleop Enabled,7,FALSE,0,NO ERROR,-0.000000,-0.237416,0.000000,-0.211750,TRUE,FALSE,TRUE,FALSE,FALSE,FALSE,Disabled,0.000000,0.000000,0.000000,TRUE,-0.255386,1.749863,0.000000,0.001328,0.012299,0.000000,0.052000,-0.014000,0.047000,0.030000,-0.220000,2.520000,-0.686797,Hold,0.886475,3.000000,Hold,-122996.000000,122880.000000,LowGoal,1365.000000,-1454.545455,Speed,1365.000000,-1454.545455,Speed,Off,Off0.000000,0,,,,
02:11:34.834 PM 03/19/2016,Teleop Enabled,10,FALSE,0,NO ERROR,-0.000000,-0.237416,0.000000,-0.211750,TRUE,FALSE,TRUE,FALSE,FALSE,FALSE,Disabled,0.000000,0.000000,0.000000,TRUE,-0.255341,1.750198,0.000000,0.001328,0.022232,0.000000,0.077000,-0.069000,-0.061000,0.030000,-0.170000,2.500000,-0.693858,Hold,0.886475,3.000000,Hold,-122996.000000,122880.000000,LowGoal,1365.000000,-1454.545455,Speed,1365.000000,-1454.545455,Speed,Off,Off0.000000,0,,,,
02:11:34.935 PM 03/19/2016,Teleop Enabled,12,FALSE,0,NO ERROR,-0.000000,-0.237416,0.000000,-0.211750,TRUE,FALSE,TRUE,FALSE,FALSE,FALSE,Disabled,0.000000,0.000000,0.000000,TRUE,-0.254700,1.750290,0.000000,0.000839,-0.009766,0.000000,-0.053000,-0.064000,-0.035000,0.020000,-0.120000,2.470000,-0.701222,Hold,0.886475,3.000000,Hold,-122996.000000,122880.000000,LowGoal,1372.500000,-1454.545455,Speed,1372.500000,-1454.545455,Speed,Off,Off0.000000,0,,,,
02:11:35.035 PM 03/19/2016,Teleop Enabled,9,FALSE,0,NO ERROR,-0.000000,-0.237416,0.000000,-0.211750,TRUE,FALSE,TRUE,FALSE,FALSE,FALSE,Disabled,0.000000,0.000000,0.000000,TRUE,-0.255325,1.749832,0.000000,-0.012085,0.004395,0.000000,-0.040000,-0.018000,0.025000,0.030000,-0.170000,2.450000,-0.707769,Hold,0.886475,3.000000,Hold,-122996.000000,122880.000000,LowGoal,1372.500000,-1454.545455,Speed,1365.000000,-1454.545455,Speed,Off,Off0.000000,0,,,,
02:11:35.135 PM 03/19/2016,Teleop Enabled,9,FALSE,0,NO ERROR,-0.000000,-0.237416,0.000000,-0.211750,TRUE,FALSE,TRUE,FALSE,FALSE,FALSE,Disabled,0.000000,0.000000,0.000000,TRUE,-0.257568,1.751053,0.000000,-0.037735,0.029968,0.000000,-0.017000,-0.076000,-0.002000,0.030000,-0.260000,2.480000,-0.719071,Hold,0.886475,3.000000,Hold,-122996.000000,122880.000000,LowGoal,1365.000000,-1454.545455,Speed,1365.000000,-1454.545455,Speed,Off,Off0.000000,0,,,,
02:11:35.235 PM 03/19/2016,Teleop Enabled,10,FALSE,0,NO ERROR,-0.000000,-0.237416,0.000000,-0.211750,TRUE,FALSE,TRUE,FALSE,FALSE,FALSE,Disabled,0.000000,0.000000,0.000000,TRUE,-0.259079,1.752441,0.000000,-0.029373,0.030930,0.000000,0.074000,0.040000,0.036000,0.030000,-0.270000,2.510000,-0.739919,Hold,0.886475,3.000000,Hold,-122996.000000,122880.000000,LowGoal,1365.000000,-1454.545455,Speed,1372.500000,-1454.545455,Speed,Off,Off0.000000,0,,,,
02:11:35.337 PM 03/19/2016,Teleop Enabled,9,FALSE,0,NO ERROR,-0.000000,-0.237416,0.000000,-0.211750,TRUE,FALSE,TRUE,FALSE,FALSE,FALSE,Disabled,0.000000,0.000000,0.000000,TRUE,-0.259460,1.754257,0.000000,0.000000,0.055771,0.000000,0.007000,0.003000,-0.026000,0.030000,-0.250000,2.530000,-0.761749,Hold,0.886475,3.000000,Hold,-122996.000000,122880.000000,LowGoal,1365.000000,-1454.545455,Speed,1365.000000,-1454.545455,Speed,Off,Off0.000000,0,,,,
02:11:35.438 PM 03/19/2016,Teleop Enabled,9,FALSE,0,NO ERROR,-0.000000,-0.237416,0.000000,-0.211750,TRUE,FALSE,TRUE,FALSE,FALSE,FALSE,Disabled,0.000000,0.000000,0.000000,TRUE,-0.259659,1.756744,0.000000,-0.007950,0.049896,0.000000,-0.012000,-0.088000,0.012000,0.030000,-0.260000,2.520000,-0.781932,Hold,0.886475,3.000000,Hold,-122996.000000,122880.000000,LowGoal,1372.500000,-1454.545455,Speed,1372.500000,-1454.545455,Speed,Off,Off0.000000,0,,,,
02:11:35.537 PM 03/19/2016,Teleop Enabled,10,FALSE,0,NO ERROR,-0.000000,-0.237416,0.000000,-0.211750,TRUE,FALSE,TRUE,FALSE,FALSE,FALSE,Disabled,0.000000,0.000000,0.000000,TRUE,-0.259888,1.758850,0.000000,-0.005142,0.034042,0.000000,0.050000,0.004000,0.016000,0.030000,-0.260000,2.490000,-0.794098,Hold,0.886475,3.000000,Hold,-122996.000000,122880.000000,LowGoal,1365.000000,-1454.545455,Speed,1365.000000,-1454.545455,Speed,Off,Off0.000000,0,,,,
02:11:35.638 PM 03/19/2016,Teleop Enabled,9,FALSE,0,NO ERROR,-0.000000,-0.237416,0.000000,-0.211750,TRUE,FALSE,TRUE,FALSE,FALSE,FALSE,Disabled,0.000000,0.000000,0.000000,TRUE,-0.260239,1.758636,0.000000,-0.021942,-0.016418,0.000000,0.027000,0.036000,-0.047000,0.020000,-0.240000,2.500000,-0.795327,Hold,0.886475,3.000000,Hold,-122996.000000,122880.000000,LowGoal,1365.000000,-1454.545455,Speed,1372.500000,-1454.545455,Speed,Off,Off0.000000,0,,,,
02:11:35.739 PM 03/19/2016,Teleop Enabled,9,FALSE,0,NO ERROR,-0.000000,-0.237416,0.000000,-0.211750,TRUE,FALSE,TRUE,FALSE,FALSE,FALSE,Disabled,0.000000,0.000000,0.000000,TRUE,-0.261215,1.759033,0.000000,-0.007874,0.001480,0.000000,-0.046000,-0.129000,-0.066000,0.020000,-0.250000,2.510000,-0.810089,Hold,0.886475,3.000000,Hold,-122996.000000,122880.000000,LowGoal,1365.000000,-1454.545455,Speed,1372.500000,-1454.545455,Speed,Off,Off0.000000,0,,,,
02:11:35.839 PM 03/19/2016,Teleop Enabled,9,FALSE,0,NO ERROR,-0.000000,-0.237416,0.000000,-0.211750,TRUE,FALSE,TRUE,FALSE,FALSE,FALSE,Disabled,0.000000,0.000000,0.000000,TRUE,-0.262070,1.758789,0.000000,-0.014847,-0.000824,0.000000,-0.051000,0.039000,0.003000,0.020000,-0.240000,2.490000,-0.802877,Hold,0.886475,3.000000,Hold,-122996.000000,122880.000000,LowGoal,1365.000000,-1454.545455,Speed,1372.500000,-1454.545455,Speed,Off,Off0.000000,0,,,,
02:11:35.939 PM 03/19/2016,Teleop Enabled,10,FALSE,0,NO ERROR,-0.000000,-0.237416,0.000000,-0.211750,TRUE,FALSE,TRUE,FALSE,FALSE,FALSE,Disabled,0.000000,0.000000,0.000000,TRUE,-0.262222,1.759369,0.000000,-0.008530,0.000183,0.000000,0.040000,0.074000,0.071000,0.020000,-0.300000,2.520000,-0.793482,Hold,0.886475,3.000000,Hold,-122996.000000,122880.000000,LowGoal,1365.000000,-1454.545455,Speed,1365.000000,-1454.545455,Speed,Off,Off0.000000,0,,,,
02:11:36.038 PM 03/19/2016,Teleop Enabled,10,FALSE,0,NO ERROR,-0.000000,-0.237416,0.000000,-0.211750,TRUE,FALSE,TRUE,FALSE,FALSE,FALSE,Disabled,0.000000,0.000000,0.000000,TRUE,-0.263260,1.760422,0.000000,0.008163,0.016327,0.000000,0.114000,-0.078000,0.022000,0.020000,-0.260000,2.510000,-0.808640,Hold,0.886475,3.000000,Hold,-122996.000000,122880.000000,LowGoal,1365.000000,-1454.545455,Speed,1365.000000,-1454.545455,Speed,Off,Off0.000000,0,,,,
02:11:36.140 PM 03/19/2016,Teleop Enabled,10,FALSE,0,NO ERROR,-0.000000,-0.237416,0.000000,-0.211750,TRUE,FALSE,TRUE,FALSE,FALSE,FALSE,Disabled,0.000000,0.000000,0.000000,TRUE,-0.262970,1.760773,0.000000,0.013489,0.006317,0.000000,-0.062000,0.080000,-0.049000,0.010000,-0.210000,2.510000,-0.816823,Hold,0.886475,3.000000,Hold,-122996.000000,122880.000000,LowGoal,1365.000000,-1454.545455,Speed,1372.500000,-1454.545455,Speed,Off,Off0.000000,0,,,,
02:11:36.242 PM 03/19/2016,Teleop Enabled,11,FALSE,0,NO ERROR,-0.000000,-0.237416,0.000000,-0.211750,TRUE,FALSE,TRUE,FALSE,FALSE,FALSE,Disabled,0.000000,0.000000,0.000000,TRUE,-0.262421,1.761490,0.000000,0.024902,0.002014,0.000000,-0.018000,-0.099000,-0.021000,0.010000,-0.210000,2.530000,-0.822269,Hold,0.886475,3.000000,Hold,-122996.000000,122880.000000,LowGoal,1365.000000,-1454.545455,Speed,1372.500000,-1454.545455,Speed,Off,Off0.000000,0,,,,
02:11:36.344 PM 03/19/2016,Teleop Enabled,9,FALSE,0,NO ERROR,-0.000000,-0.237416,0.000000,-0.211750,TRUE,FALSE,TRUE,FALSE,FALSE,FALSE,Disabled,0.000000,0.000000,0.000000,TRUE,-0.261627,1.761841,0.000000,0.020218,0.015137,0.000000,0.054000,-0.023000,-0.011000,0.010000,-0.250000,2.540000,-0.833777,Hold,0.886475,3.000000,Hold,-122996.000000,122880.000000,LowGoal,1372.500000,-1454.545455,Speed,1365.000000,-1454.545455,Speed,Off,Off0.000000,0,,,,
02:11:36.443 PM 03/19/2016,Teleop Enabled,11,FALSE,0,NO ERROR,-0.000000,-0.237416,0.000000,-0.211750,TRUE,FALSE,TRUE,FALSE,FALSE,FALSE,Disabled,0.000000,0.000000,0.000000,TRUE,-0.260971,1.762314,0.000000,0.008896,0.000336,0.000000,0.015000,-0.046000,-0.020000,0.010000,-0.250000,2.510000,-0.841633,Hold,0.886475,3.000000,Hold,-122996.000000,122880.000000,LowGoal,1365.000000,-1454.545455,Speed,1372.500000,-1454.545455,Speed,Off,Off0.000000,0,,,,
02:11:36.544 PM 03/19/2016,Teleop Enabled,9,FALSE,0,NO ERROR,-0.000000,-0.237416,0.000000,-0.211750,TRUE,FALSE,TRUE,FALSE,FALSE,FALSE,Disabled,0.000000,0.000000,0.000000,TRUE,-0.260712,1.762253,0.000000,0.000183,0.016083,0.000000,0.065000,-0.026000,0.040000,0.010000,-0.270000,2.500000,-0.835140,Hold,0.886475,3.000000,Hold,-122996.000000,122880.000000,LowGoal,1365.000000,-1454.545455,Speed,1372.500000,-1454.545455,Speed,Off,Off0.000000,0,,,,
02:11:36.644 PM 03/19/2016,Teleop Enabled,10,FALSE,0,NO ERROR,-0.000000,-0.237416,0.000000,-0.211750,TRUE,FALSE,TRUE,FALSE,FALSE,FALSE,Disabled,0.000000,0.000000,0.000000,TRUE,-0.261353,1.764175,0.000000,-0.024780,0.045105,0.000000,0.011000,0.016000,-0.085000,0.010000,-0.270000,2.550000,-0.834851,Hold,0.886475,3.000000,Hold,-122996.000000,122880.000000,LowGoal,1365.000000,-1454.545455,Speed,1372.500000,-1454.545455,Speed,Off,Off0.000000,0,,,,
02:11:36.745 PM 03/19/2016,Teleop Enabled,11,FALSE,0,NO ERROR,-0.000000,-0.237416,0.000000,-0.211750,TRUE,FALSE,TRUE,FALSE,FALSE,FALSE,Disabled,0.000000,0.000000,0.000000,TRUE,-0.261871,1.766190,0.000000,0.003159,0.033432,0.000000,-0.056000,0.033000,0.022000,0.000000,-0.250000,2.540000,-0.849424,Hold,0.886475,3.000000,Hold,-122996.000000,122880.000000,LowGoal,1365.000000,-1454.545455,Speed,1372.500000,-1454.545455,Speed,Off,Off0.000000,0,,,,
02:11:36.845 PM 03/19/2016,Teleop Enabled,10,FALSE,0,NO ERROR,-0.000000,-0.237416,0.000000,-0.211750,TRUE,FALSE,TRUE,FALSE,FALSE,FALSE,Disabled,0.000000,0.000000,0.000000,TRUE,-0.261139,1.768005,0.000000,0.005814,0.000000,0.000000,-0.056000,0.033000,0.022000,0.000000,-0.210000,2.520000,-0.857383,Hold,0.886475,3.000000,Hold,-122996.000000,122880.000000,LowGoal,1365.000000,-1454.545455,Speed,1372.500000,-1454.545455,Speed,Off,Off0.000000,0,,,,
02:11:36.946 PM 03/19/2016,Teleop Enabled,10,FALSE,0,NO ERROR,-0.000000,-0.237416,0.000000,-0.211750,TRUE,FALSE,TRUE,FALSE,FALSE,FALSE,Disabled,0.000000,0.000000,0.000000,TRUE,-0.260742,1.767944,0.000000,-0.002686,0.001938,0.000000,0.069000,-0.049000,-0.022000,0.000000,-0.250000,2.530000,-0.865435,Hold,0.886719,3.000000,Hold,-122996.000000,122880.000000,LowGoal,1372.500000,-1454.545455,Speed,1372.500000,-1454.545455,Speed,Off,Off0.000000,0,,,,
02:11:37.047 PM 03/19/2016,Teleop Enabled,10,FALSE,0,NO ERROR,-0.000000,-0.237416,0.000000,-0.211750,TRUE,FALSE,TRUE,FALSE,FALSE,FALSE,Disabled,0.000000,0.000000,0.000000,TRUE,-0.260437,1.767685,0.000000,0.017822,-0.003708,0.000000,0.034000,-0.050000,-0.005000,0.000000,-0.270000,2.500000,-0.890215,Hold,0.886719,3.000000,Hold,-122996.000000,122880.000000,LowGoal,1372.500000,-1454.545455,Speed,1372.500000,-1454.545455,Speed,Off,Off0.000000,0,,,,
02:11:37.149 PM 03/19/2016,Teleop Enabled,11,FALSE,0,NO ERROR,-0.000000,-0.237416,0.000000,-0.211750,TRUE,FALSE,TRUE,FALSE,FALSE,FALSE,Disabled,0.000000,0.000000,0.000000,TRUE,-0.259064,1.767975,0.000000,0.031403,0.018921,0.000000,0.022000,-0.027000,-0.007000,0.000000,-0.260000,2.530000,-0.911359,Hold,0.886719,3.000000,Hold,-122996.000000,122880.000000,LowGoal,1365.000000,-1454.545455,Speed,1365.000000,-1454.545455,Speed,Off,Off0.000000,0,,,,
02:11:37.248 PM 03/19/2016,Teleop Enabled,11,FALSE,0,NO ERROR,-0.000000,-0.237416,0.000000,-0.211750,TRUE,FALSE,TRUE,FALSE,FALSE,FALSE,Disabled,0.000000,0.000000,0.000000,TRUE,-0.258453,1.768509,0.000000,0.009415,0.030792,0.000000,0.043000,-0.096000,0.009000,0.000000,-0.260000,2.510000,-0.927322,Hold,0.886719,3.000000,Hold,-122996.000000,122880.000000,LowGoal,1365.000000,-1454.545455,Speed,1372.500000,-1454.545455,Speed,Off,Off0.000000,0,,,,
02:11:37.350 PM 03/19/2016,Teleop Enabled,9,FALSE,0,NO ERROR,-0.000000,-0.237416,0.000000,-0.211750,TRUE,FALSE,TRUE,FALSE,FALSE,FALSE,Disabled,0.000000,0.000000,0.000000,TRUE,-0.257431,1.770355,0.000000,0.018570,0.015915,0.000000,-0.008000,0.034000,0.075000,0.000000,-0.230000,2.500000,-0.936359,Hold,0.886719,3.000000,Hold,-122996.000000,122880.000000,LowGoal,1372.500000,-1454.545455,Speed,1372.500000,-1454.545455,Speed,Off,Off0.000000,0,,,,
02:11:37.452 PM 03/19/2016,Teleop Enabled,10,FALSE,0,NO ERROR,-0.000000,-0.237416,0.000000,-0.211750,TRUE,FALSE,TRUE,FALSE,FALSE,FALSE,Disabled,0.000000,0.000000,0.000000,TRUE,-0.256027,1.771118,0.000000,0.045700,0.002090,0.000000,-0.085000,0.117000,0.044000,0.000000,-0.180000,2.470000,-0.948786,Hold,0.886719,3.000000,Hold,-122996.000000,122880.000000,LowGoal,1372.500000,-1454.545455,Speed,1372.500000,-1454.545455,Speed,Off,Off0.000000,0,,,,
02:11:37.552 PM 03/19/2016,Teleop Enabled,11,FALSE,0,NO ERROR,-0.000000,-0.237416,0.000000,-0.211750,TRUE,FALSE,TRUE,FALSE,FALSE,FALSE,Disabled,0.000000,0.000000,0.000000,TRUE,-0.254486,1.771530,0.000000,0.041290,-0.000214,0.000000,0.080000,-0.053000,0.018000,0.000000,-0.210000,2.480000,-0.941633,Hold,0.886719,3.000000,Hold,-122996.000000,122880.000000,LowGoal,1365.000000,-1454.545455,Speed,1365.000000,-1454.545455,Speed,Off,Off0.000000,0,,,,
02:11:37.653 PM 03/19/2016,Teleop Enabled,10,FALSE,0,NO ERROR,-0.000000,-0.237416,0.000000,-0.211750,TRUE,FALSE,TRUE,FALSE,FALSE,FALSE,Disabled,0.000000,0.000000,0.000000,TRUE,-0.251663,1.771667,0.000000,0.035858,0.014908,0.000000,0.002000,-0.017000,-0.079000,0.000000,-0.230000,2.440000,-0.970815,Hold,0.886719,3.000000,Hold,-122996.000000,122880.000000,LowGoal,1372.500000,-1454.545455,Speed,1372.500000,-1454.545455,Speed,Off,Off0.000000,0,,,,
02:11:37.755 PM 03/19/2016,Teleop Enabled,10,FALSE,0,NO ERROR,-0.000000,-0.237416,0.000000,-0.211750,TRUE,FALSE,TRUE,FALSE,FALSE,FALSE,Disabled,0.000000,0.000000,0.000000,TRUE,-0.249405,1.772049,0.000000,0.054108,-0.005875,0.000000,-0.097000,0.079000,0.066000,0.000000,-0.220000,2.500000,-0.985208,Hold,0.886719,3.000000,Hold,-122996.000000,122880.000000,LowGoal,1365.000000,-1454.545455,Speed,1372.500000,-1454.545455,Speed,Off,Off0.000000,0,,,,
02:11:37.857 PM 03/19/2016,Teleop Enabled,9,FALSE,0,NO ERROR,-0.000000,-0.237416,0.000000,-0.211750,TRUE,FALSE,TRUE,FALSE,FALSE,FALSE,Disabled,0.000000,0.000000,0.000000,TRUE,-0.246460,1.772583,0.000000,0.054108,0.035095,0.000000,0.027000,-0.120000,-0.075000,-0.010000,-0.250000,2.550000,-0.998535,Hold,0.886719,3.000000,Hold,-122996.000000,122880.000000,LowGoal,1372.500000,-1454.545455,Speed,1372.500000,-1454.545455,Speed,Off,Off0.000000,0,,,,
02:11:37.958 PM 03/19/2016,Teleop Enabled,10,FALSE,0,NO ERROR,-0.000000,-0.237416,0.000000,-0.211750,TRUE,FALSE,TRUE,FALSE,FALSE,FALSE,Disabled,0.000000,0.000000,0.000000,TRUE,-0.243988,1.773743,0.000000,0.051376,0.018066,0.000000,0.058000,0.024000,-0.026000,0.000000,-0.280000,2.520000,-0.996875,Hold,0.886719,3.000000,Hold,-122996.000000,122880.000000,LowGoal,1365.000000,-1454.545455,Speed,1365.000000,-1454.545455,Speed,Off,Off0.000000,0,,,,
02:11:38.060 PM 03/19/2016,Teleop Enabled,11,FALSE,0,NO ERROR,-0.000000,-0.237416,0.000000,-0.211750,TRUE,FALSE,TRUE,FALSE,FALSE,FALSE,Disabled,0.000000,0.000000,0.000000,TRUE,-0.241364,1.774796,0.000000,0.000000,0.025436,0.000000,-0.016000,0.046000,0.009000,0.000000,-0.270000,2.520000,-1.017114,Hold,0.886719,3.000000,Hold,-122996.000000,122880.000000,LowGoal,1365.000000,-1454.545455,Speed,1372.500000,-1454.545455,Speed,Off,Off0.000000,0,,,,
02:11:38.161 PM 03/19/2016,Teleop Enabled,10,FALSE,0,NO ERROR,-0.000000,-0.237416,0.000000,-0.211750,TRUE,FALSE,TRUE,FALSE,FALSE,FALSE,Disabled,0.000000,0.000000,0.000000,TRUE,-0.241394,1.775604,0.000000,-0.004639,0.017563,0.000000,-0.030000,0.049000,0.024000,0.000000,-0.220000,2.520000,-1.015620,Hold,0.886719,3.000000,Hold,-122996.000000,122880.000000,LowGoal,1365.000000,-1454.545455,Speed,1372.500000,-1454.545455,Speed,Off,Off0.000000,0,,,,
02:11:38.263 PM 03/19/2016,Teleop Enabled,10,FALSE,0,NO ERROR,-0.000000,-0.237416,0.000000,-0.211750,TRUE,FALSE,TRUE,FALSE,FALSE,FALSE,Disabled,0.000000,0.000000,0.000000,TRUE,-0.241669,1.776779,0.000000,-0.002319,0.013718,0.000000,0.109000,-0.052000,-0.029000,0.000000,-0.280000,2.500000,-1.020846,Hold,0.886719,3.000000,Hold,-122996.000000,122880.000000,LowGoal,1365.000000,-1454.545455,Speed,1365.000000,-1454.545455,Speed,Off,Off0.000000,0,,,,
02:11:38.363 PM 03/19/2016,Teleop Enabled,9,FALSE,0,NO ERROR,-0.000000,-0.237416,0.000000,-0.211750,TRUE,FALSE,TRUE,FALSE,FALSE,FALSE,Disabled,0.000000,0.000000,0.000000,TRUE,-0.240921,1.777054,0.000000,0.017563,0.011261,0.000000,-0.048000,0.091000,0.008000,0.000000,-0.320000,2.500000,-1.033370,Hold,0.886719,3.000000,Hold,-122996.000000,122880.000000,LowGoal,1372.500000,-1454.545455,Speed,1365.000000,-1454.545455,Speed,Off,Off0.000000,0,,,,
02:11:38.464 PM 03/19/2016,Teleop Enabled,10,FALSE,0,NO ERROR,-0.000000,-0.237416,0.000000,-0.211750,TRUE,FALSE,TRUE,FALSE,FALSE,FALSE,Disabled,0.000000,0.000000,0.000000,TRUE,-0.240219,1.778244,0.000000,0.013275,0.000000,0.000000,-0.104000,-0.036000,0.081000,0.000000,-0.330000,2.520000,-1.046476,Hold,0.886719,3.000000,Hold,-122996.000000,122880.000000,LowGoal,1365.000000,-1454.545455,Speed,1372.500000,-1454.545455,Speed,Off,Off0.000000,0,,,,
02:11:38.566 PM 03/19/2016,Teleop Enabled,10,FALSE,0,NO ERROR,-0.000000,-0.237416,0.000000,-0.211750,TRUE,FALSE,TRUE,FALSE,FALSE,FALSE,Disabled,0.000000,0.000000,0.000000,TRUE,-0.240433,1.777466,0.000000,-0.008011,-0.022568,0.000000,0.044000,-0.069000,-0.026000,-0.010000,-0.300000,2.460000,-1.048531,Hold,0.886719,3.000000,Hold,-122996.000000,122880.000000,LowGoal,1365.000000,-1454.545455,Speed,1372.500000,-1454.545455,Speed,Off,Off0.000000,0,,,,
02:11:38.666 PM 03/19/2016,Teleop Enabled,10,FALSE,0,NO ERROR,-0.000000,-0.237416,0.000000,-0.211750,TRUE,FALSE,TRUE,FALSE,FALSE,FALSE,Disabled,0.000000,0.000000,0.000000,TRUE,-0.240540,1.776550,0.000000,-0.012039,-0.032394,0.000000,0.041000,0.092000,0.045000,0.000000,-0.290000,2.430000,-1.053106,Hold,0.886719,3.000000,Hold,-122996.000000,122880.000000,LowGoal,1372.500000,-1454.545455,Speed,1365.000000,-1454.545455,Speed,Off,Off0.000000,0,,,,
02:11:38.766 PM 03/19/2016,Teleop Enabled,10,FALSE,0,NO ERROR,-0.000000,-0.237416,0.000000,-0.211750,TRUE,FALSE,TRUE,FALSE,FALSE,FALSE,Disabled,0.000000,0.000000,0.000000,TRUE,-0.240921,1.775436,0.000000,-0.021362,-0.020203,0.000000,0.115000,0.054000,-0.009000,0.000000,-0.270000,2.470000,-1.068164,Hold,0.886719,3.000000,Hold,-122996.000000,122880.000000,LowGoal,1372.500000,-1454.545455,Speed,1372.500000,-1454.545455,Speed,Off,Off0.000000,0,,,,
