Time,Robot Mode,Loop Time,Error Status,Error Code,Error Source,Left Motor Output,Left Motor Encoder,Right Motor Output,Right Motor Encoder,Is Level,Is Stalled,Ball Detector Photoeye,Vision Enabled,Vision Teleop Control,Vision Auto Control,Vision Current State,Vision X Output,Vision NavX Error,Vision NavX Target,NavX Connection Status,NavX Displacement X,NavX Displacement Y,NavX Displacement Z,NavX Velocity X,NavX Velocity Y,NavX Velocity Z,NavX Acceleration X,NavX Acceleration Y,NavX Acceleration Z,NavX Pitch,NavX Yaw,NavX Roll,Gyro Angle,Roller Arm State,Roller Arm Actual,Roller Arm Desired,Shooter Arm State,Shooter Arm Actual,Shooter Arm Desired,Shooter State,Actual RPM Left,Desired RPM Left,Control Mode Left,Actual RPM Right,Desired RPM Right,Scaler Motor Output,Auto To Run,Auto Current File,Auto File Status,Auto Current Command,Auto Trimmed Command
01:41:40.747 PM 03/19/2016,Teleop Enabled,11,FALSE,0,NO ERROR,-0.000000,-0.352916,0.000000,-0.077000,TRUE,FALSE,FALSE,FALSE,FALSE,FALSE,Disabled,0.000000,0.000000,0.000000,TRUE,0.000000,0.000000,0.000000,0.000000,0.000000,0.000000,-0.101000,0.170000,-0.115000,16.830000,-0.480000,2.640000,0.000007,ResetBack,0.890381,-0.200000,ResetBack,-240.000000,-0.300000,Empty,0.000000,0.000000,Speed,0.000000,0.000000,Speed,On,Off0.000000,0,,,,
01:41:40.843 PM 03/19/2016,Teleop Enabled,11,FALSE,0,NO ERROR,-0.000000,-0.359332,0.000000,-0.083416,TRUE,FALSE,FALSE,FALSE,FALSE,FALSE,Disabled,0.000000,0.000000,0.000000,TRUE,11.297577,-1.057968,0.000000,0.000000,0.003693,0.000000,-0.009000,0.023000,0.020000,0.010000,-0.110000,2.520000,0.027251,ResetBack,-0.299316,-0.200000,ResetBack,87.000000,-0.300000,Empty,0.000000,0.000000,Speed,0.000000,0.000000,Speed,On,Off0.000000,0,,,,
01:41:40.943 PM 03/19/2016,Teleop Enabled,10,FALSE,0,NO ERROR,-0.000000,-0.359332,0.000000,-0.083416,TRUE,FALSE,FALSE,FALSE,FALSE,FALSE,Disabled,0.000000,0.000000,0.000000,TRUE,11.297577,-1.057861,0.000000,0.000000,0.007202,0.000000,-0.012000,-0.006000,0.021000,0.010000,-0.120000,2.540000,0.027251,ResetBack,-0.299316,-0.200000,ResetBack,234.000000,-0.300000,Empty,0.000000,0.000000,Speed,0.000000,0.000000,Speed,On,Off0.000000,0,,,,
01:41:41.045 PM 03/19/2016,Teleop Enabled,10,FALSE,0,NO ERROR,-0.000000,-0.359332,0.000000,-0.083416,TRUE,FALSE,FALSE,FALSE,FALSE,FALSE,Disabled,0.000000,0.000000,0.000000,TRUE,11.297577,-1.057770,0.000000,0.000000,0.000000,0.000000,0.011000,-0.006000,0.008000,0.000000,-0.100000,2.520000,0.027895,Reset,-0.299316,0.000000,ResetBack,402.000000,-0.300000,Empty,0.000000,0.000000,Speed,0.000000,0.000000,Speed,On,Off0.000000,0,,,,
01:41:41.146 PM 03/19/2016,Teleop Enabled,12,FALSE,0,NO ERROR,-0.000000,-0.359332,0.000000,-0.083416,TRUE,FALSE,FALSE,FALSE,FALSE,FALSE,Disabled,0.000000,0.000000,0.000000,TRUE,11.297577,-1.057632,0.000000,0.000000,0.000000,0.000000,-0.002000,-0.006000,0.018000,0.010000,-0.120000,2.530000,0.042967,Hold,1.037354,0.000000,ResetBack,402.000000,-0.300000,Empty,0.000000,0.000000,Speed,0.000000,0.000000,Speed,On,Off0.000000,0,,,,
01:41:41.248 PM 03/19/2016,Teleop Enabled,9,FALSE,0,NO ERROR,-0.000000,-0.359332,0.000000,-0.083416,TRUE,FALSE,FALSE,FALSE,FALSE,FALSE,Disabled,0.000000,0.000000,0.000000,TRUE,11.297577,-1.057404,0.000000,0.000000,0.004623,0.000000,0.015000,-0.016000,-0.011000,0.000000,-0.120000,2.540000,0.047215,Hold,0.925781,0.000000,ResetBack,402.000000,-0.300000,Empty,0.000000,0.000000,Speed,0.000000,0.000000,Speed,On,Off0.000000,0,,,,
01:41:41.347 PM 03/19/2016,Teleop Enabled,9,FALSE,0,NO ERROR,-0.000000,-0.359332,0.000000,-0.083416,TRUE,FALSE,FALSE,FALSE,FALSE,FALSE,Disabled,0.000000,0.000000,0.000000,TRUE,11.297577,-1.057251,0.000000,0.000000,0.006073,0.000000,0.001000,-0.024000,0.017000,0.000000,-0.120000,2.540000,0.052561,Hold,0.900879,0.000000,ResetBack,402.000000,-0.300000,Empty,0.000000,0.000000,Speed,0.000000,0.000000,Speed,On,Off0.000000,0,,,,
01:41:41.447 PM 03/19/2016,Teleop Enabled,9,FALSE,0,NO ERROR,-0.000000,-0.359332,0.000000,-0.083416,TRUE,FALSE,FALSE,FALSE,FALSE,FALSE,Disabled,0.000000,0.000000,0.000000,TRUE,11.297577,-1.057129,0.000000,0.000000,0.005280,0.000000,0.006000,-0.015000,0.023000,0.000000,-0.120000,2.550000,0.062964,Hold,0.900879,0.000000,ResetBack,402.000000,-0.300000,Empty,0.000000,0.000000,Speed,0.000000,0.000000,Speed,On,Off0.000000,0,,,,
01:41:41.548 PM 03/19/2016,Teleop Enabled,9,FALSE,0,NO ERROR,-0.000000,-0.359332,0.000000,-0.083416,TRUE,FALSE,FALSE,FALSE,FALSE,FALSE,Disabled,0.000000,0.000000,0.000000,TRUE,11.297577,-1.057129,0.000000,0.000000,0.000000,0.000000,0.002000,0.001000,0.021000,0.000000,-0.120000,2.550000,0.072215,Hold,0.900879,0.000000,ResetBack,402.000000,-0.300000,Empty,0.000000,0.000000,Speed,0.000000,0.000000,Speed,On,Off0.000000,0,,,,
01:41:41.648 PM 03/19/2016,Teleop Enabled,9,FALSE,0,NO ERROR,-0.000000,-0.359332,0.000000,-0.083416,TRUE,FALSE,FALSE,FALSE,FALSE,FALSE,Disabled,0.000000,0.000000,0.000000,TRUE,11.297577,-1.057129,0.000000,0.000000,0.000000,0.000000,0.001000,0.006000,0.020000,0.000000,-0.110000,2.550000,0.077261,Hold,0.900879,0.000000,ResetBack,402.000000,-0.300000,Empty,0.000000,0.000000,Speed,0.000000,0.000000,Speed,On,Off0.000000,0,,,,
01:41:41.748 PM 03/19/2016,Teleop Enabled,9,FALSE,0,NO ERROR,-0.000000,-0.359332,0.000000,-0.083416,TRUE,FALSE,FALSE,FALSE,FALSE,FALSE,Disabled,0.000000,0.000000,0.000000,TRUE,11.297577,-1.057129,0.000000,0.000000,0.000000,0.000000,0.000000,0.007000,0.023000,0.000000,-0.120000,2.550000,0.087709,Hold,0.900879,0.000000,ResetBack,402.000000,-0.300000,Empty,0.000000,0.000000,Speed,0.000000,0.000000,Speed,On,Off0.000000,0,,,,
01:41:41.848 PM 03/19/2016,Teleop Enabled,9,FALSE,0,NO ERROR,-0.000000,-0.359332,0.000000,-0.083416,TRUE,FALSE,FALSE,FALSE,FALSE,FALSE,Disabled,0.000000,0.000000,0.000000,TRUE,11.297577,-1.057129,0.000000,0.000000,0.000000,0.000000,0.000000,0.000000,0.019000,0.000000,-0.110000,2.550000,0.105112,Hold,0.900879,0.000000,ResetBack,402.000000,-0.300000,Empty,0.000000,0.000000,Speed,0.000000,0.000000,Speed,On,Off0.000000,0,,,,
01:41:41.948 PM 03/19/2016,Teleop Enabled,10,FALSE,0,NO ERROR,-0.000000,-0.359332,0.000000,-0.083416,TRUE,FALSE,FALSE,FALSE,FALSE,FALSE,Disabled,0.000000,0.000000,0.000000,TRUE,11.297577,-1.057129,0.000000,0.000000,0.000000,0.000000,-0.001000,0.000000,0.019000,0.000000,-0.110000,2.550000,0.123447,Hold,0.900879,0.000000,Reset,402.000000,2.000000,Suck,0.000000,2181.818182,Speed,0.000000,2181.818182,Speed,On,Off0.000000,0,,,,
01:41:42.049 PM 03/19/2016,Teleop Enabled,10,FALSE,0,NO ERROR,-0.000000,-0.359332,0.000000,-0.083416,TRUE,FALSE,FALSE,FALSE,FALSE,FALSE,Disabled,0.000000,0.000000,0.000000,TRUE,11.297623,-1.057190,0.000000,0.002289,-0.002853,0.000000,-0.060000,0.007000,-0.009000,0.000000,-0.130000,2.560000,0.131368,Hold,0.900879,0.000000,Hold,-494.000000,2.000000,Suck,-90.000000,2181.818182,Speed,-30.000000,2181.818182,Speed,On,Off0.000000,0,,,,
01:41:42.149 PM 03/19/2016,Teleop Enabled,9,FALSE,0,NO ERROR,-0.000000,-0.359332,0.000000,-0.083416,TRUE,FALSE,FALSE,FALSE,FALSE,FALSE,Disabled,0.000000,0.000000,0.000000,TRUE,11.297089,-1.057297,0.000000,-0.006317,-0.003708,0.000000,-0.023000,-0.025000,0.007000,0.000000,-0.140000,2.580000,0.157989,Hold,0.900879,0.000000,Hold,-379.000000,2.000000,Suck,-772.500000,2181.818182,Speed,-622.500000,2181.818182,Speed,On,Off0.000000,0,,,,
01:41:42.250 PM 03/19/2016,Teleop Enabled,11,FALSE,0,NO ERROR,-0.000000,-0.365749,0.000000,-0.083416,TRUE,FALSE,FALSE,FALSE,FALSE,FALSE,Disabled,0.000000,0.000000,0.000000,TRUE,11.296921,-1.058258,0.000000,0.000000,-0.029205,0.000000,-0.017000,0.115000,0.064000,0.000000,-0.160000,2.570000,0.165411,Hold,0.900879,0.000000,Hold,-378.000000,2.000000,Suck,-1447.500000,2181.818182,Speed,-1380.000000,2181.818182,Speed,On,Off0.000000,0,,,,
01:41:42.351 PM 03/19/2016,Teleop Enabled,10,FALSE,0,NO ERROR,-0.000000,-0.365749,0.000000,-0.083416,TRUE,FALSE,FALSE,FALSE,FALSE,FALSE,Disabled,0.000000,0.000000,0.000000,TRUE,11.297043,-1.059097,0.000000,0.002975,-0.013214,0.000000,0.072000,-0.036000,0.091000,0.000000,-0.150000,2.510000,0.167208,Hold,0.900879,0.000000,Hold,-304.000000,2.000000,Suck,-1972.500000,2181.818182,Speed,-1980.000000,2181.818182,Speed,On,Off0.000000,0,,,,
01:41:42.451 PM 03/19/2016,Teleop Enabled,9,FALSE,0,NO ERROR,-0.000000,-0.365749,0.000000,-0.083416,TRUE,FALSE,FALSE,FALSE,FALSE,FALSE,Disabled,0.000000,0.000000,0.000000,TRUE,11.297470,-1.058594,0.000000,-0.008575,0.053955,0.000000,-0.027000,0.070000,0.120000,0.000000,-0.160000,2.480000,0.187423,Hold,0.900879,0.000000,Hold,-304.000000,2.000000,Suck,-2227.500000,2181.818182,Speed,-2280.000000,2181.818182,Speed,On,Off0.000000,0,,,,
01:41:42.552 PM 03/19/2016,Teleop Enabled,8,FALSE,0,NO ERROR,-0.000000,-0.365749,0.000000,-0.083416,TRUE,FALSE,FALSE,FALSE,FALSE,FALSE,Disabled,0.000000,0.000000,0.000000,TRUE,11.296021,-1.054123,0.000000,-0.052246,0.102356,0.000000,-0.009000,-0.022000,0.087000,0.000000,-0.170000,2.490000,0.205139,Hold,0.900879,0.000000,Hold,-288.000000,2.000000,Suck,-2130.000000,2181.818182,Speed,-2160.000000,2181.818182,Speed,On,Off0.000000,0,,,,
01:41:42.653 PM 03/19/2016,Teleop Enabled,9,FALSE,0,NO ERROR,-0.000000,-0.365749,0.000000,-0.083416,TRUE,FALSE,FALSE,FALSE,FALSE,FALSE,Disabled,0.000000,0.000000,0.000000,TRUE,11.294785,-1.048767,0.000000,-0.008316,0.121078,0.000000,0.044000,-0.011000,0.035000,0.000000,-0.170000,2.490000,0.225591,Hold,0.900879,0.000000,Hold,-288.000000,2.000000,Suck,-2047.500000,2181.818182,Speed,-2062.500000,2181.818182,Speed,On,Off0.000000,0,,,,
01:41:42.753 PM 03/19/2016,Teleop Enabled,8,FALSE,0,NO ERROR,-0.000000,-0.365749,0.000000,-0.083416,TRUE,FALSE,FALSE,FALSE,FALSE,FALSE,Disabled,0.000000,0.000000,0.000000,TRUE,11.294846,-1.049530,0.000000,0.003937,-0.027969,0.000000,-0.001000,-0.041000,0.012000,0.000000,-0.140000,2.500000,0.231343,Hold,0.900879,0.000000,Hold,-287.000000,2.000000,Suck,-2077.500000,2181.818182,Speed,-2100.000000,2181.818182,Speed,On,Off0.000000,0,,,,
01:41:42.854 PM 03/19/2016,Teleop Enabled,10,FALSE,0,NO ERROR,-0.000000,-0.365749,0.000000,-0.083416,TRUE,FALSE,FALSE,FALSE,FALSE,FALSE,Disabled,0.000000,0.000000,0.000000,TRUE,11.294846,-1.050903,0.000000,-0.008560,-0.022812,0.000000,0.030000,-0.011000,0.043000,0.000000,-0.140000,2.430000,0.234414,Hold,0.900879,0.000000,Hold,-287.000000,2.000000,Suck,-2122.500000,2181.818182,Speed,-2145.000000,2181.818182,Speed,On,Off0.000000,0,,,,
01:41:42.954 PM 03/19/2016,Teleop Enabled,11,FALSE,0,NO ERROR,-0.000000,-0.365749,0.000000,-0.083416,TRUE,FALSE,FALSE,FALSE,FALSE,FALSE,Disabled,0.000000,0.000000,0.000000,TRUE,11.294800,-1.050919,0.000000,0.003708,0.009399,0.000000,-0.003000,0.033000,-0.007000,0.000000,-0.130000,2.470000,0.249172,Hold,0.900879,0.000000,Hold,-286.000000,2.000000,Suck,-2115.000000,2181.818182,Speed,-2130.000000,2181.818182,Speed,On,Off0.000000,0,,,,
01:41:43.055 PM 03/19/2016,Teleop Enabled,10,FALSE,0,NO ERROR,-0.000000,-0.365749,0.000000,-0.083416,TRUE,FALSE,FALSE,FALSE,FALSE,FALSE,Disabled,0.000000,0.000000,0.000000,TRUE,11.295456,-1.051620,0.000000,0.027359,-0.029358,0.000000,0.010000,-0.018000,-0.029000,0.000000,-0.130000,2.420000,0.256488,Hold,0.900879,0.000000,Hold,-286.000000,2.000000,Suck,-2100.000000,2181.818182,Speed,-2115.000000,2181.818182,Speed,On,Off0.000000,0,,,,
01:41:43.158 PM 03/19/2016,Teleop Enabled,9,FALSE,0,NO ERROR,-0.000000,-0.365749,0.000000,-0.083416,TRUE,FALSE,FALSE,FALSE,FALSE,FALSE,Disabled,0.000000,0.000000,0.000000,TRUE,11.296906,-1.053848,0.000000,0.023239,-0.033020,0.000000,-0.004000,0.016000,0.007000,0.000000,-0.160000,2.430000,0.264795,Hold,0.900879,0.000000,Hold,-286.000000,2.000000,Suck,-2100.000000,2181.818182,Speed,-2122.500000,2181.818182,Speed,On,Off0.000000,0,,,,
01:41:43.258 PM 03/19/2016,Teleop Enabled,9,FALSE,0,NO ERROR,-0.000000,-0.365749,0.000000,-0.083416,TRUE,FALSE,FALSE,FALSE,FALSE,FALSE,Disabled,0.000000,0.000000,0.000000,TRUE,11.297531,-1.054565,0.000000,0.013245,-0.023041,0.000000,-0.004000,-0.001000,0.050000,0.000000,-0.080000,2.420000,0.273800,Hold,0.900879,0.000000,Hold,-285.000000,2.000000,Suck,-2107.500000,2181.818182,Speed,-2122.500000,2181.818182,Speed,On,Off0.000000,0,,,,
01:41:43.359 PM 03/19/2016,Teleop Enabled,10,FALSE,0,NO ERROR,-0.000000,-0.365749,0.000000,-0.083416,TRUE,FALSE,FALSE,FALSE,FALSE,FALSE,Disabled,0.000000,0.000000,0.000000,TRUE,11.297302,-1.055740,0.000000,-0.016327,-0.005600,0.000000,0.037000,0.086000,0.049000,0.000000,-0.110000,2.480000,0.248587,Hold,0.900879,0.000000,Hold,-285.000000,2.000000,Suck,-2107.500000,2181.818182,Speed,-2122.500000,2181.818182,Speed,On,Off0.000000,0,,,,
01:41:43.460 PM 03/19/2016,Teleop Enabled,11,FALSE,0,NO ERROR,-0.000000,-0.365749,0.000000,-0.083416,TRUE,FALSE,FALSE,FALSE,FALSE,FALSE,Disabled,0.000000,0.000000,0.000000,TRUE,11.297409,-1.055023,0.000000,0.018707,0.016739,0.000000,-0.006000,-0.032000,-0.074000,0.000000,-0.080000,2.490000,0.247379,Hold,0.900879,0.000000,Hold,-285.000000,2.000000,Suck,-2107.500000,2181.818182,Speed,-2122.500000,2181.818182,Speed,On,Off0.000000,0,,,,
01:41:43.561 PM 03/19/2016,Teleop Enabled,10,FALSE,0,NO ERROR,-0.000000,-0.365749,0.000000,-0.083416,TRUE,FALSE,FALSE,FALSE,FALSE,FALSE,Disabled,0.000000,0.000000,0.000000,TRUE,11.297668,-1.054276,0.000000,0.006332,-0.008133,0.000000,0.078000,-0.064000,0.015000,0.000000,-0.090000,2.520000,0.263363,Hold,0.900879,0.000000,Hold,-284.000000,2.000000,Suck,-2107.500000,2181.818182,Speed,-2115.000000,2181.818182,Speed,On,Off0.000000,0,,,,
01:41:43.662 PM 03/19/2016,Teleop Enabled,9,FALSE,0,NO ERROR,-0.000000,-0.365749,0.000000,-0.083416,TRUE,FALSE,FALSE,FALSE,FALSE,FALSE,Disabled,0.000000,0.000000,0.000000,TRUE,11.297363,-1.055008,0.000000,-0.018845,-0.018433,0.000000,0.023000,-0.055000,-0.021000,0.000000,-0.090000,2.520000,0.283477,Hold,0.900879,0.000000,Hold,-282.000000,2.000000,Suck,-2107.500000,2181.818182,Speed,-2115.000000,2181.818182,Speed,On,Off0.000000,0,,,,
01:41:43.763 PM 03/19/2016,Teleop Enabled,11,FALSE,0,NO ERROR,-0.000000,-0.365749,0.000000,-0.083416,TRUE,FALSE,FALSE,FALSE,FALSE,FALSE,Disabled,0.000000,0.000000,0.000000,TRUE,11.297195,-1.056595,0.000000,0.020874,-0.046539,0.000000,0.042000,-0.062000,-0.065000,0.000000,-0.070000,2.530000,0.302298,Hold,0.900879,0.000000,Hold,-280.000000,2.000000,Suck,-2107.500000,2181.818182,Speed,-2115.000000,2181.818182,Speed,On,Off0.000000,0,,,,
01:41:43.864 PM 03/19/2016,Teleop Enabled,7,FALSE,0,NO ERROR,-0.000000,-0.365749,0.000000,-0.083416,TRUE,FALSE,FALSE,FALSE,FALSE,FALSE,Disabled,0.000000,0.000000,0.000000,TRUE,11.298279,-1.060791,0.000000,-0.005402,-0.103683,0.000000,-0.094000,0.019000,-0.021000,0.000000,-0.110000,2.530000,0.322299,Hold,0.900879,0.000000,Hold,-280.000000,2.000000,Suck,-2107.500000,2181.818182,Speed,-2122.500000,2181.818182,Speed,On,Off0.000000,0,,,,
01:41:43.963 PM 03/19/2016,Teleop Enabled,13,FALSE,0,NO ERROR,-0.000000,-0.365749,0.000000,-0.083416,TRUE,FALSE,FALSE,FALSE,FALSE,FALSE,Disabled,0.000000,0.000000,0.000000,TRUE,11.296051,-1.061859,0.000000,-0.039978,0.001633,0.000000,-0.069000,0.057000,-0.030000,0.000000,-0.080000,2.560000,0.336923,Hold,0.900879,0.000000,Hold,-278.000000,2.000000,Suck,-2107.500000,2181.818182,Speed,-2115.000000,2181.818182,Speed,On,Off0.000000,0,,,,
01:41:44.064 PM 03/19/2016,Teleop Enabled,11,FALSE,0,NO ERROR,-0.000000,-0.365749,0.000000,-0.083416,TRUE,FALSE,FALSE,FALSE,FALSE,FALSE,Disabled,0.000000,0.000000,0.000000,TRUE,11.293152,-1.061066,0.000000,-0.055252,0.000000,0.000000,0.066000,0.030000,0.058000,0.000000,-0.140000,2.570000,0.349433,Hold,0.900879,0.000000,Hold,-276.000000,2.000000,Suck,-2107.500000,2181.818182,Speed,-2122.500000,2181.818182,Speed,On,Off0.000000,0,,,,
01:41:44.164 PM 03/19/2016,Teleop Enabled,11,FALSE,0,NO ERROR,-0.000000,-0.365749,0.000000,-0.083416,TRUE,FALSE,FALSE,FALSE,FALSE,FALSE,Disabled,0.000000,0.000000,0.000000,TRUE,11.291672,-1.059494,0.000000,0.000000,0.053665,0.000000,0.025000,-0.095000,0.056000,-0.010000,-0.100000,2.630000,0.356563,Hold,0.900879,0.000000,Hold,-274.000000,2.000000,Suck,-2107.500000,2181.818182,Speed,-2115.000000,2181.818182,Speed,On,Off0.000000,0,,,,
01:41:44.264 PM 03/19/2016,Teleop Enabled,11,FALSE,0,NO ERROR,-0.000000,-0.372166,0.000000,-0.083416,TRUE,FALSE,FALSE,FALSE,FALSE,FALSE,Disabled,0.000000,0.000000,0.000000,TRUE,11.291580,-1.057709,0.000000,-0.008942,0.029572,0.000000,-0.026000,-0.039000,-0.059000,0.000000,-0.140000,2.610000,0.366801,Hold,0.900879,0.000000,Hold,-273.000000,2.000000,Suck,-2107.500000,2181.818182,Speed,-2115.000000,2181.818182,Speed,On,Off0.000000,0,,,,
01:41:44.365 PM 03/19/2016,Teleop Enabled,12,FALSE,0,NO ERROR,-0.000000,-0.372166,0.000000,-0.083416,TRUE,FALSE,FALSE,FALSE,FALSE,FALSE,Disabled,0.000000,0.000000,0.000000,TRUE,11.291473,-1.057144,0.000000,0.000000,-0.003464,0.000000,0.005000,0.016000,-0.045000,0.000000,-0.120000,2.590000,0.373628,Hold,0.900879,0.000000,Hold,-273.000000,2.000000,Suck,-2107.500000,2181.818182,Speed,-2122.500000,2181.818182,Speed,On,Off0.000000,0,,,,
01:41:44.465 PM 03/19/2016,Teleop Enabled,10,FALSE,0,NO ERROR,-0.000000,-0.372166,0.000000,-0.083416,TRUE,FALSE,FALSE,FALSE,FALSE,FALSE,Disabled,0.000000,0.000000,0.000000,TRUE,11.291718,-1.058197,0.000000,0.021378,-0.046936,0.000000,0.090000,-0.076000,-0.079000,0.000000,-0.150000,2.620000,0.394803,Hold,0.900879,0.000000,Hold,-272.000000,2.000000,Suck,-2107.500000,2181.818182,Speed,-2115.000000,2181.818182,Speed,On,Off0.000000,0,,,,
01:41:44.565 PM 03/19/2016,Teleop Enabled,10,FALSE,0,NO ERROR,-0.000000,-0.372166,0.000000,-0.083416,TRUE,FALSE,FALSE,FALSE,FALSE,FALSE,Disabled,0.000000,0.000000,0.000000,TRUE,11.292358,-1.061661,0.000000,-0.015411,-0.064926,0.000000,-0.052000,0.028000,0.029000,-0.010000,-0.160000,2.620000,0.402704,Hold,0.900879,0.000000,Hold,-272.000000,2.000000,Suck,-2107.500000,2181.818182,Speed,-2115.000000,2181.818182,Speed,On,Off0.000000,0,,,,
01:41:44.668 PM 03/19/2016,Teleop Enabled,9,FALSE,0,NO ERROR,-0.000000,-0.372166,0.000000,-0.083416,TRUE,FALSE,FALSE,FALSE,FALSE,FALSE,Disabled,0.000000,0.000000,0.000000,TRUE,11.291275,-1.064651,0.000000,0.003357,-0.061554,0.000000,0.063000,0.073000,0.074000,-0.010000,-0.150000,2.580000,0.420023,Hold,0.900879,0.000000,Hold,-271.000000,2.000000,Suck,-2107.500000,2181.818182,Speed,-2122.500000,2181.818182,Speed,On,Off0.000000,0,,,,
01:41:44.770 PM 03/19/2016,Teleop Enabled,10,FALSE,0,NO ERROR,-0.000000,-0.372166,0.000000,-0.083416,TRUE,FALSE,FALSE,FALSE,FALSE,FALSE,Disabled,0.000000,0.000000,0.000000,TRUE,11.292007,-1.065567,0.000000,0.018692,0.002289,0.000000,0.018000,-0.053000,-0.003000,-0.010000,-0.190000,2.610000,0.409017,Hold,0.900879,0.000000,Hold,-271.000000,2.000000,Suck,-2107.500000,2181.818182,Speed,-2122.500000,2181.818182,Speed,On,Off0.000000,0,,,,
01:41:44.871 PM 03/19/2016,Teleop Enabled,10,FALSE,0,NO ERROR,-0.000000,-0.372166,0.000000,-0.083416,TRUE,FALSE,FALSE,FALSE,FALSE,FALSE,Disabled,0.000000,0.000000,0.000000,TRUE,11.293259,-1.064819,0.000000,0.023849,0.040359,0.000000,0.003000,0.025000,0.070000,-0.010000,-0.180000,2.590000,0.414670,Hold,0.900879,0.000000,Hold,-270.000000,2.000000,Suck,-2115.000000,2181.818182,Speed,-2115.000000,2181.818182,Speed,On,Off0.000000,0,,,,
01:41:44.971 PM 03/19/2016,Teleop Enabled,9,FALSE,0,NO ERROR,-0.000000,-0.372166,0.000000,-0.083416,TRUE,FALSE,FALSE,FALSE,FALSE,FALSE,Disabled,0.000000,0.000000,0.000000,TRUE,11.293411,-1.063217,0.000000,0.010864,0.034042,0.000000,-0.009000,-0.003000,0.025000,-0.010000,-0.180000,2.610000,0.420887,Hold,0.900879,0.000000,Hold,-270.000000,2.000000,Suck,-2115.000000,2181.818182,Speed,-2115.000000,2181.818182,Speed,On,Off0.000000,0,,,,
01:41:45.071 PM 03/19/2016,Teleop Enabled,8,FALSE,0,NO ERROR,-0.000000,-0.372166,0.000000,-0.083416,TRUE,FALSE,FALSE,FALSE,FALSE,FALSE,Disabled,0.000000,0.000000,0.000000,TRUE,11.293564,-1.060989,0.000000,-0.005966,0.023193,0.000000,0.012000,-0.050000,0.004000,-0.010000,-0.170000,2.640000,0.437370,Hold,0.900879,0.000000,Hold,-269.000000,2.000000,Suck,-2107.500000,2181.818182,Speed,-2122.500000,2181.818182,Speed,On,Off0.000000,0,,,,
01:41:45.172 PM 03/19/2016,Teleop Enabled,8,FALSE,0,NO ERROR,-0.000000,-0.372166,0.000000,-0.083416,TRUE,FALSE,FALSE,FALSE,FALSE,FALSE,Disabled,0.000000,0.000000,0.000000,TRUE,11.294205,-1.060928,0.000000,0.027527,0.006836,0.000000,0.052000,-0.108000,-0.033000,-0.010000,-0.160000,2.650000,0.447409,Hold,0.900879,0.000000,Hold,-269.000000,2.000000,Suck,-2115.000000,2181.818182,Speed,-2115.000000,2181.818182,Speed,On,Off0.000000,0,,,,
01:41:45.273 PM 03/19/2016,Teleop Enabled,8,FALSE,0,NO ERROR,-0.000000,-0.372166,0.000000,-0.083416,TRUE,FALSE,FALSE,FALSE,FALSE,FALSE,Disabled,0.000000,0.000000,0.000000,TRUE,11.295761,-1.061737,0.000000,0.018677,-0.013474,0.000000,-0.067000,0.087000,0.034000,-0.010000,-0.150000,2.630000,0.472952,Hold,0.900879,0.000000,Hold,-269.000000,2.000000,Suck,-2115.000000,2181.818182,Speed,-2115.000000,2181.818182,Speed,On,Off0.000000,0,,,,
01:41:45.375 PM 03/19/2016,Teleop Enabled,11,FALSE,0,NO ERROR,-0.000000,-0.372166,0.000000,-0.083416,TRUE,FALSE,FALSE,FALSE,FALSE,FALSE,Disabled,0.000000,0.000000,0.000000,TRUE,11.296265,-1.061066,0.000000,0.018219,0.011993,0.000000,0.002000,0.037000,0.020000,-0.010000,-0.090000,2.610000,0.489855,Hold,0.900879,0.000000,Hold,-269.000000,2.000000,Suck,-2115.000000,2181.818182,Speed,-2122.500000,2181.818182,Speed,On,Off0.000000,0,,,,
01:41:45.476 PM 03/19/2016,Teleop Enabled,11,FALSE,0,NO ERROR,-0.000000,-0.372166,0.000000,-0.083416,TRUE,FALSE,FALSE,FALSE,FALSE,FALSE,Disabled,0.000000,0.000000,0.000000,TRUE,11.297150,-1.059219,0.000000,0.009140,0.055389,0.000000,0.052000,-0.008000,0.085000,-0.010000,-0.160000,2.630000,0.491425,Hold,0.900879,0.000000,Hold,-268.000000,2.000000,Suck,-2107.500000,2181.818182,Speed,-2122.500000,2181.818182,Speed,On,Off0.000000,0,,,,
01:41:45.576 PM 03/19/2016,Teleop Enabled,10,FALSE,0,NO ERROR,-0.000000,-0.372166,0.000000,-0.083416,TRUE,FALSE,FALSE,FALSE,FALSE,FALSE,Disabled,0.000000,0.000000,0.000000,TRUE,11.298431,-1.056351,0.000000,0.031418,0.065186,0.000000,-0.035000,0.043000,0.009000,-0.010000,-0.120000,2.560000,0.505932,Hold,0.900879,0.000000,Hold,-268.000000,2.000000,Suck,-2115.000000,2181.818182,Speed,-2115.000000,2181.818182,Speed,On,Off0.000000,0,,,,
01:41:45.678 PM 03/19/2016,Teleop Enabled,10,FALSE,0,NO ERROR,-0.000000,-0.372166,0.000000,-0.083416,TRUE,FALSE,FALSE,FALSE,FALSE,FALSE,Disabled,0.000000,0.000000,0.000000,TRUE,11.298935,-1.053375,0.000000,0.003067,0.036148,0.000000,0.005000,-0.051000,0.033000,-0.010000,-0.110000,2.600000,0.528756,Hold,0.900879,0.000000,Hold,-268.000000,2.000000,Suck,-2115.000000,2181.818182,Speed,-2115.000000,2181.818182,Speed,On,Off0.000000,0,,,,
01:41:45.781 PM 03/19/2016,Teleop Enabled,11,FALSE,0,NO ERROR,-0.000000,-0.372166,0.000000,-0.083416,TRUE,FALSE,FALSE,FALSE,FALSE,FALSE,Disabled,0.000000,0.000000,0.000000,TRUE,11.298828,-1.052673,0.000000,-0.016541,0.007828,0.000000,-0.059000,-0.020000,-0.088000,-0.010000,-0.120000,2.570000,0.560748,Hold,0.900879,0.000000,Hold,-268.000000,2.000000,Suck,-2115.000000,2181.818182,Speed,-2122.500000,2181.818182,Speed,On,Off0.000000,0,,,,
01:41:45.881 PM 03/19/2016,Teleop Enabled,10,FALSE,0,NO ERROR,-0.000000,-0.372166,0.000000,-0.083416,TRUE,FALSE,FALSE,FALSE,FALSE,FALSE,Disabled,0.000000,0.000000,0.000000,TRUE,11.298737,-1.053207,0.000000,0.017776,-0.018845,0.000000,0.007000,0.009000,-0.039000,-0.010000,-0.130000,2.590000,0.571719,Hold,0.900879,0.000000,Hold,-268.000000,2.000000,Suck,-2115.000000,2181.818182,Speed,-2122.500000,2181.818182,Speed,On,Off0.000000,0,,,,
01:41:45.982 PM 03/19/2016,Teleop Enabled,11,FALSE,0,NO ERROR,-0.000000,-0.372166,0.000000,-0.083416,TRUE,FALSE,FALSE,FALSE,FALSE,FALSE,Disabled,0.000000,0.000000,0.000000,TRUE,11.299057,-1.054688,0.000000,-0.005463,-0.019699,0.000000,-0.052000,0.136000,0.056000,-0.010000,-0.140000,2.570000,0.583321,Hold,0.900879,0.000000,Hold,-267.000000,2.000000,Suck,-2115.000000,2181.818182,Speed,-2115.000000,2181.818182,Speed,On,Off0.000000,0,,,,
01:41:46.083 PM 03/19/2016,Teleop Enabled,11,FALSE,0,NO ERROR,-0.000000,-0.372166,0.000000,-0.083416,TRUE,FALSE,FALSE,FALSE,FALSE,FALSE,Disabled,0.000000,0.000000,0.000000,TRUE,11.298645,-1.054138,0.000000,-0.003983,0.004501,0.000000,-0.035000,0.003000,0.100000,-0.020000,-0.070000,2.580000,0.595738,Hold,0.900879,0.000000,Hold,-267.000000,2.000000,Suck,-2107.500000,2181.818182,Speed,-2122.500000,2181.818182,Speed,On,Off0.000000,0,,,,
01:41:46.183 PM 03/19/2016,Teleop Enabled,9,FALSE,0,NO ERROR,-0.000000,-0.372166,0.000000,-0.083416,TRUE,FALSE,FALSE,FALSE,FALSE,FALSE,Disabled,0.000000,0.000000,0.000000,TRUE,11.298370,-1.052750,0.000000,-0.000839,0.048691,0.000000,0.030000,0.010000,0.068000,-0.010000,-0.120000,2.600000,0.613398,Hold,0.900879,0.000000,Hold,-267.000000,2.000000,Suck,-2115.000000,2181.818182,Speed,-2122.500000,2181.818182,Speed,On,Off0.000000,0,,,,
01:41:46.286 PM 03/19/2016,Teleop Enabled,10,FALSE,0,NO ERROR,-0.000000,-0.372166,0.000000,-0.083416,TRUE,FALSE,FALSE,FALSE,FALSE,FALSE,Disabled,0.000000,0.000000,0.000000,TRUE,11.298615,-1.050537,0.000000,0.012482,0.000000,0.000000,-0.020000,0.017000,-0.050000,-0.020000,-0.090000,2.590000,0.624632,Hold,0.900879,0.000000,Hold,-267.000000,2.000000,Suck,-2115.000000,2181.818182,Speed,-2122.500000,2181.818182,Speed,On,Off0.000000,0,,,,
01:41:46.386 PM 03/19/2016,Teleop Enabled,10,FALSE,0,NO ERROR,-0.000000,-0.372166,0.000000,-0.083416,TRUE,FALSE,FALSE,FALSE,FALSE,FALSE,Disabled,0.000000,0.000000,0.000000,TRUE,11.298630,-1.052231,0.000000,-0.005066,-0.073242,0.000000,0.006000,-0.039000,-0.004000,-0.020000,-0.110000,2.530000,0.618208,Hold,0.900879,0.000000,Hold,-267.000000,2.000000,Suck,-2107.500000,2181.818182,Speed,-2115.000000,2181.818182,Speed,On,Off0.000000,0,,,,
01:41:46.486 PM 03/19/2016,Teleop Enabled,11,FALSE,0,NO ERROR,-0.000000,-0.372166,0.000000,-0.083416,TRUE,FALSE,FALSE,FALSE,FALSE,FALSE,Disabled,0.000000,0.000000,0.000000,TRUE,11.298447,-1.056381,0.000000,-0.011230,-0.077423,0.000000,-0.032000,-0.041000,-0.034000,-0.020000,-0.110000,2.500000,0.627358,Hold,0.900879,0.000000,Hold,-267.000000,2.000000,Suck,-2107.500000,2181.818182,Speed,-2122.500000,2181.818182,Speed,On,Off0.000000,0,,,,
01:41:46.586 PM 03/19/2016,Teleop Enabled,10,FALSE,0,NO ERROR,-0.000000,-0.372166,0.000000,-0.083416,TRUE,FALSE,FALSE,FALSE,FALSE,FALSE,Disabled,0.000000,0.000000,0.000000,TRUE,11.298599,-1.062561,0.000000,0.030975,-0.110596,0.000000,0.092000,-0.021000,0.005000,-0.020000,-0.120000,2.490000,0.614466,Hold,0.900879,0.000000,Hold,-267.000000,2.000000,Suck,-2115.000000,2181.818182,Speed,-2122.500000,2181.818182,Speed,On,Off0.000000,0,,,,
01:41:46.687 PM 03/19/2016,Teleop Enabled,6,FALSE,0,NO ERROR,-0.000000,-0.372166,0.000000,-0.083416,TRUE,FALSE,FALSE,FALSE,FALSE,FALSE,Disabled,0.000000,0.000000,0.000000,TRUE,11.301239,-1.068512,0.000000,0.051254,-0.122208,0.000000,0.092000,-0.021000,0.005000,-0.020000,-0.110000,2.450000,0.642416,Hold,0.900879,0.000000,Hold,-267.000000,2.000000,Suck,-2115.000000,2181.818182,Speed,-2115.000000,2181.818182,Speed,On,Off0.000000,0,,,,
01:41:46.787 PM 03/19/2016,Teleop Enabled,8,FALSE,0,NO ERROR,-0.000000,-0.372166,0.000000,-0.083416,TRUE,FALSE,FALSE,FALSE,FALSE,FALSE,Disabled,0.000000,0.000000,0.000000,TRUE,11.301987,-1.074692,0.000000,0.010818,-0.105103,0.000000,0.022000,0.031000,0.044000,-0.020000,-0.100000,2.470000,0.645924,Hold,0.900879,0.000000,Hold,-267.000000,143360.000000,Suck,-2115.000000,2181.818182,Speed,-2122.500000,2181.818182,Speed,On,Off0.000000,0,,,,
01:41:46.888 PM 03/19/2016,Teleop Enabled,10,FALSE,0,NO ERROR,-0.000000,-0.372166,0.000000,-0.083416,TRUE,FALSE,FALSE,FALSE,FALSE,FALSE,Disabled,0.000000,0.000000,0.000000,TRUE,11.302429,-1.078308,0.000000,0.008926,-0.076721,0.000000,-0.002000,-0.057000,-0.099000,-0.020000,-0.100000,2.390000,0.655067,Hold,0.900879,208896.000000,Hold,-4796.000000,143360.000000,Suck,-2115.000000,2181.818182,Speed,-2122.500000,2181.818182,Speed,On,Off0.000000,0,,,,
01:41:46.989 PM 03/19/2016,Teleop Enabled,10,FALSE,0,NO ERROR,-0.000000,-0.372166,0.000000,-0.083416,TRUE,FALSE,FALSE,FALSE,FALSE,FALSE,Disabled,0.000000,0.000000,0.000000,TRUE,11.303360,-1.081848,0.000000,0.018326,-0.088348,0.000000,0.012000,-0.158000,-0.046000,-0.040000,-0.010000,2.430000,0.650757,Hold,4.220703,208896.000000,Hold,-19155.000000,143360.000000,Suck,-2115.000000,2181.818182,Speed,-2122.500000,2181.818182,Speed,On,Off0.000000,0,,,,
01:41:47.090 PM 03/19/2016,Teleop Enabled,10,FALSE,0,NO ERROR,-0.000000,-0.378582,0.000000,-0.083416,TRUE,FALSE,FALSE,FALSE,FALSE,FALSE,Disabled,0.000000,0.000000,0.000000,TRUE,11.303543,-1.087296,0.000000,0.000000,-0.123779,0.000000,-0.053000,-0.051000,0.071000,-0.040000,-0.080000,2.420000,0.664472,Hold,8.101807,208896.000000,Hold,-19155.000000,143360.000000,Suck,-2115.000000,2181.818182,Speed,-2130.000000,2181.818182,Speed,On,Off0.000000,0,,,,
01:41:47.190 PM 03/19/2016,Teleop Enabled,10,FALSE,0,NO ERROR,-0.000000,-0.359332,0.000000,-0.070583,TRUE,FALSE,FALSE,FALSE,FALSE,FALSE,Disabled,0.000000,0.000000,0.000000,TRUE,11.303131,-1.093811,0.000000,0.003525,-0.118149,0.000000,0.122000,-0.011000,0.130000,-0.140000,-0.060000,2.440000,0.583362,Hold,13.678955,208896.000000,Hold,-31125.000000,143360.000000,Suck,-2115.000000,2181.818182,Speed,-2137.500000,2181.818182,Speed,On,Off0.000000,0,,,,
01:41:47.290 PM 03/19/2016,Teleop Enabled,10,FALSE,0,NO ERROR,-0.000000,-0.372166,0.000000,-0.077000,TRUE,FALSE,FALSE,FALSE,FALSE,FALSE,Disabled,0.000000,0.000000,0.000000,TRUE,11.305756,-1.094742,0.000000,0.055908,0.007812,0.000000,0.122000,-0.011000,0.130000,-0.070000,-0.070000,2.460000,0.614190,Hold,20.072998,208896.000000,Hold,-31125.000000,143360.000000,Suck,-2115.000000,2181.818182,Speed,-2137.500000,2181.818182,Speed,On,Off0.000000,0,,,,
01:41:47.390 PM 03/19/2016,Teleop Enabled,10,FALSE,0,NO ERROR,-0.000000,-0.378582,0.000000,-0.083416,TRUE,FALSE,FALSE,FALSE,FALSE,FALSE,Disabled,0.000000,0.000000,0.000000,TRUE,11.308472,-1.094757,0.000000,0.077011,-0.005356,0.000000,0.009000,-0.031000,0.013000,-0.080000,-0.180000,2.420000,0.677761,Hold,26.018311,208896.000000,Hold,-42232.000000,143360.000000,Suck,-2122.500000,2181.818182,Speed,-2137.500000,2181.818182,Speed,On,Off0.000000,0,,,,
01:41:47.490 PM 03/19/2016,Teleop Enabled,8,FALSE,0,NO ERROR,-0.000000,-0.397832,0.000000,-0.077000,TRUE,FALSE,FALSE,FALSE,FALSE,FALSE,Disabled,0.000000,0.000000,0.000000,TRUE,11.313293,-1.095383,0.000000,0.123199,-0.018921,0.000000,0.009000,-0.031000,0.013000,-0.140000,-0.340000,2.460000,0.617956,Hold,34.414551,208896.000000,Hold,-54955.000000,143360.000000,Suck,-2122.500000,2181.818182,Speed,-2137.500000,2181.818182,Speed,On,Off0.000000,0,,,,
01:41:47.590 PM 03/19/2016,Teleop Enabled,11,FALSE,0,NO ERROR,-0.000000,-0.603165,0.000000,-0.314416,TRUE,FALSE,FALSE,FALSE,FALSE,FALSE,Disabled,0.000000,0.000000,0.000000,TRUE,11.321899,-1.098114,0.000000,0.190384,-0.067856,0.000000,-0.096000,0.113000,-0.114000,-0.370000,-0.540000,2.430000,0.440806,Hold,44.905273,208896.000000,Hold,-68085.000000,143360.000000,Suck,-2122.500000,2181.818182,Speed,-2145.000000,2181.818182,Speed,On,Off0.000000,0,,,,
01:41:47.691 PM 03/19/2016,Teleop Enabled,11,FALSE,0,NO ERROR,-0.000000,-0.667332,0.000000,-0.802081,TRUE,FALSE,FALSE,FALSE,FALSE,FALSE,Disabled,0.000000,0.000000,0.000000,TRUE,11.329620,-1.099548,0.000000,0.136414,-0.006805,0.000000,-0.017000,0.107000,0.222000,-0.160000,-0.800000,2.600000,0.618724,Hold,53.956543,208896.000000,Hold,-84901.000000,143360.000000,Suck,-2130.000000,2181.818182,Speed,-2145.000000,2181.818182,Speed,On,Off0.000000,0,,,,
01:41:47.791 PM 03/19/2016,Teleop Enabled,10,FALSE,0,NO ERROR,-0.000000,-0.686582,0.000000,-0.956081,TRUE,FALSE,FALSE,FALSE,FALSE,FALSE,Disabled,0.000000,0.000000,0.000000,TRUE,11.335831,-1.098633,0.000000,0.104095,0.018387,0.000000,-0.199000,0.031000,0.080000,0.240000,-0.790000,2.480000,1.023149,Hold,56.398193,208896.000000,Hold,-101050.000000,143360.000000,Suck,-2122.500000,2181.818182,Speed,-2145.000000,2181.818182,Speed,On,Off0.000000,0,,,,
01:41:47.891 PM 03/19/2016,Teleop Enabled,9,FALSE,0,NO ERROR,-0.000000,-0.686582,0.000000,-0.879081,TRUE,FALSE,FALSE,FALSE,FALSE,FALSE,Disabled,0.000000,0.000000,0.000000,TRUE,11.337173,-1.095154,0.000000,0.008911,0.080215,0.000000,0.064000,-0.091000,-0.119000,0.090000,-0.930000,2.490000,0.875863,Hold,56.021484,208896.000000,Hold,-101050.000000,143360.000000,Suck,-2115.000000,2181.818182,Speed,-2130.000000,2181.818182,Speed,On,Off0.000000,0,,,,
01:41:47.990 PM 03/19/2016,Teleop Enabled,9,FALSE,0,NO ERROR,-0.000000,-0.686582,0.000000,-0.840581,TRUE,FALSE,FALSE,FALSE,FALSE,FALSE,Disabled,0.000000,0.000000,0.000000,TRUE,11.339737,-1.092743,0.000000,0.077286,0.050415,0.000000,0.064000,-0.091000,-0.119000,0.110000,-0.620000,2.530000,0.915004,Hold,55.639160,208896.000000,Hold,-118119.000000,143360.000000,Suck,-2115.000000,2181.818182,Speed,-2130.000000,2181.818182,Speed,On,Off0.000000,0,,,,
01:41:48.090 PM 03/19/2016,Teleop Enabled,10,FALSE,0,NO ERROR,-0.000000,-0.686582,0.000000,-0.846998,TRUE,FALSE,FALSE,FALSE,FALSE,FALSE,Disabled,0.000000,0.000000,0.000000,TRUE,11.345993,-1.089172,0.000000,0.088348,0.082062,0.000000,0.030000,-0.077000,0.176000,0.090000,-0.670000,2.460000,0.915855,Hold,55.548828,208896.000000,Hold,-135521.000000,143360.000000,Suck,-2122.500000,2181.818182,Speed,-2137.500000,2181.818182,Speed,On,Off0.000000,0,,,,
01:41:48.191 PM 03/19/2016,Teleop Enabled,9,FALSE,0,NO ERROR,-0.000000,-0.686582,0.000000,-0.846998,TRUE,FALSE,FALSE,FALSE,FALSE,FALSE,Disabled,0.000000,0.000000,0.000000,TRUE,11.351364,-1.085632,0.000000,0.110138,0.000000,0.000000,-0.066000,0.051000,-0.086000,0.080000,-0.580000,2.490000,0.915311,Hold,55.458984,208896.000000,Hold,-143052.000000,143360.000000,Suck,-2115.000000,2181.818182,Speed,-2130.000000,2181.818182,Speed,On,Off0.000000,0,,,,
01:41:48.290 PM 03/19/2016,Teleop Enabled,9,FALSE,0,NO ERROR,-0.000000,-0.686582,0.000000,-0.846998,TRUE,FALSE,FALSE,FALSE,FALSE,FALSE,Disabled,0.000000,0.000000,0.000000,TRUE,11.355194,-1.085907,0.000000,0.061310,-0.003647,0.000000,-0.093000,-0.030000,0.025000,0.090000,-0.610000,2.500000,0.927191,Hold,55.458984,208896.000000,Hold,-143384.000000,143360.000000,Suck,-2107.500000,2181.818182,Speed,-2115.000000,2181.818182,Speed,On,Off0.000000,0,,,,
01:41:48.391 PM 03/19/2016,Teleop Enabled,10,FALSE,0,NO ERROR,-0.000000,-0.686582,0.000000,-0.846998,TRUE,FALSE,FALSE,FALSE,FALSE,FALSE,Disabled,0.000000,0.000000,0.000000,TRUE,11.356140,-1.087830,0.000000,0.024445,0.000000,0.000000,-0.018000,-0.134000,-0.093000,0.090000,-0.610000,2.500000,0.935081,Hold,55.458252,208896.000000,Hold,-143451.000000,143360.000000,Suck,-2122.500000,2181.818182,Speed,-2130.000000,2181.818182,Speed,On,Off0.000000,0,,,,
01:41:48.490 PM 03/19/2016,Teleop Enabled,10,FALSE,0,NO ERROR,-0.000000,-0.686582,0.000000,-0.846998,TRUE,FALSE,FALSE,FALSE,FALSE,FALSE,Disabled,0.000000,0.000000,0.000000,TRUE,11.356125,-1.086304,0.000000,-0.017700,0.037094,0.000000,0.010000,0.047000,0.094000,0.080000,-0.630000,2.410000,0.936858,Hold,55.458008,208896.000000,Hold,-143451.000000,143360.000000,Suck,-2130.000000,2181.818182,Speed,-2137.500000,2181.818182,Speed,On,Off0.000000,0,,,,
01:41:48.591 PM 03/19/2016,Teleop Enabled,10,FALSE,0,NO ERROR,-0.000000,-0.686582,0.000000,-0.846998,TRUE,FALSE,FALSE,FALSE,FALSE,FALSE,Disabled,0.000000,0.000000,0.000000,TRUE,11.355484,-1.087082,0.000000,0.009888,-0.033905,0.000000,0.050000,0.017000,-0.116000,0.080000,-0.620000,2.420000,0.952246,Hold,55.457764,208896.000000,Hold,-143451.000000,143360.000000,Suck,-2122.500000,2181.818182,Speed,-2137.500000,2181.818182,Speed,On,Off0.000000,0,,,,
01:41:48.691 PM 03/19/2016,Teleop Enabled,11,FALSE,0,NO ERROR,-0.000000,-0.686582,0.000000,-0.846998,TRUE,FALSE,FALSE,FALSE,FALSE,FALSE,Disabled,0.000000,0.000000,0.000000,TRUE,11.356262,-1.087677,0.000000,0.001495,0.001099,0.000000,0.004000,0.057000,0.062000,0.080000,-0.630000,2.400000,0.957554,Hold,55.456787,208896.000000,Hold,-143451.000000,143360.000000,Suck,-2122.500000,2181.818182,Speed,-2130.000000,2181.818182,Speed,On,Off0.000000,0,,,,
01:41:48.792 PM 03/19/2016,Teleop Enabled,10,FALSE,0,NO ERROR,-0.000000,-0.686582,0.000000,-0.846998,TRUE,FALSE,FALSE,FALSE,FALSE,FALSE,Disabled,0.000000,0.000000,0.000000,TRUE,11.354630,-1.087051,0.000000,-0.037628,0.027634,0.000000,-0.100000,-0.013000,-0.077000,0.080000,-0.590000,2.370000,0.955578,Hold,55.455566,208896.000000,Hold,-143451.000000,143360.000000,Suck,-2115.000000,2181.818182,Speed,-2137.500000,2181.818182,Speed,On,Off0.000000,0,,,,
01:41:48.895 PM 03/19/2016,Teleop Enabled,9,FALSE,0,NO ERROR,-0.000000,-0.686582,0.000000,-0.846998,TRUE,FALSE,FALSE,FALSE,FALSE,FALSE,Disabled,0.000000,0.000000,0.000000,TRUE,11.354172,-1.086075,0.000000,0.013290,0.005692,0.000000,-0.011000,0.026000,-0.060000,0.080000,-0.640000,2.450000,0.967562,Hold,55.455566,208896.000000,Hold,-143451.000000,143360.000000,Suck,-2122.500000,2181.818182,Speed,-2130.000000,2181.818182,Speed,On,Off0.000000,0,,,,
01:41:48.995 PM 03/19/2016,Teleop Enabled,10,FALSE,0,NO ERROR,-0.000000,-0.686582,0.000000,-0.846998,TRUE,FALSE,FALSE,FALSE,FALSE,FALSE,Disabled,0.000000,0.000000,0.000000,TRUE,11.354172,-1.086075,0.000000,0.013290,0.005692,0.000000,0.098000,0.091000,0.183000,0.070000,-0.610000,2.420000,0.995849,Hold,55.455322,208896.000000,Hold,-143451.000000,143360.000000,Suck,-2122.500000,2181.818182,Speed,-2130.000000,2181.818182,Speed,On,Off0.000000,0,,,,
01:41:49.095 PM 03/19/2016,Teleop Enabled,10,FALSE,0,NO ERROR,-0.000000,-0.686582,0.000000,-0.846998,TRUE,FALSE,FALSE,FALSE,FALSE,FALSE,Disabled,0.000000,0.000000,0.000000,TRUE,11.356918,-1.084900,0.000000,0.056152,0.019547,0.000000,0.012000,0.047000,0.102000,0.060000,-0.630000,2.540000,1.015913,Hold,55.453369,208896.000000,Hold,-143451.000000,143360.000000,Suck,-2115.000000,2181.818182,Speed,-2130.000000,2181.818182,Speed,On,Off0.000000,0,,,,
01:41:49.196 PM 03/19/2016,Teleop Enabled,9,FALSE,0,NO ERROR,-0.000000,-0.686582,0.000000,-0.846998,TRUE,FALSE,FALSE,FALSE,FALSE,FALSE,Disabled,0.000000,0.000000,0.000000,TRUE,11.359360,-1.083374,0.000000,0.003464,0.016296,0.000000,0.033000,-0.027000,0.098000,0.060000,-0.610000,2.500000,1.028037,Hold,55.451416,208896.000000,Hold,-143450.000000,143360.000000,Suck,-2122.500000,2181.818182,Speed,-2137.500000,2181.818182,Speed,On,Off0.000000,0,,,,
01:41:49.296 PM 03/19/2016,Teleop Enabled,8,FALSE,0,NO ERROR,-0.000000,-0.686582,0.000000,-0.846998,TRUE,FALSE,FALSE,FALSE,FALSE,FALSE,Disabled,0.000000,0.000000,0.000000,TRUE,11.360275,-1.081436,0.000000,0.008713,0.045609,0.000000,-0.178000,0.042000,0.182000,0.060000,-0.580000,2.560000,1.028037,Hold,55.451172,208896.000000,Hold,-143450.000000,143360.000000,Suck,-2122.500000,2181.818182,Speed,-2130.000000,2181.818182,Speed,On,Off0.000000,0,,,,
01:41:49.397 PM 03/19/2016,Teleop Enabled,8,FALSE,0,NO ERROR,-0.000000,-0.686582,0.000000,-0.846998,TRUE,FALSE,FALSE,FALSE,FALSE,FALSE,Disabled,0.000000,0.000000,0.000000,TRUE,11.360489,-1.078476,0.000000,0.019455,0.044525,0.000000,0.024000,-0.024000,0.237000,0.060000,-0.600000,2.560000,1.033514,Hold,55.450928,208896.000000,Hold,-143450.000000,143360.000000,Suck,-2122.500000,2181.818182,Speed,-2137.500000,2181.818182,Speed,On,Off0.000000,0,,,,
01:41:49.498 PM 03/19/2016,Teleop Enabled,11,FALSE,0,NO ERROR,-0.000000,-0.686582,0.000000,-0.846998,TRUE,FALSE,FALSE,FALSE,FALSE,FALSE,Disabled,0.000000,0.000000,0.000000,TRUE,11.361298,-1.075531,0.000000,0.004166,0.063461,0.000000,-0.096000,-0.021000,0.164000,0.070000,-0.580000,2.570000,1.055230,Hold,55.450928,208896.000000,Hold,-143450.000000,143360.000000,Suck,-2115.000000,2181.818182,Speed,-2137.500000,2181.818182,Speed,On,Off0.000000,0,,,,
01:41:49.600 PM 03/19/2016,Teleop Enabled,11,FALSE,0,NO ERROR,-0.000000,-0.686582,0.000000,-0.846998,TRUE,FALSE,FALSE,FALSE,FALSE,FALSE,Disabled,0.000000,0.000000,0.000000,TRUE,11.360168,-1.072479,0.000000,-0.039642,0.069153,0.000000,-0.023000,0.072000,-0.042000,0.070000,-0.600000,2.560000,1.066174,Hold,55.450684,208896.000000,Hold,-143450.000000,143360.000000,Suck,-2122.500000,2181.818182,Speed,-2137.500000,2181.818182,Speed,On,Off0.000000,0,,,,
01:41:49.700 PM 03/19/2016,Teleop Enabled,10,FALSE,0,NO ERROR,-0.000000,-0.686582,0.000000,-0.846998,TRUE,FALSE,FALSE,FALSE,FALSE,FALSE,Disabled,0.000000,0.000000,0.000000,TRUE,11.357056,-1.066940,0.000000,-0.098663,0.137375,0.000000,0.024000,0.101000,0.014000,0.070000,-0.610000,2.510000,1.077128,Hold,55.446777,208896.000000,Hold,-143450.000000,143360.000000,Suck,-2122.500000,2181.818182,Speed,-2130.000000,2181.818182,Speed,On,Off0.000000,0,,,,
01:41:49.801 PM 03/19/2016,Teleop Enabled,11,FALSE,0,NO ERROR,-0.000000,-0.686582,0.000000,-0.846998,TRUE,FALSE,FALSE,FALSE,FALSE,FALSE,Disabled,0.000000,0.000000,0.000000,TRUE,11.351669,-1.059021,0.000000,-0.123306,0.165527,0.000000,-0.057000,0.037000,-0.181000,0.080000,-0.590000,2.580000,1.085411,Hold,55.446289,208896.000000,Hold,-143450.000000,143360.000000,Suck,-2122.500000,2181.818182,Speed,-2130.000000,2181.818182,Speed,On,Off0.000000,0,,,,
01:41:49.901 PM 03/19/2016,Teleop Enabled,11,FALSE,0,NO ERROR,-0.000000,-0.686582,0.000000,-0.846998,TRUE,FALSE,FALSE,FALSE,FALSE,FALSE,Disabled,0.000000,0.000000,0.000000,TRUE,11.345474,-1.050522,0.000000,-0.107437,0.150681,0.000000,0.082000,0.014000,-0.002000,0.060000,-0.600000,2.550000,1.088540,Hold,55.445801,208896.000000,Hold,-143450.000000,143360.000000,Suck,-2115.000000,2181.818182,Speed,-2137.500000,2181.818182,Speed,On,Off0.000000,0,,,,
01:41:50.001 PM 03/19/2016,Teleop Enabled,10,FALSE,0,NO ERROR,-0.000000,-0.686582,0.000000,-0.846998,TRUE,FALSE,FALSE,FALSE,FALSE,FALSE,Disabled,0.000000,0.000000,0.000000,TRUE,11.341980,-1.042740,0.000000,-0.053146,0.167786,0.000000,0.033000,-0.095000,-0.051000,0.060000,-0.570000,2.580000,1.104586,Hold,55.445557,208896.000000,Hold,-143450.000000,143360.000000,Suck,-2122.500000,2181.818182,Speed,-2137.500000,2181.818182,Speed,On,Off0.000000,0,,,,
01:41:50.103 PM 03/19/2016,Teleop Enabled,11,FALSE,0,NO ERROR,-0.000000,-0.686582,0.000000,-0.846998,TRUE,FALSE,FALSE,FALSE,FALSE,FALSE,Disabled,0.000000,0.000000,0.000000,TRUE,11.339401,-1.039291,0.000000,-0.054825,0.007767,0.000000,-0.074000,0.000000,0.045000,0.070000,-0.600000,2.630000,1.114573,Hold,55.445312,208896.000000,Hold,-143450.000000,143360.000000,Suck,-2122.500000,2181.818182,Speed,-2137.500000,2181.818182,Speed,On,Off0.000000,0,,,,
01:41:50.203 PM 03/19/2016,Teleop Enabled,11,FALSE,0,NO ERROR,-0.000000,-0.686582,0.000000,-0.846998,TRUE,FALSE,FALSE,FALSE,FALSE,FALSE,Disabled,0.000000,0.000000,0.000000,TRUE,11.337173,-1.038696,0.000000,-0.034714,0.018341,0.000000,-0.048000,-0.111000,0.014000,0.060000,-0.560000,2.630000,1.128953,Hold,55.445312,208896.000000,Hold,-143450.000000,143360.000000,Suck,-2122.500000,2181.818182,Speed,-2137.500000,2181.818182,Speed,On,Off0.000000,0,,,,
01:41:50.304 PM 03/19/2016,Teleop Enabled,11,FALSE,0,NO ERROR,-0.000000,-0.686582,0.000000,-0.846998,TRUE,FALSE,FALSE,FALSE,FALSE,FALSE,Disabled,0.000000,0.000000,0.000000,TRUE,11.334793,-1.038544,0.000000,-0.060501,0.004089,0.000000,-0.050000,-0.073000,-0.051000,0.060000,-0.610000,2.640000,1.145071,Hold,55.445312,208896.000000,Hold,-143450.000000,143360.000000,Suck,-2122.500000,2181.818182,Speed,-2130.000000,2181.818182,Speed,On,Off0.000000,0,,,,
01:41:50.404 PM 03/19/2016,Teleop Enabled,11,FALSE,0,NO ERROR,-0.000000,-0.686582,0.000000,-0.846998,TRUE,FALSE,FALSE,FALSE,FALSE,FALSE,Disabled,0.000000,0.000000,0.000000,TRUE,11.332520,-1.039810,0.000000,-0.013062,-0.022400,0.000000,-0.097000,0.137000,0.310000,0.060000,-0.570000,2.600000,1.162707,Hold,55.445312,208896.000000,Hold,-143450.000000,143360.000000,Suck,-2122.500000,2181.818182,Speed,-2130.000000,2181.818182,Speed,On,Off0.000000,0,,,,
01:41:50.504 PM 03/19/2016,Teleop Enabled,10,FALSE,0,NO ERROR,-0.000000,-0.686582,0.000000,-0.846998,TRUE,FALSE,FALSE,FALSE,FALSE,FALSE,Disabled,0.000000,0.000000,0.000000,TRUE,11.331573,-1.038971,0.000000,0.000000,0.034882,0.000000,-0.008000,0.014000,0.054000,0.070000,-0.580000,2.660000,1.177899,Hold,55.444824,208896.000000,Hold,-143450.000000,143360.000000,Suck,-2122.500000,2181.818182,Speed,-2137.500000,2181.818182,Speed,On,Off0.000000,0,,,,
01:41:50.604 PM 03/19/2016,Teleop Enabled,11,FALSE,0,NO ERROR,-0.000000,-0.686582,0.000000,-0.846998,TRUE,FALSE,FALSE,FALSE,FALSE,FALSE,Disabled,0.000000,0.000000,0.000000,TRUE,11.330399,-1.037994,0.000000,-0.018143,0.003143,0.000000,0.037000,-0.007000,-0.020000,0.080000,-0.570000,2.640000,1.183321,Hold,54.902832,208896.000000,Hold,-143450.000000,143360.000000,Suck,-2122.500000,2181.818182,Speed,-2115.000000,2181.818182,Speed,On,Off0.000000,0,,,,
01:41:50.705 PM 03/19/2016,Teleop Enabled,10,FALSE,0,NO ERROR,-0.000000,-0.686582,0.000000,-0.846998,TRUE,FALSE,FALSE,FALSE,FALSE,FALSE,Disabled,0.000000,0.000000,0.000000,TRUE,11.330154,-1.037537,0.000000,0.005249,0.020111,0.000000,-0.044000,-0.050000,0.012000,0.030000,-0.520000,2.660000,1.162913,Hold,53.074951,208896.000000,Hold,-143450.000000,143360.000000,Suck,-2115.000000,2181.818182,Speed,-1215.000000,2181.818182,Speed,On,Off0.000000,0,,,,
01:41:50.806 PM 03/19/2016,Teleop Enabled,10,FALSE,0,NO ERROR,-0.000000,-0.686582,0.000000,-0.846998,TRUE,FALSE,FALSE,FALSE,FALSE,FALSE,Disabled,0.000000,0.000000,0.000000,TRUE,11.330215,-1.036194,0.000000,0.000000,0.029327,0.000000,-0.025000,-0.186000,-0.052000,0.100000,-0.600000,2.750000,1.218087,Hold,53.211426,208896.000000,Hold,-143450.000000,143360.000000,Suck,-1770.000000,2181.818182,Speed,-1357.500000,2181.818182,Speed,On,Off0.000000,0,,,,
01:41:50.906 PM 03/19/2016,Teleop Enabled,10,FALSE,0,NO ERROR,-0.000000,-0.686582,0.000000,-0.846998,TRUE,FALSE,TRUE,FALSE,FALSE,FALSE,Disabled,0.000000,0.000000,0.000000,TRUE,11.330536,-1.036911,0.000000,0.026077,-0.033997,0.000000,-0.072000,-0.019000,-0.005000,0.030000,-0.580000,2.630000,1.192963,Hold,54.345459,208896.000000,Hold,-143450.000000,143360.000000,Suck,-967.500000,2181.818182,Speed,-735.000000,2181.818182,Speed,On,Off0.000000,0,,,,
01:41:51.007 PM 03/19/2016,Teleop Enabled,10,FALSE,0,NO ERROR,-0.000000,-0.686582,0.000000,-0.846998,TRUE,FALSE,TRUE,FALSE,FALSE,FALSE,Disabled,0.000000,0.000000,0.000000,TRUE,11.332214,-1.037796,0.000000,0.046448,0.000000,0.000000,0.019000,0.017000,0.060000,0.110000,-0.530000,2.650000,1.258851,Hold,54.604736,208896.000000,Hold,-143450.000000,143360.000000,Suck,-945.000000,2181.818182,Speed,-975.000000,2181.818182,Speed,On,Off0.000000,0,,,,
01:41:51.107 PM 03/19/2016,Teleop Enabled,11,FALSE,0,NO ERROR,-0.000000,-0.686582,0.000000,-0.846998,TRUE,FALSE,TRUE,FALSE,FALSE,FALSE,Disabled,0.000000,0.000000,0.000000,TRUE,11.334717,-1.037582,0.000000,0.057632,0.008026,0.000000,0.033000,0.004000,0.170000,0.090000,-0.550000,2.620000,1.258802,Hold,54.604980,208896.000000,Hold,-143450.000000,143360.000000,Suck,-1590.000000,2181.818182,Speed,-1560.000000,2181.818182,Speed,On,Off0.000000,0,,,,
01:41:51.207 PM 03/19/2016,Teleop Enabled,9,FALSE,0,NO ERROR,-0.000000,-0.686582,0.000000,-0.846998,TRUE,FALSE,TRUE,FALSE,FALSE,FALSE,Disabled,0.000000,0.000000,0.000000,TRUE,11.337463,-1.037720,0.000000,0.053452,0.000000,0.000000,0.001000,0.087000,-0.034000,0.040000,-0.500000,2.630000,1.234660,Hold,54.604980,208896.000000,Hold,-143450.000000,143360.000000,Suck,-2100.000000,2181.818182,Speed,-2130.000000,2181.818182,Speed,On,Off0.000000,0,,,,
01:41:51.308 PM 03/19/2016,Teleop Enabled,8,FALSE,0,NO ERROR,-0.000000,-0.686582,0.000000,-0.846998,TRUE,FALSE,TRUE,FALSE,FALSE,FALSE,Disabled,0.000000,0.000000,0.000000,TRUE,11.339249,-1.037369,0.000000,0.019318,-0.000214,0.000000,-0.049000,-0.052000,-0.057000,0.060000,-0.540000,2.610000,1.261212,Hold,54.604736,208896.000000,Hold,-143450.000000,143360.000000,Suck,-2265.000000,2181.818182,Speed,-2287.500000,2181.818182,Speed,On,Off0.000000,0,,,,
01:41:51.408 PM 03/19/2016,Teleop Enabled,8,FALSE,0,NO ERROR,-0.000000,-0.686582,0.000000,-0.846998,TRUE,FALSE,TRUE,FALSE,FALSE,FALSE,Disabled,0.000000,0.000000,0.000000,TRUE,11.339615,-1.037842,0.000000,0.000000,-0.001648,0.000000,-0.012000,-0.008000,0.000000,0.060000,-0.550000,2.630000,1.265973,Hold,54.597656,208896.000000,Hold,-143450.000000,143360.000000,Suck,-2152.500000,2181.818182,Speed,-2130.000000,2181.818182,Speed,On,Off0.000000,0,,,,
01:41:51.509 PM 03/19/2016,Teleop Enabled,9,FALSE,0,NO ERROR,-0.000000,-0.686582,0.000000,-0.846998,TRUE,FALSE,TRUE,FALSE,FALSE,FALSE,Disabled,0.000000,0.000000,0.000000,TRUE,11.339798,-1.038513,0.000000,-0.000580,-0.029877,0.000000,0.068000,0.064000,0.176000,0.050000,-0.520000,2.640000,1.264383,Hold,54.597656,208896.000000,Hold,-143450.000000,143360.000000,Suck,-2070.000000,2181.818182,Speed,-2085.000000,2181.818182,Speed,On,Off0.000000,0,,,,
01:41:51.608 PM 03/19/2016,Teleop Enabled,9,FALSE,0,NO ERROR,-0.000000,-0.686582,0.000000,-0.846998,TRUE,FALSE,TRUE,FALSE,FALSE,FALSE,Disabled,0.000000,0.000000,0.000000,TRUE,11.340607,-1.039963,0.000000,0.009827,-0.041550,0.000000,0.083000,0.019000,0.044000,0.060000,-0.540000,2.620000,1.266431,Hold,54.597656,208896.000000,Hold,-143450.000000,143360.000000,Suck,-2115.000000,2181.818182,Speed,-2130.000000,2181.818182,Speed,On,Off0.000000,0,,,,
01:41:51.709 PM 03/19/2016,Teleop Enabled,10,FALSE,0,NO ERROR,-0.000000,-0.686582,0.000000,-0.846998,TRUE,FALSE,TRUE,FALSE,FALSE,FALSE,Disabled,0.000000,0.000000,0.000000,TRUE,11.340805,-1.039749,0.000000,0.000000,-0.001129,0.000000,-0.017000,0.096000,0.039000,0.050000,-0.510000,2.590000,1.279950,Hold,54.597656,208896.000000,Hold,-143450.000000,143360.000000,Suck,-2145.000000,2181.818182,Speed,-2152.500000,2181.818182,Speed,On,Off0.000000,0,,,,
01:41:51.809 PM 03/19/2016,Teleop Enabled,9,FALSE,0,NO ERROR,-0.000000,-0.686582,0.000000,-0.846998,TRUE,FALSE,TRUE,FALSE,FALSE,FALSE,Disabled,0.000000,0.000000,0.000000,TRUE,11.340836,-1.037689,0.000000,0.004120,0.063629,0.000000,0.009000,0.062000,0.092000,0.060000,-0.570000,2.650000,1.291393,Hold,54.597656,208896.000000,Hold,-143450.000000,143360.000000,Suck,-2122.500000,2181.818182,Speed,-2130.000000,2181.818182,Speed,On,Off0.000000,0,,,,
01:41:51.908 PM 03/19/2016,Teleop Enabled,10,FALSE,0,NO ERROR,-0.000000,-0.686582,0.000000,-0.846998,TRUE,FALSE,TRUE,FALSE,FALSE,FALSE,Disabled,0.000000,0.000000,0.000000,TRUE,11.340714,-1.033844,0.000000,-0.003113,0.070679,0.000000,0.087000,0.030000,0.216000,0.060000,-0.570000,2.610000,1.308764,Hold,54.597656,208896.000000,Hold,-143450.000000,143360.000000,Suck,-2115.000000,2181.818182,Speed,-2122.500000,2181.818182,Speed,On,Off0.000000,0,,,,
01:41:52.008 PM 03/19/2016,Teleop Enabled,10,FALSE,0,NO ERROR,-0.000000,-0.686582,0.000000,-0.846998,TRUE,FALSE,TRUE,FALSE,FALSE,FALSE,Disabled,0.000000,0.000000,0.000000,TRUE,11.341736,-1.031372,0.000000,0.011810,0.003357,0.000000,-0.034000,0.127000,0.109000,0.060000,-0.570000,2.600000,1.316414,Hold,54.597656,208896.000000,Hold,-143450.000000,143360.000000,Suck,-2122.500000,2181.818182,Speed,-2130.000000,2181.818182,Speed,On,Off0.000000,0,,,,
01:41:52.108 PM 03/19/2016,Teleop Enabled,8,FALSE,0,NO ERROR,-0.000000,-0.686582,0.000000,-0.846998,TRUE,FALSE,TRUE,FALSE,FALSE,FALSE,Disabled,0.000000,0.000000,0.000000,TRUE,11.342438,-1.030411,0.000000,0.000488,-0.000565,0.000000,-0.028000,0.001000,0.008000,0.060000,-0.570000,2.580000,1.333389,Hold,54.597656,208896.000000,Hold,-143450.000000,143360.000000,Hold,-2122.500000,0.000000,Speed,-2137.500000,0.000000,Speed,Off,Off0.000000,0,,,,
01:41:52.208 PM 03/19/2016,Teleop Enabled,9,FALSE,0,NO ERROR,-0.000000,-0.686582,0.000000,-0.846998,TRUE,FALSE,TRUE,FALSE,FALSE,FALSE,Disabled,0.000000,0.000000,0.000000,TRUE,11.341461,-1.030975,0.000000,-0.015274,-0.019012,0.000000,0.027000,-0.003000,0.019000,0.070000,-0.600000,2.620000,1.363849,Hold,54.597656,208896.000000,Hold,-143450.000000,143360.000000,Hold,-2115.000000,0.000000,Speed,-2107.500000,0.000000,Speed,Off,Off0.000000,0,,,,
01:41:52.308 PM 03/19/2016,Teleop Enabled,9,FALSE,0,NO ERROR,-0.000000,-0.686582,0.000000,-0.846998,TRUE,FALSE,TRUE,FALSE,FALSE,FALSE,Disabled,0.000000,0.000000,0.000000,TRUE,11.340134,-1.031189,0.000000,-0.025787,-0.010101,0.000000,-0.059000,0.105000,0.082000,0.060000,-0.580000,2.610000,1.337878,Hold,54.597656,208896.000000,Hold,-143450.000000,143360.000000,Hold,-1957.500000,0.000000,Speed,-1950.000000,0.000000,Speed,Off,Off0.000000,0,,,,
01:41:52.409 PM 03/19/2016,Teleop Enabled,8,FALSE,0,NO ERROR,-0.000000,-0.686582,0.000000,-0.846998,TRUE,FALSE,TRUE,FALSE,FALSE,FALSE,Disabled,0.000000,0.000000,0.000000,TRUE,11.338318,-1.030945,0.000000,-0.071671,0.000992,0.000000,-0.165000,0.062000,-0.060000,0.060000,-0.580000,2.620000,1.355087,Hold,54.597656,208896.000000,Hold,-143450.000000,143360.000000,Hold,-1732.500000,0.000000,Speed,-1747.500000,0.000000,Speed,Off,Off0.000000,0,,,,
01:41:52.509 PM 03/19/2016,Teleop Enabled,8,FALSE,0,NO ERROR,-0.000000,-0.686582,0.000000,-0.846998,TRUE,FALSE,TRUE,FALSE,FALSE,FALSE,Disabled,0.000000,0.000000,0.000000,TRUE,11.334030,-1.029724,0.000000,-0.091934,0.037933,0.000000,-0.107000,-0.105000,-0.079000,0.070000,-0.590000,2.660000,1.355318,Hold,54.597656,208896.000000,Hold,-143450.000000,143360.000000,Hold,-1515.000000,0.000000,Speed,-1590.000000,0.000000,Speed,Off,Off0.000000,0,,,,
01:41:52.608 PM 03/19/2016,Teleop Enabled,10,FALSE,0,NO ERROR,-0.000000,-0.686582,0.000000,-0.846998,TRUE,FALSE,TRUE,FALSE,FALSE,FALSE,Disabled,0.000000,0.000000,0.000000,TRUE,11.329330,-1.028381,0.000000,-0.091812,0.040665,0.000000,0.050000,-0.097000,-0.021000,0.060000,-0.630000,2.670000,1.374235,Hold,54.597656,208896.000000,Hold,-143450.000000,143360.000000,Hold,-1305.000000,0.000000,Speed,-1395.000000,0.000000,Speed,Off,Off0.000000,0,,,,
01:41:52.709 PM 03/19/2016,Teleop Enabled,10,FALSE,0,NO ERROR,-0.000000,-0.686582,0.000000,-0.846998,TRUE,FALSE,TRUE,FALSE,FALSE,FALSE,Disabled,0.000000,0.000000,0.000000,TRUE,11.325241,-1.027115,0.000000,-0.087891,-0.002472,0.000000,0.038000,0.088000,0.078000,0.070000,-0.640000,2.680000,1.376348,Hold,54.597656,208896.000000,Hold,-143450.000000,143360.000000,Hold,-1087.500000,0.000000,Speed,-1207.500000,0.000000,Speed,Off,Off0.000000,0,,,,
01:41:52.808 PM 03/19/2016,Teleop Enabled,9,FALSE,0,NO ERROR,-0.000000,-0.686582,0.000000,-0.846998,TRUE,FALSE,TRUE,FALSE,FALSE,FALSE,Disabled,0.000000,0.000000,0.000000,TRUE,11.321060,-1.026367,0.000000,-0.086365,0.032303,0.000000,-0.125000,-0.066000,0.037000,0.060000,-0.640000,2.730000,1.379478,Hold,54.597656,208896.000000,Hold,-143450.000000,143360.000000,Hold,-930.000000,0.000000,Speed,-1027.500000,0.000000,Speed,Off,Off0.000000,0,,,,
01:41:52.908 PM 03/19/2016,Teleop Enabled,9,FALSE,0,NO ERROR,-0.000000,-0.686582,0.000000,-0.846998,TRUE,FALSE,TRUE,FALSE,FALSE,FALSE,Disabled,0.000000,0.000000,0.000000,TRUE,11.315552,-1.025375,0.000000,-0.114243,0.032333,0.000000,-0.079000,0.041000,-0.093000,0.070000,-0.620000,2.710000,1.392625,Hold,54.597656,208896.000000,Hold,-143450.000000,143360.000000,Hold,-750.000000,0.000000,Speed,-855.000000,0.000000,Speed,Off,Off0.000000,0,,,,
01:41:53.008 PM 03/19/2016,Teleop Enabled,8,FALSE,0,NO ERROR,-0.000000,-0.686582,0.000000,-0.846998,TRUE,FALSE,TRUE,FALSE,FALSE,FALSE,Disabled,0.000000,0.000000,0.000000,TRUE,11.309586,-1.023315,0.000000,-0.114975,0.026978,0.000000,0.156000,0.034000,0.001000,0.060000,-0.630000,2.710000,1.402013,Hold,54.597656,208896.000000,Hold,-143450.000000,143360.000000,Hold,-562.500000,0.000000,Speed,-682.500000,0.000000,Speed,Off,Off0.000000,0,,,,
01:41:53.109 PM 03/19/2016,Teleop Enabled,7,FALSE,0,NO ERROR,-0.000000,-0.686582,0.000000,-0.846998,TRUE,FALSE,TRUE,FALSE,FALSE,FALSE,Disabled,0.000000,0.000000,0.000000,TRUE,11.304626,-1.021545,0.000000,-0.089813,0.030487,0.000000,-0.084000,-0.155000,0.103000,0.060000,-0.600000,2.700000,1.408998,Hold,54.597656,208896.000000,Hold,-143450.000000,143360.000000,Hold,-375.000000,0.000000,Speed,-555.000000,0.000000,Speed,Off,Off0.000000,0,,,,
01:41:53.210 PM 03/19/2016,Teleop Enabled,9,FALSE,0,NO ERROR,-0.000000,-0.686582,0.000000,-0.846998,TRUE,FALSE,TRUE,FALSE,FALSE,FALSE,Disabled,0.000000,0.000000,0.000000,TRUE,11.299713,-1.021423,0.000000,-0.098221,0.008194,0.000000,-0.040000,0.023000,-0.009000,0.060000,-0.590000,2.680000,1.421852,Hold,54.597656,208896.000000,Hold,-143450.000000,143360.000000,Hold,-225.000000,0.000000,Speed,-390.000000,0.000000,Speed,Off,Off0.000000,0,,,,
01:41:53.310 PM 03/19/2016,Teleop Enabled,9,FALSE,0,NO ERROR,-0.000000,-0.686582,0.000000,-0.846998,TRUE,FALSE,TRUE,FALSE,FALSE,FALSE,Disabled,0.000000,0.000000,0.000000,TRUE,11.291656,-1.021179,0.000000,-0.144775,0.014404,0.000000,-0.017000,0.057000,0.182000,0.060000,-0.600000,2.670000,1.432572,Hold,54.597656,208896.000000,Hold,-143450.000000,143360.000000,LowGoal,-30.000000,-1454.545455,Speed,-240.000000,-1454.545455,Speed,Off,Off0.000000,0,,,,
01:41:53.412 PM 03/19/2016,Teleop Enabled,8,FALSE,0,NO ERROR,-0.000000,-0.686582,0.000000,-0.846998,TRUE,FALSE,TRUE,FALSE,FALSE,FALSE,Disabled,0.000000,0.000000,0.000000,TRUE,11.284454,-1.020752,0.000000,-0.145874,-0.016739,0.000000,-0.062000,0.010000,0.113000,0.060000,-0.590000,2.680000,1.450305,Hold,54.597656,208896.000000,Hold,-143450.000000,143360.000000,LowGoal,112.500000,-1454.545455,Speed,0.000000,-1454.545455,Speed,Off,Off0.000000,0,,,,
01:41:53.512 PM 03/19/2016,Teleop Enabled,10,FALSE,0,NO ERROR,-0.000000,-0.686582,0.000000,-0.846998,TRUE,FALSE,TRUE,FALSE,FALSE,FALSE,Disabled,0.000000,0.000000,0.000000,TRUE,11.277039,-1.020813,0.000000,-0.142990,0.016495,0.000000,0.027000,-0.045000,0.096000,0.070000,-0.590000,2.720000,1.451651,Hold,54.599121,208896.000000,Hold,-143450.000000,143360.000000,LowGoal,825.000000,-1454.545455,Speed,735.000000,-1454.545455,Speed,Off,Off0.000000,0,,,,
01:41:53.612 PM 03/19/2016,Teleop Enabled,10,FALSE,0,NO ERROR,-0.000000,-0.686582,0.000000,-0.846998,TRUE,FALSE,TRUE,FALSE,FALSE,FALSE,Disabled,0.000000,0.000000,0.000000,TRUE,11.271332,-1.020111,0.000000,-0.143997,0.018951,0.000000,0.062000,-0.005000,-0.021000,0.080000,-0.610000,2.670000,1.483006,Hold,54.599365,208896.000000,Hold,-143450.000000,143360.000000,LowGoal,1335.000000,-1454.545455,Speed,1417.500000,-1454.545455,Speed,Off,Off0.000000,0,,,,
01:41:53.712 PM 03/19/2016,Teleop Enabled,9,FALSE,0,NO ERROR,-0.000000,-0.686582,0.000000,-0.846998,TRUE,FALSE,TRUE,FALSE,FALSE,FALSE,Disabled,0.000000,0.000000,0.000000,TRUE,11.261963,-1.019958,0.000000,-0.167740,-0.007462,0.000000,0.126000,0.029000,0.049000,0.050000,-0.570000,2.640000,1.475773,Hold,54.599365,208896.000000,Hold,-143450.000000,143360.000000,LowGoal,1545.000000,-1454.545455,Speed,1417.500000,-1454.545455,Speed,Off,Off0.000000,0,,,,
01:41:53.814 PM 03/19/2016,Teleop Enabled,8,FALSE,0,NO ERROR,-0.000000,-0.686582,0.000000,-0.846998,TRUE,FALSE,TRUE,FALSE,FALSE,FALSE,Disabled,0.000000,0.000000,0.000000,TRUE,11.253799,-1.019684,0.000000,-0.160767,-0.008774,0.000000,0.080000,0.059000,0.177000,0.060000,-0.580000,2.600000,1.478052,Hold,54.599365,208896.000000,Hold,-143450.000000,143360.000000,LowGoal,1545.000000,-1454.545455,Speed,1402.500000,-1454.545455,Speed,Off,Off0.000000,0,,,,
01:41:53.914 PM 03/19/2016,Teleop Enabled,10,FALSE,0,NO ERROR,-0.000000,-0.686582,0.000000,-0.846998,TRUE,FALSE,TRUE,FALSE,FALSE,FALSE,Disabled,0.000000,0.000000,0.000000,TRUE,11.249756,-1.019073,0.000000,-0.003662,0.016998,0.000000,0.081000,0.054000,0.026000,0.060000,-0.580000,2.660000,1.495940,Hold,54.599365,208896.000000,Hold,-143450.000000,143360.000000,LowGoal,1342.500000,-1454.545455,Speed,1402.500000,-1454.545455,Speed,Off,Off0.000000,0,,,,
01:41:54.016 PM 03/19/2016,Teleop Enabled,11,FALSE,0,NO ERROR,-0.000000,-0.686582,0.000000,-0.846998,TRUE,FALSE,TRUE,FALSE,FALSE,FALSE,Disabled,0.000000,0.000000,0.000000,TRUE,11.249710,-1.016983,0.000000,-0.003891,0.051224,0.000000,0.061000,0.048000,-0.025000,0.050000,-0.550000,2.630000,1.508309,Hold,54.599365,208896.000000,Hold,-143450.000000,143360.000000,LowGoal,1372.500000,-1454.545455,Speed,1320.000000,-1454.545455,Speed,Off,Off0.000000,0,,,,
