Time,Robot Mode,Loop Time,Error Status,Error Code,Error Source,Left Motor Output,Left Motor Encoder,Right Motor Output,Right Motor Encoder,Is Level,Is Stalled,Ball Detector Photoeye,Vision Enabled,Vision Teleop Control,Vision Auto Control,Vision Current State,Vision X Output,Vision NavX Error,Vision NavX Target,NavX Connection Status,NavX Displacement X,NavX Displacement Y,NavX Displacement Z,NavX Velocity X,NavX Velocity Y,NavX Velocity Z,NavX Acceleration X,NavX Acceleration Y,NavX Acceleration Z,NavX Pitch,NavX Yaw,NavX Roll,Gyro Angle,Roller Arm State,Roller Arm Actual,Roller Arm Desired,Shooter Arm State,Shooter Arm Actual,Shooter Arm Desired,Shooter State,Actual RPM Left,Desired RPM Left,Control Mode Left,Actual RPM Right,Desired RPM Right,Scaler Motor Output,Auto To Run,Auto Current File,Auto File Status,Auto Current Command,Auto Trimmed Command
09:40:18.304 AM 03/20/2016,Teleop Enabled,10,FALSE,0,NO ERROR,-0.000000,48.869219,0.000000,73.900577,TRUE,FALSE,TRUE,FALSE,FALSE,FALSE,Disabled,0.000000,-0.000000,-59.220000,TRUE,6.806915,-7.781204,0.000000,0.000000,0.000000,0.000000,0.000000,0.000000,0.019000,0.000000,0.000000,0.000000,-49.915185,Hold,67.404297,286720.000000,Hold,-143416.000000,143360.000000,LowGoal,0.000000,-1454.545455,Speed,0.000000,-1454.545455,Speed,Off,Off0.000000,0,,,,
09:40:18.407 AM 03/20/2016,Teleop Enabled,10,FALSE,0,NO ERROR,-0.000000,-0.333666,0.000000,-0.109083,TRUE,FALSE,TRUE,FALSE,FALSE,FALSE,Disabled,0.000000,-0.000000,-59.220000,TRUE,6.807510,-7.774536,0.000000,0.000000,0.000000,0.000000,0.005000,0.002000,0.021000,-0.020000,-0.160000,2.600000,0.003618,ResetBack,0.948730,-0.200000,ResetBack,-186.000000,-0.300000,Empty,0.000000,0.000000,Speed,0.000000,0.000000,Speed,Off,Off0.000000,0,,,,
09:40:18.508 AM 03/20/2016,Teleop Enabled,9,FALSE,0,NO ERROR,-0.000000,-0.333666,0.000000,-0.109083,TRUE,FALSE,TRUE,FALSE,FALSE,FALSE,Disabled,0.000000,-0.000000,-59.220000,TRUE,6.807510,-7.774536,0.000000,0.000000,0.000000,0.000000,0.004000,-0.001000,0.000000,-0.020000,-0.160000,2.600000,0.002740,ResetBack,0.223145,-0.200000,ResetBack,50.000000,-0.300000,Empty,0.000000,0.000000,Speed,0.000000,0.000000,Speed,Off,Off0.000000,0,,,,
09:40:18.608 AM 03/20/2016,Teleop Enabled,9,FALSE,0,NO ERROR,-0.000000,-0.333666,0.000000,-0.109083,TRUE,FALSE,TRUE,FALSE,FALSE,FALSE,Disabled,0.000000,-0.000000,-59.220000,TRUE,6.807571,-7.774399,0.000000,0.004013,0.000000,0.000000,0.004000,0.011000,0.008000,-0.010000,-0.160000,2.600000,0.010259,ResetBack,0.025879,-0.200000,ResetBack,428.000000,-0.300000,Empty,0.000000,0.000000,Speed,0.000000,0.000000,Speed,Off,Off0.000000,0,,,,
09:40:18.709 AM 03/20/2016,Teleop Enabled,10,FALSE,0,NO ERROR,-0.000000,-0.333666,0.000000,-0.109083,TRUE,FALSE,TRUE,FALSE,FALSE,FALSE,Disabled,0.000000,-0.000000,-59.220000,TRUE,6.807617,-7.774399,0.000000,0.000000,0.000000,0.000000,-0.005000,-0.010000,0.003000,-0.010000,-0.160000,2.600000,0.008847,Reset,0.025391,0.000000,ResetBack,428.000000,-0.300000,Empty,0.000000,0.000000,Speed,0.000000,0.000000,Speed,Off,Off0.000000,0,,,,
09:40:18.810 AM 03/20/2016,Teleop Enabled,9,FALSE,0,NO ERROR,-0.000000,-0.333666,0.000000,-0.109083,TRUE,FALSE,TRUE,FALSE,FALSE,FALSE,Disabled,0.000000,-0.000000,-59.220000,TRUE,6.807648,-7.774399,0.000000,0.003815,0.000000,0.000000,0.002000,0.006000,0.011000,-0.020000,-0.160000,2.590000,0.031296,Hold,1.184326,0.000000,ResetBack,1161.000000,-0.300000,Empty,0.000000,0.000000,Speed,0.000000,0.000000,Speed,Off,Off0.000000,0,,,,
09:40:18.911 AM 03/20/2016,Teleop Enabled,10,FALSE,0,NO ERROR,-0.000000,-0.333666,0.000000,-0.109083,TRUE,FALSE,TRUE,FALSE,FALSE,FALSE,Disabled,0.000000,-0.000000,-59.220000,TRUE,6.807800,-7.774399,0.000000,0.000000,0.000000,0.000000,0.017000,-0.013000,-0.001000,-0.020000,-0.150000,2.590000,0.045896,Hold,0.938477,0.000000,ResetBack,1211.000000,-0.300000,Empty,0.000000,0.000000,Speed,0.000000,0.000000,Speed,Off,Off0.000000,0,,,,
09:40:19.012 AM 03/20/2016,Teleop Enabled,10,FALSE,0,NO ERROR,-0.000000,-0.333666,0.000000,-0.109083,TRUE,FALSE,TRUE,FALSE,FALSE,FALSE,Disabled,0.000000,-0.000000,-59.220000,TRUE,6.807800,-7.774399,0.000000,0.000000,0.000000,0.000000,0.011000,-0.007000,0.020000,-0.030000,-0.140000,2.590000,0.045924,Hold,0.921875,0.000000,ResetBack,1225.000000,-0.300000,Empty,0.000000,0.000000,Speed,0.000000,0.000000,Speed,Off,Off0.000000,0,,,,
09:40:19.111 AM 03/20/2016,Teleop Enabled,11,FALSE,0,NO ERROR,-0.000000,-0.333666,0.000000,-0.109083,TRUE,FALSE,TRUE,FALSE,FALSE,FALSE,Disabled,0.000000,-0.000000,-59.220000,TRUE,6.807800,-7.774399,0.000000,0.000000,0.000000,0.000000,0.003000,-0.007000,0.016000,-0.030000,-0.150000,2.600000,0.059866,Hold,0.921875,0.000000,ResetBack,1225.000000,-0.300000,Empty,0.000000,0.000000,Speed,0.000000,0.000000,Speed,Off,Off0.000000,0,,,,
09:40:19.212 AM 03/20/2016,Teleop Enabled,10,FALSE,0,NO ERROR,-0.000000,-0.333666,0.000000,-0.109083,TRUE,FALSE,TRUE,FALSE,FALSE,FALSE,Disabled,0.000000,-0.000000,-59.220000,TRUE,6.807800,-7.774399,0.000000,0.000000,0.000000,0.000000,0.007000,0.004000,0.021000,-0.020000,-0.160000,2.600000,0.053893,Hold,0.921875,0.000000,ResetBack,1225.000000,-0.300000,Empty,0.000000,0.000000,Speed,0.000000,0.000000,Speed,Off,Off0.000000,0,,,,
09:40:19.313 AM 03/20/2016,Teleop Enabled,10,FALSE,0,NO ERROR,-0.000000,-0.333666,0.000000,-0.109083,TRUE,FALSE,TRUE,FALSE,FALSE,FALSE,Disabled,0.000000,-0.000000,-59.220000,TRUE,6.807800,-7.774399,0.000000,0.000000,0.000000,0.000000,0.008000,0.006000,0.030000,-0.020000,-0.160000,2.600000,0.049170,Hold,0.921875,0.000000,ResetBack,1225.000000,-0.300000,Empty,0.000000,0.000000,Speed,0.000000,0.000000,Speed,Off,Off0.000000,0,,,,
09:40:19.414 AM 03/20/2016,Teleop Enabled,10,FALSE,0,NO ERROR,-0.000000,-0.333666,0.000000,-0.109083,TRUE,FALSE,TRUE,FALSE,FALSE,FALSE,Disabled,0.000000,-0.000000,-59.220000,TRUE,6.807800,-7.774399,0.000000,0.000000,0.000000,0.000000,0.004000,0.000000,0.021000,-0.020000,-0.160000,2.590000,0.063068,Hold,0.921875,0.000000,ResetBack,1225.000000,-0.300000,Empty,0.000000,0.000000,Speed,0.000000,0.000000,Speed,Off,Off0.000000,0,,,,
09:40:19.514 AM 03/20/2016,Teleop Enabled,9,FALSE,0,NO ERROR,-0.000000,-0.333666,0.000000,-0.109083,TRUE,FALSE,TRUE,FALSE,FALSE,FALSE,Disabled,0.000000,-0.000000,-59.220000,TRUE,6.807800,-7.774399,0.000000,0.000000,0.000000,0.000000,0.005000,0.007000,0.021000,-0.020000,-0.170000,2.590000,0.065422,Hold,0.921875,0.000000,ResetBack,1225.000000,-0.300000,Empty,0.000000,0.000000,Speed,0.000000,0.000000,Speed,Off,Off0.000000,0,,,,
09:40:19.616 AM 03/20/2016,Teleop Enabled,10,FALSE,0,NO ERROR,-0.000000,-0.333666,0.000000,-0.109083,TRUE,FALSE,TRUE,FALSE,FALSE,FALSE,Disabled,0.000000,-0.000000,-59.220000,TRUE,6.807800,-7.774399,0.000000,0.000000,0.000000,0.000000,0.001000,0.002000,0.016000,-0.020000,-0.160000,2.590000,0.089565,Hold,0.921875,0.000000,Reset,1229.000000,2.000000,Suck,0.000000,2181.818182,Speed,0.000000,2181.818182,Speed,Off,Off0.000000,0,,,,
09:40:19.715 AM 03/20/2016,Teleop Enabled,9,FALSE,0,NO ERROR,-0.000000,-0.333666,0.000000,-0.115500,TRUE,FALSE,TRUE,FALSE,FALSE,FALSE,Disabled,0.000000,-0.000000,-59.220000,TRUE,6.807953,-7.774689,0.000000,0.010742,-0.021698,0.000000,-0.038000,0.026000,0.015000,-0.020000,-0.140000,2.500000,0.110668,Hold,0.921875,0.000000,Hold,-471.000000,2.000000,Hold,-127.500000,0.000000,Speed,-142.500000,0.000000,Speed,Off,Off0.000000,0,,,,
09:40:19.816 AM 03/20/2016,Teleop Enabled,10,FALSE,0,NO ERROR,-0.000000,-0.333666,0.000000,-0.115500,TRUE,FALSE,TRUE,FALSE,FALSE,FALSE,Disabled,0.000000,-0.000000,-59.220000,TRUE,6.808090,-7.775253,0.000000,-0.005997,0.012115,0.000000,-0.005000,0.003000,0.063000,-0.020000,-0.150000,2.550000,0.117715,Hold,0.921875,0.000000,Hold,-236.000000,2.000000,Hold,-870.000000,0.000000,Speed,-832.500000,0.000000,Speed,Off,Off0.000000,0,,,,
09:40:19.917 AM 03/20/2016,Teleop Enabled,10,FALSE,0,NO ERROR,-0.000000,-0.333666,0.000000,-0.115500,TRUE,FALSE,TRUE,FALSE,FALSE,FALSE,Disabled,0.000000,-0.000000,-59.220000,TRUE,6.807648,-7.774506,0.000000,0.000000,0.013123,0.000000,-0.005000,-0.001000,0.025000,-0.020000,-0.150000,2.520000,0.127189,Hold,0.921875,0.000000,Hold,-236.000000,2.000000,Hold,-937.500000,0.000000,Speed,-817.500000,0.000000,Speed,Off,Off0.000000,0,,,,
09:40:20.017 AM 03/20/2016,Teleop Enabled,10,FALSE,0,NO ERROR,-0.000000,-0.333666,0.000000,-0.115500,TRUE,FALSE,TRUE,FALSE,FALSE,FALSE,Disabled,0.000000,-0.000000,-59.220000,TRUE,6.806961,-7.774521,0.000000,-0.012726,0.006439,0.000000,-0.005000,-0.026000,0.038000,-0.020000,-0.170000,2.560000,0.138556,Hold,0.921875,0.000000,Hold,-236.000000,2.000000,Hold,-802.500000,0.000000,Speed,-592.500000,0.000000,Speed,Off,Off0.000000,0,,,,
09:40:20.119 AM 03/20/2016,Teleop Enabled,11,FALSE,0,NO ERROR,-0.000000,-0.333666,0.000000,-0.115500,TRUE,FALSE,TRUE,FALSE,FALSE,FALSE,Disabled,0.000000,-0.000000,-59.220000,TRUE,6.806870,-7.774353,0.000000,0.003067,0.009140,0.000000,-0.003000,0.002000,-0.004000,-0.020000,-0.170000,2.580000,0.152285,Hold,0.921875,0.000000,Hold,-236.000000,2.000000,Hold,-660.000000,0.000000,Speed,-405.000000,0.000000,Speed,Off,Off0.000000,0,,,,
09:40:20.220 AM 03/20/2016,Teleop Enabled,10,FALSE,0,NO ERROR,-0.000000,-0.333666,0.000000,-0.115500,TRUE,FALSE,TRUE,FALSE,FALSE,FALSE,Disabled,0.000000,-0.000000,-59.220000,TRUE,6.807465,-7.774261,0.000000,0.021317,0.002533,0.000000,0.002000,0.061000,0.026000,-0.020000,-0.160000,2.640000,0.173398,Hold,0.921875,0.000000,Hold,-236.000000,2.000000,Hold,-555.000000,0.000000,Speed,-172.500000,0.000000,Speed,Off,Off0.000000,0,,,,
09:40:20.321 AM 03/20/2016,Teleop Enabled,11,FALSE,0,NO ERROR,-0.000000,-0.333666,0.000000,-0.115500,TRUE,FALSE,TRUE,FALSE,FALSE,FALSE,Disabled,0.000000,-0.000000,-59.220000,TRUE,6.807663,-7.773270,0.000000,0.010025,0.026245,0.000000,0.008000,-0.004000,0.019000,-0.020000,-0.160000,2.700000,0.190855,Hold,0.921875,0.000000,Hold,-236.000000,2.000000,Hold,-427.500000,0.000000,Speed,-15.000000,0.000000,Speed,Off,Off0.000000,0,,,,
09:40:20.422 AM 03/20/2016,Teleop Enabled,10,FALSE,0,NO ERROR,-0.000000,-0.333666,0.000000,-0.115500,TRUE,FALSE,TRUE,FALSE,FALSE,FALSE,Disabled,0.000000,-0.000000,-59.220000,TRUE,6.807663,-7.772171,0.000000,0.000000,0.000000,0.000000,-0.005000,0.010000,0.011000,-0.020000,-0.160000,2.690000,0.189699,Hold,0.921875,0.000000,Hold,-236.000000,2.000000,Hold,-322.500000,0.000000,Speed,0.000000,0.000000,Speed,Off,Off0.000000,0,,,,
09:40:20.523 AM 03/20/2016,Teleop Enabled,9,FALSE,0,NO ERROR,-0.000000,-0.333666,0.000000,-0.115500,TRUE,FALSE,TRUE,FALSE,FALSE,FALSE,Disabled,0.000000,-0.000000,-59.220000,TRUE,6.807663,-7.772171,0.000000,0.000000,0.000000,0.000000,0.003000,-0.005000,0.014000,-0.010000,-0.160000,2.700000,0.190057,Hold,0.921875,0.000000,Hold,-236.000000,2.000000,Hold,-225.000000,0.000000,Speed,0.000000,0.000000,Speed,Off,Off0.000000,0,,,,
09:40:20.624 AM 03/20/2016,Teleop Enabled,10,FALSE,0,NO ERROR,-0.000000,-0.333666,0.000000,-0.115500,TRUE,FALSE,TRUE,FALSE,FALSE,FALSE,Disabled,0.000000,-0.000000,-59.220000,TRUE,6.807663,-7.772171,0.000000,0.000000,0.000000,0.000000,-0.006000,0.002000,0.014000,-0.020000,-0.160000,2.690000,0.200336,Hold,0.921875,0.000000,Hold,-236.000000,2.000000,Hold,-127.500000,0.000000,Speed,0.000000,0.000000,Speed,Off,Off0.000000,0,,,,
09:40:20.725 AM 03/20/2016,Teleop Enabled,10,FALSE,0,NO ERROR,-0.000000,-0.333666,0.000000,-0.115500,TRUE,FALSE,TRUE,FALSE,FALSE,FALSE,Disabled,0.000000,-0.000000,-59.220000,TRUE,6.807663,-7.772171,0.000000,0.000000,0.000000,0.000000,0.005000,-0.004000,0.025000,-0.020000,-0.160000,2.680000,0.221002,Hold,0.921875,0.000000,Hold,-236.000000,2.000000,Hold,-60.000000,0.000000,Speed,0.000000,0.000000,Speed,Off,Off0.000000,0,,,,
09:40:20.825 AM 03/20/2016,Teleop Enabled,10,FALSE,0,NO ERROR,-0.000000,-0.333666,0.000000,-0.115500,TRUE,FALSE,TRUE,FALSE,FALSE,FALSE,Disabled,0.000000,-0.000000,-59.220000,TRUE,6.807663,-7.772171,0.000000,0.000000,0.000000,0.000000,-0.001000,-0.003000,0.013000,-0.010000,-0.160000,2.670000,0.231705,Hold,0.921875,0.000000,Hold,-236.000000,2.000000,Hold,-15.000000,0.000000,Speed,0.000000,0.000000,Speed,Off,Off0.000000,0,,,,
09:40:20.926 AM 03/20/2016,Teleop Enabled,9,FALSE,0,NO ERROR,-0.000000,-0.333666,0.000000,-0.115500,TRUE,FALSE,TRUE,FALSE,FALSE,FALSE,Disabled,0.000000,-0.000000,-59.220000,TRUE,6.807663,-7.772171,0.000000,0.000000,0.000000,0.000000,-0.002000,0.000000,0.021000,-0.020000,-0.160000,2.670000,0.233412,Hold,0.921875,0.000000,Hold,-236.000000,2.000000,LowGoal,0.000000,-1454.545455,Speed,0.000000,-1454.545455,Speed,Off,Off0.000000,0,,,,
09:40:21.027 AM 03/20/2016,Teleop Enabled,10,FALSE,0,NO ERROR,-0.000000,-0.333666,0.000000,-0.115500,TRUE,FALSE,TRUE,FALSE,FALSE,FALSE,Disabled,0.000000,-0.000000,-59.220000,TRUE,6.807404,-7.772141,0.000000,-0.018005,0.002930,0.000000,-0.050000,0.013000,-0.016000,-0.020000,-0.140000,2.680000,0.245296,Hold,0.921875,0.000000,Hold,-236.000000,2.000000,LowGoal,97.500000,-1454.545455,Speed,97.500000,-1454.545455,Speed,Off,Off0.000000,0,,,,
09:40:21.126 AM 03/20/2016,Teleop Enabled,10,FALSE,0,NO ERROR,-0.000000,-0.333666,0.000000,-0.115500,TRUE,FALSE,TRUE,FALSE,FALSE,FALSE,Disabled,0.000000,-0.000000,-59.220000,TRUE,6.806610,-7.771927,0.000000,0.007736,0.004272,0.000000,-0.020000,-0.058000,-0.058000,-0.010000,-0.140000,2.670000,0.260481,Hold,0.921875,0.000000,Hold,-236.000000,2.000000,LowGoal,885.000000,-1454.545455,Speed,862.500000,-1454.545455,Speed,Off,Off0.000000,0,,,,
09:40:21.226 AM 03/20/2016,Teleop Enabled,10,FALSE,0,NO ERROR,-0.000000,-0.333666,0.000000,-0.115500,TRUE,FALSE,TRUE,FALSE,FALSE,FALSE,Disabled,0.000000,-0.000000,-59.220000,TRUE,6.807297,-7.772247,0.000000,0.006134,-0.004974,0.000000,-0.057000,0.044000,-0.023000,-0.020000,-0.150000,2.620000,0.283994,Hold,0.921875,0.000000,Hold,-236.000000,2.000000,LowGoal,1575.000000,-1454.545455,Speed,1530.000000,-1454.545455,Speed,Off,Off0.000000,0,,,,
09:40:21.327 AM 03/20/2016,Teleop Enabled,10,FALSE,0,NO ERROR,-0.000000,-0.333666,0.000000,-0.115500,TRUE,FALSE,TRUE,FALSE,FALSE,FALSE,Disabled,0.000000,-0.000000,-59.220000,TRUE,6.806686,-7.772324,0.000000,-0.030609,-0.008026,0.000000,0.067000,-0.026000,0.028000,-0.020000,-0.150000,2.560000,0.288135,Hold,0.921875,0.000000,Hold,-236.000000,2.000000,LowGoal,1545.000000,-1454.545455,Speed,1515.000000,-1454.545455,Speed,Off,Off0.000000,0,,,,
09:40:21.427 AM 03/20/2016,Teleop Enabled,9,FALSE,0,NO ERROR,-0.000000,-0.333666,0.000000,-0.115500,TRUE,FALSE,TRUE,FALSE,FALSE,FALSE,Disabled,0.000000,-0.000000,-59.220000,TRUE,6.806183,-7.772720,0.000000,0.000000,-0.002975,0.000000,-0.006000,-0.029000,0.031000,-0.020000,-0.130000,2.560000,0.290934,Hold,0.921875,0.000000,Hold,-236.000000,2.000000,LowGoal,1320.000000,-1454.545455,Speed,1267.500000,-1454.545455,Speed,Off,Off0.000000,0,,,,
09:40:21.528 AM 03/20/2016,Teleop Enabled,10,FALSE,0,NO ERROR,-0.000000,-0.333666,0.000000,-0.115500,TRUE,FALSE,TRUE,FALSE,FALSE,FALSE,Disabled,0.000000,-0.000000,-59.220000,TRUE,6.806046,-7.772919,0.000000,-0.008820,0.018768,0.000000,0.034000,-0.072000,-0.077000,-0.020000,-0.140000,2.670000,0.297943,Hold,0.921875,0.000000,Hold,-236.000000,2.000000,LowGoal,1372.500000,-1454.545455,Speed,1305.000000,-1454.545455,Speed,Off,Off0.000000,0,,,,
09:40:21.627 AM 03/20/2016,Teleop Enabled,10,FALSE,0,NO ERROR,-0.000000,-0.333666,0.000000,-0.115500,TRUE,FALSE,TRUE,FALSE,FALSE,FALSE,Disabled,0.000000,-0.000000,-59.220000,TRUE,6.806076,-7.772964,0.000000,0.011185,-0.029694,0.000000,0.055000,0.089000,0.075000,-0.020000,-0.020000,2.520000,0.288387,Hold,0.921875,0.000000,Hold,-236.000000,2.000000,LowGoal,1455.000000,-1454.545455,Speed,1432.500000,-1454.545455,Speed,Off,Off0.000000,0,,,,
09:40:21.728 AM 03/20/2016,Teleop Enabled,9,FALSE,0,NO ERROR,-0.000000,-0.333666,0.000000,-0.115500,TRUE,FALSE,TRUE,FALSE,FALSE,FALSE,Disabled,0.000000,-0.000000,-59.220000,TRUE,6.807739,-7.775345,0.000000,0.035370,-0.056686,0.000000,0.042000,-0.064000,-0.036000,-0.020000,0.030000,2.380000,0.298356,Hold,0.921875,0.000000,Hold,-236.000000,2.000000,LowGoal,1432.500000,-1454.545455,Speed,1395.000000,-1454.545455,Speed,Off,Off0.000000,0,,,,
09:40:21.828 AM 03/20/2016,Teleop Enabled,11,FALSE,0,NO ERROR,-0.000000,-0.333666,0.000000,-0.115500,TRUE,FALSE,TRUE,FALSE,FALSE,FALSE,Disabled,0.000000,-0.000000,-59.220000,TRUE,6.808853,-7.777313,0.000000,0.016296,-0.036926,0.000000,0.027000,-0.027000,0.070000,-0.020000,0.030000,2.450000,0.313335,Hold,0.921875,0.000000,Hold,-236.000000,2.000000,LowGoal,1387.500000,-1454.545455,Speed,1350.000000,-1454.545455,Speed,Off,Off0.000000,0,,,,
09:40:21.929 AM 03/20/2016,Teleop Enabled,10,FALSE,0,NO ERROR,-0.000000,-0.333666,0.000000,-0.115500,TRUE,FALSE,TRUE,FALSE,FALSE,FALSE,Disabled,0.000000,-0.000000,-59.220000,TRUE,6.808914,-7.779526,0.000000,0.004532,-0.037064,0.000000,0.008000,-0.002000,-0.033000,-0.020000,0.000000,2.470000,0.315600,Hold,0.921875,0.000000,Hold,-236.000000,2.000000,LowGoal,1410.000000,-1454.545455,Speed,1380.000000,-1454.545455,Speed,Off,Off0.000000,0,,,,
09:40:22.028 AM 03/20/2016,Teleop Enabled,9,FALSE,0,NO ERROR,-0.000000,-0.333666,0.000000,-0.115500,TRUE,FALSE,TRUE,FALSE,FALSE,FALSE,Disabled,0.000000,-0.000000,-59.220000,TRUE,6.809052,-7.780594,0.000000,0.008957,-0.008881,0.000000,0.013000,-0.162000,-0.102000,-0.020000,0.010000,2.530000,0.305878,Hold,0.921875,0.000000,Hold,-236.000000,2.000000,LowGoal,1425.000000,-1454.545455,Speed,1395.000000,-1454.545455,Speed,Off,Off0.000000,0,,,,
09:40:22.129 AM 03/20/2016,Teleop Enabled,10,FALSE,0,NO ERROR,-0.000000,-0.333666,0.000000,-0.115500,TRUE,FALSE,TRUE,FALSE,FALSE,FALSE,Disabled,0.000000,-0.000000,-59.220000,TRUE,6.808868,-7.782547,0.000000,-0.009430,-0.044037,0.000000,0.061000,0.015000,0.035000,-0.020000,-0.010000,2.450000,0.316588,Hold,0.921875,0.000000,Hold,-236.000000,2.000000,LowGoal,1410.000000,-1454.545455,Speed,1372.500000,-1454.545455,Speed,Off,Off0.000000,0,,,,
09:40:22.229 AM 03/20/2016,Teleop Enabled,10,FALSE,0,NO ERROR,-0.000000,-0.333666,0.000000,-0.115500,TRUE,FALSE,TRUE,FALSE,FALSE,FALSE,Disabled,0.000000,-0.000000,-59.220000,TRUE,6.807999,-7.783081,0.000000,-0.018570,0.003052,0.000000,-0.022000,-0.096000,0.084000,-0.020000,-0.050000,2.490000,0.332286,Hold,0.921875,0.000000,Hold,-236.000000,2.000000,LowGoal,1410.000000,-1454.545455,Speed,1372.500000,-1454.545455,Speed,Off,Off0.000000,0,,,,
09:40:22.329 AM 03/20/2016,Teleop Enabled,12,FALSE,0,NO ERROR,-0.000000,-0.333666,0.000000,-0.115500,TRUE,FALSE,TRUE,FALSE,FALSE,FALSE,Disabled,0.000000,-0.000000,-59.220000,TRUE,6.806473,-7.782578,0.000000,-0.036270,0.033096,0.000000,-0.016000,0.063000,0.006000,-0.020000,-0.120000,2.680000,0.329122,Hold,0.921875,0.000000,Hold,-236.000000,2.000000,LowGoal,1417.500000,-1454.545455,Speed,1380.000000,-1454.545455,Speed,Off,Off0.000000,0,,,,
09:40:22.429 AM 03/20/2016,Teleop Enabled,10,FALSE,0,NO ERROR,-0.000000,-0.333666,0.000000,-0.115500,TRUE,FALSE,TRUE,FALSE,FALSE,FALSE,Disabled,0.000000,-0.000000,-59.220000,TRUE,6.804504,-7.780426,0.000000,-0.038315,0.015274,0.000000,-0.008000,-0.040000,0.094000,-0.020000,-0.150000,2.660000,0.320867,Hold,0.921875,0.000000,Hold,-236.000000,2.000000,LowGoal,1417.500000,-1454.545455,Speed,1380.000000,-1454.545455,Speed,Off,Off0.000000,0,,,,
09:40:22.531 AM 03/20/2016,Teleop Enabled,10,FALSE,0,NO ERROR,-0.000000,-0.333666,0.000000,-0.115500,TRUE,FALSE,TRUE,FALSE,FALSE,FALSE,Disabled,0.000000,-0.000000,-59.220000,TRUE,6.803070,-7.778671,0.000000,0.000000,0.066528,0.000000,0.011000,0.026000,0.007000,-0.010000,-0.230000,2.850000,0.323549,Hold,0.921875,0.000000,Hold,-236.000000,2.000000,LowGoal,1402.500000,-1454.545455,Speed,1372.500000,-1454.545455,Speed,Off,Off0.000000,0,,,,
09:40:22.632 AM 03/20/2016,Teleop Enabled,11,FALSE,0,NO ERROR,-0.000000,-0.333666,0.000000,-0.115500,TRUE,FALSE,TRUE,FALSE,FALSE,FALSE,Disabled,0.000000,-0.000000,-59.220000,TRUE,6.802979,-7.775421,0.000000,0.006012,0.050705,0.000000,-0.052000,0.055000,0.000000,-0.010000,-0.190000,2.790000,0.331659,Hold,0.921875,0.000000,Hold,-236.000000,2.000000,LowGoal,1395.000000,-1454.545455,Speed,1380.000000,-1454.545455,Speed,Off,Off0.000000,0,,,,
09:40:22.734 AM 03/20/2016,Teleop Enabled,10,FALSE,0,NO ERROR,-0.000000,-0.333666,0.000000,-0.115500,TRUE,FALSE,TRUE,FALSE,FALSE,FALSE,Disabled,0.000000,-0.000000,-59.220000,TRUE,6.803391,-7.771896,0.000000,0.015198,0.046112,0.000000,0.000000,-0.052000,0.027000,-0.010000,-0.170000,2.800000,0.339388,Hold,0.921875,0.000000,Hold,-236.000000,2.000000,LowGoal,1410.000000,-1454.545455,Speed,1372.500000,-1454.545455,Speed,Off,Off0.000000,0,,,,
09:40:22.835 AM 03/20/2016,Teleop Enabled,10,FALSE,0,NO ERROR,-0.000000,-0.333666,0.000000,-0.115500,TRUE,FALSE,TRUE,FALSE,FALSE,FALSE,Disabled,0.000000,-0.000000,-59.220000,TRUE,6.803497,-7.769287,0.000000,-0.003250,0.062454,0.000000,0.000000,0.068000,0.128000,-0.010000,-0.170000,2.820000,0.357248,Hold,0.921875,0.000000,Hold,-236.000000,2.000000,LowGoal,1417.500000,-1454.545455,Speed,1380.000000,-1454.545455,Speed,Off,Off0.000000,0,,,,
09:40:22.936 AM 03/20/2016,Teleop Enabled,10,FALSE,0,NO ERROR,-0.000000,-0.333666,0.000000,-0.115500,TRUE,FALSE,TRUE,FALSE,FALSE,FALSE,Disabled,0.000000,-0.000000,-59.220000,TRUE,6.803696,-7.766464,0.000000,0.001389,0.028244,0.000000,0.003000,-0.061000,0.013000,-0.020000,-0.150000,2.750000,0.382451,Hold,0.921875,0.000000,Hold,-236.000000,2.000000,LowGoal,1410.000000,-1454.545455,Speed,1380.000000,-1454.545455,Speed,Off,Off0.000000,0,,,,
09:40:23.036 AM 03/20/2016,Teleop Enabled,9,FALSE,0,NO ERROR,-0.000000,-0.333666,0.000000,-0.115500,TRUE,FALSE,TRUE,FALSE,FALSE,FALSE,Disabled,0.000000,-0.000000,-59.220000,TRUE,6.803589,-7.764420,0.000000,-0.004944,0.058258,0.000000,-0.005000,-0.009000,0.019000,-0.010000,-0.160000,2.810000,0.397856,Hold,0.921875,0.000000,Hold,-236.000000,2.000000,LowGoal,1410.000000,-1454.545455,Speed,1372.500000,-1454.545455,Speed,Off,Off0.000000,0,,,,
09:40:23.139 AM 03/20/2016,Teleop Enabled,10,FALSE,0,NO ERROR,-0.000000,-0.333666,0.000000,-0.115500,TRUE,FALSE,TRUE,FALSE,FALSE,FALSE,Disabled,0.000000,-0.000000,-59.220000,TRUE,6.803375,-7.762375,0.000000,-0.001251,0.013062,0.000000,-0.028000,-0.015000,0.024000,-0.020000,-0.140000,2.710000,0.382324,Hold,0.921875,0.000000,Hold,-236.000000,2.000000,LowGoal,1417.500000,-1454.545455,Speed,1380.000000,-1454.545455,Speed,Off,Off0.000000,0,,,,
09:40:23.240 AM 03/20/2016,Teleop Enabled,11,FALSE,0,NO ERROR,-0.000000,-0.333666,0.000000,-0.115500,TRUE,FALSE,TRUE,FALSE,FALSE,FALSE,Disabled,0.000000,-0.000000,-59.220000,TRUE,6.804031,-7.761673,0.000000,0.020523,0.011368,0.000000,0.038000,-0.086000,-0.035000,-0.020000,-0.110000,2.670000,0.398362,Hold,0.921875,0.000000,Hold,-236.000000,2.000000,LowGoal,1417.500000,-1454.545455,Speed,1380.000000,-1454.545455,Speed,Off,Off0.000000,0,,,,
09:40:23.341 AM 03/20/2016,Teleop Enabled,10,FALSE,0,NO ERROR,-0.000000,-0.333666,0.000000,-0.115500,TRUE,FALSE,TRUE,FALSE,FALSE,FALSE,Disabled,0.000000,-0.000000,-59.220000,TRUE,6.805862,-7.762497,0.000000,0.042847,-0.029053,0.000000,0.037000,0.038000,-0.048000,-0.020000,-0.090000,2.570000,0.393777,Hold,0.921875,0.000000,Hold,-236.000000,2.000000,LowGoal,1417.500000,-1454.545455,Speed,1372.500000,-1454.545455,Speed,Off,Off0.000000,0,,,,
09:40:23.443 AM 03/20/2016,Teleop Enabled,10,FALSE,0,NO ERROR,-0.000000,-0.333666,0.000000,-0.115500,TRUE,FALSE,TRUE,FALSE,FALSE,FALSE,Disabled,0.000000,-0.000000,-59.220000,TRUE,6.808060,-7.762604,0.000000,0.032639,0.008347,0.000000,0.029000,-0.102000,-0.064000,-0.020000,-0.090000,2.660000,0.393023,Hold,0.921875,0.000000,Hold,-236.000000,2.000000,LowGoal,1417.500000,-1454.545455,Speed,1380.000000,-1454.545455,Speed,Off,Off0.000000,0,,,,
09:40:23.542 AM 03/20/2016,Teleop Enabled,10,FALSE,0,NO ERROR,-0.000000,-0.333666,0.000000,-0.115500,TRUE,FALSE,TRUE,FALSE,FALSE,FALSE,Disabled,0.000000,-0.000000,-59.220000,TRUE,6.809937,-7.762985,0.000000,0.032623,-0.001587,0.000000,-0.029000,0.095000,-0.018000,-0.030000,-0.090000,2.640000,0.389887,Hold,0.921875,0.000000,Hold,-236.000000,2.000000,LowGoal,1417.500000,-1454.545455,Speed,1387.500000,-1454.545455,Speed,Off,Off0.000000,0,,,,
09:40:23.643 AM 03/20/2016,Teleop Enabled,10,FALSE,0,NO ERROR,-0.000000,-0.333666,0.000000,-0.115500,TRUE,FALSE,TRUE,FALSE,FALSE,FALSE,Disabled,0.000000,-0.000000,-59.220000,TRUE,6.810959,-7.761902,0.000000,0.011703,0.022781,0.000000,0.022000,-0.042000,-0.008000,-0.030000,-0.110000,2.670000,0.397870,Hold,0.921875,0.000000,Hold,-236.000000,2.000000,LowGoal,1410.000000,-1454.545455,Speed,1387.500000,-1454.545455,Speed,Off,Off0.000000,0,,,,
09:40:23.744 AM 03/20/2016,Teleop Enabled,10,FALSE,0,NO ERROR,-0.000000,-0.333666,0.000000,-0.115500,TRUE,FALSE,TRUE,FALSE,FALSE,FALSE,Disabled,0.000000,-0.000000,-59.220000,TRUE,6.811539,-7.761169,0.000000,0.007050,0.025146,0.000000,-0.021000,-0.024000,-0.031000,-0.030000,-0.100000,2.640000,0.417902,Hold,0.921875,0.000000,Hold,-236.000000,2.000000,LowGoal,1417.500000,-1454.545455,Speed,1380.000000,-1454.545455,Speed,Off,Off0.000000,0,,,,
09:40:23.845 AM 03/20/2016,Teleop Enabled,9,FALSE,0,NO ERROR,-0.000000,-0.333666,0.000000,-0.115500,TRUE,FALSE,TRUE,FALSE,FALSE,FALSE,Disabled,0.000000,-0.000000,-59.220000,TRUE,6.811752,-7.760300,0.000000,0.004883,0.020370,0.000000,-0.005000,-0.022000,0.043000,-0.030000,-0.070000,2.670000,0.429886,Hold,0.921875,0.000000,Hold,-236.000000,2.000000,LowGoal,1417.500000,-1454.545455,Speed,1380.000000,-1454.545455,Speed,Off,Off0.000000,0,,,,
09:40:23.945 AM 03/20/2016,Teleop Enabled,10,FALSE,0,NO ERROR,-0.000000,-0.333666,0.000000,-0.115500,TRUE,FALSE,TRUE,FALSE,FALSE,FALSE,Disabled,0.000000,-0.000000,-59.220000,TRUE,6.812210,-7.760117,0.000000,0.004501,0.000000,0.000000,-0.022000,-0.073000,0.012000,-0.030000,-0.060000,2.610000,0.443329,Hold,0.921875,0.000000,Hold,-236.000000,2.000000,LowGoal,1410.000000,-1454.545455,Speed,1372.500000,-1454.545455,Speed,Off,Off0.000000,0,,,,
09:40:24.045 AM 03/20/2016,Teleop Enabled,10,FALSE,0,NO ERROR,-0.000000,-0.333666,0.000000,-0.115500,TRUE,FALSE,TRUE,FALSE,FALSE,FALSE,Disabled,0.000000,-0.000000,-59.220000,TRUE,6.812454,-7.760956,0.000000,-0.000290,-0.019684,0.000000,-0.024000,-0.026000,0.085000,-0.030000,-0.050000,2.550000,0.456445,Hold,0.921875,0.000000,Hold,-236.000000,2.000000,LowGoal,1410.000000,-1454.545455,Speed,1380.000000,-1454.545455,Speed,Off,Off0.000000,0,,,,
09:40:24.145 AM 03/20/2016,Teleop Enabled,11,FALSE,0,NO ERROR,-0.000000,-0.333666,0.000000,-0.115500,TRUE,FALSE,TRUE,FALSE,FALSE,FALSE,Disabled,0.000000,-0.000000,-59.220000,TRUE,6.811676,-7.762344,0.000000,-0.016602,-0.024261,0.000000,-0.003000,0.005000,0.106000,-0.030000,-0.100000,2.560000,0.467947,Hold,0.921875,0.000000,Hold,-236.000000,2.000000,LowGoal,1410.000000,-1454.545455,Speed,1372.500000,-1454.545455,Speed,Off,Off0.000000,0,,,,
09:40:24.247 AM 03/20/2016,Teleop Enabled,10,FALSE,0,NO ERROR,-0.000000,-0.333666,0.000000,-0.115500,TRUE,FALSE,TRUE,FALSE,FALSE,FALSE,Disabled,0.000000,-0.000000,-59.220000,TRUE,6.810349,-7.762924,0.000000,-0.031418,-0.013138,0.000000,-0.028000,-0.068000,0.034000,-0.020000,-0.150000,2.620000,0.493649,Hold,0.921875,0.000000,Hold,-236.000000,2.000000,LowGoal,1417.500000,-1454.545455,Speed,1380.000000,-1454.545455,Speed,Off,Off0.000000,0,,,,
09:40:24.347 AM 03/20/2016,Teleop Enabled,10,FALSE,0,NO ERROR,-0.000000,-0.333666,0.000000,-0.115500,TRUE,FALSE,TRUE,FALSE,FALSE,FALSE,Disabled,0.000000,-0.000000,-59.220000,TRUE,6.808380,-7.763275,0.000000,-0.028458,0.003250,0.000000,-0.050000,-0.051000,-0.029000,-0.010000,-0.160000,2.720000,0.516838,Hold,0.921875,0.000000,Hold,-236.000000,2.000000,LowGoal,1410.000000,-1454.545455,Speed,1380.000000,-1454.545455,Speed,Off,Off0.000000,0,,,,
09:40:24.448 AM 03/20/2016,Teleop Enabled,10,FALSE,0,NO ERROR,-0.000000,-0.333666,0.000000,-0.115500,TRUE,FALSE,TRUE,FALSE,FALSE,FALSE,Disabled,0.000000,-0.000000,-59.220000,TRUE,6.806656,-7.763580,0.000000,-0.026840,-0.015930,0.000000,0.012000,0.039000,0.063000,-0.010000,-0.150000,2.600000,0.512129,Hold,0.921875,0.000000,Hold,-236.000000,2.000000,LowGoal,1410.000000,-1454.545455,Speed,1380.000000,-1454.545455,Speed,Off,Off0.000000,0,,,,
09:40:24.548 AM 03/20/2016,Teleop Enabled,10,FALSE,0,NO ERROR,-0.000000,-0.333666,0.000000,-0.115500,TRUE,FALSE,TRUE,FALSE,FALSE,FALSE,Disabled,0.000000,-0.000000,-59.220000,TRUE,6.805511,-7.763641,0.000000,-0.024414,-0.001617,0.000000,-0.059000,0.053000,0.112000,-0.010000,-0.170000,2.720000,0.509530,Hold,0.921875,0.000000,Hold,-236.000000,2.000000,LowGoal,1410.000000,-1454.545455,Speed,1372.500000,-1454.545455,Speed,Off,Off0.000000,0,,,,
09:40:24.648 AM 03/20/2016,Teleop Enabled,10,FALSE,0,NO ERROR,-0.000000,-0.333666,0.000000,-0.115500,TRUE,FALSE,TRUE,FALSE,FALSE,FALSE,Disabled,0.000000,-0.000000,-59.220000,TRUE,6.804367,-7.763458,0.000000,-0.021454,0.005859,0.000000,0.046000,-0.081000,0.011000,-0.010000,-0.170000,2.700000,0.514580,Hold,0.921875,0.000000,Hold,-236.000000,2.000000,LowGoal,1410.000000,-1454.545455,Speed,1380.000000,-1454.545455,Speed,Off,Off0.000000,0,,,,
09:40:24.749 AM 03/20/2016,Teleop Enabled,10,FALSE,0,NO ERROR,-0.000000,-0.333666,0.000000,-0.115500,TRUE,FALSE,TRUE,FALSE,FALSE,FALSE,Disabled,0.000000,-0.000000,-59.220000,TRUE,6.803070,-7.763794,0.000000,-0.023666,-0.015762,0.000000,0.046000,-0.081000,0.011000,-0.020000,-0.170000,2.710000,0.533225,Hold,0.921875,0.000000,Hold,-236.000000,2.000000,LowGoal,1410.000000,-1454.545455,Speed,1380.000000,-1454.545455,Speed,Off,Off0.000000,0,,,,
09:40:24.849 AM 03/20/2016,Teleop Enabled,11,FALSE,0,NO ERROR,-0.000000,-0.333666,0.000000,-0.115500,TRUE,FALSE,TRUE,FALSE,FALSE,FALSE,Disabled,0.000000,-0.000000,-59.220000,TRUE,6.802048,-7.764069,0.000000,-0.013931,0.004959,0.000000,-0.016000,-0.073000,-0.051000,-0.010000,-0.190000,2.740000,0.534127,Hold,0.921875,0.000000,Hold,-236.000000,2.000000,LowGoal,1417.500000,-1454.545455,Speed,1387.500000,-1454.545455,Speed,Off,Off0.000000,0,,,,
09:40:24.950 AM 03/20/2016,Teleop Enabled,11,FALSE,0,NO ERROR,-0.000000,-0.333666,0.000000,-0.115500,TRUE,FALSE,TRUE,FALSE,FALSE,FALSE,Disabled,0.000000,-0.000000,-59.220000,TRUE,6.800201,-7.763855,0.000000,-0.036194,-0.005371,0.000000,-0.003000,-0.025000,0.038000,-0.010000,-0.210000,2.660000,0.551339,Hold,0.921875,0.000000,Hold,-236.000000,2.000000,LowGoal,1417.500000,-1454.545455,Speed,1380.000000,-1454.545455,Speed,Off,Off0.000000,0,,,,
09:40:25.049 AM 03/20/2016,Teleop Enabled,10,FALSE,0,NO ERROR,-0.000000,-0.333666,0.000000,-0.115500,TRUE,FALSE,TRUE,FALSE,FALSE,FALSE,Disabled,0.000000,-0.000000,-59.220000,TRUE,6.798630,-7.763870,0.000000,-0.029373,0.000000,0.000000,-0.043000,0.014000,0.036000,-0.010000,-0.210000,2.660000,0.570576,Hold,0.921875,0.000000,Hold,-236.000000,2.000000,LowGoal,1410.000000,-1454.545455,Speed,1372.500000,-1454.545455,Speed,Off,Off0.000000,0,,,,
09:40:25.150 AM 03/20/2016,Teleop Enabled,10,FALSE,0,NO ERROR,-0.000000,-0.333666,0.000000,-0.115500,TRUE,FALSE,TRUE,FALSE,FALSE,FALSE,Disabled,0.000000,-0.000000,-59.220000,TRUE,6.797592,-7.764175,0.000000,-0.016129,-0.016144,0.000000,-0.043000,0.014000,0.036000,-0.010000,-0.190000,2.700000,0.590440,Hold,0.921875,0.000000,Hold,-236.000000,2.000000,LowGoal,1410.000000,-1454.545455,Speed,1380.000000,-1454.545455,Speed,Off,Off0.000000,0,,,,
09:40:25.251 AM 03/20/2016,Teleop Enabled,11,FALSE,0,NO ERROR,-0.000000,-0.333666,0.000000,-0.115500,TRUE,FALSE,TRUE,FALSE,FALSE,FALSE,Disabled,0.000000,-0.000000,-59.220000,TRUE,6.797272,-7.765030,0.000000,0.000000,-0.010941,0.000000,-0.015000,-0.015000,0.114000,-0.020000,-0.180000,2.700000,0.598354,Hold,0.921875,0.000000,Hold,-236.000000,2.000000,LowGoal,1417.500000,-1454.545455,Speed,1380.000000,-1454.545455,Speed,Off,Off0.000000,0,,,,
09:40:25.351 AM 03/20/2016,Teleop Enabled,10,FALSE,0,NO ERROR,-0.000000,-0.333666,0.000000,-0.115500,TRUE,FALSE,TRUE,FALSE,FALSE,FALSE,Disabled,0.000000,-0.000000,-59.220000,TRUE,6.797089,-7.765533,0.000000,-0.008926,-0.016556,0.000000,-0.068000,0.064000,0.066000,-0.020000,-0.180000,2.700000,0.602819,Hold,0.921875,0.000000,Hold,-236.000000,2.000000,LowGoal,1417.500000,-1454.545455,Speed,1380.000000,-1454.545455,Speed,Off,Off0.000000,0,,,,
09:40:25.451 AM 03/20/2016,Teleop Enabled,10,FALSE,0,NO ERROR,-0.000000,-0.333666,0.000000,-0.115500,TRUE,FALSE,TRUE,FALSE,FALSE,FALSE,Disabled,0.000000,-0.000000,-59.220000,TRUE,6.796402,-7.765289,0.000000,-0.014908,0.019943,0.000000,-0.068000,0.064000,0.066000,-0.020000,-0.220000,2.650000,0.634846,Hold,0.921875,0.000000,Hold,-236.000000,2.000000,LowGoal,1417.500000,-1454.545455,Speed,1380.000000,-1454.545455,Speed,Off,Off0.000000,0,,,,
09:40:25.551 AM 03/20/2016,Teleop Enabled,10,FALSE,0,NO ERROR,-0.000000,-0.333666,0.000000,-0.115500,TRUE,FALSE,TRUE,FALSE,FALSE,FALSE,Disabled,0.000000,-0.000000,-59.220000,TRUE,6.795685,-7.764725,0.000000,0.000000,-0.011978,0.000000,-0.033000,0.038000,-0.001000,-0.020000,-0.220000,2.800000,0.643056,Hold,0.921875,0.000000,Hold,-236.000000,2.000000,LowGoal,1410.000000,-1454.545455,Speed,1380.000000,-1454.545455,Speed,Off,Off0.000000,0,,,,
09:40:25.651 AM 03/20/2016,Teleop Enabled,10,FALSE,0,NO ERROR,-0.000000,-0.333666,0.000000,-0.115500,TRUE,FALSE,TRUE,FALSE,FALSE,FALSE,Disabled,0.000000,-0.000000,-59.220000,TRUE,6.796371,-7.764420,0.000000,0.019577,0.004974,0.000000,0.020000,0.062000,0.044000,-0.020000,-0.250000,2.790000,0.645631,Hold,0.921875,0.000000,Hold,-236.000000,2.000000,LowGoal,1410.000000,-1454.545455,Speed,1380.000000,-1454.545455,Speed,Off,Off0.000000,0,,,,
09:40:25.751 AM 03/20/2016,Teleop Enabled,9,FALSE,0,NO ERROR,-0.000000,-0.333666,0.000000,-0.115500,TRUE,FALSE,TRUE,FALSE,FALSE,FALSE,Disabled,0.000000,-0.000000,-59.220000,TRUE,6.796371,-7.764420,0.000000,0.019577,0.004974,0.000000,0.006000,-0.018000,0.064000,-0.020000,-0.200000,2.740000,0.630356,Hold,0.921875,0.000000,Hold,-236.000000,2.000000,LowGoal,1402.500000,-1454.545455,Speed,1380.000000,-1454.545455,Speed,Off,Off0.000000,0,,,,
09:40:25.852 AM 03/20/2016,Teleop Enabled,10,FALSE,0,NO ERROR,-0.000000,-0.333666,0.000000,-0.115500,TRUE,FALSE,TRUE,FALSE,FALSE,FALSE,Disabled,0.000000,-0.000000,-59.220000,TRUE,6.798920,-7.764450,0.000000,0.027023,-0.028305,0.000000,-0.016000,0.007000,-0.079000,-0.020000,-0.230000,2.820000,0.640922,Hold,0.921875,0.000000,Hold,-236.000000,2.000000,LowGoal,1410.000000,-1454.545455,Speed,1380.000000,-1454.545455,Speed,Off,Off0.000000,0,,,,
09:40:25.953 AM 03/20/2016,Teleop Enabled,10,FALSE,0,NO ERROR,-0.000000,-0.333666,0.000000,-0.115500,TRUE,FALSE,TRUE,FALSE,FALSE,FALSE,Disabled,0.000000,-0.000000,-59.220000,TRUE,6.798920,-7.764450,0.000000,0.027023,-0.028305,0.000000,0.000000,0.012000,0.041000,-0.020000,-0.200000,2.630000,0.645786,Hold,0.921875,0.000000,Hold,-236.000000,2.000000,LowGoal,1410.000000,-1454.545455,Speed,1380.000000,-1454.545455,Speed,Off,Off0.000000,0,,,,
09:40:26.053 AM 03/20/2016,Teleop Enabled,11,FALSE,0,NO ERROR,-0.000000,-0.333666,0.000000,-0.115500,TRUE,FALSE,TRUE,FALSE,FALSE,FALSE,Disabled,0.000000,-0.000000,-59.220000,TRUE,6.801941,-7.765625,0.000000,0.044098,-0.001190,0.000000,0.009000,0.092000,0.169000,-0.020000,-0.190000,2.700000,0.642051,Hold,0.921875,0.000000,Hold,-236.000000,2.000000,LowGoal,1402.500000,-1454.545455,Speed,1380.000000,-1454.545455,Speed,Off,Off0.000000,0,,,,
09:40:26.153 AM 03/20/2016,Teleop Enabled,10,FALSE,0,NO ERROR,-0.000000,-0.333666,0.000000,-0.115500,TRUE,FALSE,TRUE,FALSE,FALSE,FALSE,Disabled,0.000000,-0.000000,-59.220000,TRUE,6.803925,-7.764740,0.000000,0.035767,0.008331,0.000000,-0.034000,0.079000,0.063000,-0.020000,-0.210000,2.760000,0.639152,Hold,0.921875,0.000000,Hold,-236.000000,2.000000,LowGoal,1410.000000,-1454.545455,Speed,1380.000000,-1454.545455,Speed,Off,Off0.000000,0,,,,
09:40:26.255 AM 03/20/2016,Teleop Enabled,10,FALSE,0,NO ERROR,-0.000000,-0.333666,0.000000,-0.115500,TRUE,FALSE,TRUE,FALSE,FALSE,FALSE,Disabled,0.000000,-0.000000,-59.220000,TRUE,6.803925,-7.764740,0.000000,0.035767,0.008331,0.000000,-0.010000,0.062000,0.068000,-0.020000,-0.230000,2.780000,0.637975,Hold,0.921875,0.000000,Hold,-236.000000,2.000000,LowGoal,1410.000000,-1454.545455,Speed,1380.000000,-1454.545455,Speed,Off,Off0.000000,0,,,,
09:40:26.356 AM 03/20/2016,Teleop Enabled,11,FALSE,0,NO ERROR,-0.000000,-0.333666,0.000000,-0.115500,TRUE,FALSE,TRUE,FALSE,FALSE,FALSE,Disabled,0.000000,-0.000000,-59.220000,TRUE,6.804199,-7.763428,0.000000,-0.005920,0.028595,0.000000,-0.050000,0.015000,0.021000,-0.020000,-0.290000,2.890000,0.656857,Hold,0.921875,0.000000,Hold,-236.000000,2.000000,LowGoal,1417.500000,-1454.545455,Speed,1380.000000,-1454.545455,Speed,Off,Off0.000000,0,,,,
09:40:26.458 AM 03/20/2016,Teleop Enabled,10,FALSE,0,NO ERROR,-0.000000,-0.333666,0.000000,-0.115500,TRUE,FALSE,TRUE,FALSE,FALSE,FALSE,Disabled,0.000000,-0.000000,-59.220000,TRUE,6.804123,-7.762054,0.000000,-0.000534,0.028198,0.000000,-0.012000,0.024000,0.019000,-0.010000,-0.350000,2.870000,0.665354,Hold,0.921875,0.000000,Hold,-236.000000,2.000000,LowGoal,1410.000000,-1454.545455,Speed,1380.000000,-1454.545455,Speed,Off,Off0.000000,0,,,,
09:40:26.557 AM 03/20/2016,Teleop Enabled,10,FALSE,0,NO ERROR,-0.000000,-0.333666,0.000000,-0.115500,TRUE,FALSE,TRUE,FALSE,FALSE,FALSE,Disabled,0.000000,-0.000000,-59.220000,TRUE,6.804077,-7.760849,0.000000,0.006149,0.004349,0.000000,0.044000,0.024000,0.093000,-0.010000,-0.330000,2.980000,0.679392,Hold,0.921875,0.000000,Hold,-236.000000,2.000000,LowGoal,1410.000000,-1454.545455,Speed,1380.000000,-1454.545455,Speed,Off,Off0.000000,0,,,,
09:40:26.658 AM 03/20/2016,Teleop Enabled,11,FALSE,0,NO ERROR,-0.000000,-0.333666,0.000000,-0.115500,TRUE,FALSE,TRUE,FALSE,FALSE,FALSE,Disabled,0.000000,-0.000000,-59.220000,TRUE,6.805130,-7.760239,0.000000,0.000000,-0.002869,0.000000,-0.015000,0.022000,0.077000,-0.010000,-0.320000,2.870000,0.679392,Hold,0.921875,208896.000000,Hold,-236.000000,143360.000000,LowGoal,1410.000000,-1454.545455,Speed,1380.000000,-1454.545455,Speed,Off,Off0.000000,0,,,,
09:40:26.760 AM 03/20/2016,Teleop Enabled,9,FALSE,0,NO ERROR,-0.000000,-0.333666,0.000000,-0.115500,TRUE,FALSE,TRUE,FALSE,FALSE,FALSE,Disabled,0.000000,-0.000000,-59.220000,TRUE,6.805588,-7.759705,0.000000,0.009323,0.011307,0.000000,0.025000,-0.051000,0.025000,-0.020000,-0.260000,2.920000,0.684002,Hold,4.472900,208896.000000,Hold,-236.000000,143360.000000,LowGoal,1417.500000,-1454.545455,Speed,1380.000000,-1454.545455,Speed,Off,Off0.000000,0,,,,
09:40:26.861 AM 03/20/2016,Teleop Enabled,10,FALSE,0,NO ERROR,-0.000000,-0.333666,0.000000,-0.115500,TRUE,FALSE,TRUE,FALSE,FALSE,FALSE,Disabled,0.000000,-0.000000,-59.220000,TRUE,6.804626,-7.758881,0.000000,-0.030106,-0.001007,0.000000,0.007000,-0.031000,-0.122000,0.020000,-0.230000,2.760000,0.749376,Hold,8.487793,208896.000000,Hold,-12315.000000,143360.000000,LowGoal,1417.500000,-1454.545455,Speed,1395.000000,-1454.545455,Speed,Off,Off0.000000,0,,,,
09:40:26.962 AM 03/20/2016,Teleop Enabled,11,FALSE,0,NO ERROR,-0.000000,-0.333666,0.000000,-0.115500,TRUE,FALSE,TRUE,FALSE,FALSE,FALSE,Disabled,0.000000,-0.000000,-59.220000,TRUE,6.804276,-7.758957,0.000000,-0.012833,0.011993,0.000000,-0.027000,-0.055000,-0.071000,0.000000,-0.260000,2.870000,0.718118,Hold,14.032959,208896.000000,Hold,-26582.000000,143360.000000,LowGoal,1417.500000,-1454.545455,Speed,1395.000000,-1454.545455,Speed,Off,Off0.000000,0,,,,
09:40:27.062 AM 03/20/2016,Teleop Enabled,11,FALSE,0,NO ERROR,-0.000000,-0.327249,0.000000,-0.109083,TRUE,FALSE,TRUE,FALSE,FALSE,FALSE,Disabled,0.000000,-0.000000,-59.220000,TRUE,6.804123,-7.760025,0.000000,0.001556,-0.042801,0.000000,0.024000,0.055000,0.070000,0.020000,-0.120000,2.780000,0.786962,Hold,18.975342,208896.000000,Hold,-38219.000000,143360.000000,LowGoal,1410.000000,-1454.545455,Speed,1387.500000,-1454.545455,Speed,Off,Off0.000000,0,,,,
09:40:27.162 AM 03/20/2016,Teleop Enabled,10,FALSE,0,NO ERROR,-0.000000,-0.333666,0.000000,-0.109083,TRUE,FALSE,TRUE,FALSE,FALSE,FALSE,Disabled,0.000000,-0.000000,-59.220000,TRUE,6.804474,-7.761780,0.000000,0.000000,-0.034286,0.000000,-0.025000,-0.071000,0.109000,-0.030000,-0.260000,2.800000,0.738263,Hold,26.299316,208896.000000,Hold,-51965.000000,143360.000000,LowGoal,1417.500000,-1454.545455,Speed,1387.500000,-1454.545455,Speed,Off,Off0.000000,0,,,,
09:40:27.262 AM 03/20/2016,Teleop Enabled,11,FALSE,0,NO ERROR,-0.000000,-0.333666,0.000000,-0.109083,TRUE,FALSE,TRUE,FALSE,FALSE,FALSE,Disabled,0.000000,-0.000000,-59.220000,TRUE,6.804764,-7.764557,0.000000,0.011261,-0.061737,0.000000,-0.048000,0.037000,-0.086000,0.040000,-0.210000,2.650000,0.808306,Hold,34.649170,208896.000000,Hold,-66181.000000,143360.000000,LowGoal,1417.500000,-1454.545455,Speed,1395.000000,-1454.545455,Speed,Off,Off0.000000,0,,,,
09:40:27.362 AM 03/20/2016,Teleop Enabled,10,FALSE,0,NO ERROR,-0.000000,-0.333666,0.000000,-0.115500,TRUE,FALSE,TRUE,FALSE,FALSE,FALSE,Disabled,0.000000,-0.000000,-59.220000,TRUE,6.805542,-7.766800,0.000000,0.034470,-0.036209,0.000000,0.100000,0.009000,0.084000,0.000000,-0.500000,2.840000,0.792449,Hold,44.970703,208896.000000,Hold,-83393.000000,143360.000000,LowGoal,1425.000000,-1454.545455,Speed,1387.500000,-1454.545455,Speed,Off,Off0.000000,0,,,,
09:40:27.462 AM 03/20/2016,Teleop Enabled,10,FALSE,0,NO ERROR,-0.000000,-0.423499,0.000000,-0.211750,TRUE,FALSE,TRUE,FALSE,FALSE,FALSE,Disabled,0.000000,-0.000000,-59.220000,TRUE,6.808762,-7.768967,0.000000,0.057159,-0.061905,0.000000,-0.103000,0.054000,0.161000,-0.090000,-0.640000,2.760000,0.732390,Hold,54.195557,208896.000000,Hold,-83393.000000,143360.000000,LowGoal,1417.500000,-1454.545455,Speed,1395.000000,-1454.545455,Speed,Off,Off0.000000,0,,,,
09:40:27.563 AM 03/20/2016,Teleop Enabled,10,FALSE,0,NO ERROR,-0.000000,-0.442749,0.000000,-0.243833,TRUE,FALSE,TRUE,FALSE,FALSE,FALSE,Disabled,0.000000,-0.000000,-59.220000,TRUE,6.808868,-7.770844,0.000000,-0.020706,-0.015060,0.000000,0.091000,0.009000,0.096000,0.000000,-1.160000,2.820000,0.747390,Hold,56.506836,208896.000000,Hold,-101468.000000,143360.000000,LowGoal,1417.500000,-1454.545455,Speed,1387.500000,-1454.545455,Speed,Off,Off0.000000,0,,,,
09:40:27.664 AM 03/20/2016,Teleop Enabled,10,FALSE,0,NO ERROR,-0.000000,-0.442749,0.000000,-0.243833,TRUE,FALSE,TRUE,FALSE,FALSE,FALSE,Disabled,0.000000,-0.000000,-59.220000,TRUE,6.809525,-7.769775,0.000000,0.012360,0.019470,0.000000,-0.119000,-0.010000,0.132000,0.150000,-0.840000,2.660000,0.950026,Hold,56.177002,208896.000000,Hold,-120337.000000,143360.000000,LowGoal,1417.500000,-1454.545455,Speed,1387.500000,-1454.545455,Speed,Off,Off0.000000,0,,,,
09:40:27.764 AM 03/20/2016,Teleop Enabled,10,FALSE,0,NO ERROR,-0.000000,-0.397832,0.000000,-0.237416,TRUE,FALSE,TRUE,FALSE,FALSE,FALSE,Disabled,0.000000,-0.000000,-59.220000,TRUE,6.809723,-7.769119,0.000000,0.015015,0.028763,0.000000,-0.024000,-0.045000,-0.121000,0.140000,-0.710000,2.770000,0.944190,Hold,55.539307,208896.000000,Hold,-139511.000000,143360.000000,LowGoal,1425.000000,-1454.545455,Speed,1380.000000,-1454.545455,Speed,Off,Off0.000000,0,,,,
09:40:27.864 AM 03/20/2016,Teleop Enabled,10,FALSE,0,NO ERROR,-0.000000,-0.378582,0.000000,-0.237416,TRUE,FALSE,TRUE,FALSE,FALSE,FALSE,Disabled,0.000000,-0.000000,-59.220000,TRUE,6.811493,-7.767548,0.000000,0.063614,0.043320,0.000000,-0.257000,-0.381000,-0.022000,0.180000,-0.690000,2.730000,0.993612,Hold,55.514893,208896.000000,Hold,-142993.000000,143360.000000,LowGoal,1410.000000,-1454.545455,Speed,1387.500000,-1454.545455,Speed,Off,Off0.000000,0,,,,
09:40:27.965 AM 03/20/2016,Teleop Enabled,10,FALSE,0,NO ERROR,-0.000000,-0.378582,0.000000,-0.230999,TRUE,FALSE,TRUE,FALSE,FALSE,FALSE,Disabled,0.000000,-0.000000,-59.220000,TRUE,6.813293,-7.768829,0.000000,0.050644,0.000000,0.000000,0.089000,0.016000,0.276000,0.050000,-0.570000,2.720000,0.921910,Hold,55.301025,208896.000000,Hold,-143406.000000,143360.000000,LowGoal,1402.500000,-1454.545455,Speed,1380.000000,-1454.545455,Speed,Off,Off0.000000,0,,,,
09:40:28.065 AM 03/20/2016,Teleop Enabled,10,FALSE,0,NO ERROR,-0.000000,-0.365749,0.000000,-0.230999,TRUE,FALSE,TRUE,FALSE,FALSE,FALSE,Disabled,0.000000,-0.000000,-59.220000,TRUE,6.815338,-7.769333,0.000000,0.030136,-0.032104,0.000000,-0.117000,-0.080000,-0.059000,0.220000,-0.800000,2.640000,1.083098,Hold,55.301270,208896.000000,Hold,-143406.000000,143360.000000,LowGoal,1417.500000,-1454.545455,Speed,1395.000000,-1454.545455,Speed,Off,Off0.000000,0,,,,
09:40:28.165 AM 03/20/2016,Teleop Enabled,10,FALSE,0,NO ERROR,-0.000000,-0.365749,0.000000,-0.230999,TRUE,FALSE,TRUE,FALSE,FALSE,FALSE,Disabled,0.000000,-0.000000,-59.220000,TRUE,6.817245,-7.771744,0.000000,0.050919,-0.043198,0.000000,0.028000,0.105000,0.104000,0.110000,-0.560000,2.610000,0.983380,Hold,55.161133,208896.000000,Hold,-143463.000000,143360.000000,LowGoal,1425.000000,-1454.545455,Speed,1395.000000,-1454.545455,Speed,Off,Off0.000000,0,,,,
09:40:28.265 AM 03/20/2016,Teleop Enabled,10,FALSE,0,NO ERROR,-0.000000,-0.365749,0.000000,-0.230999,TRUE,FALSE,TRUE,FALSE,FALSE,FALSE,Disabled,0.000000,-0.000000,-59.220000,TRUE,6.820084,-7.773193,0.000000,0.055984,-0.033798,0.000000,0.005000,-0.045000,-0.064000,0.160000,-0.680000,2.550000,1.023238,Hold,55.143311,208896.000000,Hold,-143463.000000,143360.000000,LowGoal,1417.500000,-1454.545455,Speed,1395.000000,-1454.545455,Speed,Off,Off0.000000,0,,,,
09:40:28.365 AM 03/20/2016,Teleop Enabled,10,FALSE,0,NO ERROR,-0.000000,-0.365749,0.000000,-0.230999,TRUE,FALSE,TRUE,FALSE,FALSE,FALSE,Disabled,0.000000,-0.000000,-59.220000,TRUE,6.820969,-7.774750,0.000000,0.019272,-0.032013,0.000000,0.038000,0.038000,-0.032000,0.130000,-0.630000,2.560000,1.008439,Hold,55.125244,208896.000000,Hold,-143463.000000,143360.000000,LowGoal,1417.500000,-1454.545455,Speed,1387.500000,-1454.545455,Speed,Off,Off0.000000,0,,,,
09:40:28.465 AM 03/20/2016,Teleop Enabled,10,FALSE,0,NO ERROR,-0.000000,-0.365749,0.000000,-0.230999,TRUE,FALSE,TRUE,FALSE,FALSE,FALSE,Disabled,0.000000,-0.000000,-59.220000,TRUE,6.821274,-7.775955,0.000000,-0.024475,-0.025375,0.000000,0.014000,-0.077000,0.009000,0.150000,-0.650000,2.510000,1.027462,Hold,55.125000,208896.000000,Hold,-143463.000000,143360.000000,LowGoal,1425.000000,-1454.545455,Speed,1387.500000,-1454.545455,Speed,Off,Off0.000000,0,,,,
09:40:28.565 AM 03/20/2016,Teleop Enabled,10,FALSE,0,NO ERROR,-0.000000,-0.365749,0.000000,-0.230999,TRUE,FALSE,TRUE,FALSE,FALSE,FALSE,Disabled,0.000000,-0.000000,-59.220000,TRUE,6.820145,-7.776932,0.000000,-0.009766,-0.023422,0.000000,-0.052000,0.098000,0.024000,0.160000,-0.670000,2.580000,1.025813,Hold,55.124512,208896.000000,Hold,-143463.000000,143360.000000,LowGoal,1417.500000,-1454.545455,Speed,1380.000000,-1454.545455,Speed,Off,Off0.000000,0,,,,
09:40:28.665 AM 03/20/2016,Teleop Enabled,10,FALSE,0,NO ERROR,-0.000000,-0.365749,0.000000,-0.230999,TRUE,FALSE,TRUE,FALSE,FALSE,FALSE,Disabled,0.000000,-0.000000,-59.220000,TRUE,6.820221,-7.777908,0.000000,0.021790,-0.024597,0.000000,0.033000,0.037000,-0.056000,0.150000,-0.630000,2.510000,1.018701,Hold,55.122314,208896.000000,Hold,-143463.000000,143360.000000,LowGoal,1417.500000,-1454.545455,Speed,1395.000000,-1454.545455,Speed,Off,Off0.000000,0,,,,
09:40:28.765 AM 03/20/2016,Teleop Enabled,10,FALSE,0,NO ERROR,-0.000000,-0.365749,0.000000,-0.230999,TRUE,FALSE,TRUE,FALSE,FALSE,FALSE,Disabled,0.000000,-0.000000,-59.220000,TRUE,6.821411,-7.778961,0.000000,0.017075,0.000000,0.000000,-0.071000,-0.042000,-0.113000,0.160000,-0.680000,2.590000,1.019486,Hold,55.121826,208896.000000,Hold,-143463.000000,143360.000000,LowGoal,1417.500000,-1454.545455,Speed,1387.500000,-1454.545455,Speed,Off,Off0.000000,0,,,,
09:40:28.866 AM 03/20/2016,Teleop Enabled,10,FALSE,0,NO ERROR,-0.000000,-0.365749,0.000000,-0.230999,TRUE,FALSE,TRUE,FALSE,FALSE,FALSE,Disabled,0.000000,-0.000000,-59.220000,TRUE,6.821762,-7.778976,0.000000,-0.000244,0.008682,0.000000,-0.070000,-0.191000,-0.088000,0.150000,-0.600000,2.600000,1.024206,Hold,55.121094,208896.000000,Hold,-143463.000000,143360.000000,LowGoal,1417.500000,-1454.545455,Speed,1387.500000,-1454.545455,Speed,Off,Off0.000000,0,,,,
09:40:28.966 AM 03/20/2016,Teleop Enabled,10,FALSE,0,NO ERROR,-0.000000,-0.365749,0.000000,-0.230999,TRUE,FALSE,TRUE,FALSE,FALSE,FALSE,Disabled,0.000000,-0.000000,-59.220000,TRUE,6.821808,-7.779800,0.000000,0.010757,-0.019470,0.000000,-0.003000,0.108000,0.099000,0.160000,-0.670000,2.560000,1.034292,Hold,55.121094,208896.000000,Hold,-143463.000000,143360.000000,LowGoal,1417.500000,-1454.545455,Speed,1387.500000,-1454.545455,Speed,Off,Off0.000000,0,,,,
09:40:29.067 AM 03/20/2016,Teleop Enabled,9,FALSE,0,NO ERROR,-0.000000,-0.365749,0.000000,-0.230999,TRUE,FALSE,TRUE,FALSE,FALSE,FALSE,Disabled,0.000000,-0.000000,-59.220000,TRUE,6.821854,-7.779663,0.000000,-0.003571,0.015244,0.000000,0.006000,0.010000,-0.073000,0.150000,-0.600000,2.640000,1.027280,Hold,55.119141,208896.000000,Hold,-143463.000000,143360.000000,LowGoal,1417.500000,-1454.545455,Speed,1387.500000,-1454.545455,Speed,Off,Off0.000000,0,,,,
09:40:29.168 AM 03/20/2016,Teleop Enabled,9,FALSE,0,NO ERROR,-0.000000,-0.365749,0.000000,-0.230999,TRUE,FALSE,TRUE,FALSE,FALSE,FALSE,Disabled,0.000000,-0.000000,-59.220000,TRUE,6.821121,-7.780075,0.000000,-0.040878,-0.006500,0.000000,-0.093000,0.253000,0.018000,0.140000,-0.690000,2.650000,1.016216,Hold,55.115967,208896.000000,Hold,-143463.000000,143360.000000,LowGoal,1417.500000,-1454.545455,Speed,1387.500000,-1454.545455,Speed,Off,Off0.000000,0,,,,
09:40:29.267 AM 03/20/2016,Teleop Enabled,10,FALSE,0,NO ERROR,0.283465,-0.365749,-0.283465,-0.230999,TRUE,FALSE,TRUE,FALSE,FALSE,FALSE,Disabled,0.000000,-0.000000,-59.220000,TRUE,6.819641,-7.780685,0.000000,-0.024445,-0.020081,0.000000,0.102000,-0.019000,0.052000,0.150000,-0.640000,2.630000,1.027008,Hold,55.115234,208896.000000,Hold,-143463.000000,143360.000000,LowGoal,1410.000000,-1454.545455,Speed,1387.500000,-1454.545455,Speed,Off,Off0.000000,0,,,,
09:40:29.367 AM 03/20/2016,Teleop Enabled,10,FALSE,0,NO ERROR,0.338583,-0.680165,-0.338583,0.192500,TRUE,FALSE,TRUE,FALSE,FALSE,FALSE,Disabled,0.000000,-0.000000,-59.220000,TRUE,6.818695,-7.782349,0.000000,-0.016190,-0.061722,0.000000,-0.235000,-0.324000,0.130000,-0.090000,-0.660000,2.410000,0.842036,Hold,55.115234,208896.000000,Hold,-143463.000000,143360.000000,LowGoal,1410.000000,-1454.545455,Speed,1380.000000,-1454.545455,Speed,Off,Off0.000000,0,,,,
09:40:29.468 AM 03/20/2016,Teleop Enabled,11,FALSE,0,NO ERROR,-0.000000,-1.584913,0.000000,1.116497,TRUE,FALSE,TRUE,FALSE,FALSE,FALSE,Disabled,0.000000,-0.000000,-59.220000,TRUE,6.814789,-7.788986,0.000000,-0.093842,0.000000,0.000000,0.015000,-0.008000,-0.041000,-3.770000,-1.220000,1.950000,-2.613487,Hold,55.115234,208896.000000,Hold,-143463.000000,143360.000000,LowGoal,1410.000000,-1454.545455,Speed,1365.000000,-1454.545455,Speed,Off,Off0.000000,0,,,,
09:40:29.568 AM 03/20/2016,Teleop Enabled,10,FALSE,0,NO ERROR,-0.000000,-1.899329,0.000000,1.334664,TRUE,FALSE,TRUE,FALSE,FALSE,FALSE,Disabled,0.000000,-0.000000,-59.220000,TRUE,6.811829,-7.785477,0.000000,0.010056,0.171371,0.000000,0.227000,0.041000,-0.022000,-6.350000,-0.760000,2.470000,-5.264467,Hold,55.115234,208896.000000,Hold,-143463.000000,143360.000000,LowGoal,1402.500000,-1454.545455,Speed,1380.000000,-1454.545455,Speed,Off,Off0.000000,0,,,,
09:40:29.668 AM 03/20/2016,Teleop Enabled,9,FALSE,0,NO ERROR,-0.000000,-1.835162,0.000000,1.161414,TRUE,FALSE,TRUE,FALSE,FALSE,FALSE,Disabled,0.000000,-0.000000,-59.220000,TRUE,6.814682,-7.774658,0.000000,0.039764,0.208603,0.000000,-0.073000,-0.006000,-0.200000,-5.170000,-0.890000,2.830000,-4.103347,Hold,55.080566,208896.000000,Hold,-143463.000000,143360.000000,LowGoal,1417.500000,-1454.545455,Speed,1395.000000,-1454.545455,Speed,Off,Off0.000000,0,,,,
09:40:29.768 AM 03/20/2016,Teleop Enabled,9,FALSE,0,NO ERROR,-0.000000,-1.758163,0.000000,1.142164,TRUE,FALSE,TRUE,FALSE,FALSE,FALSE,Disabled,0.000000,-0.000000,-59.220000,TRUE,6.815933,-7.767731,0.000000,0.019791,0.101959,0.000000,0.069000,-0.098000,-0.069000,-4.990000,-0.800000,2.570000,-3.885316,Hold,55.075684,208896.000000,Hold,-143463.000000,143360.000000,LowGoal,1417.500000,-1454.545455,Speed,1380.000000,-1454.545455,Speed,Off,Off0.000000,0,,,,
09:40:29.868 AM 03/20/2016,Teleop Enabled,9,FALSE,0,NO ERROR,-0.000000,-1.758163,0.000000,1.142164,TRUE,FALSE,TRUE,FALSE,FALSE,FALSE,Disabled,0.000000,-0.000000,-59.220000,TRUE,6.817825,-7.761520,0.000000,0.029144,0.128876,0.000000,-0.098000,-0.080000,0.070000,-5.010000,-0.710000,2.630000,-3.890242,Hold,55.020020,208896.000000,Hold,-143463.000000,143360.000000,LowGoal,1417.500000,-1454.545455,Speed,1380.000000,-1454.545455,Speed,Off,Off0.000000,0,,,,
09:40:29.969 AM 03/20/2016,Teleop Enabled,10,FALSE,0,NO ERROR,-0.000000,-1.758163,0.000000,1.142164,TRUE,FALSE,TRUE,FALSE,FALSE,FALSE,Disabled,0.000000,-0.000000,-59.220000,TRUE,6.818970,-7.755615,0.000000,0.031586,0.125153,0.000000,-0.024000,0.198000,0.079000,-5.010000,-0.840000,2.600000,-3.873745,Hold,55.019531,208896.000000,Hold,-143463.000000,143360.000000,LowGoal,1417.500000,-1454.545455,Speed,1395.000000,-1454.545455,Speed,Off,Off0.000000,0,,,,
09:40:30.069 AM 03/20/2016,Teleop Enabled,9,FALSE,0,NO ERROR,-0.000000,-1.758163,0.000000,1.142164,TRUE,FALSE,TRUE,FALSE,FALSE,FALSE,Disabled,0.000000,-0.000000,-59.220000,TRUE,6.821823,-7.746689,0.000000,0.058701,0.215378,0.000000,-0.068000,0.031000,-0.009000,-5.000000,-0.760000,2.650000,-3.835740,Hold,55.005859,208896.000000,Hold,-143463.000000,143360.000000,LowGoal,1425.000000,-1454.545455,Speed,1387.500000,-1454.545455,Speed,Off,Off0.000000,0,,,,
09:40:30.170 AM 03/20/2016,Teleop Enabled,10,FALSE,0,NO ERROR,-0.000000,-1.758163,0.000000,1.142164,TRUE,FALSE,TRUE,FALSE,FALSE,FALSE,Disabled,0.000000,-0.000000,-59.220000,TRUE,6.822495,-7.736130,0.000000,-0.011612,0.213669,0.000000,0.033000,-0.096000,0.042000,-5.010000,-0.790000,2.580000,-3.832273,Hold,55.005371,208896.000000,Hold,-143463.000000,143360.000000,LowGoal,1417.500000,-1454.545455,Speed,1387.500000,-1454.545455,Speed,Off,Off0.000000,0,,,,
09:40:30.270 AM 03/20/2016,Teleop Enabled,10,FALSE,0,NO ERROR,-0.000000,-1.758163,0.000000,1.142164,TRUE,FALSE,TRUE,FALSE,FALSE,FALSE,Disabled,0.000000,-0.000000,-59.220000,TRUE,6.822693,-7.726608,0.000000,0.025513,0.157776,0.000000,0.000000,0.072000,0.115000,-5.010000,-0.730000,2.590000,-3.818950,Hold,55.001465,208896.000000,Hold,-143463.000000,143360.000000,LowGoal,1417.500000,-1454.545455,Speed,1387.500000,-1454.545455,Speed,Off,Off0.000000,0,,,,
09:40:30.370 AM 03/20/2016,Teleop Enabled,10,FALSE,0,NO ERROR,-0.000000,-1.758163,0.000000,1.142164,TRUE,FALSE,TRUE,FALSE,FALSE,FALSE,Disabled,0.000000,-0.000000,-59.220000,TRUE,6.824448,-7.718887,0.000000,0.031631,0.153183,0.000000,-0.015000,-0.054000,-0.292000,-4.990000,-0.730000,2.600000,-3.790652,Hold,55.000488,208896.000000,Hold,-143463.000000,143360.000000,LowGoal,1417.500000,-1454.545455,Speed,1387.500000,-1454.545455,Speed,Off,Off0.000000,0,,,,
09:40:30.471 AM 03/20/2016,Teleop Enabled,10,FALSE,0,NO ERROR,-0.000000,-1.758163,0.000000,1.142164,TRUE,FALSE,TRUE,FALSE,FALSE,FALSE,Disabled,0.000000,-0.000000,-59.220000,TRUE,6.825119,-7.710403,0.000000,0.026108,0.129593,0.000000,-0.008000,0.086000,0.219000,-5.010000,-0.740000,2.560000,-3.788243,Hold,55.000488,208896.000000,Hold,-143463.000000,143360.000000,LowGoal,1417.500000,-1454.545455,Speed,1380.000000,-1454.545455,Speed,Off,Off0.000000,0,,,,
09:40:30.571 AM 03/20/2016,Teleop Enabled,11,FALSE,0,NO ERROR,0.000000,-1.758163,-0.000000,1.142164,TRUE,FALSE,TRUE,TRUE,TRUE,FALSE,Disabled,0.000000,-0.000000,-59.220000,TRUE,6.827377,-7.702744,0.000000,0.047714,0.192627,0.000000,-0.122000,-0.002000,-0.164000,-5.000000,-0.740000,2.560000,-3.755638,Hold,54.998535,208896.000000,Hold,-143463.000000,143360.000000,LowGoal,1410.000000,-1454.545455,Speed,1387.500000,-1454.545455,Speed,Off,Off0.000000,0,,,,
09:40:30.671 AM 03/20/2016,Teleop Enabled,10,FALSE,0,NO ERROR,0.000000,-1.764579,-0.000000,1.142164,TRUE,FALSE,TRUE,TRUE,TRUE,FALSE,Disabled,0.000000,-0.000000,-59.220000,TRUE,6.828384,-7.693268,0.000000,0.018265,0.175751,0.000000,0.061000,-0.041000,0.095000,-5.010000,-0.760000,2.530000,-3.753435,Hold,54.998047,208896.000000,Hold,-143463.000000,143360.000000,LowGoal,1417.500000,-1454.545455,Speed,1387.500000,-1454.545455,Speed,Off,Off0.000000,0,,,,
09:40:30.772 AM 03/20/2016,Teleop Enabled,11,FALSE,0,NO ERROR,0.000000,-1.764579,-0.000000,0.911165,TRUE,FALSE,TRUE,TRUE,TRUE,FALSE,Disabled,0.000000,-0.000000,-59.220000,TRUE,6.829987,-7.685364,0.000000,0.000000,0.155197,0.000000,-0.049000,0.011000,-0.254000,-4.980000,-0.820000,2.540000,-3.723701,Hold,54.997559,208896.000000,Hold,-143463.000000,143360.000000,LowGoal,1417.500000,-1454.545455,Speed,1387.500000,-1454.545455,Speed,Off,Off0.000000,0,,,,
09:40:30.872 AM 03/20/2016,Teleop Enabled,10,FALSE,0,NO ERROR,0.000000,-1.764579,-0.000000,0.911165,TRUE,FALSE,TRUE,TRUE,TRUE,FALSE,Disabled,0.000000,-0.000000,-59.220000,TRUE,6.829437,-7.677536,0.000000,-0.002975,0.139481,0.000000,0.169000,-0.081000,0.165000,-5.000000,-0.790000,2.500000,-3.722180,Hold,54.997559,208896.000000,Hold,-143463.000000,143360.000000,LowGoal,1417.500000,-1454.545455,Speed,1380.000000,-1454.545455,Speed,Off,Off0.000000,0,,,,
09:40:30.972 AM 03/20/2016,Teleop Enabled,12,FALSE,0,NO ERROR,0.000000,-1.764579,-0.000000,0.911165,TRUE,FALSE,TRUE,TRUE,TRUE,FALSE,Disabled,0.000000,-0.000000,-59.220000,TRUE,6.830734,-7.670410,0.000000,0.027039,0.167374,0.000000,-0.060000,0.096000,-0.106000,-4.990000,-0.820000,2.510000,-3.710603,Hold,54.997314,208896.000000,Hold,-143463.000000,143360.000000,LowGoal,1425.000000,-1454.545455,Speed,1387.500000,-1454.545455,Speed,Off,Off0.000000,0,,,,
09:40:31.073 AM 03/20/2016,Teleop Enabled,10,FALSE,0,NO ERROR,0.000000,-1.764579,-0.000000,0.911165,TRUE,FALSE,TRUE,TRUE,TRUE,FALSE,Disabled,0.000000,-0.000000,-59.220000,TRUE,6.831268,-7.661301,0.000000,0.000092,0.164490,0.000000,0.144000,0.051000,-0.056000,-5.000000,-0.820000,2.520000,-3.714417,Hold,54.996826,208896.000000,Hold,-143463.000000,143360.000000,LowGoal,1417.500000,-1454.545455,Speed,1387.500000,-1454.545455,Speed,Off,Off0.000000,0,,,,
09:40:31.174 AM 03/20/2016,Teleop Enabled,10,FALSE,0,NO ERROR,0.000000,-1.764579,-0.000000,0.911165,TRUE,FALSE,TRUE,TRUE,TRUE,FALSE,Disabled,0.000000,-0.000000,-59.220000,TRUE,6.832520,-7.652802,0.000000,0.017197,0.168365,0.000000,0.118000,-0.094000,0.002000,-4.990000,-0.910000,2.570000,-3.711264,Hold,54.996582,208896.000000,Hold,-143463.000000,143360.000000,LowGoal,1417.500000,-1454.545455,Speed,1380.000000,-1454.545455,Speed,Off,Off0.000000,0,,,,
09:40:31.275 AM 03/20/2016,Teleop Enabled,10,FALSE,0,NO ERROR,0.000000,-1.764579,-0.000000,0.911165,TRUE,FALSE,TRUE,TRUE,TRUE,FALSE,Disabled,0.000000,-0.000000,-59.220000,TRUE,6.834595,-7.644501,0.000000,0.066055,0.169510,0.000000,0.065000,0.185000,0.059000,-4.990000,-0.890000,2.520000,-3.720379,Hold,54.996338,208896.000000,Hold,-143463.000000,143360.000000,LowGoal,1425.000000,-1454.545455,Speed,1387.500000,-1454.545455,Speed,Off,Off0.000000,0,,,,
09:40:31.376 AM 03/20/2016,Teleop Enabled,10,FALSE,0,NO ERROR,0.000000,-1.764579,-0.000000,0.911165,TRUE,FALSE,TRUE,TRUE,TRUE,FALSE,Disabled,0.000000,-0.000000,-59.220000,TRUE,6.837036,-7.634598,0.000000,0.020767,0.186127,0.000000,0.018000,-0.089000,0.060000,-4.990000,-0.900000,2.530000,-3.705301,Hold,54.996094,208896.000000,Hold,-143463.000000,143360.000000,LowGoal,1425.000000,-1454.545455,Speed,1387.500000,-1454.545455,Speed,Off,Off0.000000,0,,,,
09:40:31.479 AM 03/20/2016,Teleop Enabled,11,FALSE,0,NO ERROR,0.000000,-1.764579,-0.000000,0.911165,TRUE,FALSE,TRUE,TRUE,TRUE,FALSE,Disabled,0.000000,-0.000000,-59.220000,TRUE,6.838562,-7.623810,0.000000,0.024979,0.178101,0.000000,0.125000,-0.060000,0.072000,-4.990000,-0.920000,2.660000,-3.692980,Hold,54.995850,208896.000000,Hold,-143463.000000,143360.000000,LowGoal,1417.500000,-1454.545455,Speed,1387.500000,-1454.545455,Speed,Off,Off0.000000,0,,,,
09:40:31.580 AM 03/20/2016,Teleop Enabled,11,FALSE,0,NO ERROR,0.000000,-1.764579,-0.000000,0.911165,TRUE,FALSE,TRUE,TRUE,TRUE,FALSE,Disabled,0.000000,-0.000000,-59.220000,TRUE,6.840546,-7.615662,0.000000,0.047394,0.163803,0.000000,0.044000,0.101000,0.125000,-4.990000,-0.930000,2.560000,-3.692646,Hold,54.995361,208896.000000,Hold,-143463.000000,143360.000000,LowGoal,1417.500000,-1454.545455,Speed,1387.500000,-1454.545455,Speed,Off,Off0.000000,0,,,,
