Time,Robot Mode,Loop Time,Error Status,Error Code,Error Source,Left Motor Output,Left Motor Encoder,Right Motor Output,Right Motor Encoder,Is Level,Is Stalled,Ball Detector Photoeye,Vision Enabled,Vision Teleop Control,Vision Auto Control,Vision Current State,Vision X Output,Vision NavX Error,Vision NavX Target,NavX Connection Status,NavX Displacement X,NavX Displacement Y,NavX Displacement Z,NavX Velocity X,NavX Velocity Y,NavX Velocity Z,NavX Acceleration X,NavX Acceleration Y,NavX Acceleration Z,NavX Pitch,NavX Yaw,NavX Roll,Gyro Angle,Roller Arm State,Roller Arm Actual,Roller Arm Desired,Shooter Arm State,Shooter Arm Actual,Shooter Arm Desired,Shooter State,Actual RPM Left,Desired RPM Left,Control Mode Left,Actual RPM Right,Desired RPM Right,Scaler Motor Output,Auto To Run,Auto Current File,Auto File Status,Auto Current Command,Auto Trimmed Command
10:51:44.658 AM 03/20/2016,Autonomous Enabled,10,FALSE,0,NO ERROR,0.000000,97.924521,0.000000,99.515851,TRUE,FALSE,TRUE,FALSE,FALSE,FALSE,Disabled,0.000000,0.000000,0.000000,TRUE,-2.127457,-1.348907,0.000000,0.000000,0.000000,0.000000,-0.001000,0.000000,0.017000,-4.860000,-0.270000,2.410000,-4.426042,ResetBack,0.988281,-0.000049,ResetBack,-20938.000000,-0.300000,LowGoal,0.000000,-1454.545455,Speed,0.000000,-1454.545455,Speed,Off,Off0.000000,1,Read: /home/lvuser/scripts/auto_01.bee,File good!,WAIT 1500,WAIT
10:51:44.758 AM 03/20/2016,Autonomous Enabled,9,FALSE,0,NO ERROR,0.000000,97.924521,0.000000,99.515851,TRUE,FALSE,TRUE,FALSE,FALSE,FALSE,Disabled,0.000000,0.000000,0.000000,TRUE,-2.127457,-1.348907,0.000000,0.000000,0.000000,0.000000,0.007000,-0.102000,-0.036000,-4.860000,-0.250000,2.410000,-4.427068,ResetBack,0.214600,-0.000049,ResetBack,-17896.000000,-0.300000,LowGoal,52.500000,-1454.545455,Speed,217.500000,-1454.545455,Speed,Off,Off0.000000,1,Read: /home/lvuser/scripts/auto_01.bee,File good!,WAIT 1500,WAIT
10:51:44.858 AM 03/20/2016,Autonomous Enabled,10,FALSE,0,NO ERROR,0.000000,97.924521,0.000000,99.515851,TRUE,FALSE,TRUE,FALSE,FALSE,FALSE,Disabled,0.000000,0.000000,0.000000,TRUE,-2.126404,-1.349472,0.000000,0.044708,-0.000854,0.000000,-0.029000,0.056000,0.046000,-4.900000,-0.340000,2.290000,-4.442074,ResetBack,0.206787,-0.000049,ResetBack,-11107.000000,-0.300000,LowGoal,765.000000,-1454.545455,Speed,997.500000,-1454.545455,Speed,Off,Off0.000000,1,Read: /home/lvuser/scripts/auto_01.bee,File good!,WAIT 1500,WAIT
10:51:44.958 AM 03/20/2016,Autonomous Enabled,10,FALSE,0,NO ERROR,0.000000,97.924521,0.000000,99.515851,TRUE,FALSE,TRUE,FALSE,FALSE,FALSE,Disabled,0.000000,0.000000,0.000000,TRUE,-2.123505,-1.349014,0.000000,0.027145,0.000000,0.000000,0.002000,0.002000,-0.093000,-4.980000,-0.230000,2.330000,-4.554201,Reset,0.023438,-0.000049,ResetBack,-11107.000000,-0.300000,LowGoal,1470.000000,-1454.545455,Speed,1515.000000,-1454.545455,Speed,Off,Off0.000000,1,Read: /home/lvuser/scripts/auto_01.bee,File good!,WAIT 1500,WAIT
10:51:45.058 AM 03/20/2016,Autonomous Enabled,9,FALSE,0,NO ERROR,0.000000,98.007937,0.000000,99.522267,TRUE,FALSE,TRUE,FALSE,FALSE,FALSE,Disabled,0.000000,0.000000,0.000000,TRUE,-2.121536,-1.348297,0.000000,0.045670,0.023987,0.000000,-0.049000,0.098000,0.088000,-4.690000,-0.160000,2.350000,-4.285854,Hold,0.930664,0.000000,ResetBack,-2990.000000,-0.300000,LowGoal,1470.000000,-1454.545455,Speed,1417.500000,-1454.545455,Speed,Off,Off0.000000,1,Read: /home/lvuser/scripts/auto_01.bee,File good!,WAIT 1500,WAIT
10:51:45.159 AM 03/20/2016,Autonomous Enabled,10,FALSE,0,NO ERROR,0.000000,98.014354,0.000000,99.522267,TRUE,FALSE,TRUE,FALSE,FALSE,FALSE,Disabled,0.000000,0.000000,0.000000,TRUE,-2.119110,-1.346466,0.000000,0.055511,0.030930,0.000000,0.079000,0.021000,0.126000,-4.680000,-0.120000,2.360000,-4.247920,Hold,0.930664,0.000000,ResetBack,-490.000000,-0.300000,LowGoal,1320.000000,-1454.545455,Speed,1245.000000,-1454.545455,Speed,Off,Off0.000000,1,Read: /home/lvuser/scripts/auto_01.bee,File good!,WAIT 1500,WAIT
10:51:45.259 AM 03/20/2016,Autonomous Enabled,10,FALSE,0,NO ERROR,0.000000,97.988688,0.000000,99.522267,TRUE,FALSE,TRUE,FALSE,FALSE,FALSE,Disabled,0.000000,0.000000,0.000000,TRUE,-2.116943,-1.344849,0.000000,0.034561,0.037369,0.000000,-0.026000,-0.095000,-0.043000,-4.830000,-0.200000,2.350000,-4.395503,Hold,0.966553,0.000000,ResetBack,-109.000000,-0.300000,LowGoal,1305.000000,-1454.545455,Speed,1327.500000,-1454.545455,Speed,Off,Off0.000000,1,Read: /home/lvuser/scripts/auto_01.bee,File good!,WAIT 1500,WAIT
10:51:45.359 AM 03/20/2016,Autonomous Enabled,11,FALSE,0,NO ERROR,0.000000,97.975854,0.000000,99.522267,TRUE,FALSE,TRUE,FALSE,FALSE,FALSE,Disabled,0.000000,0.000000,0.000000,TRUE,-2.115753,-1.343582,0.000000,0.008774,0.015732,0.000000,0.032000,0.079000,0.134000,-4.840000,-0.300000,2.310000,-4.428035,Hold,0.924561,0.000000,ResetBack,-82.000000,-0.300000,LowGoal,1417.500000,-1454.545455,Speed,1380.000000,-1454.545455,Speed,Off,Off0.000000,1,Read: /home/lvuser/scripts/auto_01.bee,File good!,WAIT 1500,WAIT
10:51:45.459 AM 03/20/2016,Autonomous Enabled,10,FALSE,0,NO ERROR,0.000000,97.975854,0.000000,99.522267,TRUE,FALSE,TRUE,FALSE,FALSE,FALSE,Disabled,0.000000,0.000000,0.000000,TRUE,-2.114319,-1.342224,0.000000,0.043152,0.030029,0.000000,-0.007000,0.020000,0.017000,-4.800000,-0.220000,2.420000,-4.362279,Hold,0.924805,0.000000,ResetBack,-82.000000,-0.300000,LowGoal,1410.000000,-1454.545455,Speed,1342.500000,-1454.545455,Speed,Off,Off0.000000,1,Read: /home/lvuser/scripts/auto_01.bee,File good!,WAIT 1500,WAIT
10:51:45.560 AM 03/20/2016,Autonomous Enabled,11,FALSE,0,NO ERROR,0.000000,97.975854,0.000000,99.522267,TRUE,FALSE,TRUE,FALSE,FALSE,FALSE,Disabled,0.000000,0.000000,0.000000,TRUE,-2.112808,-1.340942,0.000000,-0.003006,0.034302,0.000000,0.058000,-0.008000,-0.023000,-4.790000,-0.170000,2.420000,-4.364578,Hold,0.925049,0.000000,ResetBack,-4.000000,-0.300000,LowGoal,1357.500000,-1454.545455,Speed,1312.500000,-1454.545455,Speed,Off,Off0.000000,1,Read: /home/lvuser/scripts/auto_01.bee,File good!,WAIT 1500,WAIT
10:51:45.661 AM 03/20/2016,Autonomous Enabled,11,FALSE,0,NO ERROR,0.000000,97.975854,0.000000,99.522267,TRUE,FALSE,TRUE,FALSE,FALSE,FALSE,Disabled,0.000000,0.000000,0.000000,TRUE,-2.112335,-1.339539,0.000000,0.016205,0.025299,0.000000,-0.019000,-0.056000,0.095000,-4.810000,-0.200000,2.390000,-4.386060,Hold,0.925049,0.000000,ResetBack,-4.000000,-0.300000,LowGoal,1365.000000,-1454.545455,Speed,1335.000000,-1454.545455,Speed,Off,Off0.000000,1,Read: /home/lvuser/scripts/auto_01.bee,File good!,WAIT 1500,WAIT
10:51:45.761 AM 03/20/2016,Autonomous Enabled,10,FALSE,0,NO ERROR,0.000000,97.975854,0.000000,99.522267,TRUE,FALSE,TRUE,FALSE,FALSE,FALSE,Disabled,0.000000,0.000000,0.000000,TRUE,-2.111755,-1.337891,0.000000,-0.001831,0.038467,0.000000,0.119000,0.000000,0.057000,-4.800000,-0.240000,2.440000,-4.384951,Hold,0.925049,0.000000,ResetBack,-4.000000,-0.300000,LowGoal,1365.000000,-1454.545455,Speed,1342.500000,-1454.545455,Speed,Off,Off0.000000,1,Read: /home/lvuser/scripts/auto_01.bee,File good!,WAIT 1500,WAIT
10:51:45.861 AM 03/20/2016,Autonomous Enabled,11,FALSE,0,NO ERROR,0.000000,97.975854,0.000000,99.522267,TRUE,FALSE,TRUE,FALSE,FALSE,FALSE,Disabled,0.000000,0.000000,0.000000,TRUE,-2.110962,-1.336517,0.000000,0.022781,0.036194,0.000000,-0.013000,-0.031000,-0.021000,-4.790000,-0.190000,2.480000,-4.376514,Hold,0.925049,0.000000,Reset,50.000000,-0.300000,LowGoal,1372.500000,-1454.545455,Speed,1342.500000,-1454.545455,Speed,Off,Off0.000000,1,Read: /home/lvuser/scripts/auto_01.bee,File good!,WAIT 1500,WAIT
10:51:45.962 AM 03/20/2016,Autonomous Enabled,11,FALSE,0,NO ERROR,0.000000,97.975854,0.000000,99.522267,TRUE,FALSE,TRUE,FALSE,FALSE,FALSE,Disabled,0.000000,0.000000,0.000000,TRUE,-2.110687,-1.334824,0.000000,0.021500,0.030792,0.000000,-0.064000,-0.081000,0.036000,-4.790000,-0.180000,2.380000,-4.385155,Hold,0.925049,0.000000,Hold,276.000000,2.000000,LowGoal,1372.500000,-1454.545455,Speed,1327.500000,-1454.545455,Speed,Off,Off0.000000,1,Read: /home/lvuser/scripts/auto_01.bee,File good!,WAIT 1500,WAIT
10:51:46.062 AM 03/20/2016,Autonomous Enabled,10,FALSE,0,NO ERROR,0.000000,97.975854,0.000000,99.522267,TRUE,FALSE,TRUE,FALSE,FALSE,FALSE,Disabled,0.000000,0.000000,0.000000,TRUE,-2.109528,-1.334000,0.000000,0.028763,0.007477,0.000000,-0.029000,-0.013000,0.073000,-4.790000,-0.190000,2.320000,-4.382693,Hold,0.925049,0.000000,Hold,-417.000000,2.000000,LowGoal,1365.000000,-1454.545455,Speed,1335.000000,-1454.545455,Speed,Off,Off0.000000,1,Read: /home/lvuser/scripts/auto_01.bee,File good!,WAIT 1500,WAIT
10:51:46.162 AM 03/20/2016,Autonomous Enabled,10,FALSE,0,NO ERROR,0.000000,97.975854,0.000000,99.522267,TRUE,FALSE,TRUE,FALSE,FALSE,FALSE,Disabled,0.000000,0.000000,0.000000,TRUE,-2.108719,-1.334885,0.000000,-0.002930,-0.031693,0.000000,-0.004000,-0.020000,0.052000,-4.790000,-0.180000,2.330000,-4.374607,Hold,0.925049,0.000000,Hold,-211.000000,2.000000,LowGoal,1372.500000,-1454.545455,Speed,1342.500000,-1454.545455,Speed,Off,Off0.000000,1,Read: /home/lvuser/scripts/auto_01.bee,File good!,WAIT 1500,WAIT
10:51:46.261 AM 03/20/2016,Autonomous Enabled,11,FALSE,0,NO ERROR,0.000000,97.975854,0.000000,99.522267,TRUE,FALSE,TRUE,FALSE,FALSE,FALSE,Disabled,0.000000,0.000000,0.000000,TRUE,-2.108368,-1.336349,0.000000,0.005325,-0.032043,0.000000,0.039000,0.078000,0.047000,-4.800000,-0.170000,2.320000,-4.379932,Hold,0.925049,0.000000,Hold,-211.000000,2.000000,LowGoal,1372.500000,-1454.545455,Speed,1335.000000,-1454.545455,Speed,Off,Off0.000000,1,Read: /home/lvuser/scripts/auto_01.bee,File good!,WAIT_FOR_PID,WAIT_FOR_PID
10:51:46.362 AM 03/20/2016,Autonomous Enabled,10,FALSE,0,NO ERROR,0.000000,97.975854,0.000000,99.522267,TRUE,FALSE,TRUE,FALSE,FALSE,FALSE,Disabled,0.000000,0.000000,0.000000,TRUE,-2.108063,-1.336990,0.000000,0.002945,-0.015198,0.000000,-0.005000,-0.014000,-0.007000,0.000000,-0.200000,2.360000,-0.011856,Hold,0.925049,60.000000,Hold,-211.000000,114688.000000,LowGoal,1372.500000,2909.090909,Speed,1327.500000,2909.090909,Speed,Off,Off0.000000,1,Read: /home/lvuser/scripts/auto_01.bee,File good!,WAIT_FOR_PID,WAIT_FOR_PID
10:51:46.462 AM 03/20/2016,Autonomous Enabled,10,FALSE,0,NO ERROR,0.000000,97.975854,0.000000,99.522267,TRUE,FALSE,TRUE,FALSE,FALSE,FALSE,Disabled,0.000000,0.000000,0.000000,TRUE,-2.107361,-1.339035,0.000000,0.007935,-0.068207,0.000000,-0.123000,-0.073000,0.066000,0.010000,-0.180000,2.320000,0.001763,Hold,2.973389,60.000000,Hold,-211.000000,114688.000000,LowGoal,1237.500000,2909.090909,Speed,1162.500000,2909.090909,Speed,Off,Off0.000000,1,Read: /home/lvuser/scripts/auto_01.bee,File good!,WAIT_FOR_PID,WAIT_FOR_PID
10:51:46.563 AM 03/20/2016,Autonomous Enabled,11,FALSE,0,NO ERROR,0.000000,97.975854,0.000000,99.522267,TRUE,FALSE,TRUE,FALSE,FALSE,FALSE,Disabled,0.000000,0.000000,0.000000,TRUE,-2.106934,-1.341705,0.000000,0.014389,-0.059250,0.000000,0.047000,0.038000,0.080000,0.030000,-0.170000,2.290000,0.022979,Hold,5.134766,60.000000,Hold,-10704.000000,114688.000000,LowGoal,90.000000,2909.090909,Speed,0.000000,2909.090909,Speed,Off,Off0.000000,1,Read: /home/lvuser/scripts/auto_01.bee,File good!,WAIT_FOR_PID,WAIT_FOR_PID
10:51:46.664 AM 03/20/2016,Autonomous Enabled,10,FALSE,0,NO ERROR,0.000000,97.975854,0.000000,99.522267,TRUE,FALSE,TRUE,FALSE,FALSE,FALSE,Disabled,0.000000,0.000000,0.000000,TRUE,-2.105545,-1.344452,0.000000,0.036392,-0.052292,0.000000,0.006000,-0.012000,-0.070000,0.000000,-0.170000,2.420000,0.005315,Hold,8.031494,60.000000,Hold,-20740.000000,114688.000000,LowGoal,-937.500000,2909.090909,Speed,-937.500000,2909.090909,Speed,Off,Off0.000000,1,Read: /home/lvuser/scripts/auto_01.bee,File good!,WAIT_FOR_PID,WAIT_FOR_PID
10:51:46.766 AM 03/20/2016,Autonomous Enabled,11,FALSE,0,NO ERROR,0.000000,97.995104,0.000000,99.522267,TRUE,FALSE,TRUE,FALSE,FALSE,FALSE,Disabled,0.000000,0.000000,0.000000,TRUE,-2.105652,-1.346680,0.000000,-0.013336,-0.038239,0.000000,0.001000,-0.035000,-0.029000,0.080000,-0.090000,2.420000,0.070748,Hold,11.650146,60.000000,Hold,-29126.000000,114688.000000,LowGoal,-1672.500000,2909.090909,Speed,-1500.000000,2909.090909,Speed,Off,Off0.000000,1,Read: /home/lvuser/scripts/auto_01.bee,File good!,WAIT_FOR_PID,WAIT_FOR_PID
10:51:46.866 AM 03/20/2016,Autonomous Enabled,11,FALSE,0,NO ERROR,0.000000,98.007937,0.000000,99.522267,TRUE,FALSE,TRUE,FALSE,FALSE,FALSE,Disabled,0.000000,0.000000,0.000000,TRUE,-2.106354,-1.349121,0.000000,-0.020599,-0.042404,0.000000,0.050000,0.049000,0.033000,0.070000,-0.180000,2.350000,0.091510,Hold,15.856201,60.000000,Hold,-37188.000000,114688.000000,LowGoal,-2242.500000,2909.090909,Speed,-2167.500000,2909.090909,Speed,Off,Off0.000000,1,Read: /home/lvuser/scripts/auto_01.bee,File good!,WAIT_FOR_PID,WAIT_FOR_PID
10:51:46.966 AM 03/20/2016,Autonomous Enabled,11,FALSE,0,NO ERROR,0.000000,98.007937,0.000000,99.522267,TRUE,FALSE,TRUE,FALSE,FALSE,FALSE,Disabled,0.000000,0.000000,0.000000,TRUE,-2.107834,-1.349655,0.000000,-0.025696,-0.001495,0.000000,0.018000,-0.015000,0.174000,0.040000,-0.210000,2.360000,0.018831,Hold,21.014160,60.000000,Hold,-47134.000000,114688.000000,LowGoal,-2602.500000,2909.090909,Speed,-2520.000000,2909.090909,Speed,Off,Off0.000000,1,Read: /home/lvuser/scripts/auto_01.bee,File good!,WAIT_FOR_PID,WAIT_FOR_PID
10:51:47.066 AM 03/20/2016,Autonomous Enabled,10,FALSE,0,NO ERROR,0.000000,98.007937,0.000000,99.522267,TRUE,FALSE,TRUE,FALSE,FALSE,FALSE,Disabled,0.000000,0.000000,0.000000,TRUE,-2.109268,-1.349899,0.000000,-0.058182,0.007706,0.000000,0.055000,0.056000,-0.079000,0.090000,-0.200000,2.370000,0.070335,Hold,27.521240,60.000000,Hold,-47134.000000,114688.000000,LowGoal,-2917.500000,2909.090909,Speed,-2880.000000,2909.090909,Speed,Off,Off0.000000,1,Read: /home/lvuser/scripts/auto_01.bee,File good!,WAIT_FOR_PID,WAIT_FOR_PID
10:51:47.166 AM 03/20/2016,Autonomous Enabled,11,FALSE,0,NO ERROR,0.000000,98.027187,0.000000,99.541517,TRUE,FALSE,TRUE,FALSE,FALSE,FALSE,Disabled,0.000000,0.000000,0.000000,TRUE,-2.113647,-1.346329,0.000000,-0.056671,0.119629,0.000000,0.078000,0.066000,0.180000,0.100000,-0.180000,2.410000,0.063178,Hold,33.721680,60.000000,Hold,-58498.000000,114688.000000,LowGoal,-2917.500000,2909.090909,Speed,-2962.500000,2909.090909,Speed,Off,Off0.000000,1,Read: /home/lvuser/scripts/auto_01.bee,File good!,WAIT_FOR_PID,WAIT_FOR_PID
10:51:47.266 AM 03/20/2016,Autonomous Enabled,11,FALSE,0,NO ERROR,0.000000,97.918104,0.000000,99.490184,TRUE,FALSE,TRUE,FALSE,FALSE,FALSE,Disabled,0.000000,0.000000,0.000000,TRUE,-2.114456,-1.341156,0.000000,-0.023071,0.112488,0.000000,0.092000,0.061000,-0.074000,-0.090000,-0.980000,2.230000,-0.122173,Hold,45.257080,60.000000,Hold,-72229.000000,114688.000000,LowGoal,-2850.000000,2909.090909,Speed,-2857.500000,2909.090909,Speed,Off,Off0.000000,1,Read: /home/lvuser/scripts/auto_01.bee,File good!,WAIT_FOR_PID,WAIT_FOR_PID
10:51:47.366 AM 03/20/2016,Autonomous Enabled,10,FALSE,0,NO ERROR,0.000000,97.757688,0.000000,99.374684,TRUE,FALSE,TRUE,FALSE,FALSE,FALSE,Disabled,0.000000,0.000000,0.000000,TRUE,-2.116791,-1.333817,0.000000,-0.065155,0.155060,0.000000,0.099000,-0.165000,-0.099000,-0.500000,-1.030000,2.470000,-0.528763,Hold,54.766113,60.000000,Hold,-90015.000000,114688.000000,LowGoal,-2850.000000,2909.090909,Speed,-2835.000000,2909.090909,Speed,Off,Off0.000000,1,Read: /home/lvuser/scripts/auto_01.bee,File good!,WAIT_FOR_PID,WAIT_FOR_PID
10:51:47.466 AM 03/20/2016,Autonomous Enabled,10,FALSE,0,NO ERROR,0.000000,97.744855,0.000000,99.323351,TRUE,FALSE,TRUE,FALSE,FALSE,FALSE,Disabled,0.000000,0.000000,0.000000,TRUE,-2.119110,-1.326904,0.000000,-0.019989,0.130707,0.000000,0.229000,-0.153000,0.989000,-0.370000,-1.620000,2.450000,-0.426116,Hold,63.445068,60.000000,Hold,-108519.000000,114688.000000,LowGoal,-2887.500000,2909.090909,Speed,-2872.500000,2909.090909,Speed,Off,Off0.000000,1,Read: /home/lvuser/scripts/auto_01.bee,File good!,WAIT_FOR_PID,WAIT_FOR_PID
10:51:47.566 AM 03/20/2016,Autonomous Enabled,11,FALSE,0,NO ERROR,0.000000,97.725605,0.000000,99.252768,TRUE,FALSE,TRUE,FALSE,FALSE,FALSE,Disabled,0.000000,0.000000,0.000000,TRUE,-2.116913,-1.323166,0.000000,0.044586,0.067383,0.000000,-0.160000,0.166000,-0.249000,-0.300000,-1.440000,2.410000,-0.356301,Hold,63.168945,60.000000,Hold,-115859.000000,114688.000000,LowGoal,-2872.500000,2909.090909,Speed,-2865.000000,2909.090909,Speed,Off,Off0.000000,1,Read: /home/lvuser/scripts/auto_01.bee,File good!,WAIT_FOR_PID,WAIT_FOR_PID
10:51:47.666 AM 03/20/2016,Autonomous Enabled,10,FALSE,0,NO ERROR,0.000000,97.725605,0.000000,99.252768,TRUE,FALSE,TRUE,FALSE,FALSE,FALSE,Disabled,0.000000,0.000000,0.000000,TRUE,-2.116913,-1.316925,0.000000,-0.021301,0.165970,0.000000,-0.147000,0.071000,0.207000,-0.220000,-0.730000,2.620000,-0.296587,Hold,63.357910,60.000000,Hold,-114859.000000,114688.000000,LowGoal,-2850.000000,2909.090909,Speed,-2835.000000,2909.090909,Speed,Off,Off0.000000,1,Read: /home/lvuser/scripts/auto_01.bee,File good!,DRIVE_STRAIGHT_NAVX 200 10000,DRIVE_STRAIGHT_NAVX
10:51:47.766 AM 03/20/2016,Autonomous Enabled,11,FALSE,0,NO ERROR,0.000000,0.866248,0.000000,0.808498,TRUE,FALSE,TRUE,FALSE,FALSE,FALSE,Disabled,0.000000,0.000000,0.000000,TRUE,-2.120773,-1.307968,0.000000,-0.187622,0.096725,0.000000,-0.883000,-0.147000,-0.291000,-0.010000,-2.560000,2.780000,-0.128669,Hold,63.108154,60.000000,Hold,-114859.000000,114688.000000,LowGoal,-2850.000000,2909.090909,Speed,-2835.000000,2909.090909,Speed,Off,Off0.000000,1,Read: /home/lvuser/scripts/auto_01.bee,File good!,DRIVE_STRAIGHT_NAVX 200 10000,DRIVE_STRAIGHT_NAVX
10:51:47.867 AM 03/20/2016,Autonomous Enabled,9,FALSE,0,NO ERROR,0.000000,2.682160,0.000000,2.791243,FALSE,FALSE,TRUE,FALSE,FALSE,FALSE,Disabled,0.000000,0.000000,0.000000,TRUE,-2.136154,-1.302368,0.000000,-0.478363,0.144928,0.000000,-0.220000,0.154000,-0.105000,-0.250000,-4.880000,2.280000,-0.418291,Hold,62.859619,60.000000,Hold,-114812.000000,114688.000000,LowGoal,-2820.000000,2909.090909,Speed,-2805.000000,2909.090909,Speed,Off,Off0.000000,1,Read: /home/lvuser/scripts/auto_01.bee,File good!,DRIVE_STRAIGHT_NAVX 200 10000,DRIVE_STRAIGHT_NAVX
10:51:47.969 AM 03/20/2016,Autonomous Enabled,9,FALSE,0,NO ERROR,0.000000,5.710820,0.000000,5.781403,FALSE,FALSE,TRUE,FALSE,FALSE,FALSE,Disabled,0.000000,0.000000,0.000000,TRUE,-2.173172,-1.290314,0.000000,-0.666534,0.263504,0.000000,-0.111000,-0.093000,0.340000,-0.180000,-6.190000,2.700000,-0.464508,Hold,62.843262,60.000000,Hold,-114858.000000,114688.000000,LowGoal,-2745.000000,2909.090909,Speed,-2737.500000,2909.090909,Speed,Off,Off0.000000,1,Read: /home/lvuser/scripts/auto_01.bee,File good!,DRIVE_STRAIGHT_NAVX 200 10000,DRIVE_STRAIGHT_NAVX
10:51:48.069 AM 03/20/2016,Autonomous Enabled,9,FALSE,0,NO ERROR,0.000000,9.509478,0.000000,9.522311,FALSE,FALSE,TRUE,FALSE,FALSE,FALSE,Disabled,0.000000,0.000000,0.000000,TRUE,-2.202881,-1.279984,0.000000,-0.748306,0.248947,0.000000,-0.178000,-0.042000,0.225000,0.060000,-8.770000,2.730000,-0.195541,Hold,62.263428,60.000000,Hold,-114765.000000,114688.000000,LowGoal,-2760.000000,2909.090909,Speed,-2752.500000,2909.090909,Speed,Off,Off0.000000,1,Read: /home/lvuser/scripts/auto_01.bee,File good!,DRIVE_STRAIGHT_NAVX 200 10000,DRIVE_STRAIGHT_NAVX
10:51:48.170 AM 03/20/2016,Autonomous Enabled,9,FALSE,0,NO ERROR,0.000000,13.853551,0.000000,13.731635,FALSE,FALSE,TRUE,FALSE,FALSE,FALSE,Disabled,0.000000,0.000000,0.000000,TRUE,-2.241867,-1.267975,0.000000,-0.848312,0.221252,0.000000,0.449000,0.484000,0.974000,0.350000,-11.600000,2.620000,0.080780,Hold,61.375244,60.000000,Hold,-114801.000000,114688.000000,LowGoal,-2797.500000,2909.090909,Speed,-2797.500000,2909.090909,Speed,Off,Off0.000000,1,Read: /home/lvuser/scripts/auto_01.bee,File good!,DRIVE_STRAIGHT_NAVX 200 10000,DRIVE_STRAIGHT_NAVX
10:51:48.271 AM 03/20/2016,Autonomous Enabled,9,FALSE,0,NO ERROR,0.000000,17.684292,0.000000,16.388128,FALSE,FALSE,TRUE,FALSE,FALSE,FALSE,Disabled,0.000000,0.000000,0.000000,TRUE,-2.279190,-1.256027,0.000000,-0.503143,0.163437,0.000000,2.261000,-1.104000,0.288000,1.950000,-11.010000,2.510000,1.901769,Hold,60.053711,60.000000,Hold,-114852.000000,114688.000000,LowGoal,-2812.500000,2909.090909,Speed,-2790.000000,2909.090909,Speed,Off,Off0.000000,1,Read: /home/lvuser/scripts/auto_01.bee,File good!,DRIVE_STRAIGHT_NAVX 200 10000,DRIVE_STRAIGHT_NAVX
10:51:48.371 AM 03/20/2016,Autonomous Enabled,10,FALSE,0,NO ERROR,0.000000,17.408376,0.000000,16.644794,FALSE,FALSE,TRUE,FALSE,FALSE,FALSE,Disabled,0.000000,0.000000,0.000000,TRUE,-2.264450,-1.253799,0.000000,0.251266,0.230133,0.000000,2.261000,-1.104000,0.288000,2.340000,-10.000000,3.360000,2.068709,Hold,60.166748,60.000000,Hold,-114756.000000,114688.000000,LowGoal,-2790.000000,2909.090909,Speed,-2745.000000,2909.090909,Speed,Off,Off0.000000,1,Read: /home/lvuser/scripts/auto_01.bee,File good!,DRIVE_STRAIGHT_NAVX 200 10000,DRIVE_STRAIGHT_NAVX
10:51:48.472 AM 03/20/2016,Autonomous Disabled,10,FALSE,0,NO ERROR,0.000000,16.927127,0.000000,16.702544,FALSE,FALSE,TRUE,FALSE,FALSE,FALSE,Disabled,0.000000,0.000000,0.000000,TRUE,-2.262665,-1.247803,0.000000,0.142258,0.000961,0.000000,0.426000,0.769000,0.453000,2.240000,-9.010000,2.240000,1.955073,Hold,60.615723,60.000000,Hold,-114756.000000,114688.000000,LowGoal,-2670.000000,2909.090909,Speed,-2647.500000,2909.090909,Speed,Off,Off0.000000,1,Read: /home/lvuser/scripts/auto_01.bee,File good!,DRIVE_STRAIGHT_NAVX 200 10000,DRIVE_STRAIGHT_NAVX
10:51:48.572 AM 03/20/2016,Autonomous Disabled,10,FALSE,0,NO ERROR,0.000000,16.606295,0.000000,16.144296,FALSE,FALSE,TRUE,FALSE,FALSE,FALSE,Disabled,0.000000,0.000000,0.000000,TRUE,-2.256912,-1.243011,0.000000,0.084412,0.041687,0.000000,0.024000,-0.249000,0.108000,2.400000,-8.350000,2.610000,2.138379,Hold,61.129883,60.000000,Hold,-121095.000000,114688.000000,LowGoal,-2460.000000,-1454.545455,Speed,-2400.000000,-1454.545455,Speed,Off,Off0.000000,1,Read: /home/lvuser/scripts/auto_01.bee,File good!,DRIVE_STRAIGHT_NAVX 200 10000,DRIVE_STRAIGHT_NAVX
10:51:48.672 AM 03/20/2016,Autonomous Disabled,11,FALSE,0,NO ERROR,0.000000,16.330378,0.000000,15.894046,FALSE,FALSE,TRUE,FALSE,FALSE,FALSE,Disabled,0.000000,0.000000,0.000000,TRUE,-2.253174,-1.242142,0.000000,0.038940,0.051849,0.000000,0.032000,0.009000,0.291000,2.340000,-8.810000,2.300000,2.090593,Hold,61.328613,60.000000,Hold,-129297.000000,114688.000000,LowGoal,-2212.500000,-1454.545455,Speed,-2107.500000,-1454.545455,Speed,Off,Off0.000000,1,Read: /home/lvuser/scripts/auto_01.bee,File good!,DRIVE_STRAIGHT_NAVX 200 10000,DRIVE_STRAIGHT_NAVX
10:51:48.772 AM 03/20/2016,Autonomous Disabled,10,FALSE,0,NO ERROR,0.000000,16.182795,0.000000,15.746463,FALSE,FALSE,TRUE,FALSE,FALSE,FALSE,Disabled,0.000000,0.000000,0.000000,TRUE,-2.251953,-1.239731,0.000000,0.000000,0.029755,0.000000,-0.059000,0.032000,0.040000,2.360000,-8.730000,2.240000,2.090741,Hold,61.524414,60.000000,Hold,-142752.000000,114688.000000,LowGoal,-1965.000000,-1454.545455,Speed,-1830.000000,-1454.545455,Speed,Off,Off0.000000,1,Read: /home/lvuser/scripts/auto_01.bee,File good!,DRIVE_STRAIGHT_NAVX 200 10000,DRIVE_STRAIGHT_NAVX
10:51:48.873 AM 03/20/2016,Autonomous Disabled,10,FALSE,0,NO ERROR,0.000000,16.137879,0.000000,15.695130,FALSE,FALSE,TRUE,FALSE,FALSE,FALSE,Disabled,0.000000,0.000000,0.000000,TRUE,-2.253082,-1.237656,0.000000,-0.035080,0.000000,0.000000,-0.084000,-0.001000,-0.011000,2.380000,-8.780000,2.270000,2.111080,Hold,61.557861,60.000000,Hold,-151945.000000,114688.000000,LowGoal,-1747.500000,-1454.545455,Speed,-1612.500000,-1454.545455,Speed,Off,Off0.000000,1,Read: /home/lvuser/scripts/auto_01.bee,File good!,DRIVE_STRAIGHT_NAVX 200 10000,DRIVE_STRAIGHT_NAVX
10:51:48.973 AM 03/20/2016,Autonomous Disabled,10,FALSE,0,NO ERROR,0.000000,16.125046,0.000000,15.695130,FALSE,FALSE,TRUE,FALSE,FALSE,FALSE,Disabled,0.000000,0.000000,0.000000,TRUE,-2.255280,-1.237534,0.000000,-0.054840,0.004822,0.000000,0.040000,-0.044000,0.014000,2.360000,-8.810000,2.310000,2.117011,Hold,61.558105,60.000000,Hold,-154267.000000,114688.000000,LowGoal,-1590.000000,-1454.545455,Speed,-1275.000000,-1454.545455,Speed,Off,Off0.000000,1,Read: /home/lvuser/scripts/auto_01.bee,File good!,DRIVE_STRAIGHT_NAVX 200 10000,DRIVE_STRAIGHT_NAVX
10:51:49.074 AM 03/20/2016,Autonomous Disabled,10,FALSE,0,NO ERROR,0.000000,16.125046,0.000000,15.695130,FALSE,FALSE,TRUE,FALSE,FALSE,FALSE,Disabled,0.000000,0.000000,0.000000,TRUE,-2.256088,-1.238129,0.000000,0.000000,-0.018112,0.000000,-0.030000,0.062000,0.024000,2.360000,-8.760000,2.290000,2.122341,Hold,61.558350,60.000000,Hold,-154267.000000,114688.000000,LowGoal,-1402.500000,-1454.545455,Speed,-1050.000000,-1454.545455,Speed,Off,Off0.000000,1,Read: /home/lvuser/scripts/auto_01.bee,File good!,DRIVE_STRAIGHT_NAVX 200 10000,DRIVE_STRAIGHT_NAVX
10:51:49.175 AM 03/20/2016,Autonomous Disabled,10,FALSE,0,NO ERROR,0.000000,16.125046,0.000000,15.695130,FALSE,FALSE,TRUE,FALSE,FALSE,FALSE,Disabled,0.000000,0.000000,0.000000,TRUE,-2.255905,-1.238708,0.000000,0.000000,-0.009186,0.000000,0.018000,0.035000,0.040000,2.350000,-8.750000,2.300000,2.129832,Hold,61.558594,60.000000,Hold,-154267.000000,114688.000000,LowGoal,-1222.500000,-1454.545455,Speed,-757.500000,-1454.545455,Speed,Off,Off0.000000,1,Read: /home/lvuser/scripts/auto_01.bee,File good!,DRIVE_STRAIGHT_NAVX 200 10000,DRIVE_STRAIGHT_NAVX
10:51:49.275 AM 03/20/2016,Autonomous Disabled,10,FALSE,0,NO ERROR,0.000000,16.125046,0.000000,15.695130,FALSE,FALSE,TRUE,FALSE,FALSE,FALSE,Disabled,0.000000,0.000000,0.000000,TRUE,-2.256073,-1.238846,0.000000,-0.012100,0.004791,0.000000,0.022000,-0.023000,-0.012000,2.360000,-8.740000,2.300000,2.143020,Hold,61.558594,60.000000,Hold,-154267.000000,114688.000000,LowGoal,-1050.000000,-1454.545455,Speed,-480.000000,-1454.545455,Speed,Off,Off0.000000,1,Read: /home/lvuser/scripts/auto_01.bee,File good!,DRIVE_STRAIGHT_NAVX 200 10000,DRIVE_STRAIGHT_NAVX
10:51:49.376 AM 03/20/2016,Autonomous Disabled,9,FALSE,0,NO ERROR,0.000000,16.125046,0.000000,15.695130,FALSE,FALSE,TRUE,FALSE,FALSE,FALSE,Disabled,0.000000,0.000000,0.000000,TRUE,-2.256561,-1.238785,0.000000,-0.004883,0.003357,0.000000,-0.029000,0.037000,-0.003000,2.360000,-8.740000,2.300000,2.143313,Hold,61.558838,60.000000,Hold,-154267.000000,114688.000000,LowGoal,-900.000000,-1454.545455,Speed,-255.000000,-1454.545455,Speed,Off,Off0.000000,1,Read: /home/lvuser/scripts/auto_01.bee,File good!,DRIVE_STRAIGHT_NAVX 200 10000,DRIVE_STRAIGHT_NAVX
10:51:49.476 AM 03/20/2016,Autonomous Disabled,9,FALSE,0,NO ERROR,0.000000,16.125046,0.000000,15.695130,FALSE,FALSE,TRUE,FALSE,FALSE,FALSE,Disabled,0.000000,0.000000,0.000000,TRUE,-2.256775,-1.238602,0.000000,0.002304,0.000000,0.000000,0.015000,0.010000,0.019000,2.360000,-8.750000,2.310000,2.141182,Hold,61.558838,60.000000,Hold,-154267.000000,114688.000000,LowGoal,-757.500000,-1454.545455,Speed,-52.500000,-1454.545455,Speed,Off,Off0.000000,1,Read: /home/lvuser/scripts/auto_01.bee,File good!,DRIVE_STRAIGHT_NAVX 200 10000,DRIVE_STRAIGHT_NAVX
10:51:49.578 AM 03/20/2016,Autonomous Disabled,9,FALSE,0,NO ERROR,0.000000,16.125046,0.000000,15.695130,FALSE,FALSE,TRUE,FALSE,FALSE,FALSE,Disabled,0.000000,0.000000,0.000000,TRUE,-2.256226,-1.238449,0.000000,0.006851,0.005920,0.000000,0.008000,-0.011000,0.017000,2.360000,-8.740000,2.320000,2.147292,Hold,61.558838,60.000000,Hold,-154267.000000,114688.000000,LowGoal,-615.000000,-1454.545455,Speed,0.000000,-1454.545455,Speed,Off,Off0.000000,1,Read: /home/lvuser/scripts/auto_01.bee,File good!,DRIVE_STRAIGHT_NAVX 200 10000,DRIVE_STRAIGHT_NAVX
10:51:49.678 AM 03/20/2016,Autonomous Disabled,11,FALSE,0,NO ERROR,0.000000,16.125046,0.000000,15.695130,FALSE,FALSE,TRUE,FALSE,FALSE,FALSE,Disabled,0.000000,0.000000,0.000000,TRUE,-2.256226,-1.238449,0.000000,0.000000,0.000000,0.000000,0.017000,0.006000,0.030000,2.360000,-8.730000,2.340000,2.159716,Hold,61.558838,60.000000,Hold,-154267.000000,114688.000000,LowGoal,-487.500000,-1454.545455,Speed,0.000000,-1454.545455,Speed,Off,Off0.000000,1,Read: /home/lvuser/scripts/auto_01.bee,File good!,DRIVE_STRAIGHT_NAVX 200 10000,DRIVE_STRAIGHT_NAVX
10:51:49.778 AM 03/20/2016,Autonomous Disabled,10,FALSE,0,NO ERROR,0.000000,16.125046,0.000000,15.695130,FALSE,FALSE,TRUE,FALSE,FALSE,FALSE,Disabled,0.000000,0.000000,0.000000,TRUE,-2.256042,-1.238449,0.000000,0.000000,0.000000,0.000000,0.006000,-0.007000,0.031000,2.360000,-8.730000,2.330000,2.160704,Hold,61.558838,60.000000,Hold,-154267.000000,114688.000000,LowGoal,-397.500000,-1454.545455,Speed,0.000000,-1454.545455,Speed,Off,Off0.000000,1,Read: /home/lvuser/scripts/auto_01.bee,File good!,DRIVE_STRAIGHT_NAVX 200 10000,DRIVE_STRAIGHT_NAVX
10:51:49.878 AM 03/20/2016,Autonomous Disabled,10,FALSE,0,NO ERROR,0.000000,16.125046,0.000000,15.695130,FALSE,FALSE,TRUE,FALSE,FALSE,FALSE,Disabled,0.000000,0.000000,0.000000,TRUE,-2.256042,-1.238312,0.000000,0.000000,0.006210,0.000000,0.002000,-0.003000,0.020000,2.360000,-8.730000,2.340000,2.167152,Hold,61.558838,60.000000,Hold,-154267.000000,114688.000000,LowGoal,-292.500000,-1454.545455,Speed,0.000000,-1454.545455,Speed,Off,Off0.000000,1,Read: /home/lvuser/scripts/auto_01.bee,File good!,DRIVE_STRAIGHT_NAVX 200 10000,DRIVE_STRAIGHT_NAVX
10:51:49.978 AM 03/20/2016,Autonomous Disabled,11,FALSE,0,NO ERROR,0.000000,16.125046,0.000000,15.695130,FALSE,TRUE,TRUE,FALSE,FALSE,FALSE,Disabled,0.000000,0.000000,0.000000,TRUE,-2.255859,-1.238312,0.000000,0.000000,0.000000,0.000000,0.000000,-0.001000,0.014000,2.360000,-8.730000,2.330000,2.173979,Hold,61.558838,60.000000,Hold,-154267.000000,114688.000000,LowGoal,-157.500000,-1454.545455,Speed,0.000000,-1454.545455,Speed,Off,Off0.000000,1,Read: /home/lvuser/scripts/auto_01.bee,File good!,DRIVE_STRAIGHT_NAVX 200 10000,DRIVE_STRAIGHT_NAVX
10:51:50.079 AM 03/20/2016,Autonomous Disabled,10,FALSE,0,NO ERROR,0.000000,16.125046,0.000000,15.695130,FALSE,TRUE,TRUE,FALSE,FALSE,FALSE,Disabled,0.000000,0.000000,0.000000,TRUE,-2.255859,-1.238312,0.000000,0.000000,0.000000,0.000000,-0.004000,0.001000,0.017000,2.360000,-8.730000,2.340000,2.167304,Hold,61.558838,60.000000,Hold,-154267.000000,114688.000000,LowGoal,-82.500000,0.000000,Speed,0.000000,0.000000,Speed,Off,Off0.000000,1,Read: /home/lvuser/scripts/auto_01.bee,File good!,DRIVE_STRAIGHT_NAVX 200 10000,DRIVE_STRAIGHT_NAVX
10:51:50.178 AM 03/20/2016,Autonomous Disabled,11,FALSE,0,NO ERROR,0.000000,16.125046,0.000000,15.695130,FALSE,FALSE,TRUE,FALSE,FALSE,FALSE,Disabled,0.000000,0.000000,0.000000,TRUE,-2.255859,-1.238312,0.000000,0.000000,0.000000,0.000000,-0.001000,-0.003000,0.016000,2.370000,-8.730000,2.340000,2.164257,Hold,61.558838,60.000000,Hold,-154267.000000,114688.000000,LowGoal,-22.500000,0.000000,Speed,0.000000,0.000000,Speed,Off,Off0.000000,1,Read: /home/lvuser/scripts/auto_01.bee,File good!,DRIVE_STRAIGHT_NAVX 200 10000,DRIVE_STRAIGHT_NAVX
10:51:50.279 AM 03/20/2016,Autonomous Disabled,10,FALSE,0,NO ERROR,0.000000,16.125046,0.000000,15.695130,FALSE,FALSE,TRUE,FALSE,FALSE,FALSE,Disabled,0.000000,0.000000,0.000000,TRUE,-2.255859,-1.238312,0.000000,0.000000,0.000000,0.000000,-0.003000,0.000000,0.024000,2.370000,-8.740000,2.340000,2.169328,Hold,61.558838,60.000000,Hold,-154267.000000,114688.000000,LowGoal,0.000000,-1454.545455,Speed,0.000000,-1454.545455,Speed,Off,Off0.000000,1,Read: /home/lvuser/scripts/auto_01.bee,File good!,DRIVE_STRAIGHT_NAVX 200 10000,DRIVE_STRAIGHT_NAVX
10:51:50.380 AM 03/20/2016,Autonomous Disabled,11,FALSE,0,NO ERROR,0.000000,16.125046,0.000000,15.695130,FALSE,FALSE,TRUE,FALSE,FALSE,FALSE,Disabled,0.000000,0.000000,0.000000,TRUE,-2.255859,-1.238312,0.000000,0.000000,0.000000,0.000000,-0.003000,0.000000,0.024000,2.370000,-8.740000,2.340000,2.172898,Hold,61.558838,60.000000,Hold,-154267.000000,114688.000000,LowGoal,0.000000,-1454.545455,Speed,0.000000,-1454.545455,Speed,Off,Off0.000000,1,Read: /home/lvuser/scripts/auto_01.bee,File good!,DRIVE_STRAIGHT_NAVX 200 10000,DRIVE_STRAIGHT_NAVX
10:51:50.481 AM 03/20/2016,Autonomous Disabled,9,FALSE,0,NO ERROR,0.000000,16.125046,0.000000,15.695130,FALSE,FALSE,TRUE,FALSE,FALSE,FALSE,Disabled,0.000000,0.000000,0.000000,TRUE,-2.255859,-1.238312,0.000000,0.000000,0.000000,0.000000,0.000000,0.001000,0.026000,2.370000,-8.740000,2.340000,2.160725,Hold,61.558838,60.000000,Hold,-154267.000000,114688.000000,LowGoal,0.000000,-1454.545455,Speed,0.000000,-1454.545455,Speed,Off,Off0.000000,1,Read: /home/lvuser/scripts/auto_01.bee,File good!,DRIVE_STRAIGHT_NAVX 200 10000,DRIVE_STRAIGHT_NAVX
10:51:50.580 AM 03/20/2016,Autonomous Disabled,11,FALSE,0,NO ERROR,0.000000,16.125046,0.000000,15.695130,FALSE,FALSE,TRUE,FALSE,FALSE,FALSE,Disabled,0.000000,0.000000,0.000000,TRUE,-2.255859,-1.238312,0.000000,0.000000,0.000000,0.000000,0.000000,-0.001000,0.015000,2.370000,-8.740000,2.340000,2.164942,Hold,61.558838,60.000000,Hold,-154267.000000,114688.000000,LowGoal,0.000000,-1454.545455,Speed,0.000000,-1454.545455,Speed,Off,Off0.000000,1,Read: /home/lvuser/scripts/auto_01.bee,File good!,DRIVE_STRAIGHT_NAVX 200 10000,DRIVE_STRAIGHT_NAVX
10:51:50.681 AM 03/20/2016,Autonomous Disabled,10,FALSE,0,NO ERROR,0.000000,16.125046,0.000000,15.695130,FALSE,FALSE,TRUE,FALSE,FALSE,FALSE,Disabled,0.000000,0.000000,0.000000,TRUE,-2.255859,-1.238312,0.000000,0.000000,0.000000,0.000000,0.000000,0.000000,0.018000,2.370000,-8.740000,2.340000,2.158511,Hold,61.558838,60.000000,Hold,-154267.000000,114688.000000,LowGoal,0.000000,-1454.545455,Speed,0.000000,-1454.545455,Speed,Off,Off0.000000,1,Read: /home/lvuser/scripts/auto_01.bee,File good!,DRIVE_STRAIGHT_NAVX 200 10000,DRIVE_STRAIGHT_NAVX
10:51:50.781 AM 03/20/2016,Autonomous Disabled,10,FALSE,0,NO ERROR,0.000000,16.125046,0.000000,15.695130,FALSE,TRUE,TRUE,FALSE,FALSE,FALSE,Disabled,0.000000,0.000000,0.000000,TRUE,-2.255859,-1.238312,0.000000,0.000000,0.000000,0.000000,-0.001000,0.001000,0.018000,2.370000,-8.740000,2.340000,2.168106,Hold,61.558838,60.000000,Hold,-154267.000000,114688.000000,LowGoal,0.000000,-1454.545455,Speed,0.000000,-1454.545455,Speed,Off,Off0.000000,1,Read: /home/lvuser/scripts/auto_01.bee,File good!,DRIVE_STRAIGHT_NAVX 200 10000,DRIVE_STRAIGHT_NAVX
10:51:50.882 AM 03/20/2016,Autonomous Disabled,9,FALSE,0,NO ERROR,0.000000,16.125046,0.000000,15.695130,FALSE,TRUE,TRUE,FALSE,FALSE,FALSE,Disabled,0.000000,0.000000,0.000000,TRUE,-2.255859,-1.238312,0.000000,0.000000,0.000000,0.000000,-0.003000,0.000000,0.019000,2.370000,-8.740000,2.340000,2.183260,Hold,61.558838,60.000000,Hold,-154267.000000,114688.000000,LowGoal,0.000000,0.000000,Speed,0.000000,0.000000,Speed,Off,Off0.000000,1,Read: /home/lvuser/scripts/auto_01.bee,File good!,DRIVE_STRAIGHT_NAVX 200 10000,DRIVE_STRAIGHT_NAVX
10:51:50.983 AM 03/20/2016,Autonomous Disabled,10,FALSE,0,NO ERROR,0.000000,16.125046,0.000000,15.695130,FALSE,FALSE,TRUE,FALSE,FALSE,FALSE,Disabled,0.000000,0.000000,0.000000,TRUE,-2.255859,-1.238312,0.000000,0.000000,0.000000,0.000000,-0.003000,0.000000,0.019000,2.370000,-8.740000,2.340000,2.175418,Hold,61.558838,60.000000,Hold,-154267.000000,114688.000000,LowGoal,0.000000,0.000000,Speed,0.000000,0.000000,Speed,Off,Off0.000000,1,Read: /home/lvuser/scripts/auto_01.bee,File good!,DRIVE_STRAIGHT_NAVX 200 10000,DRIVE_STRAIGHT_NAVX
10:51:51.084 AM 03/20/2016,Autonomous Disabled,10,FALSE,0,NO ERROR,0.000000,16.125046,0.000000,15.695130,FALSE,FALSE,TRUE,FALSE,FALSE,FALSE,Disabled,0.000000,0.000000,0.000000,TRUE,-2.255859,-1.238312,0.000000,0.000000,0.000000,0.000000,-0.001000,0.000000,0.018000,2.370000,-8.740000,2.340000,2.189643,Hold,61.558838,60.000000,Hold,-154267.000000,114688.000000,LowGoal,0.000000,-1454.545455,Speed,0.000000,-1454.545455,Speed,Off,Off0.000000,1,Read: /home/lvuser/scripts/auto_01.bee,File good!,DRIVE_STRAIGHT_NAVX 200 10000,DRIVE_STRAIGHT_NAVX
10:51:51.184 AM 03/20/2016,Autonomous Disabled,9,FALSE,0,NO ERROR,0.000000,16.125046,0.000000,15.695130,FALSE,FALSE,TRUE,FALSE,FALSE,FALSE,Disabled,0.000000,0.000000,0.000000,TRUE,-2.255859,-1.238312,0.000000,0.000000,0.000000,0.000000,-0.001000,0.000000,0.018000,2.370000,-8.740000,2.340000,2.180227,Hold,61.558838,60.000000,Hold,-154267.000000,114688.000000,LowGoal,0.000000,-1454.545455,Speed,0.000000,-1454.545455,Speed,Off,Off0.000000,1,Read: /home/lvuser/scripts/auto_01.bee,File good!,DRIVE_STRAIGHT_NAVX 200 10000,DRIVE_STRAIGHT_NAVX
10:51:51.284 AM 03/20/2016,Autonomous Disabled,10,FALSE,0,NO ERROR,0.000000,16.125046,0.000000,15.695130,FALSE,FALSE,TRUE,FALSE,FALSE,FALSE,Disabled,0.000000,0.000000,0.000000,TRUE,-2.255859,-1.238312,0.000000,0.000000,0.000000,0.000000,0.003000,0.000000,0.019000,2.370000,-8.740000,2.340000,2.179814,Hold,61.558838,60.000000,Hold,-154267.000000,114688.000000,LowGoal,0.000000,-1454.545455,Speed,0.000000,-1454.545455,Speed,Off,Off0.000000,1,Read: /home/lvuser/scripts/auto_01.bee,File good!,DRIVE_STRAIGHT_NAVX 200 10000,DRIVE_STRAIGHT_NAVX
10:51:51.384 AM 03/20/2016,Autonomous Disabled,11,FALSE,0,NO ERROR,0.000000,16.125046,0.000000,15.695130,FALSE,FALSE,TRUE,FALSE,FALSE,FALSE,Disabled,0.000000,0.000000,0.000000,TRUE,-2.255859,-1.238312,0.000000,0.000000,0.000000,0.000000,0.000000,-0.001000,0.019000,2.370000,-8.740000,2.340000,2.189649,Hold,61.558838,60.000000,Hold,-154267.000000,114688.000000,LowGoal,0.000000,-1454.545455,Speed,0.000000,-1454.545455,Speed,Off,Off0.000000,1,Read: /home/lvuser/scripts/auto_01.bee,File good!,DRIVE_STRAIGHT_NAVX 200 10000,DRIVE_STRAIGHT_NAVX
10:51:51.485 AM 03/20/2016,Autonomous Disabled,11,FALSE,0,NO ERROR,0.000000,16.125046,0.000000,15.695130,FALSE,FALSE,TRUE,FALSE,FALSE,FALSE,Disabled,0.000000,0.000000,0.000000,TRUE,-2.255859,-1.238312,0.000000,0.000000,0.000000,0.000000,0.000000,-0.001000,0.019000,2.370000,-8.740000,2.340000,2.194348,Hold,61.558838,60.000000,Hold,-154267.000000,114688.000000,LowGoal,0.000000,-1454.545455,Speed,0.000000,-1454.545455,Speed,Off,Off0.000000,1,Read: /home/lvuser/scripts/auto_01.bee,File good!,DRIVE_STRAIGHT_NAVX 200 10000,DRIVE_STRAIGHT_NAVX
10:51:51.585 AM 03/20/2016,Autonomous Disabled,9,FALSE,0,NO ERROR,0.000000,16.125046,0.000000,15.695130,FALSE,TRUE,TRUE,FALSE,FALSE,FALSE,Disabled,0.000000,0.000000,0.000000,TRUE,-2.255859,-1.238312,0.000000,0.000000,0.000000,0.000000,-0.002000,0.000000,0.020000,2.370000,-8.740000,2.340000,2.189181,Hold,61.558838,60.000000,Hold,-154267.000000,114688.000000,LowGoal,0.000000,-1454.545455,Speed,0.000000,-1454.545455,Speed,Off,Off0.000000,1,Read: /home/lvuser/scripts/auto_01.bee,File good!,DRIVE_STRAIGHT_NAVX 200 10000,DRIVE_STRAIGHT_NAVX
10:51:51.686 AM 03/20/2016,Autonomous Disabled,9,FALSE,0,NO ERROR,0.000000,16.125046,0.000000,15.695130,FALSE,TRUE,TRUE,FALSE,FALSE,FALSE,Disabled,0.000000,0.000000,0.000000,TRUE,-2.255859,-1.238312,0.000000,0.000000,0.000000,0.000000,-0.002000,0.000000,0.020000,2.370000,-8.740000,2.340000,2.194638,Hold,61.558838,60.000000,Hold,-154267.000000,114688.000000,LowGoal,0.000000,0.000000,Speed,0.000000,0.000000,Speed,Off,Off0.000000,1,Read: /home/lvuser/scripts/auto_01.bee,File good!,DRIVE_STRAIGHT_NAVX 200 10000,DRIVE_STRAIGHT_NAVX
10:51:51.789 AM 03/20/2016,Autonomous Disabled,11,FALSE,0,NO ERROR,0.000000,16.125046,0.000000,15.695130,FALSE,FALSE,TRUE,FALSE,FALSE,FALSE,Disabled,0.000000,0.000000,0.000000,TRUE,-2.255859,-1.238312,0.000000,0.000000,0.000000,0.000000,0.000000,0.001000,0.020000,2.370000,-8.740000,2.340000,2.191646,Hold,61.558838,60.000000,Hold,-154267.000000,114688.000000,LowGoal,0.000000,0.000000,Speed,0.000000,0.000000,Speed,Off,Off0.000000,1,Read: /home/lvuser/scripts/auto_01.bee,File good!,DRIVE_STRAIGHT_NAVX 200 10000,DRIVE_STRAIGHT_NAVX
10:51:51.891 AM 03/20/2016,Autonomous Disabled,10,FALSE,0,NO ERROR,0.000000,16.125046,0.000000,15.695130,FALSE,FALSE,TRUE,FALSE,FALSE,FALSE,Disabled,0.000000,0.000000,0.000000,TRUE,-2.255859,-1.238312,0.000000,0.000000,0.000000,0.000000,-0.001000,0.000000,0.017000,2.370000,-8.740000,2.340000,2.173710,Hold,61.558838,60.000000,Hold,-154267.000000,114688.000000,LowGoal,0.000000,-1454.545455,Speed,0.000000,-1454.545455,Speed,Off,Off0.000000,1,Read: /home/lvuser/scripts/auto_01.bee,File good!,DRIVE_STRAIGHT_NAVX 200 10000,DRIVE_STRAIGHT_NAVX
10:51:51.991 AM 03/20/2016,Autonomous Disabled,12,FALSE,0,NO ERROR,0.000000,16.125046,0.000000,15.695130,FALSE,FALSE,TRUE,FALSE,FALSE,FALSE,Disabled,0.000000,0.000000,0.000000,TRUE,-2.255859,-1.238312,0.000000,0.000000,0.000000,0.000000,-0.001000,-0.001000,0.018000,2.370000,-8.740000,2.340000,2.175063,Hold,61.558838,60.000000,Hold,-154267.000000,114688.000000,LowGoal,0.000000,-1454.545455,Speed,0.000000,-1454.545455,Speed,Off,Off0.000000,1,Read: /home/lvuser/scripts/auto_01.bee,File good!,DRIVE_STRAIGHT_NAVX 200 10000,DRIVE_STRAIGHT_NAVX
10:51:52.092 AM 03/20/2016,Autonomous Disabled,11,FALSE,0,NO ERROR,0.000000,16.125046,0.000000,15.695130,FALSE,FALSE,TRUE,FALSE,FALSE,FALSE,Disabled,0.000000,0.000000,0.000000,TRUE,-2.255859,-1.238312,0.000000,0.000000,0.000000,0.000000,0.000000,-0.001000,0.022000,2.370000,-8.740000,2.340000,2.179797,Hold,61.558838,60.000000,Hold,-154267.000000,114688.000000,LowGoal,0.000000,-1454.545455,Speed,0.000000,-1454.545455,Speed,Off,Off0.000000,1,Read: /home/lvuser/scripts/auto_01.bee,File good!,DRIVE_STRAIGHT_NAVX 200 10000,DRIVE_STRAIGHT_NAVX
10:51:52.192 AM 03/20/2016,Autonomous Disabled,10,FALSE,0,NO ERROR,0.000000,16.125046,0.000000,15.695130,FALSE,FALSE,TRUE,FALSE,FALSE,FALSE,Disabled,0.000000,0.000000,0.000000,TRUE,-2.255859,-1.238312,0.000000,0.000000,0.000000,0.000000,0.001000,0.000000,0.019000,2.370000,-8.740000,2.340000,2.175332,Hold,61.558838,60.000000,Hold,-154267.000000,114688.000000,LowGoal,0.000000,-1454.545455,Speed,0.000000,-1454.545455,Speed,Off,Off0.000000,1,Read: /home/lvuser/scripts/auto_01.bee,File good!,DRIVE_STRAIGHT_NAVX 200 10000,DRIVE_STRAIGHT_NAVX
10:51:52.292 AM 03/20/2016,Autonomous Disabled,11,FALSE,0,NO ERROR,0.000000,16.125046,0.000000,15.695130,FALSE,FALSE,TRUE,FALSE,FALSE,FALSE,Disabled,0.000000,0.000000,0.000000,TRUE,-2.255859,-1.238312,0.000000,0.000000,0.000000,0.000000,-0.003000,0.000000,0.018000,2.370000,-8.740000,2.340000,2.175445,Hold,61.558838,60.000000,Hold,-154267.000000,114688.000000,LowGoal,0.000000,-1454.545455,Speed,0.000000,-1454.545455,Speed,Off,Off0.000000,1,Read: /home/lvuser/scripts/auto_01.bee,File good!,DRIVE_STRAIGHT_NAVX 200 10000,DRIVE_STRAIGHT_NAVX
10:51:52.393 AM 03/20/2016,Autonomous Disabled,11,FALSE,0,NO ERROR,0.000000,16.125046,0.000000,15.695130,FALSE,TRUE,TRUE,FALSE,FALSE,FALSE,Disabled,0.000000,0.000000,0.000000,TRUE,-2.255859,-1.238312,0.000000,0.000000,0.000000,0.000000,-0.001000,0.000000,0.018000,2.380000,-8.740000,2.340000,2.198948,Hold,61.558838,60.000000,Hold,-154267.000000,114688.000000,LowGoal,0.000000,-1454.545455,Speed,0.000000,-1454.545455,Speed,Off,Off0.000000,1,Read: /home/lvuser/scripts/auto_01.bee,File good!,DRIVE_STRAIGHT_NAVX 200 10000,DRIVE_STRAIGHT_NAVX
10:51:52.494 AM 03/20/2016,Autonomous Disabled,10,FALSE,0,NO ERROR,0.000000,16.125046,0.000000,15.695130,FALSE,TRUE,TRUE,FALSE,FALSE,FALSE,Disabled,0.000000,0.000000,0.000000,TRUE,-2.255859,-1.238312,0.000000,0.000000,0.000000,0.000000,0.000000,0.000000,0.022000,2.380000,-8.740000,2.340000,2.208084,Hold,61.558838,60.000000,Hold,-154267.000000,114688.000000,LowGoal,0.000000,0.000000,Speed,0.000000,0.000000,Speed,Off,Off0.000000,1,Read: /home/lvuser/scripts/auto_01.bee,File good!,DRIVE_STRAIGHT_NAVX 200 10000,DRIVE_STRAIGHT_NAVX
10:51:52.594 AM 03/20/2016,Autonomous Disabled,10,FALSE,0,NO ERROR,0.000000,16.125046,0.000000,15.695130,FALSE,FALSE,TRUE,FALSE,FALSE,FALSE,Disabled,0.000000,0.000000,0.000000,TRUE,-2.255859,-1.238312,0.000000,0.000000,0.000000,0.000000,0.000000,0.000000,0.020000,2.380000,-8.730000,2.330000,2.205337,Hold,61.558838,60.000000,Hold,-154267.000000,114688.000000,LowGoal,0.000000,0.000000,Speed,0.000000,0.000000,Speed,Off,Off0.000000,1,Read: /home/lvuser/scripts/auto_01.bee,File good!,DRIVE_STRAIGHT_NAVX 200 10000,DRIVE_STRAIGHT_NAVX
10:51:52.695 AM 03/20/2016,Autonomous Disabled,11,FALSE,0,NO ERROR,0.000000,16.125046,0.000000,15.695130,FALSE,FALSE,TRUE,FALSE,FALSE,FALSE,Disabled,0.000000,0.000000,0.000000,TRUE,-2.255859,-1.238312,0.000000,0.000000,0.000000,0.000000,0.000000,0.000000,0.020000,2.380000,-8.730000,2.330000,2.200500,Hold,61.558838,60.000000,Hold,-154267.000000,114688.000000,LowGoal,0.000000,0.000000,Speed,0.000000,0.000000,Speed,Off,Off0.000000,1,Read: /home/lvuser/scripts/auto_01.bee,File good!,DRIVE_STRAIGHT_NAVX 200 10000,DRIVE_STRAIGHT_NAVX
10:51:52.795 AM 03/20/2016,Autonomous Disabled,12,FALSE,0,NO ERROR,0.000000,16.125046,0.000000,15.695130,FALSE,FALSE,TRUE,FALSE,FALSE,FALSE,Disabled,0.000000,0.000000,0.000000,TRUE,-2.255859,-1.238312,0.000000,0.000000,0.000000,0.000000,0.000000,-0.001000,0.020000,2.390000,-8.740000,2.340000,2.193539,Hold,61.558838,60.000000,Hold,-154267.000000,114688.000000,LowGoal,0.000000,-1454.545455,Speed,0.000000,-1454.545455,Speed,Off,Off0.000000,1,Read: /home/lvuser/scripts/auto_01.bee,File good!,DRIVE_STRAIGHT_NAVX 200 10000,DRIVE_STRAIGHT_NAVX
10:51:52.897 AM 03/20/2016,Autonomous Disabled,10,FALSE,0,NO ERROR,0.000000,16.125046,0.000000,15.695130,FALSE,FALSE,TRUE,FALSE,FALSE,FALSE,Disabled,0.000000,0.000000,0.000000,TRUE,-2.255859,-1.238312,0.000000,0.000000,0.000000,0.000000,0.000000,0.000000,0.023000,2.390000,-8.740000,2.340000,2.192131,Hold,61.558838,60.000000,Hold,-154267.000000,114688.000000,LowGoal,0.000000,-1454.545455,Speed,0.000000,-1454.545455,Speed,Off,Off0.000000,1,Read: /home/lvuser/scripts/auto_01.bee,File good!,DRIVE_STRAIGHT_NAVX 200 10000,DRIVE_STRAIGHT_NAVX
10:51:52.998 AM 03/20/2016,Autonomous Disabled,11,FALSE,0,NO ERROR,0.000000,16.125046,0.000000,15.695130,FALSE,FALSE,TRUE,FALSE,FALSE,FALSE,Disabled,0.000000,0.000000,0.000000,TRUE,-2.255859,-1.238312,0.000000,0.000000,0.000000,0.000000,-0.002000,0.003000,0.020000,2.390000,-8.740000,2.340000,2.188414,Hold,61.558838,60.000000,Hold,-154267.000000,114688.000000,LowGoal,0.000000,-1454.545455,Speed,0.000000,-1454.545455,Speed,Off,Off0.000000,1,Read: /home/lvuser/scripts/auto_01.bee,File good!,DRIVE_STRAIGHT_NAVX 200 10000,DRIVE_STRAIGHT_NAVX
10:51:53.098 AM 03/20/2016,Autonomous Disabled,11,FALSE,0,NO ERROR,0.000000,16.125046,0.000000,15.695130,FALSE,FALSE,TRUE,FALSE,FALSE,FALSE,Disabled,0.000000,0.000000,0.000000,TRUE,-2.255859,-1.238312,0.000000,0.000000,0.000000,0.000000,0.000000,0.002000,0.016000,2.390000,-8.740000,2.340000,2.182857,Hold,61.558838,60.000000,Hold,-154267.000000,114688.000000,LowGoal,0.000000,-1454.545455,Speed,0.000000,-1454.545455,Speed,Off,Off0.000000,1,Read: /home/lvuser/scripts/auto_01.bee,File good!,DRIVE_STRAIGHT_NAVX 200 10000,DRIVE_STRAIGHT_NAVX
10:51:53.198 AM 03/20/2016,Autonomous Disabled,10,FALSE,0,NO ERROR,0.000000,16.125046,0.000000,15.695130,FALSE,FALSE,TRUE,FALSE,FALSE,FALSE,Disabled,0.000000,0.000000,0.000000,TRUE,-2.255859,-1.238312,0.000000,0.000000,0.000000,0.000000,-0.002000,0.000000,0.022000,2.380000,-8.740000,2.340000,2.177349,Hold,61.558838,60.000000,Hold,-154267.000000,114688.000000,LowGoal,0.000000,-1454.545455,Speed,0.000000,-1454.545455,Speed,Off,Off0.000000,1,Read: /home/lvuser/scripts/auto_01.bee,File good!,DRIVE_STRAIGHT_NAVX 200 10000,DRIVE_STRAIGHT_NAVX
10:51:53.299 AM 03/20/2016,Autonomous Disabled,9,FALSE,0,NO ERROR,0.000000,16.125046,0.000000,15.695130,FALSE,TRUE,TRUE,FALSE,FALSE,FALSE,Disabled,0.000000,0.000000,0.000000,TRUE,-2.255859,-1.238312,0.000000,0.000000,0.000000,0.000000,0.000000,0.000000,0.021000,2.390000,-8.740000,2.330000,2.170254,Hold,61.558838,60.000000,Hold,-154267.000000,114688.000000,LowGoal,0.000000,-1454.545455,Speed,0.000000,-1454.545455,Speed,Off,Off0.000000,1,Read: /home/lvuser/scripts/auto_01.bee,File good!,DRIVE_STRAIGHT_NAVX 200 10000,DRIVE_STRAIGHT_NAVX
10:51:53.399 AM 03/20/2016,Autonomous Disabled,10,FALSE,0,NO ERROR,0.000000,16.125046,0.000000,15.695130,FALSE,TRUE,TRUE,FALSE,FALSE,FALSE,Disabled,0.000000,0.000000,0.000000,TRUE,-2.255859,-1.238312,0.000000,0.000000,0.000000,0.000000,0.000000,-0.001000,0.022000,2.390000,-8.740000,2.330000,2.177821,Hold,61.558838,60.000000,Hold,-154267.000000,114688.000000,LowGoal,0.000000,0.000000,Speed,0.000000,0.000000,Speed,Off,Off0.000000,1,Read: /home/lvuser/scripts/auto_01.bee,File good!,DRIVE_STRAIGHT_NAVX 200 10000,DRIVE_STRAIGHT_NAVX
10:51:53.499 AM 03/20/2016,Autonomous Disabled,11,FALSE,0,NO ERROR,0.000000,16.125046,0.000000,15.695130,FALSE,FALSE,TRUE,FALSE,FALSE,FALSE,Disabled,0.000000,0.000000,0.000000,TRUE,-2.255859,-1.238312,0.000000,0.000000,0.000000,0.000000,-0.002000,0.000000,0.020000,2.390000,-8.740000,2.330000,2.192021,Hold,61.558838,60.000000,Hold,-154267.000000,114688.000000,LowGoal,0.000000,0.000000,Speed,0.000000,0.000000,Speed,Off,Off0.000000,1,Read: /home/lvuser/scripts/auto_01.bee,File good!,DRIVE_STRAIGHT_NAVX 200 10000,DRIVE_STRAIGHT_NAVX
10:51:53.600 AM 03/20/2016,Autonomous Disabled,11,FALSE,0,NO ERROR,0.000000,16.125046,0.000000,15.695130,FALSE,FALSE,TRUE,FALSE,FALSE,FALSE,Disabled,0.000000,0.000000,0.000000,TRUE,-2.255859,-1.238312,0.000000,0.000000,0.000000,0.000000,0.001000,0.001000,0.018000,2.390000,-8.740000,2.330000,2.201000,Hold,61.558838,60.000000,Hold,-154267.000000,114688.000000,LowGoal,0.000000,-1454.545455,Speed,0.000000,-1454.545455,Speed,Off,Off0.000000,1,Read: /home/lvuser/scripts/auto_01.bee,File good!,DRIVE_STRAIGHT_NAVX 200 10000,DRIVE_STRAIGHT_NAVX
10:51:53.701 AM 03/20/2016,Autonomous Disabled,10,FALSE,0,NO ERROR,0.000000,16.125046,0.000000,15.695130,FALSE,FALSE,TRUE,FALSE,FALSE,FALSE,Disabled,0.000000,0.000000,0.000000,TRUE,-2.255859,-1.238312,0.000000,0.000000,0.000000,0.000000,-0.001000,0.000000,0.022000,2.390000,-8.740000,2.320000,2.196073,Hold,61.558838,60.000000,Hold,-154267.000000,114688.000000,LowGoal,0.000000,-1454.545455,Speed,0.000000,-1454.545455,Speed,Off,Off0.000000,1,Read: /home/lvuser/scripts/auto_01.bee,File good!,DRIVE_STRAIGHT_NAVX 200 10000,DRIVE_STRAIGHT_NAVX
10:51:53.801 AM 03/20/2016,Autonomous Disabled,11,FALSE,0,NO ERROR,0.000000,16.125046,0.000000,15.695130,FALSE,FALSE,TRUE,FALSE,FALSE,FALSE,Disabled,0.000000,0.000000,0.000000,TRUE,-2.255859,-1.238312,0.000000,0.000000,0.000000,0.000000,0.001000,-0.001000,0.020000,2.390000,-8.750000,2.320000,2.205595,Hold,61.558838,60.000000,Hold,-154267.000000,114688.000000,LowGoal,0.000000,-1454.545455,Speed,0.000000,-1454.545455,Speed,Off,Off0.000000,1,Read: /home/lvuser/scripts/auto_01.bee,File good!,DRIVE_STRAIGHT_NAVX 200 10000,DRIVE_STRAIGHT_NAVX
10:51:53.902 AM 03/20/2016,Autonomous Disabled,10,FALSE,0,NO ERROR,0.000000,16.125046,0.000000,15.695130,FALSE,FALSE,TRUE,FALSE,FALSE,FALSE,Disabled,0.000000,0.000000,0.000000,TRUE,-2.255859,-1.238312,0.000000,0.000000,0.000000,0.000000,0.000000,0.000000,0.024000,2.390000,-8.740000,2.320000,2.218801,Hold,61.558838,60.000000,Hold,-154267.000000,114688.000000,LowGoal,0.000000,-1454.545455,Speed,0.000000,-1454.545455,Speed,Off,Off0.000000,1,Read: /home/lvuser/scripts/auto_01.bee,File good!,DRIVE_STRAIGHT_NAVX 200 10000,DRIVE_STRAIGHT_NAVX
10:51:54.003 AM 03/20/2016,Autonomous Disabled,11,FALSE,0,NO ERROR,0.000000,16.125046,0.000000,15.695130,FALSE,FALSE,TRUE,FALSE,FALSE,FALSE,Disabled,0.000000,0.000000,0.000000,TRUE,-2.255859,-1.238312,0.000000,0.000000,0.000000,0.000000,0.000000,-0.001000,0.021000,2.390000,-8.740000,2.320000,2.230409,Hold,61.558838,60.000000,Hold,-154267.000000,114688.000000,LowGoal,0.000000,-1454.545455,Speed,0.000000,-1454.545455,Speed,Off,Off0.000000,1,Read: /home/lvuser/scripts/auto_01.bee,File good!,DRIVE_STRAIGHT_NAVX 200 10000,DRIVE_STRAIGHT_NAVX
10:51:54.103 AM 03/20/2016,Autonomous Disabled,11,FALSE,0,NO ERROR,0.000000,16.125046,0.000000,15.695130,FALSE,TRUE,TRUE,FALSE,FALSE,FALSE,Disabled,0.000000,0.000000,0.000000,TRUE,-2.255859,-1.238312,0.000000,0.000000,0.000000,0.000000,-0.001000,0.000000,0.020000,2.390000,-8.740000,2.320000,2.231862,Hold,61.558838,60.000000,Hold,-154267.000000,114688.000000,LowGoal,0.000000,-1454.545455,Speed,0.000000,-1454.545455,Speed,Off,Off0.000000,1,Read: /home/lvuser/scripts/auto_01.bee,File good!,DRIVE_STRAIGHT_NAVX 200 10000,DRIVE_STRAIGHT_NAVX
10:51:54.203 AM 03/20/2016,Autonomous Disabled,11,FALSE,0,NO ERROR,0.000000,16.125046,0.000000,15.695130,FALSE,TRUE,TRUE,FALSE,FALSE,FALSE,Disabled,0.000000,0.000000,0.000000,TRUE,-2.255859,-1.238312,0.000000,0.000000,0.000000,0.000000,0.000000,-0.002000,0.023000,2.390000,-8.740000,2.330000,2.237477,Hold,61.558838,60.000000,Hold,-154267.000000,114688.000000,LowGoal,0.000000,0.000000,Speed,0.000000,0.000000,Speed,Off,Off0.000000,1,Read: /home/lvuser/scripts/auto_01.bee,File good!,DRIVE_STRAIGHT_NAVX 200 10000,DRIVE_STRAIGHT_NAVX
10:51:54.303 AM 03/20/2016,Autonomous Disabled,10,FALSE,0,NO ERROR,0.000000,16.125046,0.000000,15.695130,FALSE,FALSE,TRUE,FALSE,FALSE,FALSE,Disabled,0.000000,0.000000,0.000000,TRUE,-2.255859,-1.238312,0.000000,0.000000,0.000000,0.000000,-0.002000,0.000000,0.022000,2.390000,-8.750000,2.320000,2.237477,Hold,61.558838,60.000000,Hold,-154267.000000,114688.000000,LowGoal,0.000000,0.000000,Speed,0.000000,0.000000,Speed,Off,Off0.000000,1,Read: /home/lvuser/scripts/auto_01.bee,File good!,DRIVE_STRAIGHT_NAVX 200 10000,DRIVE_STRAIGHT_NAVX
10:51:54.404 AM 03/20/2016,Autonomous Disabled,10,FALSE,0,NO ERROR,0.000000,16.125046,0.000000,15.695130,FALSE,FALSE,TRUE,FALSE,FALSE,FALSE,Disabled,0.000000,0.000000,0.000000,TRUE,-2.255859,-1.238312,0.000000,0.000000,0.000000,0.000000,0.000000,0.000000,0.016000,2.390000,-8.750000,2.320000,2.231611,Hold,61.558838,60.000000,Hold,-154267.000000,114688.000000,LowGoal,0.000000,-1454.545455,Speed,0.000000,-1454.545455,Speed,Off,Off0.000000,1,Read: /home/lvuser/scripts/auto_01.bee,File good!,DRIVE_STRAIGHT_NAVX 200 10000,DRIVE_STRAIGHT_NAVX
10:51:54.504 AM 03/20/2016,Autonomous Disabled,10,FALSE,0,NO ERROR,0.000000,16.125046,0.000000,15.695130,FALSE,FALSE,TRUE,FALSE,FALSE,FALSE,Disabled,0.000000,0.000000,0.000000,TRUE,-2.255859,-1.238312,0.000000,0.000000,0.000000,0.000000,0.000000,-0.001000,0.016000,2.390000,-8.750000,2.320000,2.231611,Hold,61.558838,60.000000,Hold,-154267.000000,114688.000000,LowGoal,0.000000,-1454.545455,Speed,0.000000,-1454.545455,Speed,Off,Off0.000000,1,Read: /home/lvuser/scripts/auto_01.bee,File good!,DRIVE_STRAIGHT_NAVX 200 10000,DRIVE_STRAIGHT_NAVX
10:51:54.604 AM 03/20/2016,Autonomous Disabled,11,FALSE,0,NO ERROR,0.000000,16.125046,0.000000,15.695130,FALSE,FALSE,TRUE,FALSE,FALSE,FALSE,Disabled,0.000000,0.000000,0.000000,TRUE,-2.255859,-1.238312,0.000000,0.000000,0.000000,0.000000,0.000000,0.000000,0.021000,2.390000,-8.740000,2.320000,2.240854,Hold,61.558838,60.000000,Hold,-154267.000000,114688.000000,LowGoal,0.000000,-1454.545455,Speed,0.000000,-1454.545455,Speed,Off,Off0.000000,1,Read: /home/lvuser/scripts/auto_01.bee,File good!,DRIVE_STRAIGHT_NAVX 200 10000,DRIVE_STRAIGHT_NAVX
10:51:54.704 AM 03/20/2016,Autonomous Disabled,11,FALSE,0,NO ERROR,0.000000,16.125046,0.000000,15.695130,FALSE,FALSE,TRUE,FALSE,FALSE,FALSE,Disabled,0.000000,0.000000,0.000000,TRUE,-2.255859,-1.238312,0.000000,0.000000,0.000000,0.000000,-0.003000,0.002000,0.020000,2.400000,-8.740000,2.320000,2.247650,Hold,61.558838,60.000000,Hold,-154267.000000,114688.000000,LowGoal,0.000000,-1454.545455,Speed,0.000000,-1454.545455,Speed,Off,Off0.000000,1,Read: /home/lvuser/scripts/auto_01.bee,File good!,DRIVE_STRAIGHT_NAVX 200 10000,DRIVE_STRAIGHT_NAVX
10:51:54.804 AM 03/20/2016,Autonomous Disabled,10,FALSE,0,NO ERROR,0.000000,16.125046,0.000000,15.695130,FALSE,FALSE,TRUE,FALSE,FALSE,FALSE,Disabled,0.000000,0.000000,0.000000,TRUE,-2.255859,-1.238312,0.000000,0.000000,0.000000,0.000000,0.000000,0.000000,0.020000,2.390000,-8.740000,2.320000,2.238592,Hold,61.558838,60.000000,Hold,-154267.000000,114688.000000,LowGoal,0.000000,-1454.545455,Speed,0.000000,-1454.545455,Speed,Off,Off0.000000,1,Read: /home/lvuser/scripts/auto_01.bee,File good!,DRIVE_STRAIGHT_NAVX 200 10000,DRIVE_STRAIGHT_NAVX
10:51:54.904 AM 03/20/2016,Autonomous Disabled,11,FALSE,0,NO ERROR,0.000000,16.125046,0.000000,15.695130,FALSE,TRUE,TRUE,FALSE,FALSE,FALSE,Disabled,0.000000,0.000000,0.000000,TRUE,-2.255859,-1.238312,0.000000,0.000000,0.000000,0.000000,0.000000,0.002000,0.016000,2.390000,-8.740000,2.320000,2.250073,Hold,61.558838,60.000000,Hold,-154267.000000,114688.000000,LowGoal,0.000000,-1454.545455,Speed,0.000000,-1454.545455,Speed,Off,Off0.000000,1,Read: /home/lvuser/scripts/auto_01.bee,File good!,DRIVE_STRAIGHT_NAVX 200 10000,DRIVE_STRAIGHT_NAVX
10:51:55.004 AM 03/20/2016,Autonomous Disabled,10,FALSE,0,NO ERROR,0.000000,16.125046,0.000000,15.695130,FALSE,TRUE,TRUE,FALSE,FALSE,FALSE,Disabled,0.000000,0.000000,0.000000,TRUE,-2.255859,-1.238312,0.000000,0.000000,0.000000,0.000000,0.000000,0.002000,0.020000,2.390000,-8.740000,2.320000,2.250070,Hold,61.558838,60.000000,Hold,-154267.000000,114688.000000,LowGoal,0.000000,0.000000,Speed,0.000000,0.000000,Speed,Off,Off0.000000,1,Read: /home/lvuser/scripts/auto_01.bee,File good!,DRIVE_STRAIGHT_NAVX 200 10000,DRIVE_STRAIGHT_NAVX
10:51:55.104 AM 03/20/2016,Autonomous Disabled,11,FALSE,0,NO ERROR,0.000000,16.125046,0.000000,15.695130,FALSE,FALSE,TRUE,FALSE,FALSE,FALSE,Disabled,0.000000,0.000000,0.000000,TRUE,-2.255859,-1.238312,0.000000,0.000000,0.000000,0.000000,0.000000,0.000000,0.016000,2.390000,-8.750000,2.330000,2.253691,Hold,61.558838,60.000000,Hold,-154267.000000,114688.000000,LowGoal,0.000000,0.000000,Speed,0.000000,0.000000,Speed,Off,Off0.000000,1,Read: /home/lvuser/scripts/auto_01.bee,File good!,DRIVE_STRAIGHT_NAVX 200 10000,DRIVE_STRAIGHT_NAVX
10:51:55.204 AM 03/20/2016,Autonomous Disabled,10,FALSE,0,NO ERROR,0.000000,16.125046,0.000000,15.695130,FALSE,FALSE,TRUE,FALSE,FALSE,FALSE,Disabled,0.000000,0.000000,0.000000,TRUE,-2.255859,-1.238312,0.000000,0.000000,0.000000,0.000000,-0.002000,0.000000,0.020000,2.390000,-8.740000,2.330000,2.258315,Hold,61.558838,60.000000,Hold,-154267.000000,114688.000000,LowGoal,0.000000,-1454.545455,Speed,0.000000,-1454.545455,Speed,Off,Off0.000000,1,Read: /home/lvuser/scripts/auto_01.bee,File good!,DRIVE_STRAIGHT_NAVX 200 10000,DRIVE_STRAIGHT_NAVX
10:51:55.303 AM 03/20/2016,Autonomous Disabled,11,FALSE,0,NO ERROR,0.000000,16.125046,0.000000,15.695130,FALSE,FALSE,TRUE,FALSE,FALSE,FALSE,Disabled,0.000000,0.000000,0.000000,TRUE,-2.255859,-1.238312,0.000000,0.000000,0.000000,0.000000,-0.002000,0.001000,0.016000,2.390000,-8.750000,2.330000,2.265919,Hold,61.558838,60.000000,Hold,-154267.000000,114688.000000,LowGoal,0.000000,-1454.545455,Speed,0.000000,-1454.545455,Speed,Off,Off0.000000,1,Read: /home/lvuser/scripts/auto_01.bee,File good!,DRIVE_STRAIGHT_NAVX 200 10000,DRIVE_STRAIGHT_NAVX
10:51:55.404 AM 03/20/2016,Autonomous Disabled,10,FALSE,0,NO ERROR,0.000000,16.125046,0.000000,15.695130,FALSE,FALSE,TRUE,FALSE,FALSE,FALSE,Disabled,0.000000,0.000000,0.000000,TRUE,-2.255859,-1.238312,0.000000,0.000000,0.000000,0.000000,0.002000,-0.001000,0.023000,2.390000,-8.750000,2.340000,2.261182,Hold,61.558838,60.000000,Hold,-154267.000000,114688.000000,LowGoal,0.000000,-1454.545455,Speed,0.000000,-1454.545455,Speed,Off,Off0.000000,1,Read: /home/lvuser/scripts/auto_01.bee,File good!,DRIVE_STRAIGHT_NAVX 200 10000,DRIVE_STRAIGHT_NAVX
10:51:55.504 AM 03/20/2016,Autonomous Disabled,9,FALSE,0,NO ERROR,0.000000,16.125046,0.000000,15.695130,FALSE,FALSE,TRUE,FALSE,FALSE,FALSE,Disabled,0.000000,0.000000,0.000000,TRUE,-2.255859,-1.238312,0.000000,0.000000,0.000000,0.000000,0.000000,-0.001000,0.019000,2.400000,-8.750000,2.340000,2.260952,Hold,61.558838,60.000000,Hold,-154267.000000,114688.000000,LowGoal,0.000000,-1454.545455,Speed,0.000000,-1454.545455,Speed,Off,Off0.000000,1,Read: /home/lvuser/scripts/auto_01.bee,File good!,DRIVE_STRAIGHT_NAVX 200 10000,DRIVE_STRAIGHT_NAVX
10:51:55.604 AM 03/20/2016,Autonomous Disabled,11,FALSE,0,NO ERROR,0.000000,16.125046,0.000000,15.695130,FALSE,FALSE,TRUE,FALSE,FALSE,FALSE,Disabled,0.000000,0.000000,0.000000,TRUE,-2.255859,-1.238312,0.000000,0.000000,0.000000,0.000000,0.000000,0.001000,0.019000,2.400000,-8.750000,2.340000,2.243278,Hold,61.558838,60.000000,Hold,-154267.000000,114688.000000,LowGoal,0.000000,-1454.545455,Speed,0.000000,-1454.545455,Speed,Off,Off0.000000,1,Read: /home/lvuser/scripts/auto_01.bee,File good!,DRIVE_STRAIGHT_NAVX 200 10000,DRIVE_STRAIGHT_NAVX
