Time,Robot Mode,Loop Time,Error Status,Error Code,Error Source,Left Motor Output,Left Motor Encoder,Right Motor Output,Right Motor Encoder,Is Level,Is Stalled,Ball Detector Photoeye,Vision Enabled,Vision Teleop Control,Vision Auto Control,Vision Current State,Vision X Output,Vision NavX Error,Vision NavX Target,NavX Connection Status,NavX Displacement X,NavX Displacement Y,NavX Displacement Z,NavX Velocity X,NavX Velocity Y,NavX Velocity Z,NavX Acceleration X,NavX Acceleration Y,NavX Acceleration Z,NavX Pitch,NavX Yaw,NavX Roll,Gyro Angle,Roller Arm State,Roller Arm Actual,Roller Arm Desired,Shooter Arm State,Shooter Arm Actual,Shooter Arm Desired,Shooter State,Actual RPM Left,Desired RPM Left,Control Mode Left,Actual RPM Right,Desired RPM Right,Scaler Motor Output,Auto To Run,Auto Current File,Auto File Status,Auto Current Command,Auto Trimmed Command
02:10:14.522 PM 03/20/2016,Autonomous Disabled,12394,FALSE,0,NO ERROR,-0.000000,0.000000,0.000000,0.000000,TRUE,FALSE,TRUE,FALSE,FALSE,FALSE,Disabled,0.000000,0.000000,0.000000,TRUE,15.462265,0.084351,0.000000,0.000000,0.000000,0.000000,0.000000,0.000000,0.000000,2.540000,-0.120000,2.880000,-18.271972,Hold,0.935791,0.000000,Hold,-69584.000000,69632.000000,HighGoal,0.000000,0.000000,Speed,0.000000,0.000000,Speed,Off,Off0.000000,0,,,,
02:10:14.623 PM 03/20/2016,Teleop Disabled,11,FALSE,0,NO ERROR,-0.000000,0.000000,0.000000,0.000000,TRUE,FALSE,TRUE,FALSE,FALSE,FALSE,Disabled,0.000000,0.000000,0.000000,TRUE,15.462265,0.084351,0.000000,0.000000,0.000000,0.000000,0.000000,0.000000,0.000000,2.540000,-0.120000,2.880000,-18.271972,ResetBack,0.935791,-0.000049,ResetBack,90308.000000,-0.300000,Empty,0.000000,0.000000,Speed,0.000000,0.000000,Speed,Off,Off0.000000,0,,,,
02:10:14.724 PM 03/20/2016,Teleop Disabled,10,FALSE,0,NO ERROR,-0.000000,0.000000,0.000000,0.000000,TRUE,FALSE,TRUE,FALSE,FALSE,FALSE,Disabled,0.000000,0.000000,0.000000,TRUE,15.452118,0.078201,0.000000,0.000000,0.000000,0.000000,0.000000,-0.002000,0.009000,0.000000,-0.450000,2.900000,-0.022869,ResetBack,0.935791,-0.000049,ResetBack,90308.000000,-0.300000,Empty,0.000000,0.000000,Speed,0.000000,0.000000,Speed,Off,Off0.000000,0,,,,
02:10:14.824 PM 03/20/2016,Teleop Enabled,10,FALSE,0,NO ERROR,-0.000000,-0.077000,0.000000,0.000000,TRUE,FALSE,TRUE,FALSE,FALSE,FALSE,Disabled,0.000000,0.000000,0.000000,TRUE,15.452118,0.078201,0.000000,0.000000,0.000000,0.000000,0.001000,0.010000,0.006000,0.000000,-0.450000,2.900000,-0.005109,ResetBack,0.890381,-0.000049,ResetBack,90308.000000,-0.300000,Empty,0.000000,0.000000,Speed,0.000000,0.000000,Speed,Off,Off0.000000,0,,,,
02:10:14.925 PM 03/20/2016,Teleop Enabled,11,FALSE,0,NO ERROR,-0.000000,-0.192500,0.000000,0.000000,TRUE,FALSE,TRUE,FALSE,FALSE,FALSE,Disabled,0.000000,0.000000,0.000000,TRUE,15.452423,0.078461,0.000000,0.006790,0.019562,0.000000,-0.074000,0.043000,-0.035000,-0.260000,-0.290000,2.920000,-0.180917,ResetBack,-0.111084,-0.000049,ResetBack,92335.000000,-0.300000,Empty,0.000000,0.000000,Speed,0.000000,0.000000,Speed,Off,Off0.000000,0,,,,
02:10:15.025 PM 03/20/2016,Teleop Enabled,9,FALSE,0,NO ERROR,-0.000000,-0.192500,0.000000,-0.012833,TRUE,FALSE,TRUE,FALSE,FALSE,FALSE,Disabled,0.000000,0.000000,0.000000,TRUE,15.452408,0.080276,0.000000,0.000000,0.031433,0.000000,-0.002000,-0.015000,0.001000,-0.210000,-0.510000,2.900000,-0.246449,ResetBack,-0.111328,-0.000049,ResetBack,98038.000000,-0.300000,Empty,0.000000,0.000000,Speed,0.000000,0.000000,Speed,Off,Off0.000000,0,,,,
02:10:15.125 PM 03/20/2016,Teleop Enabled,9,FALSE,0,NO ERROR,-0.000000,-0.192500,0.000000,-0.012833,TRUE,FALSE,TRUE,FALSE,FALSE,FALSE,Disabled,0.000000,0.000000,0.000000,TRUE,15.451935,0.080414,0.000000,-0.020187,0.009415,0.000000,0.016000,-0.006000,0.009000,-0.090000,-0.530000,2.960000,-0.136188,ResetBack,-0.112549,-0.000049,ResetBack,99490.000000,-0.300000,Empty,0.000000,0.000000,Speed,0.000000,0.000000,Speed,Off,Off0.000000,0,,,,
02:10:15.225 PM 03/20/2016,Teleop Enabled,10,FALSE,0,NO ERROR,-0.000000,-0.186083,0.000000,-0.012833,TRUE,FALSE,TRUE,FALSE,FALSE,FALSE,Disabled,0.000000,0.000000,0.000000,TRUE,15.451523,0.080688,0.000000,0.000000,0.007416,0.000000,-0.006000,0.003000,0.028000,-0.140000,-0.420000,2.930000,-0.172438,Reset,-0.112793,0.000000,ResetBack,100302.000000,-0.300000,Empty,0.000000,0.000000,Speed,0.000000,0.000000,Speed,Off,Off0.000000,0,,,,
02:10:15.325 PM 03/20/2016,Teleop Enabled,10,FALSE,0,NO ERROR,-0.000000,-0.186083,0.000000,-0.012833,TRUE,FALSE,TRUE,FALSE,FALSE,FALSE,Disabled,0.000000,0.000000,0.000000,TRUE,15.451523,0.080795,0.000000,0.000000,0.000473,0.000000,-0.019000,0.037000,-0.019000,-0.130000,-0.470000,2.920000,-0.171897,Hold,0.776123,0.000000,ResetBack,100302.000000,-0.300000,Empty,0.000000,0.000000,Speed,0.000000,0.000000,Speed,Off,Off0.000000,0,,,,
02:10:15.425 PM 03/20/2016,Teleop Enabled,9,FALSE,0,NO ERROR,-0.000000,-0.186083,0.000000,-0.012833,TRUE,FALSE,TRUE,FALSE,FALSE,FALSE,Disabled,0.000000,0.000000,0.000000,TRUE,15.451279,0.081146,0.000000,0.000000,-0.000549,0.000000,0.012000,0.015000,-0.022000,-0.120000,-0.460000,2.900000,-0.173143,Hold,0.932373,0.000000,ResetBack,100461.000000,-0.300000,Empty,0.000000,0.000000,Speed,0.000000,0.000000,Speed,Off,Off0.000000,0,,,,
02:10:15.525 PM 03/20/2016,Teleop Enabled,10,FALSE,0,NO ERROR,-0.000000,-0.186083,0.000000,-0.012833,TRUE,FALSE,TRUE,FALSE,FALSE,FALSE,Disabled,0.000000,0.000000,0.000000,TRUE,15.451279,0.081467,0.000000,0.000000,0.002930,0.000000,-0.006000,-0.007000,-0.002000,-0.130000,-0.470000,2.920000,-0.178059,Hold,0.931885,0.000000,ResetBack,100461.000000,-0.300000,Empty,0.000000,0.000000,Speed,0.000000,0.000000,Speed,Off,Off0.000000,0,,,,
02:10:15.625 PM 03/20/2016,Teleop Enabled,10,FALSE,0,NO ERROR,-0.000000,-0.186083,0.000000,-0.012833,TRUE,FALSE,TRUE,FALSE,FALSE,FALSE,Disabled,0.000000,0.000000,0.000000,TRUE,15.451279,0.081467,0.000000,0.000000,0.000000,0.000000,0.005000,-0.007000,-0.009000,-0.130000,-0.470000,2.940000,-0.173013,Hold,0.931885,0.000000,ResetBack,100461.000000,-0.300000,Empty,0.000000,0.000000,Speed,0.000000,0.000000,Speed,Off,Off0.000000,0,,,,
02:10:15.725 PM 03/20/2016,Teleop Enabled,9,FALSE,0,NO ERROR,-0.000000,-0.186083,0.000000,-0.012833,TRUE,FALSE,TRUE,FALSE,FALSE,FALSE,Disabled,0.000000,0.000000,0.000000,TRUE,15.451279,0.081467,0.000000,0.000000,0.000000,0.000000,0.004000,0.000000,0.004000,-0.130000,-0.460000,2.930000,-0.186683,Hold,0.931885,0.000000,ResetBack,100461.000000,-0.300000,Empty,0.000000,0.000000,Speed,0.000000,0.000000,Speed,Off,Off0.000000,0,,,,
02:10:15.826 PM 03/20/2016,Teleop Enabled,10,FALSE,0,NO ERROR,-0.000000,-0.186083,0.000000,-0.012833,TRUE,FALSE,TRUE,FALSE,FALSE,FALSE,Disabled,0.000000,0.000000,0.000000,TRUE,15.451279,0.081467,0.000000,0.000000,0.000000,0.000000,0.002000,0.004000,0.019000,-0.130000,-0.480000,2.930000,-0.189010,Hold,0.931885,0.000000,ResetBack,100461.000000,-0.300000,Suck,0.000000,2181.818182,Speed,0.000000,2181.818182,Speed,Off,Off0.000000,0,,,,
02:10:15.926 PM 03/20/2016,Teleop Enabled,10,FALSE,0,NO ERROR,-0.000000,-0.186083,0.000000,-0.012833,TRUE,FALSE,TRUE,FALSE,FALSE,FALSE,Disabled,0.000000,0.000000,0.000000,TRUE,15.451141,0.081604,0.000000,-0.002426,0.001099,0.000000,-0.024000,0.026000,0.009000,-0.130000,-0.480000,2.950000,-0.186125,Hold,0.931885,0.000000,ResetBack,100319.000000,-0.300000,Hold,-60.000000,0.000000,Speed,-30.000000,0.000000,Speed,Off,Off0.000000,0,,,,
02:10:16.026 PM 03/20/2016,Teleop Enabled,9,FALSE,0,NO ERROR,-0.000000,-0.186083,0.000000,-0.012833,TRUE,FALSE,TRUE,FALSE,FALSE,FALSE,Disabled,0.000000,0.000000,0.000000,TRUE,15.451645,0.081894,0.000000,0.024261,-0.001663,0.000000,-0.050000,-0.011000,0.050000,-0.120000,-0.490000,2.940000,-0.191802,Hold,0.931885,0.000000,ResetBack,100319.000000,-0.300000,Hold,-667.500000,0.000000,Speed,-547.500000,0.000000,Speed,Off,Off0.000000,0,,,,
02:10:16.127 PM 03/20/2016,Teleop Enabled,10,FALSE,0,NO ERROR,-0.000000,-0.186083,0.000000,-0.012833,TRUE,FALSE,TRUE,FALSE,FALSE,FALSE,Disabled,0.000000,0.000000,0.000000,TRUE,15.451950,0.081863,0.000000,0.004715,0.000000,0.000000,0.035000,-0.008000,-0.031000,-0.130000,-0.470000,2.940000,-0.189086,Hold,0.931885,0.000000,Reset,100493.000000,2.000000,Hold,-720.000000,0.000000,Speed,-555.000000,0.000000,Speed,Off,Off0.000000,0,,,,
02:10:16.227 PM 03/20/2016,Teleop Enabled,10,FALSE,0,NO ERROR,-0.000000,-0.186083,0.000000,-0.012833,TRUE,FALSE,TRUE,FALSE,FALSE,FALSE,Disabled,0.000000,0.000000,0.000000,TRUE,15.452972,0.081863,0.000000,0.016861,0.000000,0.000000,-0.020000,-0.014000,-0.058000,-0.130000,-0.470000,2.940000,-0.190759,Hold,0.931885,0.000000,Hold,-434.000000,2.000000,Hold,-622.500000,0.000000,Speed,-285.000000,0.000000,Speed,Off,Off0.000000,0,,,,
02:10:16.326 PM 03/20/2016,Teleop Enabled,10,FALSE,0,NO ERROR,-0.000000,-0.186083,0.000000,-0.012833,TRUE,FALSE,TRUE,FALSE,FALSE,FALSE,Disabled,0.000000,0.000000,0.000000,TRUE,15.453522,0.081863,0.000000,0.015060,0.000000,0.000000,0.001000,0.012000,-0.008000,-0.130000,-0.470000,2.940000,-0.195314,Hold,0.931885,0.000000,Hold,-227.000000,2.000000,Hold,-487.500000,0.000000,Speed,-37.500000,0.000000,Speed,Off,Off0.000000,0,,,,
02:10:16.426 PM 03/20/2016,Teleop Enabled,11,FALSE,0,NO ERROR,-0.000000,-0.186083,0.000000,-0.012833,TRUE,FALSE,TRUE,FALSE,FALSE,FALSE,Disabled,0.000000,0.000000,0.000000,TRUE,15.453705,0.081863,0.000000,0.000000,0.000000,0.000000,0.014000,-0.005000,0.002000,-0.130000,-0.480000,2.930000,-0.199138,Hold,0.931885,0.000000,Hold,-227.000000,2.000000,Hold,-382.500000,0.000000,Speed,0.000000,0.000000,Speed,Off,Off0.000000,0,,,,
02:10:16.528 PM 03/20/2016,Teleop Enabled,9,FALSE,0,NO ERROR,-0.000000,-0.186083,0.000000,-0.012833,TRUE,FALSE,TRUE,FALSE,FALSE,FALSE,Disabled,0.000000,0.000000,0.000000,TRUE,15.453903,0.081909,0.000000,0.000000,0.003052,0.000000,-0.011000,0.012000,0.015000,-0.130000,-0.470000,2.940000,-0.190294,Hold,0.931885,0.000000,Hold,-227.000000,2.000000,Hold,-300.000000,0.000000,Speed,0.000000,0.000000,Speed,Off,Off0.000000,0,,,,
02:10:16.628 PM 03/20/2016,Teleop Enabled,9,FALSE,0,NO ERROR,-0.000000,-0.186083,0.000000,-0.012833,TRUE,FALSE,TRUE,FALSE,FALSE,FALSE,Disabled,0.000000,0.000000,0.000000,TRUE,15.453903,0.081940,0.000000,0.000000,0.000000,0.000000,-0.011000,0.012000,0.015000,-0.130000,-0.470000,2.940000,-0.209283,Hold,0.931885,0.000000,Hold,-227.000000,2.000000,Hold,-202.500000,0.000000,Speed,0.000000,0.000000,Speed,Off,Off0.000000,0,,,,
02:10:16.728 PM 03/20/2016,Teleop Enabled,9,FALSE,0,NO ERROR,-0.000000,-0.186083,0.000000,-0.012833,TRUE,FALSE,TRUE,FALSE,FALSE,FALSE,Disabled,0.000000,0.000000,0.000000,TRUE,15.453903,0.081940,0.000000,0.000000,0.000000,0.000000,0.009000,0.000000,0.015000,-0.130000,-0.470000,2.920000,-0.217322,Hold,0.931885,0.000000,Hold,-227.000000,2.000000,Hold,-60.000000,0.000000,Speed,0.000000,0.000000,Speed,Off,Off0.000000,0,,,,
02:10:16.829 PM 03/20/2016,Teleop Enabled,10,FALSE,0,NO ERROR,-0.000000,-0.186083,0.000000,-0.012833,TRUE,FALSE,TRUE,FALSE,FALSE,FALSE,Disabled,0.000000,0.000000,0.000000,TRUE,15.453903,0.081940,0.000000,0.000000,0.000000,0.000000,0.007000,-0.005000,0.013000,-0.130000,-0.470000,2.920000,-0.205707,Hold,0.931885,0.000000,Hold,-227.000000,2.000000,Hold,0.000000,0.000000,Speed,0.000000,0.000000,Speed,Off,Off0.000000,0,,,,
02:10:16.931 PM 03/20/2016,Teleop Enabled,10,FALSE,0,NO ERROR,-0.000000,-0.186083,0.000000,-0.012833,TRUE,FALSE,TRUE,FALSE,FALSE,FALSE,Disabled,0.000000,0.000000,0.000000,TRUE,15.453903,0.081940,0.000000,0.000000,0.000000,0.000000,0.001000,0.000000,0.013000,-0.120000,-0.460000,2.930000,-0.191217,Hold,0.931885,0.000000,Hold,-227.000000,2.000000,Hold,0.000000,0.000000,Speed,0.000000,0.000000,Speed,Off,Off0.000000,0,,,,
02:10:17.033 PM 03/20/2016,Teleop Enabled,9,FALSE,0,NO ERROR,-0.000000,-0.186083,0.000000,-0.012833,TRUE,FALSE,TRUE,FALSE,FALSE,FALSE,Disabled,0.000000,0.000000,0.000000,TRUE,15.453903,0.081940,0.000000,0.000000,0.000000,0.000000,0.001000,0.000000,0.013000,-0.120000,-0.460000,2.920000,-0.182108,Hold,0.931885,0.000000,Hold,-227.000000,2.000000,Hold,0.000000,0.000000,Speed,0.000000,0.000000,Speed,Off,Off0.000000,0,,,,
02:10:17.133 PM 03/20/2016,Teleop Enabled,9,FALSE,0,NO ERROR,-0.000000,-0.186083,0.000000,-0.012833,TRUE,FALSE,TRUE,FALSE,FALSE,FALSE,Disabled,0.000000,0.000000,0.000000,TRUE,15.453903,0.081940,0.000000,0.000000,0.000000,0.000000,0.000000,-0.003000,0.007000,-0.120000,-0.460000,2.920000,-0.179185,Hold,0.931885,0.000000,Hold,-227.000000,2.000000,LowGoal,0.000000,-1454.545455,Speed,0.000000,-1454.545455,Speed,Off,Off0.000000,0,,,,
02:10:17.232 PM 03/20/2016,Teleop Enabled,9,FALSE,0,NO ERROR,-0.000000,-0.186083,0.000000,-0.012833,TRUE,FALSE,TRUE,FALSE,FALSE,FALSE,Disabled,0.000000,0.000000,0.000000,TRUE,15.455063,0.081680,0.000000,0.023254,-0.000244,0.000000,0.000000,-0.003000,0.007000,-0.120000,-0.460000,2.920000,-0.194222,Hold,0.931885,0.000000,Hold,-227.000000,2.000000,LowGoal,37.500000,-1454.545455,Speed,142.500000,-1454.545455,Speed,Off,Off0.000000,0,,,,
02:10:17.334 PM 03/20/2016,Teleop Enabled,10,FALSE,0,NO ERROR,-0.000000,-0.186083,0.000000,-0.012833,TRUE,FALSE,TRUE,FALSE,FALSE,FALSE,Disabled,0.000000,0.000000,0.000000,TRUE,15.455170,0.082535,0.000000,0.004623,0.025833,0.000000,-0.073000,0.053000,0.043000,-0.130000,-0.420000,2.930000,-0.189086,Hold,0.931885,0.000000,Hold,-227.000000,2.000000,LowGoal,682.500000,-1454.545455,Speed,712.500000,-1454.545455,Speed,Off,Off0.000000,0,,,,
02:10:17.435 PM 03/20/2016,Teleop Enabled,11,FALSE,0,NO ERROR,-0.000000,-0.186083,0.000000,-0.012833,TRUE,FALSE,TRUE,FALSE,FALSE,FALSE,Disabled,0.000000,0.000000,0.000000,TRUE,15.455002,0.084518,0.000000,-0.008652,0.052841,0.000000,-0.036000,-0.015000,0.014000,-0.130000,-0.430000,2.940000,-0.198563,Hold,0.931885,0.000000,Hold,-227.000000,2.000000,LowGoal,1425.000000,-1454.545455,Speed,1387.500000,-1454.545455,Speed,Off,Off0.000000,0,,,,
02:10:17.536 PM 03/20/2016,Teleop Enabled,10,FALSE,0,NO ERROR,-0.000000,-0.186083,0.000000,-0.012833,TRUE,FALSE,TRUE,FALSE,FALSE,FALSE,Disabled,0.000000,0.000000,0.000000,TRUE,15.452881,0.086746,0.000000,-0.054260,0.032700,0.000000,-0.023000,-0.025000,-0.065000,-0.130000,-0.450000,2.920000,-0.216871,Hold,0.931885,0.000000,Hold,-226.000000,2.000000,LowGoal,1612.500000,-1454.545455,Speed,1575.000000,-1454.545455,Speed,Off,Off0.000000,0,,,,
02:10:17.637 PM 03/20/2016,Teleop Enabled,11,FALSE,0,NO ERROR,-0.000000,-0.186083,0.000000,-0.012833,TRUE,FALSE,TRUE,FALSE,FALSE,FALSE,Disabled,0.000000,0.000000,0.000000,TRUE,15.453720,0.087585,0.000000,0.029404,0.012390,0.000000,0.018000,-0.045000,0.000000,-0.130000,-0.420000,2.860000,-0.200078,Hold,0.931885,0.000000,Hold,-222.000000,2.000000,LowGoal,1410.000000,-1454.545455,Speed,1350.000000,-1454.545455,Speed,Off,Off0.000000,0,,,,
02:10:17.738 PM 03/20/2016,Teleop Enabled,9,FALSE,0,NO ERROR,-0.000000,-0.186083,0.000000,-0.012833,TRUE,FALSE,TRUE,FALSE,FALSE,FALSE,Disabled,0.000000,0.000000,0.000000,TRUE,15.454880,0.088135,0.000000,0.003647,0.015656,0.000000,0.068000,-0.013000,0.022000,-0.130000,-0.420000,2.860000,-0.206058,Hold,0.931885,0.000000,Hold,-222.000000,2.000000,LowGoal,1350.000000,-1454.545455,Speed,1320.000000,-1454.545455,Speed,Off,Off0.000000,0,,,,
02:10:17.838 PM 03/20/2016,Teleop Enabled,8,FALSE,0,NO ERROR,-0.000000,-0.186083,0.000000,-0.012833,TRUE,FALSE,TRUE,FALSE,FALSE,FALSE,Disabled,0.000000,0.000000,0.000000,TRUE,15.456070,0.089249,0.000000,0.042160,0.019226,0.000000,0.056000,-0.007000,0.002000,-0.130000,-0.450000,2.950000,-0.215879,Hold,0.931885,0.000000,Hold,-222.000000,2.000000,LowGoal,1417.500000,-1454.545455,Speed,1432.500000,-1454.545455,Speed,Off,Off0.000000,0,,,,
02:10:17.938 PM 03/20/2016,Teleop Enabled,9,FALSE,0,NO ERROR,-0.000000,-0.186083,0.000000,-0.012833,TRUE,FALSE,TRUE,FALSE,FALSE,FALSE,Disabled,0.000000,0.000000,0.000000,TRUE,15.458618,0.089386,0.000000,0.045029,-0.001465,0.000000,0.044000,-0.049000,-0.023000,-0.130000,-0.340000,2.860000,-0.217497,Hold,0.931885,0.000000,Hold,-222.000000,2.000000,LowGoal,1455.000000,-1454.545455,Speed,1410.000000,-1454.545455,Speed,Off,Off0.000000,0,,,,
02:10:18.038 PM 03/20/2016,Teleop Enabled,8,FALSE,0,NO ERROR,-0.000000,-0.186083,0.000000,-0.012833,TRUE,FALSE,TRUE,FALSE,FALSE,FALSE,Disabled,0.000000,0.000000,0.000000,TRUE,15.460144,0.089417,0.000000,0.014862,0.006607,0.000000,-0.023000,0.028000,-0.012000,-0.130000,-0.360000,2.770000,-0.246673,Hold,0.931885,0.000000,Hold,-222.000000,2.000000,LowGoal,1417.500000,-1454.545455,Speed,1372.500000,-1454.545455,Speed,Off,Off0.000000,0,,,,
02:10:18.139 PM 03/20/2016,Teleop Enabled,8,FALSE,0,NO ERROR,-0.000000,-0.186083,0.000000,-0.012833,TRUE,FALSE,TRUE,FALSE,FALSE,FALSE,Disabled,0.000000,0.000000,0.000000,TRUE,15.460144,0.089417,0.000000,0.014862,0.006607,0.000000,0.046000,-0.065000,0.002000,-0.130000,-0.350000,2.800000,-0.249465,Hold,0.931885,0.000000,Hold,-222.000000,2.000000,LowGoal,1410.000000,-1454.545455,Speed,1387.500000,-1454.545455,Speed,Off,Off0.000000,0,,,,
02:10:18.240 PM 03/20/2016,Teleop Enabled,11,FALSE,0,NO ERROR,0.322835,0.044917,0.322835,0.397832,TRUE,FALSE,TRUE,FALSE,FALSE,FALSE,Disabled,0.000000,0.000000,0.000000,TRUE,15.460388,0.089386,0.000000,-0.014923,-0.005249,0.000000,-0.041000,0.011000,-0.031000,-0.130000,-0.400000,2.740000,-0.261342,Hold,0.931885,0.000000,Hold,-222.000000,2.000000,LowGoal,1425.000000,-1454.545455,Speed,1402.500000,-1454.545455,Speed,Off,Off0.000000,0,,,,
02:10:18.340 PM 03/20/2016,Teleop Enabled,9,FALSE,0,NO ERROR,0.464567,1.616996,0.464567,1.655496,TRUE,FALSE,TRUE,FALSE,FALSE,FALSE,Disabled,0.000000,0.000000,0.000000,TRUE,15.460388,0.089386,0.000000,-0.014923,-0.005249,0.000000,-0.081000,-0.049000,0.102000,-0.140000,-0.360000,2.750000,-0.301079,Hold,0.931885,0.000000,Hold,-222.000000,2.000000,LowGoal,1417.500000,-1454.545455,Speed,1387.500000,-1454.545455,Speed,Off,Off0.000000,0,,,,
02:10:18.441 PM 03/20/2016,Teleop Enabled,10,FALSE,0,NO ERROR,0.464567,3.856408,0.464567,4.061741,FALSE,FALSE,TRUE,FALSE,FALSE,FALSE,Disabled,0.000000,0.000000,0.000000,TRUE,15.449646,0.090012,0.000000,-0.363800,0.038788,0.000000,-0.362000,0.085000,-0.312000,-0.150000,-3.390000,2.900000,-0.499856,Hold,0.931885,0.000000,Hold,-222.000000,2.000000,LowGoal,1387.500000,-1454.545455,Speed,1350.000000,-1454.545455,Speed,Off,Off0.000000,0,,,,
02:10:18.541 PM 03/20/2016,Teleop Enabled,10,FALSE,0,NO ERROR,0.464567,6.795234,0.464567,7.725649,FALSE,FALSE,TRUE,FALSE,FALSE,FALSE,Disabled,0.000000,0.000000,0.000000,TRUE,15.423370,0.091614,0.000000,-0.592911,0.007156,0.000000,-0.199000,-0.062000,-0.011000,-0.260000,-3.910000,2.700000,-0.499856,Hold,0.931885,0.000000,Hold,-222.000000,2.000000,LowGoal,1387.500000,-1454.545455,Speed,1357.500000,-1454.545455,Speed,Off,Off0.000000,0,,,,
02:10:18.641 PM 03/20/2016,Teleop Enabled,9,FALSE,0,NO ERROR,-0.000000,6.795234,0.000000,7.725649,FALSE,FALSE,TRUE,FALSE,FALSE,FALSE,Disabled,0.000000,0.000000,0.000000,TRUE,15.388062,0.092392,0.000000,-0.769043,0.022369,0.000000,-0.057000,-0.186000,-0.068000,-1.230000,-3.700000,2.850000,-1.594803,Hold,0.931885,0.000000,Hold,-222.000000,2.000000,LowGoal,1410.000000,-1454.545455,Speed,1380.000000,-1454.545455,Speed,Off,Off0.000000,0,,,,
02:10:18.741 PM 03/20/2016,Teleop Enabled,10,FALSE,0,NO ERROR,-0.000000,9.676311,0.000000,11.768139,FALSE,FALSE,TRUE,FALSE,FALSE,FALSE,Disabled,0.000000,0.000000,0.000000,TRUE,15.348114,0.088455,0.000000,-0.749863,-0.110687,0.000000,0.067000,0.107000,-0.112000,-3.380000,-4.060000,2.440000,-3.683255,Hold,0.931885,0.000000,Hold,-222.000000,2.000000,LowGoal,1417.500000,-1454.545455,Speed,1387.500000,-1454.545455,Speed,Off,Off0.000000,0,,,,
02:10:18.841 PM 03/20/2016,Teleop Enabled,11,FALSE,0,NO ERROR,-0.000000,11.145724,0.000000,14.251383,FALSE,FALSE,TRUE,FALSE,FALSE,FALSE,Disabled,0.000000,0.000000,0.000000,TRUE,15.317886,0.085434,0.000000,-0.474518,-0.004776,0.000000,0.204000,-0.008000,-0.555000,-6.170000,0.580000,3.080000,-5.978408,Hold,0.931885,0.000000,Hold,-222.000000,2.000000,LowGoal,1417.500000,-1454.545455,Speed,1387.500000,-1454.545455,Speed,Off,Off0.000000,0,,,,
02:10:18.941 PM 03/20/2016,Teleop Enabled,10,FALSE,0,NO ERROR,-0.472441,12.172388,-0.472441,16.298295,TRUE,FALSE,TRUE,FALSE,FALSE,FALSE,Disabled,0.000000,0.000000,0.000000,TRUE,15.302338,0.084427,0.000000,-0.184921,-0.076889,0.000000,0.306000,-0.043000,0.205000,-8.230000,-0.200000,2.580000,-7.953800,Hold,0.932129,0.000000,Hold,-222.000000,2.000000,LowGoal,1410.000000,-1454.545455,Speed,1380.000000,-1454.545455,Speed,Off,Off0.000000,0,,,,
02:10:19.042 PM 03/20/2016,Teleop Enabled,10,FALSE,0,NO ERROR,-0.330709,11.736056,-0.330709,16.458712,TRUE,FALSE,TRUE,FALSE,FALSE,FALSE,Disabled,0.000000,0.000000,0.000000,TRUE,15.303940,0.079666,0.000000,0.235672,-0.069061,0.000000,0.504000,0.207000,0.265000,-9.990000,2.300000,2.460000,-9.608765,Hold,0.980957,0.000000,Hold,-222.000000,2.000000,LowGoal,1395.000000,-1454.545455,Speed,1365.000000,-1454.545455,Speed,Off,Off0.000000,0,,,,
02:10:19.143 PM 03/20/2016,Teleop Enabled,11,FALSE,0,NO ERROR,-0.000000,10.093393,0.000000,15.002132,FALSE,FALSE,TRUE,FALSE,FALSE,FALSE,Disabled,0.000000,0.000000,0.000000,TRUE,15.326614,0.083664,0.000000,0.528000,0.151794,0.000000,-0.073000,-0.081000,-0.002000,-10.620000,4.720000,2.700000,-10.316486,Hold,0.941895,0.000000,Hold,-222.000000,2.000000,LowGoal,1365.000000,-1454.545455,Speed,1357.500000,-1454.545455,Speed,Off,Off0.000000,0,,,,
02:10:19.244 PM 03/20/2016,Teleop Enabled,10,FALSE,0,NO ERROR,-0.000000,9.041062,0.000000,14.129467,TRUE,FALSE,TRUE,FALSE,FALSE,FALSE,Disabled,0.000000,0.000000,0.000000,TRUE,15.356583,0.087219,0.000000,0.459824,0.020370,0.000000,-0.169000,0.232000,-0.362000,-11.300000,0.730000,2.630000,-10.954364,Hold,0.941650,0.000000,Hold,-222.000000,2.000000,LowGoal,1402.500000,-1454.545455,Speed,1395.000000,-1454.545455,Speed,Off,Off0.000000,0,,,,
02:10:19.344 PM 03/20/2016,Teleop Enabled,10,FALSE,0,NO ERROR,-0.535433,8.168398,0.535433,12.974470,FALSE,FALSE,TRUE,FALSE,FALSE,FALSE,Disabled,0.000000,0.000000,0.000000,TRUE,15.373764,0.091736,0.000000,0.286575,0.121735,0.000000,-0.144000,0.047000,0.130000,-11.220000,0.020000,3.040000,-11.068365,Hold,0.941895,0.000000,Hold,-222.000000,2.000000,LowGoal,1425.000000,-1454.545455,Speed,1402.500000,-1454.545455,Speed,Off,Off0.000000,0,,,,
02:10:19.446 PM 03/20/2016,Teleop Enabled,9,FALSE,0,NO ERROR,-0.551181,8.476397,0.551181,11.460140,FALSE,FALSE,TRUE,FALSE,FALSE,FALSE,Disabled,0.000000,0.000000,0.000000,TRUE,15.382538,0.096527,0.000000,0.112106,0.111969,0.000000,0.237000,0.169000,-0.305000,-9.900000,1.350000,3.050000,-9.242301,Hold,0.941406,0.000000,Hold,-222.000000,2.000000,LowGoal,1402.500000,-1454.545455,Speed,1372.500000,-1454.545455,Speed,Off,Off0.000000,0,,,,
02:10:19.546 PM 03/20/2016,Teleop Enabled,9,FALSE,0,NO ERROR,-0.000000,10.818475,0.000000,8.944812,FALSE,FALSE,TRUE,FALSE,FALSE,FALSE,Disabled,0.000000,0.000000,0.000000,TRUE,15.395004,0.110672,0.000000,0.358292,0.416199,0.000000,0.275000,0.065000,-0.105000,-1.740000,0.950000,4.520000,-0.424430,Hold,0.941406,0.000000,Hold,-222.000000,2.000000,LowGoal,1372.500000,-1454.545455,Speed,1335.000000,-1454.545455,Speed,Off,Off0.000000,0,,,,
02:10:19.648 PM 03/20/2016,Teleop Enabled,12,FALSE,0,NO ERROR,-0.000000,12.454721,0.000000,6.384568,FALSE,FALSE,TRUE,FALSE,FALSE,FALSE,Disabled,0.000000,0.000000,0.000000,TRUE,15.413742,0.125900,0.000000,0.273270,0.129211,0.000000,-0.204000,-0.387000,0.079000,10.570000,1.460000,3.810000,11.136720,Hold,0.941650,0.000000,Hold,-222.000000,2.000000,LowGoal,1410.000000,-1454.545455,Speed,1380.000000,-1454.545455,Speed,Off,Off0.000000,0,,,,
02:10:19.748 PM 03/20/2016,Teleop Enabled,11,FALSE,0,NO ERROR,-0.000000,12.974470,0.000000,5.306571,FALSE,FALSE,TRUE,FALSE,FALSE,FALSE,Disabled,0.000000,0.000000,0.000000,TRUE,15.422119,0.126968,0.000000,0.104538,0.026413,0.000000,-0.127000,-0.048000,0.055000,15.390000,0.430000,3.230000,15.079954,Hold,0.941406,0.000000,Hold,-222.000000,2.000000,LowGoal,1432.500000,-1454.545455,Speed,1402.500000,-1454.545455,Speed,Off,Off0.000000,0,,,,
02:10:19.850 PM 03/20/2016,Teleop Enabled,9,FALSE,0,NO ERROR,0.181102,12.910303,-0.181102,4.940822,TRUE,FALSE,TRUE,FALSE,FALSE,FALSE,Disabled,0.000000,0.000000,0.000000,TRUE,15.425095,0.127167,0.000000,0.042221,-0.016922,0.000000,-0.043000,-0.130000,-0.127000,16.100000,-0.510000,2.870000,15.529841,Hold,0.941406,0.000000,Hold,-222.000000,2.000000,LowGoal,1425.000000,-1454.545455,Speed,1387.500000,-1454.545455,Speed,Off,Off0.000000,0,,,,
02:10:19.950 PM 03/20/2016,Teleop Enabled,10,FALSE,0,NO ERROR,0.874016,12.846137,-0.874016,4.902322,TRUE,FALSE,TRUE,FALSE,FALSE,FALSE,Disabled,0.000000,0.000000,0.000000,TRUE,15.425156,0.125565,0.000000,-0.022064,-0.003677,0.000000,-0.143000,0.031000,-0.053000,15.950000,-0.550000,2.950000,15.391343,Hold,0.941406,0.000000,Hold,-225.000000,2.000000,LowGoal,1402.500000,-1454.545455,Speed,1380.000000,-1454.545455,Speed,Off,Off0.000000,0,,,,
02:10:20.050 PM 03/20/2016,Teleop Enabled,11,FALSE,0,NO ERROR,-0.000000,11.517890,0.000000,6.249819,TRUE,FALSE,TRUE,FALSE,FALSE,FALSE,Disabled,0.000000,0.000000,0.000000,TRUE,15.418884,0.122986,0.000000,-0.204758,-0.151413,0.000000,-0.244000,-0.311000,-0.227000,14.960000,-1.040000,2.440000,13.608329,Hold,0.941406,0.000000,Hold,-225.000000,2.000000,LowGoal,1372.500000,-1454.545455,Speed,1350.000000,-1454.545455,Speed,Off,Off0.000000,0,,,,
02:10:20.150 PM 03/20/2016,Teleop Enabled,10,FALSE,0,NO ERROR,-0.000000,9.393978,0.000000,8.874229,TRUE,FALSE,TRUE,FALSE,FALSE,FALSE,Disabled,0.000000,0.000000,0.000000,TRUE,15.407059,0.114655,0.000000,-0.298065,-0.216019,0.000000,0.626000,0.347000,0.061000,2.610000,-0.650000,1.560000,3.019946,Hold,0.941650,0.000000,Hold,-243.000000,2.000000,LowGoal,1357.500000,-1454.545455,Speed,1327.500000,-1454.545455,Speed,Off,Off0.000000,0,,,,
02:10:20.252 PM 03/20/2016,Teleop Enabled,10,FALSE,0,NO ERROR,-0.000000,8.534147,0.000000,10.042060,TRUE,FALSE,TRUE,FALSE,FALSE,FALSE,Disabled,0.000000,0.000000,0.000000,TRUE,15.401123,0.108688,0.000000,0.012299,-0.055969,0.000000,0.165000,0.213000,0.204000,-2.550000,-0.870000,2.290000,-2.501449,Hold,0.941650,0.000000,Hold,-243.000000,2.000000,LowGoal,1410.000000,-1454.545455,Speed,1410.000000,-1454.545455,Speed,Off,Off0.000000,0,,,,
02:10:20.352 PM 03/20/2016,Teleop Enabled,11,FALSE,0,NO ERROR,-0.000000,8.367314,0.000000,10.061310,FALSE,FALSE,TRUE,FALSE,FALSE,FALSE,Disabled,0.000000,0.000000,0.000000,TRUE,15.403259,0.114319,0.000000,0.046234,0.218384,0.000000,-0.068000,-0.143000,0.143000,-3.050000,-0.020000,3.370000,-3.103322,Hold,0.941650,0.000000,Hold,-243.000000,2.000000,LowGoal,1410.000000,-1454.545455,Speed,1402.500000,-1454.545455,Speed,Off,Off0.000000,0,,,,
02:10:20.452 PM 03/20/2016,Teleop Enabled,10,FALSE,0,NO ERROR,-0.000000,8.399397,0.000000,10.048477,TRUE,FALSE,TRUE,FALSE,FALSE,FALSE,Disabled,0.000000,0.000000,0.000000,TRUE,15.405960,0.122696,0.000000,0.076889,0.090027,0.000000,-0.038000,0.065000,0.332000,-2.750000,-0.020000,2.840000,-2.836375,Hold,0.941650,0.000000,Hold,-243.000000,2.000000,LowGoal,1417.500000,-1454.545455,Speed,1372.500000,-1454.545455,Speed,Off,Off0.000000,0,,,,
02:10:20.554 PM 03/20/2016,Teleop Enabled,9,FALSE,0,NO ERROR,-0.000000,8.437897,0.000000,10.022810,FALSE,FALSE,TRUE,FALSE,FALSE,FALSE,Disabled,0.000000,0.000000,0.000000,TRUE,15.409821,0.130371,0.000000,0.047409,0.147491,0.000000,-0.061000,-0.068000,0.087000,-2.500000,-0.280000,3.040000,-2.578073,Hold,0.941650,0.000000,Hold,-243.000000,2.000000,LowGoal,1417.500000,-1454.545455,Speed,1380.000000,-1454.545455,Speed,Off,Off0.000000,0,,,,
02:10:20.655 PM 03/20/2016,Teleop Enabled,11,FALSE,0,NO ERROR,-0.000000,8.437897,0.000000,10.022810,TRUE,FALSE,TRUE,FALSE,FALSE,FALSE,Disabled,0.000000,0.000000,0.000000,TRUE,15.412476,0.136627,0.000000,0.066406,0.127823,0.000000,-0.076000,0.018000,-0.110000,-2.620000,0.000000,2.900000,-2.702460,Hold,0.941650,0.000000,Hold,-243.000000,2.000000,LowGoal,1417.500000,-1454.545455,Speed,1395.000000,-1454.545455,Speed,Off,Off0.000000,0,,,,
02:10:20.759 PM 03/20/2016,Teleop Enabled,10,FALSE,0,NO ERROR,-0.000000,8.437897,0.000000,10.022810,TRUE,FALSE,TRUE,FALSE,FALSE,FALSE,Disabled,0.000000,0.000000,0.000000,TRUE,15.413269,0.137756,0.000000,0.012619,-0.016449,0.000000,0.090000,-0.039000,-0.002000,-2.470000,-0.270000,2.880000,-2.552443,Hold,0.941650,0.000000,Hold,-243.000000,2.000000,LowGoal,1417.500000,-1454.545455,Speed,1395.000000,-1454.545455,Speed,Off,Off0.000000,0,,,,
02:10:20.859 PM 03/20/2016,Teleop Enabled,10,FALSE,0,NO ERROR,-0.000000,8.437897,0.000000,10.022810,TRUE,FALSE,TRUE,FALSE,FALSE,FALSE,Disabled,0.000000,0.000000,0.000000,TRUE,15.412888,0.136658,0.000000,-0.000610,-0.013718,0.000000,0.000000,-0.073000,-0.040000,-2.580000,-0.190000,2.970000,-2.663373,Hold,0.941650,0.000000,HighGoal,-243.000000,69632.000000,HighGoal,1425.000000,-1454.545455,Speed,1380.000000,-1454.545455,Speed,Off,Off0.000000,0,,,,
02:10:20.960 PM 03/20/2016,Teleop Enabled,11,FALSE,0,NO ERROR,-0.000000,8.437897,0.000000,10.022810,TRUE,FALSE,TRUE,FALSE,FALSE,FALSE,Disabled,0.000000,0.000000,0.000000,TRUE,15.413116,0.135849,0.000000,0.010162,0.000000,0.000000,0.007000,0.011000,-0.088000,-2.540000,-0.260000,2.870000,-2.631767,Hold,0.941650,0.000000,Hold,-243.000000,69632.000000,HighGoal,1447.500000,-3272.727273,Speed,1380.000000,-3272.727273,Speed,Off,Off0.000000,0,,,,
02:10:21.060 PM 03/20/2016,Teleop Enabled,11,FALSE,0,NO ERROR,-0.000000,8.437897,0.000000,10.022810,TRUE,FALSE,TRUE,FALSE,FALSE,FALSE,Disabled,0.000000,0.000000,0.000000,TRUE,15.413254,0.135681,0.000000,0.005615,0.004456,0.000000,-0.011000,-0.004000,-0.033000,-2.550000,-0.210000,2.840000,-2.641454,Hold,0.941650,0.000000,HighGoal,-2329.000000,69632.000000,HighGoal,1447.500000,-3272.727273,Speed,1882.500000,-3272.727273,Speed,Off,Off0.000000,0,,,,
02:10:21.160 PM 03/20/2016,Teleop Enabled,10,FALSE,0,NO ERROR,-0.000000,8.437897,0.000000,10.022810,TRUE,FALSE,TRUE,FALSE,FALSE,FALSE,Disabled,0.000000,0.000000,0.000000,TRUE,15.412155,0.135147,0.000000,-0.044205,-0.019653,0.000000,0.007000,-0.048000,0.009000,-2.560000,-0.240000,2.820000,-2.667098,Hold,0.941406,0.000000,Hold,-15603.000000,69632.000000,HighGoal,2385.000000,-3272.727273,Speed,1882.500000,-3272.727273,Speed,Off,Off0.000000,0,,,,
02:10:21.261 PM 03/20/2016,Teleop Enabled,11,FALSE,0,NO ERROR,-0.000000,8.437897,0.000000,10.022810,TRUE,FALSE,TRUE,FALSE,FALSE,FALSE,Disabled,0.000000,0.000000,0.000000,TRUE,15.409393,0.133011,0.000000,-0.070602,-0.048752,0.000000,-0.090000,0.030000,0.085000,-2.560000,-0.150000,2.820000,-2.681615,Hold,0.941406,0.000000,HighGoal,-27334.000000,69632.000000,HighGoal,2385.000000,-3272.727273,Speed,2392.500000,-3272.727273,Speed,Off,Off0.000000,0,,,,
02:10:21.361 PM 03/20/2016,Teleop Enabled,11,FALSE,0,NO ERROR,-0.000000,8.450730,0.000000,10.022810,TRUE,FALSE,TRUE,FALSE,FALSE,FALSE,Disabled,0.000000,0.000000,0.000000,TRUE,15.404755,0.130951,0.000000,-0.101181,-0.038284,0.000000,0.091000,0.021000,0.043000,-2.430000,-0.110000,2.910000,-2.530642,Hold,0.941406,0.000000,HighGoal,-36334.000000,69632.000000,HighGoal,2790.000000,-3272.727273,Speed,2745.000000,-3272.727273,Speed,Off,Off0.000000,0,,,,
02:10:21.461 PM 03/20/2016,Teleop Enabled,10,FALSE,0,NO ERROR,-0.000000,8.450730,0.000000,10.022810,TRUE,FALSE,TRUE,FALSE,FALSE,FALSE,Disabled,0.000000,0.000000,0.000000,TRUE,15.400635,0.128235,0.000000,-0.084381,-0.067047,0.000000,-0.107000,-0.096000,0.001000,-2.480000,-0.330000,2.920000,-2.587296,Hold,0.941406,0.000000,Hold,-36334.000000,69632.000000,HighGoal,3120.000000,-3272.727273,Speed,3105.000000,-3272.727273,Speed,Off,Off0.000000,0,,,,
02:10:21.560 PM 03/20/2016,Teleop Enabled,11,FALSE,0,NO ERROR,-0.000000,8.450730,0.000000,10.022810,TRUE,FALSE,TRUE,FALSE,FALSE,FALSE,Disabled,0.000000,0.000000,0.000000,TRUE,15.395676,0.125412,0.000000,-0.064285,-0.021759,0.000000,0.031000,0.004000,-0.168000,-2.530000,-0.270000,2.930000,-2.638852,Hold,0.941406,0.000000,Hold,-47631.000000,69632.000000,HighGoal,3315.000000,-3272.727273,Speed,3337.500000,-3272.727273,Speed,Off,Off0.000000,0,,,,
02:10:21.662 PM 03/20/2016,Teleop Enabled,11,FALSE,0,NO ERROR,-0.000000,8.450730,0.000000,10.022810,TRUE,FALSE,TRUE,FALSE,FALSE,FALSE,Disabled,0.000000,0.000000,0.000000,TRUE,15.392227,0.124100,0.000000,-0.104813,-0.039093,0.000000,-0.169000,0.024000,0.090000,-2.410000,-0.320000,2.970000,-2.533186,Hold,0.941406,0.000000,Hold,-60594.000000,69632.000000,HighGoal,3285.000000,-3272.727273,Speed,3315.000000,-3272.727273,Speed,Off,Off0.000000,0,,,,
02:10:21.762 PM 03/20/2016,Teleop Enabled,10,FALSE,0,NO ERROR,-0.000000,8.367314,0.000000,9.900894,TRUE,FALSE,TRUE,FALSE,FALSE,FALSE,Disabled,0.000000,0.000000,0.000000,TRUE,15.387787,0.125214,0.000000,-0.012436,0.028442,0.000000,-0.011000,-0.071000,-0.534000,-2.380000,-1.050000,2.900000,-2.471650,Hold,0.941650,0.000000,Hold,-71181.000000,69632.000000,HighGoal,3232.500000,-3272.727273,Speed,3240.000000,-3272.727273,Speed,Off,Off0.000000,0,,,,
02:10:21.862 PM 03/20/2016,Teleop Enabled,11,FALSE,0,NO ERROR,-0.000000,8.155564,0.000000,9.714811,TRUE,FALSE,TRUE,FALSE,FALSE,FALSE,Disabled,0.000000,0.000000,0.000000,TRUE,15.384613,0.126038,0.000000,-0.100601,0.017487,0.000000,-0.174000,-0.078000,0.255000,-2.320000,-0.230000,2.950000,-2.463174,Hold,0.941650,0.000000,Hold,-69719.000000,69632.000000,HighGoal,3210.000000,-3272.727273,Speed,3240.000000,-3272.727273,Speed,Off,Off0.000000,0,,,,
02:10:21.962 PM 03/20/2016,Teleop Enabled,11,FALSE,0,NO ERROR,-0.000000,8.245397,0.000000,9.862394,TRUE,FALSE,TRUE,FALSE,FALSE,FALSE,Disabled,0.000000,0.000000,0.000000,TRUE,15.380371,0.128052,0.000000,-0.063217,0.051376,0.000000,0.148000,0.038000,0.211000,-2.300000,-0.160000,2.920000,-2.441765,Hold,0.941406,0.000000,Hold,-69646.000000,69632.000000,HighGoal,3225.000000,-3272.727273,Speed,3262.500000,-3272.727273,Speed,Off,Off0.000000,0,,,,
02:10:22.061 PM 03/20/2016,Teleop Enabled,9,FALSE,0,NO ERROR,-0.000000,8.296731,0.000000,9.875227,TRUE,FALSE,TRUE,FALSE,FALSE,FALSE,Disabled,0.000000,0.000000,0.000000,TRUE,15.380417,0.130310,0.000000,0.054443,0.023956,0.000000,-0.084000,-0.186000,-0.175000,-2.230000,-0.780000,2.930000,-2.346878,Hold,0.941406,0.000000,Hold,-69746.000000,69632.000000,HighGoal,3247.500000,-3272.727273,Speed,3270.000000,-3272.727273,Speed,Off,Off0.000000,0,,,,
02:10:22.162 PM 03/20/2016,Teleop Enabled,11,FALSE,0,NO ERROR,-0.000000,8.271064,0.000000,9.843144,TRUE,FALSE,TRUE,FALSE,FALSE,FALSE,Disabled,0.000000,0.000000,0.000000,TRUE,15.381775,0.130447,0.000000,-0.026993,0.017899,0.000000,-0.064000,0.163000,-0.164000,-2.370000,-0.270000,2.950000,-2.464149,Hold,0.941406,0.000000,Hold,-69746.000000,69632.000000,HighGoal,3240.000000,-3272.727273,Speed,3247.500000,-3272.727273,Speed,Off,Off0.000000,0,,,,
02:10:22.262 PM 03/20/2016,Teleop Enabled,11,FALSE,0,NO ERROR,-0.000000,8.296731,0.000000,9.849560,TRUE,FALSE,TRUE,FALSE,FALSE,FALSE,Disabled,0.000000,0.000000,0.000000,TRUE,15.381485,0.133347,0.000000,0.022842,0.067902,0.000000,-0.057000,-0.033000,-0.249000,-2.140000,-0.640000,2.970000,-2.269124,Hold,0.941162,0.000000,Hold,-69678.000000,69632.000000,HighGoal,3232.500000,-3272.727273,Speed,3240.000000,-3272.727273,Speed,Off,Off0.000000,0,,,,
02:10:22.363 PM 03/20/2016,Teleop Enabled,10,FALSE,0,NO ERROR,-0.196850,8.296731,0.196850,9.849560,TRUE,FALSE,TRUE,FALSE,FALSE,FALSE,Disabled,0.000000,0.000000,0.000000,TRUE,15.382095,0.135284,0.000000,0.006699,0.045898,0.000000,-0.066000,0.054000,-0.081000,-2.250000,-0.590000,2.940000,-2.341098,Hold,0.941162,0.000000,Hold,-69680.000000,69632.000000,HighGoal,3232.500000,-3272.727273,Speed,3262.500000,-3272.727273,Speed,Off,Off0.000000,0,,,,
02:10:22.462 PM 03/20/2016,Teleop Enabled,9,FALSE,0,NO ERROR,-0.000000,8.694563,0.000000,9.483811,FALSE,FALSE,TRUE,FALSE,FALSE,FALSE,Disabled,0.000000,0.000000,0.000000,TRUE,15.382721,0.138016,0.000000,0.001099,0.063248,0.000000,0.073000,-0.009000,0.217000,-1.680000,-0.370000,3.220000,-1.692634,Hold,0.941162,0.000000,Hold,-69704.000000,69632.000000,HighGoal,3240.000000,-3272.727273,Speed,3270.000000,-3272.727273,Speed,Off,Off0.000000,0,,,,
02:10:22.563 PM 03/20/2016,Teleop Enabled,11,FALSE,0,NO ERROR,-0.000000,8.842146,0.000000,9.342645,TRUE,FALSE,TRUE,FALSE,FALSE,FALSE,Disabled,0.000000,0.000000,0.000000,TRUE,15.381134,0.140045,0.000000,-0.052170,0.027039,0.000000,0.166000,0.030000,0.170000,-0.090000,-0.680000,2.930000,-0.210454,Hold,0.941162,0.000000,Hold,-69704.000000,69632.000000,HighGoal,3232.500000,-3272.727273,Speed,3232.500000,-3272.727273,Speed,Off,Off0.000000,0,,,,
02:10:22.663 PM 03/20/2016,Teleop Enabled,10,FALSE,0,NO ERROR,-0.000000,8.842146,0.000000,9.374728,TRUE,FALSE,TRUE,FALSE,FALSE,FALSE,Disabled,0.000000,0.000000,0.000000,TRUE,15.377670,0.140900,0.000000,-0.058258,0.026260,0.000000,-0.101000,-0.111000,-0.119000,-0.210000,-0.550000,2.850000,-0.338610,Hold,0.941162,0.000000,Hold,-69712.000000,69632.000000,HighGoal,3232.500000,-3272.727273,Speed,3232.500000,-3272.727273,Speed,Off,Off0.000000,0,,,,
02:10:22.762 PM 03/20/2016,Teleop Enabled,11,FALSE,0,NO ERROR,-0.393701,8.848563,0.393701,9.387561,TRUE,FALSE,TRUE,FALSE,FALSE,FALSE,Disabled,0.000000,0.000000,0.000000,TRUE,15.376343,0.144150,0.000000,-0.013016,0.088318,0.000000,0.238000,0.011000,-0.033000,-0.210000,-0.550000,2.970000,-0.321659,Hold,0.941162,0.000000,Hold,-69711.000000,69632.000000,HighGoal,3232.500000,-3272.727273,Speed,3247.500000,-3272.727273,Speed,Off,Off0.000000,0,,,,
02:10:22.863 PM 03/20/2016,Teleop Enabled,11,FALSE,0,NO ERROR,-0.000000,9.657061,0.000000,8.713813,FALSE,FALSE,TRUE,FALSE,FALSE,FALSE,Disabled,0.000000,0.000000,0.000000,TRUE,15.378189,0.148148,0.000000,0.096130,0.136169,0.000000,0.234000,0.110000,0.147000,0.180000,-0.080000,3.230000,0.283443,Hold,0.941162,0.000000,Hold,-69711.000000,69632.000000,HighGoal,3247.500000,-3272.727273,Speed,3247.500000,-3272.727273,Speed,Off,Off0.000000,0,,,,
02:10:22.962 PM 03/20/2016,Teleop Enabled,11,FALSE,0,NO ERROR,-0.000000,10.215309,0.000000,8.059314,FALSE,FALSE,TRUE,FALSE,FALSE,FALSE,Disabled,0.000000,0.000000,0.000000,TRUE,15.384583,0.157562,0.000000,0.101593,0.128815,0.000000,-0.034000,-0.378000,0.069000,5.710000,-0.430000,3.080000,5.001930,Hold,0.941162,0.000000,Hold,-69711.000000,69632.000000,HighGoal,3217.500000,-3272.727273,Speed,3217.500000,-3272.727273,Speed,Off,Off0.000000,0,,,,
02:10:23.062 PM 03/20/2016,Teleop Enabled,10,FALSE,0,NO ERROR,-0.000000,10.343642,0.000000,7.847565,TRUE,FALSE,TRUE,FALSE,FALSE,FALSE,Disabled,0.000000,0.000000,0.000000,TRUE,15.387085,0.158615,0.000000,0.004944,0.009216,0.000000,0.129000,0.097000,0.046000,6.470000,-0.590000,2.890000,6.203235,Hold,0.941406,0.000000,Hold,-69732.000000,69632.000000,HighGoal,3247.500000,-3272.727273,Speed,3225.000000,-3272.727273,Speed,Off,Off0.000000,0,,,,
02:10:23.162 PM 03/20/2016,Teleop Enabled,11,FALSE,0,NO ERROR,-0.000000,10.343642,0.000000,7.847565,TRUE,FALSE,TRUE,FALSE,FALSE,FALSE,Disabled,0.000000,0.000000,0.000000,TRUE,15.386032,0.158646,0.000000,-0.027588,0.000000,0.000000,0.195000,-0.116000,0.237000,6.270000,-0.700000,2.770000,6.028508,Hold,0.941406,0.000000,Hold,-69683.000000,69632.000000,HighGoal,3270.000000,-3272.727273,Speed,3247.500000,-3272.727273,Speed,Off,Off0.000000,0,,,,
02:10:23.264 PM 03/20/2016,Teleop Enabled,9,FALSE,0,NO ERROR,0.370079,10.157560,-0.370079,8.001565,TRUE,FALSE,TRUE,FALSE,FALSE,FALSE,Disabled,0.000000,0.000000,0.000000,TRUE,15.384628,0.157974,0.000000,-0.059937,-0.010284,0.000000,0.059000,0.143000,0.008000,6.120000,-0.930000,2.830000,5.803585,Hold,0.941650,0.000000,Hold,-69704.000000,69632.000000,HighGoal,3232.500000,-3272.727273,Speed,3255.000000,-3272.727273,Speed,Off,Off0.000000,0,,,,
02:10:23.364 PM 03/20/2016,Teleop Enabled,10,FALSE,0,NO ERROR,-0.000000,9.111645,0.000000,8.996146,TRUE,FALSE,TRUE,FALSE,FALSE,FALSE,Disabled,0.000000,0.000000,0.000000,TRUE,15.377029,0.156479,0.000000,-0.162659,-0.061462,0.000000,-0.094000,-0.289000,0.006000,2.810000,-0.980000,2.340000,2.232158,Hold,0.941650,0.000000,Hold,-69704.000000,69632.000000,HighGoal,3225.000000,-3272.727273,Speed,3225.000000,-3272.727273,Speed,Off,Off0.000000,0,,,,
02:10:23.464 PM 03/20/2016,Teleop Enabled,10,FALSE,0,NO ERROR,-0.000000,8.206897,0.000000,9.958643,TRUE,FALSE,TRUE,FALSE,FALSE,FALSE,Disabled,0.000000,0.000000,0.000000,TRUE,15.369858,0.151779,0.000000,-0.073883,-0.049286,0.000000,-0.106000,0.358000,0.003000,2.810000,-0.980000,2.340000,-3.699593,Hold,0.941650,0.000000,Hold,-69704.000000,69632.000000,HighGoal,3210.000000,-3272.727273,Speed,3202.500000,-3272.727273,Speed,Off,Off0.000000,0,,,,
02:10:23.564 PM 03/20/2016,Teleop Enabled,9,FALSE,0,NO ERROR,-0.000000,7.873232,0.000000,10.215309,TRUE,FALSE,TRUE,FALSE,FALSE,FALSE,Disabled,0.000000,0.000000,0.000000,TRUE,15.368713,0.153488,0.000000,0.019424,0.089371,0.000000,-0.263000,-0.096000,-0.230000,-5.170000,-0.530000,2.930000,-5.102842,Hold,0.941406,0.000000,Hold,-69702.000000,69632.000000,HighGoal,3217.500000,-3272.727273,Speed,3232.500000,-3272.727273,Speed,Off,Off0.000000,0,,,,
02:10:23.665 PM 03/20/2016,Teleop Enabled,9,FALSE,0,NO ERROR,-0.000000,7.873232,0.000000,10.189643,TRUE,FALSE,TRUE,FALSE,FALSE,FALSE,Disabled,0.000000,0.000000,0.000000,TRUE,15.367523,0.157913,0.000000,-0.061981,0.085510,0.000000,0.278000,0.044000,0.032000,-4.870000,-0.440000,2.880000,-4.779634,Hold,0.941162,0.000000,Hold,-69706.000000,69632.000000,HighGoal,3240.000000,-3272.727273,Speed,3255.000000,-3272.727273,Speed,Off,Off0.000000,0,,,,
02:10:23.767 PM 03/20/2016,Teleop Enabled,11,FALSE,0,NO ERROR,-0.000000,7.898898,0.000000,10.189643,TRUE,FALSE,TRUE,FALSE,FALSE,FALSE,Disabled,0.000000,0.000000,0.000000,TRUE,15.365097,0.162888,0.000000,-0.059631,0.087799,0.000000,0.278000,0.044000,0.032000,-4.870000,-0.440000,2.880000,-4.639047,Hold,0.941162,0.000000,Hold,-69706.000000,69632.000000,HighGoal,3247.500000,-3272.727273,Speed,3247.500000,-3272.727273,Speed,Off,Off0.000000,0,,,,
02:10:23.867 PM 03/20/2016,Teleop Enabled,9,FALSE,0,NO ERROR,-0.000000,7.898898,0.000000,10.189643,TRUE,FALSE,TRUE,FALSE,FALSE,FALSE,Disabled,0.000000,0.000000,0.000000,TRUE,15.362198,0.166672,0.000000,-0.067459,0.080917,0.000000,0.187000,0.175000,0.142000,-4.730000,-0.450000,2.880000,-4.617555,Hold,0.941406,0.000000,Hold,-69706.000000,69632.000000,HighGoal,3240.000000,-3272.727273,Speed,3240.000000,-3272.727273,Speed,Off,Off0.000000,0,,,,
02:10:23.967 PM 03/20/2016,Teleop Enabled,9,FALSE,0,NO ERROR,-0.000000,7.898898,0.000000,10.189643,TRUE,FALSE,TRUE,FALSE,FALSE,FALSE,Disabled,0.000000,0.000000,0.000000,TRUE,15.358139,0.171951,0.000000,-0.082474,0.116455,0.000000,-0.188000,-0.123000,-0.098000,-4.740000,-0.460000,2.910000,-4.646675,Hold,0.941406,0.000000,Hold,-69706.000000,69632.000000,HighGoal,3232.500000,-3272.727273,Speed,3240.000000,-3272.727273,Speed,Off,Off0.000000,0,,,,
02:10:24.066 PM 03/20/2016,Teleop Enabled,10,FALSE,0,NO ERROR,-0.000000,7.898898,0.000000,10.189643,TRUE,FALSE,TRUE,FALSE,FALSE,FALSE,Disabled,0.000000,0.000000,0.000000,TRUE,15.353546,0.177612,0.000000,-0.094589,0.113800,0.000000,-0.188000,-0.123000,-0.098000,-4.740000,-0.460000,2.910000,-4.671799,Hold,0.941162,0.000000,Hold,-69706.000000,69632.000000,HighGoal,3240.000000,-3272.727273,Speed,3240.000000,-3272.727273,Speed,Off,Off0.000000,0,,,,
02:10:24.169 PM 03/20/2016,Teleop Enabled,10,FALSE,0,NO ERROR,-0.000000,7.898898,0.000000,10.189643,TRUE,FALSE,TRUE,FALSE,FALSE,FALSE,Disabled,0.000000,0.000000,0.000000,TRUE,15.348648,0.183243,0.000000,-0.084778,0.084045,0.000000,0.046000,0.230000,-0.019000,-4.730000,-0.460000,2.880000,-4.624660,Hold,0.941162,0.000000,Hold,-69706.000000,69632.000000,HighGoal,3240.000000,-3272.727273,Speed,3247.500000,-3272.727273,Speed,Off,Off0.000000,0,,,,
02:10:24.268 PM 03/20/2016,Teleop Enabled,10,FALSE,0,NO ERROR,-0.000000,7.898898,0.000000,10.189643,TRUE,FALSE,TRUE,FALSE,FALSE,FALSE,Disabled,0.000000,0.000000,0.000000,TRUE,15.344177,0.186844,0.000000,-0.104126,0.074814,0.000000,-0.083000,-0.131000,0.201000,-4.730000,-0.500000,2.870000,-4.634172,Hold,0.941162,0.000000,Hold,-69706.000000,69632.000000,HighGoal,3240.000000,-3272.727273,Speed,3247.500000,-3272.727273,Speed,Off,Off0.000000,0,,,,
02:10:24.369 PM 03/20/2016,Teleop Enabled,9,FALSE,0,NO ERROR,-0.000000,7.898898,0.000000,10.189643,TRUE,FALSE,TRUE,FALSE,FALSE,FALSE,Disabled,0.000000,0.000000,0.000000,TRUE,15.343155,0.189850,0.000000,0.002777,0.042572,0.000000,0.072000,-0.002000,0.183000,-4.740000,-0.500000,2.890000,-4.638558,Hold,0.941162,0.000000,Hold,-69706.000000,69632.000000,HighGoal,3255.000000,-3272.727273,Speed,3240.000000,-3272.727273,Speed,Off,Off0.000000,0,,,,
02:10:24.470 PM 03/20/2016,Teleop Enabled,9,FALSE,0,NO ERROR,-0.000000,7.898898,0.000000,10.189643,TRUE,FALSE,TRUE,FALSE,FALSE,FALSE,Disabled,0.000000,0.000000,0.000000,TRUE,15.343063,0.192566,0.000000,-0.014221,0.036270,0.000000,0.072000,-0.002000,0.183000,-4.740000,-0.500000,2.890000,-4.641357,Hold,0.941162,0.000000,Hold,-69705.000000,69632.000000,HighGoal,3270.000000,-3272.727273,Speed,3247.500000,-3272.727273,Speed,Off,Off0.000000,0,,,,
02:10:24.570 PM 03/20/2016,Teleop Enabled,9,FALSE,0,NO ERROR,-0.000000,7.898898,0.000000,10.189643,TRUE,FALSE,TRUE,FALSE,FALSE,FALSE,Disabled,0.000000,0.000000,0.000000,TRUE,15.343063,0.192566,0.000000,-0.014221,0.036270,0.000000,0.173000,-0.105000,0.108000,-4.750000,-0.480000,2.860000,-4.635701,Hold,0.941162,0.000000,Hold,-69705.000000,69632.000000,HighGoal,3262.500000,-3272.727273,Speed,3247.500000,-3272.727273,Speed,Off,Off0.000000,0,,,,
02:10:24.670 PM 03/20/2016,Teleop Enabled,10,FALSE,0,NO ERROR,-0.000000,7.898898,0.000000,10.189643,TRUE,FALSE,TRUE,FALSE,FALSE,FALSE,Disabled,0.000000,0.000000,0.000000,TRUE,15.342407,0.194427,0.000000,-0.021927,0.050980,0.000000,-0.162000,-0.112000,-0.221000,-4.740000,-0.540000,2.920000,-4.643574,Hold,0.941162,0.000000,Hold,-69705.000000,69632.000000,HighGoal,3232.500000,-3272.727273,Speed,3247.500000,-3272.727273,Speed,Off,Off0.000000,0,,,,
02:10:24.771 PM 03/20/2016,Teleop Enabled,9,FALSE,0,NO ERROR,-0.000000,7.898898,0.000000,10.189643,TRUE,FALSE,TRUE,FALSE,FALSE,FALSE,Disabled,0.000000,0.000000,0.000000,TRUE,15.341385,0.197495,0.000000,-0.015503,0.065308,0.000000,-0.293000,-0.103000,-0.179000,-4.740000,-0.530000,2.820000,-4.664384,Hold,0.941162,0.000000,Hold,-69705.000000,69632.000000,HighGoal,3225.000000,-3272.727273,Speed,3255.000000,-3272.727273,Speed,Off,Off0.000000,0,,,,
02:10:24.872 PM 03/20/2016,Teleop Enabled,9,FALSE,0,NO ERROR,-0.000000,7.898898,0.000000,10.189643,TRUE,FALSE,TRUE,FALSE,FALSE,FALSE,Disabled,0.000000,0.000000,0.000000,TRUE,15.340240,0.200851,0.000000,-0.024597,0.088287,0.000000,-0.248000,-0.149000,-0.123000,-4.750000,-0.480000,2.840000,-4.665358,Hold,0.941162,0.000000,Hold,-69705.000000,69632.000000,HighGoal,3240.000000,-3272.727273,Speed,3240.000000,-3272.727273,Speed,Off,Off0.000000,0,,,,
02:10:24.972 PM 03/20/2016,Teleop Enabled,9,FALSE,0,NO ERROR,-0.000000,7.898898,0.000000,10.189643,TRUE,FALSE,TRUE,FALSE,FALSE,FALSE,Disabled,0.000000,0.000000,0.000000,TRUE,15.338425,0.206314,0.000000,-0.020309,0.090912,0.000000,-0.120000,-0.129000,-0.063000,-4.750000,-0.560000,2.830000,-4.678801,Hold,0.941162,0.000000,Hold,-69705.000000,69632.000000,HighGoal,3247.500000,-3272.727273,Speed,3240.000000,-3272.727273,Speed,Off,Off0.000000,0,,,,
02:10:25.072 PM 03/20/2016,Teleop Enabled,10,FALSE,0,NO ERROR,-0.000000,7.898898,0.000000,10.189643,TRUE,FALSE,TRUE,FALSE,FALSE,FALSE,Disabled,0.000000,0.000000,0.000000,TRUE,15.338837,0.211731,0.000000,0.030243,0.113434,0.000000,0.066000,0.182000,0.011000,-4.750000,-0.480000,2.830000,-4.699040,Hold,0.941162,51.000000,Hold,-69705.000000,143360.000000,HighGoal,3240.000000,-3272.727273,Speed,3247.500000,-3272.727273,Speed,Off,Off0.000000,0,,,,
02:10:25.172 PM 03/20/2016,Teleop Enabled,10,FALSE,0,NO ERROR,-0.000000,7.924565,0.000000,10.189643,TRUE,FALSE,TRUE,FALSE,FALSE,FALSE,Disabled,0.000000,0.000000,0.000000,TRUE,15.341217,0.217636,0.000000,0.053284,0.120163,0.000000,-0.029000,-0.168000,0.128000,-4.750000,-0.520000,2.810000,-4.670501,Hold,4.799072,51.000000,Hold,-72921.000000,143360.000000,HighGoal,3232.500000,-3272.727273,Speed,3247.500000,-3272.727273,Speed,Off,Off0.000000,0,,,,
02:10:25.271 PM 03/20/2016,Teleop Enabled,3,FALSE,0,NO ERROR,-0.000000,8.007981,0.000000,10.221726,TRUE,FALSE,TRUE,FALSE,FALSE,FALSE,Disabled,0.000000,0.000000,0.000000,TRUE,15.343109,0.223282,0.000000,0.030762,0.115921,0.000000,0.116000,0.096000,0.386000,-4.700000,-0.240000,2.860000,-4.300271,Hold,8.736328,51.000000,Hold,-85913.000000,143360.000000,HighGoal,3232.500000,-3272.727273,Speed,3247.500000,-3272.727273,Speed,Off,Off0.000000,0,,,,
02:10:25.372 PM 03/20/2016,Teleop Enabled,10,FALSE,0,NO ERROR,-0.000000,8.001565,0.000000,10.208893,TRUE,FALSE,TRUE,FALSE,FALSE,FALSE,Disabled,0.000000,0.000000,0.000000,TRUE,15.346130,0.230148,0.000000,0.076111,0.162598,0.000000,0.171000,0.120000,0.180000,-4.310000,-0.540000,2.950000,-4.262727,Hold,12.726318,51.000000,Hold,-103037.000000,143360.000000,HighGoal,3240.000000,-3272.727273,Speed,3240.000000,-3272.727273,Speed,Off,Off0.000000,0,,,,
02:10:25.472 PM 03/20/2016,Teleop Enabled,9,FALSE,0,NO ERROR,-0.000000,8.001565,0.000000,10.208893,TRUE,FALSE,TRUE,FALSE,FALSE,FALSE,Disabled,0.000000,0.000000,0.000000,TRUE,15.349716,0.238571,0.000000,0.065994,0.161545,0.000000,-0.195000,-0.080000,-0.259000,-4.290000,-0.610000,2.780000,-4.361700,Hold,18.551025,51.000000,Hold,-103037.000000,143360.000000,HighGoal,3232.500000,-3272.727273,Speed,3247.500000,-3272.727273,Speed,Off,Off0.000000,0,,,,
02:10:25.573 PM 03/20/2016,Teleop Enabled,9,FALSE,0,NO ERROR,-0.000000,8.001565,0.000000,10.208893,TRUE,FALSE,TRUE,FALSE,FALSE,FALSE,Disabled,0.000000,0.000000,0.000000,TRUE,15.353531,0.247681,0.000000,0.083252,0.194473,0.000000,-0.095000,-0.113000,-0.120000,-4.370000,-0.650000,2.910000,-4.359900,Hold,25.359619,51.000000,Hold,-121864.000000,143360.000000,HighGoal,3240.000000,-3272.727273,Speed,3247.500000,-3272.727273,Speed,Off,Off0.000000,0,,,,
02:10:25.673 PM 03/20/2016,Teleop Enabled,10,FALSE,0,NO ERROR,-0.000000,7.995148,0.000000,10.183226,TRUE,FALSE,TRUE,FALSE,FALSE,FALSE,Disabled,0.000000,0.000000,0.000000,TRUE,15.357605,0.257111,0.000000,0.082077,0.181030,0.000000,0.155000,0.154000,0.152000,-4.390000,-0.750000,2.810000,-4.365363,Hold,33.176270,51.000000,Hold,-141823.000000,143360.000000,HighGoal,3240.000000,-3272.727273,Speed,3247.500000,-3272.727273,Speed,Off,Off0.000000,0,,,,
02:10:25.776 PM 03/20/2016,Teleop Enabled,11,FALSE,0,NO ERROR,-0.000000,7.975898,0.000000,10.163976,TRUE,FALSE,TRUE,FALSE,FALSE,FALSE,Disabled,0.000000,0.000000,0.000000,TRUE,15.363647,0.265869,0.000000,0.146881,0.146545,0.000000,0.275000,-0.079000,-0.141000,-4.400000,-0.730000,2.880000,-4.439361,Hold,40.654297,51.000000,Hold,-143081.000000,143360.000000,HighGoal,3232.500000,-3272.727273,Speed,3225.000000,-3272.727273,Speed,Off,Off0.000000,0,,,,
02:10:25.876 PM 03/20/2016,Teleop Enabled,2,FALSE,0,NO ERROR,-0.000000,7.956648,0.000000,10.144726,TRUE,FALSE,TRUE,FALSE,FALSE,FALSE,Disabled,0.000000,0.000000,0.000000,TRUE,15.373886,0.270294,0.000000,0.152695,0.053253,0.000000,0.032000,0.052000,0.054000,-4.480000,-0.910000,2.840000,-4.448384,Hold,50.726807,51.000000,Hold,-143463.000000,143360.000000,HighGoal,3225.000000,-3272.727273,Speed,3247.500000,-3272.727273,Speed,Off,Off0.000000,0,,,,
02:10:25.977 PM 03/20/2016,Teleop Enabled,10,FALSE,0,NO ERROR,-0.000000,7.905315,0.000000,10.086976,TRUE,FALSE,TRUE,FALSE,FALSE,FALSE,Disabled,0.000000,0.000000,0.000000,TRUE,15.379471,0.271820,0.000000,0.133072,0.032669,0.000000,0.051000,-0.082000,0.033000,-4.500000,-1.410000,2.790000,-4.480641,Hold,56.390869,51.000000,Hold,-143492.000000,143360.000000,HighGoal,3240.000000,-3272.727273,Speed,3262.500000,-3272.727273,Speed,Off,Off0.000000,0,,,,
02:10:26.077 PM 03/20/2016,Teleop Enabled,11,FALSE,0,NO ERROR,-0.000000,7.905315,0.000000,10.086976,TRUE,FALSE,TRUE,FALSE,FALSE,FALSE,Disabled,0.000000,0.000000,0.000000,TRUE,15.385849,0.272964,0.000000,0.112045,0.031876,0.000000,-0.010000,-0.008000,0.145000,-4.500000,-1.440000,2.890000,-4.480641,Hold,56.741211,51.000000,Hold,-143491.000000,143360.000000,HighGoal,3240.000000,-3272.727273,Speed,3255.000000,-3272.727273,Speed,Off,Off0.000000,0,,,,
02:10:26.178 PM 03/20/2016,Teleop Enabled,11,FALSE,0,NO ERROR,-0.000000,7.905315,0.000000,10.086976,TRUE,FALSE,TRUE,FALSE,FALSE,FALSE,Disabled,0.000000,0.000000,0.000000,TRUE,15.391098,0.273010,0.000000,0.121475,-0.023499,0.000000,-0.116000,0.019000,0.066000,-4.510000,-1.040000,2.830000,-4.480841,Hold,56.125488,51.000000,Hold,-143491.000000,143360.000000,HighGoal,3240.000000,-3272.727273,Speed,3232.500000,-3272.727273,Speed,Off,Off0.000000,0,,,,
02:10:26.278 PM 03/20/2016,Teleop Enabled,14,FALSE,0,NO ERROR,-0.000000,7.918148,0.000000,10.086976,TRUE,FALSE,TRUE,FALSE,FALSE,FALSE,Disabled,0.000000,0.000000,0.000000,TRUE,15.397781,0.273636,0.000000,0.150909,0.037994,0.000000,0.225000,0.090000,-0.011000,-4.280000,-1.000000,2.900000,-4.249153,Hold,56.012451,51.000000,Hold,-143488.000000,143360.000000,HighGoal,3232.500000,-3272.727273,Speed,3247.500000,-3272.727273,Speed,Off,Off0.000000,0,,,,
02:10:26.378 PM 03/20/2016,Teleop Enabled,11,FALSE,0,NO ERROR,-0.000000,7.924565,0.000000,10.086976,TRUE,FALSE,TRUE,FALSE,FALSE,FALSE,Disabled,0.000000,0.000000,0.000000,TRUE,15.406906,0.275330,0.000000,0.190002,0.020706,0.000000,-0.079000,-0.149000,-0.099000,-4.310000,-1.160000,2.720000,-4.261481,Hold,56.012451,51.000000,Hold,-143488.000000,143360.000000,HighGoal,3240.000000,-3272.727273,Speed,3240.000000,-3272.727273,Speed,Off,Off0.000000,0,,,,
02:10:26.479 PM 03/20/2016,Teleop Enabled,11,FALSE,0,NO ERROR,-0.000000,7.911731,0.000000,10.086976,TRUE,FALSE,TRUE,FALSE,FALSE,FALSE,Disabled,0.000000,0.000000,0.000000,TRUE,15.416351,0.276733,0.000000,0.182114,0.050323,0.000000,0.066000,0.165000,0.035000,-4.480000,-1.050000,2.830000,-4.445272,Hold,56.009521,51.000000,Hold,-143488.000000,143360.000000,HighGoal,3240.000000,-3272.727273,Speed,3247.500000,-3272.727273,Speed,Off,Off0.000000,0,,,,
02:10:26.578 PM 03/20/2016,Teleop Enabled,11,FALSE,0,NO ERROR,-0.000000,7.911731,0.000000,10.086976,TRUE,FALSE,TRUE,FALSE,FALSE,FALSE,Disabled,0.000000,0.000000,0.000000,TRUE,15.426590,0.280914,0.000000,0.156799,0.066498,0.000000,-0.169000,-0.156000,0.004000,-4.420000,-1.130000,2.840000,-4.374410,Hold,55.996338,51.000000,Hold,-143488.000000,143360.000000,HighGoal,3232.500000,-3272.727273,Speed,3270.000000,-3272.727273,Speed,Off,Off0.000000,0,,,,
02:10:26.679 PM 03/20/2016,Teleop Enabled,11,FALSE,0,NO ERROR,-0.000000,7.911731,0.000000,10.086976,TRUE,FALSE,TRUE,FALSE,FALSE,FALSE,Disabled,0.000000,0.000000,0.000000,TRUE,15.433365,0.283112,0.000000,0.137711,0.039734,0.000000,0.108000,0.050000,0.081000,-4.410000,-1.110000,2.840000,-4.365780,Hold,55.995605,51.000000,Hold,-143488.000000,143360.000000,HighGoal,3240.000000,-3272.727273,Speed,3255.000000,-3272.727273,Speed,Off,Off0.000000,0,,,,
02:10:26.779 PM 03/20/2016,Teleop Enabled,11,FALSE,0,NO ERROR,-0.000000,7.911731,0.000000,10.086976,TRUE,FALSE,TRUE,FALSE,FALSE,FALSE,Disabled,0.000000,0.000000,0.000000,TRUE,15.438385,0.285583,0.000000,0.129532,0.075867,0.000000,-0.087000,-0.120000,-0.021000,-4.390000,-1.100000,2.880000,-4.358736,Hold,55.995605,51.000000,Hold,-143488.000000,143360.000000,HighGoal,3240.000000,-3272.727273,Speed,3232.500000,-3272.727273,Speed,Off,Off0.000000,0,,,,
02:10:26.881 PM 03/20/2016,Teleop Enabled,11,FALSE,0,NO ERROR,-0.000000,7.911731,0.000000,10.086976,TRUE,FALSE,TRUE,FALSE,FALSE,FALSE,Disabled,0.000000,0.000000,0.000000,TRUE,15.445801,0.289658,0.000000,0.116028,0.073868,0.000000,0.026000,0.014000,0.110000,-4.410000,-1.160000,2.860000,-4.380803,Hold,55.994141,51.000000,Hold,-143487.000000,143360.000000,HighGoal,3240.000000,-3272.727273,Speed,3240.000000,-3272.727273,Speed,Off,Off0.000000,0,,,,
02:10:26.981 PM 03/20/2016,Teleop Enabled,11,FALSE,0,NO ERROR,-0.000000,7.911731,0.000000,10.086976,TRUE,FALSE,TRUE,FALSE,FALSE,FALSE,Disabled,0.000000,0.000000,0.000000,TRUE,15.451523,0.290237,0.000000,0.100021,0.022919,0.000000,0.082000,0.095000,0.124000,-4.420000,-1.060000,2.850000,-4.401989,Hold,55.992432,51.000000,Hold,-143487.000000,143360.000000,HighGoal,3240.000000,-3272.727273,Speed,3247.500000,-3272.727273,Speed,Off,Off0.000000,0,,,,
02:10:27.081 PM 03/20/2016,Teleop Enabled,11,FALSE,0,NO ERROR,-0.000000,7.911731,0.000000,10.086976,TRUE,FALSE,TRUE,FALSE,FALSE,FALSE,Disabled,0.000000,0.000000,0.000000,TRUE,15.454926,0.291565,0.000000,0.000000,0.028564,0.000000,-0.001000,-0.083000,0.097000,-4.410000,-1.150000,2.920000,-4.395004,Hold,55.992432,51.000000,Hold,-143487.000000,143360.000000,HighGoal,3240.000000,-3272.727273,Speed,3247.500000,-3272.727273,Speed,Off,Off0.000000,0,,,,
02:10:27.181 PM 03/20/2016,Teleop Enabled,10,FALSE,0,NO ERROR,-0.000000,7.911731,0.000000,10.086976,TRUE,FALSE,TRUE,FALSE,FALSE,FALSE,Disabled,0.000000,0.000000,0.000000,TRUE,15.453751,0.292007,0.000000,-0.022552,0.008057,0.000000,0.007000,0.049000,-0.002000,-4.410000,-1.140000,2.880000,-4.409314,Hold,55.991455,51.000000,Hold,-143487.000000,143360.000000,HighGoal,3240.000000,-3272.727273,Speed,3240.000000,-3272.727273,Speed,Off,Off0.000000,0,,,,
02:10:27.281 PM 03/20/2016,Teleop Enabled,10,FALSE,0,NO ERROR,-0.000000,7.911731,0.000000,10.086976,TRUE,FALSE,TRUE,FALSE,FALSE,FALSE,Disabled,0.000000,0.000000,0.000000,TRUE,15.454269,0.292389,0.000000,0.022018,0.016022,0.000000,0.044000,-0.071000,0.029000,-4.410000,-1.130000,2.890000,-4.424558,Hold,55.991211,51.000000,HighGoal,-143487.000000,69632.000000,HighGoal,3240.000000,-3272.727273,Speed,3240.000000,-3272.727273,Speed,Off,Off0.000000,0,,,,
02:10:27.382 PM 03/20/2016,Teleop Enabled,10,FALSE,0,NO ERROR,-0.000000,7.911731,0.000000,10.086976,TRUE,FALSE,TRUE,FALSE,FALSE,FALSE,Disabled,0.000000,0.000000,0.000000,TRUE,15.456528,0.292038,0.000000,0.047104,-0.016541,0.000000,-0.086000,0.119000,0.175000,-4.410000,-1.160000,2.900000,-4.413628,Hold,55.990723,51.000000,Hold,-143487.000000,69632.000000,HighGoal,3232.500000,-3272.727273,Speed,3240.000000,-3272.727273,Speed,Off,Off0.000000,0,,,,
02:10:27.484 PM 03/20/2016,Teleop Enabled,12,FALSE,0,NO ERROR,-0.000000,7.911731,0.000000,10.086976,TRUE,FALSE,TRUE,FALSE,FALSE,FALSE,Disabled,0.000000,0.000000,0.000000,TRUE,15.460068,0.292450,0.000000,0.083099,0.022095,0.000000,-0.106000,0.050000,-0.028000,-4.390000,-1.240000,2.900000,-4.409352,Hold,55.989014,51.000000,HighGoal,-139053.000000,69632.000000,HighGoal,3232.500000,-3272.727273,Speed,3240.000000,-3272.727273,Speed,Off,Off0.000000,0,,,,
02:10:27.584 PM 03/20/2016,Teleop Enabled,9,FALSE,0,NO ERROR,-0.000000,7.911731,0.000000,10.086976,TRUE,FALSE,TRUE,FALSE,FALSE,FALSE,Disabled,0.000000,0.000000,0.000000,TRUE,15.463593,0.293457,0.000000,0.055023,0.016647,0.000000,-0.008000,0.092000,0.082000,-4.480000,-1.090000,2.910000,-4.469442,Hold,55.989014,51.000000,Hold,-139053.000000,69632.000000,HighGoal,3232.500000,-3272.727273,Speed,3240.000000,-3272.727273,Speed,Off,Off0.000000,0,,,,
02:10:27.685 PM 03/20/2016,Teleop Enabled,10,FALSE,0,NO ERROR,-0.000000,7.911731,0.000000,10.086976,TRUE,FALSE,TRUE,FALSE,FALSE,FALSE,Disabled,0.000000,0.000000,0.000000,TRUE,15.465561,0.294693,0.000000,0.032303,0.019043,0.000000,-0.138000,-0.068000,-0.134000,-4.390000,-1.070000,2.940000,-4.383753,Hold,55.983154,51.000000,Hold,-130977.000000,69632.000000,HighGoal,3232.500000,-3272.727273,Speed,3240.000000,-3272.727273,Speed,Off,Off0.000000,0,,,,
02:10:27.785 PM 03/20/2016,Teleop Enabled,10,FALSE,0,NO ERROR,-0.000000,7.911731,0.000000,10.086976,TRUE,FALSE,TRUE,FALSE,FALSE,FALSE,Disabled,0.000000,0.000000,0.000000,TRUE,15.467178,0.296814,0.000000,0.051895,0.039322,0.000000,-0.086000,-0.040000,0.026000,-4.390000,-1.110000,2.910000,-4.379877,Hold,55.983154,51.000000,Hold,-122551.000000,69632.000000,HighGoal,3232.500000,-3272.727273,Speed,3240.000000,-3272.727273,Speed,Off,Off0.000000,0,,,,
