Time,Robot Mode,Loop Time,Error Status,Error Code,Error Source,Left Motor Output,Left Motor Encoder,Right Motor Output,Right Motor Encoder,Is Level,Is Stalled,Ball Detector Photoeye,Vision Enabled,Vision Teleop Control,Vision Auto Control,Vision Current State,Vision X Output,Vision NavX Error,Vision NavX Target,NavX Connection Status,NavX Displacement X,NavX Displacement Y,NavX Displacement Z,NavX Velocity X,NavX Velocity Y,NavX Velocity Z,NavX Acceleration X,NavX Acceleration Y,NavX Acceleration Z,NavX Pitch,NavX Yaw,NavX Roll,Gyro Angle,Roller Arm State,Roller Arm Actual,Roller Arm Desired,Shooter Arm State,Shooter Arm Actual,Shooter Arm Desired,Shooter State,Actual RPM Left,Desired RPM Left,Control Mode Left,Actual RPM Right,Desired RPM Right,Scaler Motor Output,Auto To Run,Auto Current File,Auto File Status,Auto Current Command,Auto Trimmed Command
10:25:45.447 AM 03/20/2016,Autonomous Enabled,10,FALSE,0,NO ERROR,-0.000000,0.000000,0.000000,0.000000,TRUE,FALSE,TRUE,FALSE,FALSE,FALSE,Disabled,-0.309375,17.168750,-15.798750,TRUE,-1.993393,-0.115936,0.000000,0.000000,0.000854,0.000000,0.001000,0.002000,0.020000,-0.090000,0.090000,2.770000,0.446896,ResetBack,1.352539,-0.000049,ResetBack,-9213.000000,-0.300000,LowGoal,0.000000,-1454.545455,Speed,0.000000,-1454.545455,Speed,Off,Off0.000000,3,Read: /home/lvuser/scripts/auto_03.bee,File good!,WAIT 500,WAIT
10:25:45.547 AM 03/20/2016,Autonomous Enabled,11,FALSE,0,NO ERROR,-0.000000,0.000000,0.000000,0.000000,TRUE,FALSE,TRUE,FALSE,FALSE,FALSE,Disabled,-0.309375,17.168750,-15.798750,TRUE,-1.993515,-0.115936,0.000000,-0.001740,-0.004318,0.000000,-0.036000,-0.001000,0.064000,-0.090000,0.090000,2.760000,0.432482,ResetBack,0.141357,-0.000049,ResetBack,-5594.000000,-0.300000,LowGoal,360.000000,-1454.545455,Speed,360.000000,-1454.545455,Speed,Off,Off0.000000,3,Read: /home/lvuser/scripts/auto_03.bee,File good!,WAIT 500,WAIT
10:25:45.647 AM 03/20/2016,Autonomous Enabled,10,FALSE,0,NO ERROR,-0.000000,0.000000,0.000000,0.000000,TRUE,FALSE,TRUE,FALSE,FALSE,FALSE,Disabled,-0.309375,17.168750,-15.798750,TRUE,-1.993622,-0.116302,0.000000,-0.006760,-0.019760,0.000000,0.006000,0.005000,-0.015000,-0.090000,0.040000,2.710000,0.444538,ResetBack,0.091553,-0.000049,ResetBack,-5594.000000,-0.300000,LowGoal,1170.000000,-1454.545455,Speed,1065.000000,-1454.545455,Speed,Off,Off0.000000,3,Read: /home/lvuser/scripts/auto_03.bee,File good!,WAIT 500,WAIT
10:25:45.747 AM 03/20/2016,Autonomous Enabled,11,FALSE,0,NO ERROR,-0.000000,0.000000,0.000000,0.000000,TRUE,FALSE,TRUE,FALSE,FALSE,FALSE,Disabled,-0.309375,17.168750,-15.798750,TRUE,-1.993744,-0.117432,0.000000,0.009033,-0.029327,0.000000,0.005000,0.102000,0.032000,-0.090000,0.060000,2.670000,0.448390,Reset,0.000000,0.000000,ResetBack,-3354.000000,-0.300000,LowGoal,1582.500000,-1454.545455,Speed,1462.500000,-1454.545455,Speed,Off,Off0.000000,3,Read: /home/lvuser/scripts/auto_03.bee,File good!,WAIT 500,WAIT
10:25:45.847 AM 03/20/2016,Autonomous Enabled,11,FALSE,0,NO ERROR,-0.000000,0.000000,0.000000,0.000000,TRUE,FALSE,TRUE,FALSE,FALSE,FALSE,Disabled,-0.309375,17.168750,-15.798750,TRUE,-1.992950,-0.118347,0.000000,0.017838,-0.011749,0.000000,0.012000,-0.035000,-0.006000,-0.080000,0.040000,2.650000,0.455461,Hold,0.987549,0.000000,ResetBack,-1356.000000,-0.300000,LowGoal,1455.000000,-1454.545455,Speed,1470.000000,-1454.545455,Speed,Off,Off0.000000,3,Read: /home/lvuser/scripts/auto_03.bee,File good!,WAIT 500,WAIT
10:25:45.947 AM 03/20/2016,Autonomous Enabled,11,FALSE,0,NO ERROR,-0.000000,0.000000,0.000000,0.000000,TRUE,FALSE,TRUE,FALSE,FALSE,FALSE,Disabled,-0.309375,17.168750,-15.798750,TRUE,-1.992996,-0.119308,0.000000,0.000000,0.001236,0.000000,0.015000,0.045000,0.033000,-0.080000,0.030000,2.640000,0.461003,Hold,0.936523,0.000000,ResetBack,-380.000000,-0.300000,LowGoal,1312.500000,-1454.545455,Speed,1267.500000,-1454.545455,Speed,Off,Off0.000000,3,Read: /home/lvuser/scripts/auto_03.bee,File good!,WAIT 500,WAIT
10:25:46.048 AM 03/20/2016,Autonomous Enabled,10,FALSE,0,NO ERROR,-0.000000,0.000000,0.000000,0.000000,TRUE,FALSE,TRUE,FALSE,FALSE,FALSE,Disabled,-0.309375,17.168750,-15.798750,TRUE,-1.992630,-0.118576,0.000000,0.000000,-0.004227,0.000000,0.021000,-0.017000,0.104000,-0.090000,0.060000,2.680000,0.466949,Hold,0.934082,51.000000,ResetBack,-380.000000,-0.300000,LowGoal,1350.000000,-3272.727273,Speed,1282.500000,-3272.727273,Speed,Off,Off0.000000,3,Read: /home/lvuser/scripts/auto_03.bee,File good!,WAIT_FOR_PID,WAIT_FOR_PID
10:25:46.148 AM 03/20/2016,Autonomous Enabled,11,FALSE,0,NO ERROR,-0.000000,0.000000,0.000000,0.000000,TRUE,FALSE,TRUE,FALSE,FALSE,FALSE,Disabled,-0.309375,17.168750,-15.798750,TRUE,-1.992569,-0.119034,0.000000,-0.006668,-0.002594,0.000000,-0.009000,-0.038000,-0.120000,-0.090000,0.080000,2.620000,0.470068,Hold,3.136719,51.000000,ResetBack,-389.000000,-0.300000,LowGoal,1402.500000,-3272.727273,Speed,1425.000000,-3272.727273,Speed,Off,Off0.000000,3,Read: /home/lvuser/scripts/auto_03.bee,File good!,WAIT_FOR_PID,WAIT_FOR_PID
10:25:46.250 AM 03/20/2016,Autonomous Enabled,10,FALSE,0,NO ERROR,-0.000000,0.000000,0.000000,0.000000,TRUE,FALSE,TRUE,FALSE,FALSE,FALSE,Disabled,-0.309375,17.168750,-15.798750,TRUE,-1.993317,-0.119919,0.000000,-0.018082,-0.028366,0.000000,-0.064000,0.015000,0.056000,-0.060000,0.110000,2.580000,0.498799,Hold,5.724854,51.000000,ResetBack,-389.000000,-0.300000,LowGoal,1665.000000,-3272.727273,Speed,1725.000000,-3272.727273,Speed,Off,Off0.000000,3,Read: /home/lvuser/scripts/auto_03.bee,File good!,WAIT_FOR_PID,WAIT_FOR_PID
10:25:46.349 AM 03/20/2016,Autonomous Enabled,10,FALSE,0,NO ERROR,-0.000000,0.000000,0.000000,0.000000,TRUE,FALSE,TRUE,FALSE,FALSE,FALSE,Disabled,-0.309375,17.168750,-15.798750,TRUE,-1.993759,-0.121048,0.000000,0.000000,-0.058670,0.000000,-0.048000,-0.025000,0.080000,-0.080000,0.080000,2.610000,0.494042,Hold,9.358398,51.000000,ResetBack,-389.000000,-0.300000,LowGoal,2175.000000,-3272.727273,Speed,2227.500000,-3272.727273,Speed,Off,Off0.000000,3,Read: /home/lvuser/scripts/auto_03.bee,File good!,WAIT_FOR_PID,WAIT_FOR_PID
10:25:46.449 AM 03/20/2016,Autonomous Enabled,11,FALSE,0,NO ERROR,-0.000000,0.000000,0.000000,0.000000,TRUE,FALSE,TRUE,FALSE,FALSE,FALSE,Disabled,-0.309375,17.168750,-15.798750,TRUE,-1.993881,-0.123566,0.000000,-0.005768,-0.018570,0.000000,0.009000,-0.062000,-0.113000,-0.080000,0.080000,2.710000,0.486495,Hold,13.760742,51.000000,ResetBack,-389.000000,-0.300000,LowGoal,2580.000000,-3272.727273,Speed,2505.000000,-3272.727273,Speed,Off,Off0.000000,3,Read: /home/lvuser/scripts/auto_03.bee,File good!,WAIT_FOR_PID,WAIT_FOR_PID
10:25:46.549 AM 03/20/2016,Autonomous Enabled,10,FALSE,0,NO ERROR,-0.000000,0.000000,0.000000,0.000000,TRUE,FALSE,TRUE,FALSE,FALSE,FALSE,Disabled,-0.309375,17.168750,-15.798750,TRUE,-1.993347,-0.125671,0.000000,0.008453,-0.055145,0.000000,0.137000,-0.180000,-0.046000,-0.080000,0.090000,2.670000,0.486100,Hold,18.906494,51.000000,ResetBack,-389.000000,-0.300000,LowGoal,2917.500000,-3272.727273,Speed,2805.000000,-3272.727273,Speed,Off,Off0.000000,3,Read: /home/lvuser/scripts/auto_03.bee,File good!,WAIT_FOR_PID,WAIT_FOR_PID
10:25:46.650 AM 03/20/2016,Autonomous Enabled,11,FALSE,0,NO ERROR,-0.000000,0.000000,0.000000,0.000000,TRUE,FALSE,TRUE,TRUE,FALSE,TRUE,Disabled,-0.309375,17.168750,-15.798750,TRUE,-1.992691,-0.128723,0.000000,0.013367,-0.070847,0.000000,-0.153000,0.239000,0.078000,-0.090000,0.090000,2.700000,0.497302,Hold,25.098389,51.000000,Reset,-389.000000,2.000000,LowGoal,3127.500000,-3272.727273,Speed,3060.000000,-3272.727273,Speed,Off,Off0.000000,3,Read: /home/lvuser/scripts/auto_03.bee,File good!,SEARCH_FOR_GOAL,SEARCH_FOR_GOAL
10:25:46.749 AM 03/20/2016,Autonomous Enabled,11,FALSE,0,NO ERROR,-0.000000,0.000000,0.000000,0.000000,TRUE,FALSE,TRUE,TRUE,FALSE,TRUE,Disabled,-0.309375,17.168750,-15.798750,TRUE,-1.992462,-0.133499,0.000000,0.006271,-0.112473,0.000000,0.098000,-0.089000,0.349000,-0.080000,0.130000,2.650000,0.498892,Hold,31.057861,51.000000,Hold,-223.000000,69632.000000,LowGoal,3247.500000,-3272.727273,Speed,3240.000000,-3272.727273,Speed,Off,Off0.000000,3,Read: /home/lvuser/scripts/auto_03.bee,File good!,SEARCH_FOR_GOAL,SEARCH_FOR_GOAL
10:25:46.849 AM 03/20/2016,Autonomous Enabled,11,FALSE,0,NO ERROR,-0.000000,0.000000,0.000000,0.000000,TRUE,FALSE,TRUE,TRUE,FALSE,TRUE,Disabled,-0.309375,17.168750,-15.798750,TRUE,-1.992630,-0.139328,0.000000,0.000229,-0.118362,0.000000,0.016000,-0.283000,-0.400000,-0.110000,0.130000,2.640000,0.495828,Hold,39.769775,51.000000,Hold,-8566.000000,69632.000000,LowGoal,3195.000000,-3272.727273,Speed,3240.000000,-3272.727273,Speed,Off,Off0.000000,3,Read: /home/lvuser/scripts/auto_03.bee,File good!,SEARCH_FOR_GOAL,SEARCH_FOR_GOAL
10:25:46.949 AM 03/20/2016,Autonomous Enabled,10,FALSE,0,NO ERROR,-0.000000,0.000000,0.000000,-0.006417,TRUE,FALSE,TRUE,TRUE,FALSE,TRUE,Disabled,-0.309375,17.168750,-15.798750,TRUE,-1.991196,-0.146408,0.000000,0.027573,-0.152481,0.000000,0.036000,-0.083000,0.138000,-0.120000,0.030000,2.590000,0.483067,Hold,50.019043,51.000000,Hold,-8566.000000,69632.000000,LowGoal,3187.500000,-3272.727273,Speed,3202.500000,-3272.727273,Speed,Off,Off0.000000,3,Read: /home/lvuser/scripts/auto_03.bee,File good!,SEARCH_FOR_GOAL,SEARCH_FOR_GOAL
10:25:47.050 AM 03/20/2016,Autonomous Enabled,10,FALSE,0,NO ERROR,-0.000000,-0.006417,0.000000,-0.012833,TRUE,FALSE,TRUE,TRUE,FALSE,TRUE,Disabled,-0.309375,17.168750,-15.798750,TRUE,-1.990891,-0.153549,0.000000,-0.031662,-0.127762,0.000000,0.053000,0.000000,0.191000,-0.140000,-0.280000,2.590000,0.494190,Hold,56.235596,51.000000,Hold,-22379.000000,69632.000000,LowGoal,3202.500000,-3272.727273,Speed,3217.500000,-3272.727273,Speed,Off,Off0.000000,3,Read: /home/lvuser/scripts/auto_03.bee,File good!,SEARCH_FOR_GOAL,SEARCH_FOR_GOAL
10:25:47.150 AM 03/20/2016,Autonomous Enabled,10,FALSE,0,NO ERROR,-0.000000,0.057750,0.000000,0.044917,TRUE,FALSE,TRUE,TRUE,FALSE,TRUE,Disabled,-0.309375,17.168750,-15.798750,TRUE,-1.994034,-0.158722,0.000000,-0.062103,-0.096283,0.000000,-0.001000,0.009000,0.124000,0.060000,-0.080000,2.590000,0.692873,Hold,56.832275,51.000000,Hold,-33623.000000,69632.000000,LowGoal,3195.000000,-3272.727273,Speed,3225.000000,-3272.727273,Speed,Off,Off0.000000,3,Read: /home/lvuser/scripts/auto_03.bee,File good!,SEARCH_FOR_GOAL,SEARCH_FOR_GOAL
10:25:47.250 AM 03/20/2016,Autonomous Enabled,11,FALSE,0,NO ERROR,-0.000000,0.057750,0.000000,0.057750,TRUE,FALSE,TRUE,TRUE,FALSE,TRUE,Enable,-0.312500,12.812500,-12.812500,TRUE,-1.994965,-0.159836,0.000000,0.013306,-0.011459,0.000000,0.059000,-0.054000,0.078000,0.000000,0.000000,2.610000,0.645101,Hold,56.175781,51.000000,Hold,-46038.000000,69632.000000,LowGoal,3187.500000,-3272.727273,Speed,3217.500000,-3272.727273,Speed,Off,Off0.000000,3,Read: /home/lvuser/scripts/auto_03.bee,File good!,SEARCH_FOR_GOAL,SEARCH_FOR_GOAL
10:25:47.350 AM 03/20/2016,Autonomous Enabled,10,FALSE,0,NO ERROR,-0.000000,0.057750,0.000000,0.057750,TRUE,FALSE,TRUE,TRUE,FALSE,TRUE,PID,-0.312500,12.812500,-12.812500,TRUE,-1.993622,-0.161011,0.000000,0.036804,-0.037766,0.000000,0.024000,0.138000,0.141000,-0.030000,0.000000,2.620000,0.613691,Hold,56.115479,51.000000,Hold,-59432.000000,69632.000000,LowGoal,3195.000000,-3272.727273,Speed,3225.000000,-3272.727273,Speed,Off,Off0.000000,3,Read: /home/lvuser/scripts/auto_03.bee,File good!,SEARCH_FOR_GOAL,SEARCH_FOR_GOAL
10:25:47.451 AM 03/20/2016,Autonomous Enabled,10,FALSE,0,NO ERROR,-0.000000,0.410666,0.000000,-0.365749,TRUE,FALSE,TRUE,TRUE,FALSE,TRUE,Suspended,-0.312500,12.812500,-12.812500,TRUE,-1.992615,-0.162262,0.000000,0.034485,-0.030914,0.000000,0.397000,0.381000,-0.138000,0.210000,0.050000,2.800000,1.006824,Hold,56.101074,51.000000,Hold,-71427.000000,69632.000000,LowGoal,3210.000000,-3272.727273,Speed,3225.000000,-3272.727273,Speed,Off,Off0.000000,3,Read: /home/lvuser/scripts/auto_03.bee,File good!,SEARCH_FOR_GOAL,SEARCH_FOR_GOAL
10:25:47.551 AM 03/20/2016,Autonomous Enabled,10,FALSE,0,NO ERROR,-0.000000,0.506915,0.000000,-0.988164,FALSE,FALSE,TRUE,TRUE,FALSE,TRUE,Suspended,-0.312500,12.812500,-12.812500,TRUE,-1.983322,-0.162460,0.000000,0.127274,-0.100403,0.000000,-0.305000,-0.427000,-0.404000,2.330000,-0.310000,3.100000,3.328310,Hold,55.893311,51.000000,Hold,-69930.000000,69632.000000,LowGoal,3165.000000,-3272.727273,Speed,3180.000000,-3272.727273,Speed,Off,Off0.000000,3,Read: /home/lvuser/scripts/auto_03.bee,File good!,SEARCH_FOR_GOAL,SEARCH_FOR_GOAL
10:25:47.651 AM 03/20/2016,Autonomous Enabled,11,FALSE,0,NO ERROR,-0.000000,0.263083,0.000000,-0.859831,TRUE,FALSE,TRUE,TRUE,FALSE,TRUE,Suspended,-0.312500,12.812500,-12.812500,TRUE,-1.982407,-0.173386,0.000000,-0.029541,-0.207184,0.000000,-0.126000,-0.046000,-0.360000,2.210000,-0.130000,2.460000,2.789691,Hold,55.489014,51.000000,Hold,-69930.000000,69632.000000,LowGoal,3165.000000,-3272.727273,Speed,3165.000000,-3272.727273,Speed,Off,Off0.000000,3,Read: /home/lvuser/scripts/auto_03.bee,File good!,SEARCH_FOR_GOAL,SEARCH_FOR_GOAL
10:25:47.751 AM 03/20/2016,Autonomous Enabled,5,FALSE,0,NO ERROR,-0.000000,0.263083,0.000000,-0.802081,TRUE,FALSE,TRUE,TRUE,FALSE,TRUE,Suspended,-0.312500,12.812500,-12.812500,TRUE,-1.984848,-0.182648,0.000000,-0.036728,-0.171799,0.000000,0.176000,-0.038000,0.002000,1.750000,-0.380000,2.560000,2.381496,Hold,55.187012,51.000000,Hold,-69684.000000,69632.000000,LowGoal,3210.000000,-3272.727273,Speed,3217.500000,-3272.727273,Speed,Off,Off0.000000,3,Read: /home/lvuser/scripts/auto_03.bee,File good!,SEARCH_FOR_GOAL,SEARCH_FOR_GOAL
10:25:47.851 AM 03/20/2016,Autonomous Enabled,11,FALSE,0,NO ERROR,-0.000000,0.198916,0.000000,-0.802081,TRUE,FALSE,TRUE,TRUE,FALSE,TRUE,Suspended,-0.312500,12.812500,-12.812500,TRUE,-1.986252,-0.194412,0.000000,-0.055908,-0.268829,0.000000,-0.026000,0.015000,0.127000,1.590000,-0.240000,2.470000,2.209668,Hold,55.187012,51.000000,Hold,-69739.000000,69632.000000,LowGoal,3217.500000,-3272.727273,Speed,3240.000000,-3272.727273,Speed,Off,Off0.000000,3,Read: /home/lvuser/scripts/auto_03.bee,File good!,SEARCH_FOR_GOAL,SEARCH_FOR_GOAL
10:25:47.952 AM 03/20/2016,Autonomous Enabled,10,FALSE,0,NO ERROR,-0.000000,0.198916,0.000000,-0.769998,TRUE,FALSE,TRUE,TRUE,FALSE,TRUE,Suspended,-0.359375,12.812500,-12.812500,TRUE,-1.989761,-0.206894,0.000000,-0.048141,-0.228653,0.000000,0.015000,0.134000,0.013000,1.520000,-0.150000,2.510000,2.186169,Hold,55.064453,51.000000,Hold,-69709.000000,69632.000000,LowGoal,3210.000000,-3272.727273,Speed,3217.500000,-3272.727273,Speed,Off,Off0.000000,3,Read: /home/lvuser/scripts/auto_03.bee,File good!,SEARCH_FOR_GOAL,SEARCH_FOR_GOAL
10:25:48.053 AM 03/20/2016,Autonomous Enabled,11,FALSE,0,NO ERROR,-0.000000,0.198916,0.000000,-0.769998,TRUE,FALSE,TRUE,TRUE,FALSE,TRUE,Enable,-0.359375,14.734375,-13.254375,TRUE,-1.991745,-0.217728,0.000000,-0.030533,-0.175995,0.000000,0.093000,-0.004000,0.065000,1.510000,-0.210000,2.600000,2.169634,Hold,55.073975,51.000000,Hold,-69710.000000,69632.000000,LowGoal,3202.500000,-3272.727273,Speed,3217.500000,-3272.727273,Speed,Off,Off0.000000,3,Read: /home/lvuser/scripts/auto_03.bee,File good!,SEARCH_FOR_GOAL,SEARCH_FOR_GOAL
10:25:48.154 AM 03/20/2016,Autonomous Enabled,11,FALSE,0,NO ERROR,-0.000000,0.198916,0.000000,-0.769998,TRUE,FALSE,TRUE,TRUE,FALSE,TRUE,PID,-0.359375,14.734375,-13.254375,TRUE,-1.992859,-0.228851,0.000000,-0.023117,-0.240311,0.000000,-0.024000,0.157000,0.072000,1.480000,-0.150000,2.590000,2.167300,Hold,55.033447,51.000000,Hold,-69710.000000,69632.000000,LowGoal,3210.000000,-3272.727273,Speed,3232.500000,-3272.727273,Speed,Off,Off0.000000,3,Read: /home/lvuser/scripts/auto_03.bee,File good!,SEARCH_FOR_GOAL,SEARCH_FOR_GOAL
10:25:48.254 AM 03/20/2016,Autonomous Enabled,10,FALSE,0,NO ERROR,-0.000000,0.506915,0.000000,-1.065164,TRUE,FALSE,TRUE,TRUE,FALSE,TRUE,PID,-0.359375,14.734375,-13.254375,TRUE,-1.994492,-0.236145,0.000000,-0.029572,-0.123199,0.000000,0.030000,0.135000,-0.094000,1.860000,-0.020000,2.830000,2.341518,Hold,55.033447,51.000000,Hold,-69710.000000,69632.000000,LowGoal,3210.000000,-3272.727273,Speed,3240.000000,-3272.727273,Speed,Off,Off0.000000,3,Read: /home/lvuser/scripts/auto_03.bee,File good!,SEARCH_FOR_GOAL,SEARCH_FOR_GOAL
10:25:48.354 AM 03/20/2016,Autonomous Enabled,10,FALSE,0,NO ERROR,-0.000000,1.334664,0.000000,-1.770996,TRUE,FALSE,TRUE,TRUE,FALSE,TRUE,PID,-0.359375,14.734375,-13.254375,TRUE,-1.994095,-0.239166,0.000000,0.026459,-0.082367,0.000000,0.031000,-0.114000,0.037000,4.120000,-0.010000,2.950000,5.009356,Hold,55.032471,51.000000,Hold,-69710.000000,69632.000000,LowGoal,3165.000000,-3272.727273,Speed,3195.000000,-3272.727273,Speed,Off,Off0.000000,3,Read: /home/lvuser/scripts/auto_03.bee,File good!,SEARCH_FOR_GOAL,SEARCH_FOR_GOAL
10:25:48.455 AM 03/20/2016,Autonomous Enabled,9,FALSE,0,NO ERROR,-0.000000,2.399828,0.000000,-2.611577,FALSE,FALSE,TRUE,TRUE,FALSE,TRUE,PID,-0.359375,14.734375,-13.254375,TRUE,-1.992813,-0.244949,0.000000,0.038895,-0.151749,0.000000,0.121000,0.087000,0.245000,7.680000,-0.060000,3.120000,8.517619,Hold,55.036377,51.000000,Hold,-69710.000000,69632.000000,LowGoal,3135.000000,-3272.727273,Speed,3142.500000,-3272.727273,Speed,Off,Off0.000000,3,Read: /home/lvuser/scripts/auto_03.bee,File good!,SEARCH_FOR_GOAL,SEARCH_FOR_GOAL
10:25:48.555 AM 03/20/2016,Autonomous Enabled,11,FALSE,0,NO ERROR,-0.000000,3.772991,0.000000,-3.817908,FALSE,FALSE,TRUE,TRUE,FALSE,TRUE,PID,-0.359375,14.734375,-13.254375,TRUE,-1.988174,-0.251770,0.000000,0.106293,-0.049515,0.000000,0.112000,-0.031000,0.040000,14.520000,0.210000,3.380000,14.209462,Hold,55.036377,51.000000,Hold,-69710.000000,69632.000000,LowGoal,3120.000000,-3272.727273,Speed,3127.500000,-3272.727273,Speed,Off,Off0.000000,3,Read: /home/lvuser/scripts/auto_03.bee,File good!,SEARCH_FOR_GOAL,SEARCH_FOR_GOAL
10:25:48.657 AM 03/20/2016,Autonomous Enabled,10,FALSE,0,NO ERROR,-0.000000,5.653070,0.000000,-5.620987,FALSE,FALSE,TRUE,TRUE,FALSE,TRUE,PID,-0.359375,14.734375,-13.254375,TRUE,-1.982452,-0.250854,0.000000,0.183578,0.075623,0.000000,0.004000,-0.065000,0.072000,14.520000,0.210000,3.380000,21.069199,Hold,55.036621,51.000000,Hold,-69710.000000,69632.000000,LowGoal,3105.000000,-3272.727273,Speed,3120.000000,-3272.727273,Speed,Off,Off0.000000,3,Read: /home/lvuser/scripts/auto_03.bee,File good!,SEARCH_FOR_GOAL,SEARCH_FOR_GOAL
10:25:48.757 AM 03/20/2016,Autonomous Enabled,10,FALSE,0,NO ERROR,-0.000000,8.392980,0.000000,-8.502063,FALSE,FALSE,TRUE,TRUE,FALSE,TRUE,PID,-0.359375,14.734375,-13.254375,TRUE,-1.960938,-0.249283,0.000000,0.368576,-0.092117,0.000000,0.004000,-0.065000,0.072000,32.230000,0.730000,4.100000,30.873939,Hold,55.036865,51.000000,Hold,-69710.000000,69632.000000,LowGoal,3090.000000,-3272.727273,Speed,3105.000000,-3272.727273,Speed,Off,Off0.000000,3,Read: /home/lvuser/scripts/auto_03.bee,File good!,SEARCH_FOR_GOAL,SEARCH_FOR_GOAL
10:25:48.858 AM 03/20/2016,Autonomous Enabled,18,FALSE,0,NO ERROR,-0.000000,12.461138,0.000000,-12.621554,FALSE,FALSE,TRUE,TRUE,FALSE,TRUE,PID,-0.359375,14.734375,-13.254375,TRUE,-1.960938,-0.249283,0.000000,0.368576,-0.092117,0.000000,0.145000,-0.169000,0.069000,32.230000,0.730000,4.100000,45.393661,Hold,55.037109,51.000000,Hold,-69715.000000,69632.000000,LowGoal,3022.500000,-3272.727273,Speed,3045.000000,-3272.727273,Speed,Off,Off0.000000,3,Read: /home/lvuser/scripts/auto_03.bee,File good!,SEARCH_FOR_GOAL,SEARCH_FOR_GOAL
10:25:48.958 AM 03/20/2016,Autonomous Enabled,10,FALSE,0,NO ERROR,-0.000000,17.357043,0.000000,-17.851125,FALSE,FALSE,TRUE,TRUE,FALSE,TRUE,Disabled,0.000000,14.734375,-13.254375,TRUE,-1.910049,-0.285751,0.000000,0.522507,-0.681747,0.000000,0.100000,-0.059000,0.105000,51.330000,0.780000,5.110000,64.303656,Hold,55.192871,51.000000,Hold,-69715.000000,69632.000000,LowGoal,2940.000000,-3272.727273,Speed,2977.500000,-3272.727273,Speed,Off,Off0.000000,3,Read: /home/lvuser/scripts/auto_03.bee,File good!,SEARCH_FOR_GOAL,SEARCH_FOR_GOAL
10:25:49.058 AM 03/20/2016,Autonomous Enabled,7,FALSE,0,NO ERROR,-0.000000,20.866951,0.000000,-21.701116,FALSE,FALSE,TRUE,TRUE,FALSE,TRUE,Disabled,0.000000,14.734375,-13.254375,TRUE,-1.896118,-0.324326,0.000000,0.036728,-0.735794,0.000000,-0.080000,-0.005000,0.020000,71.780000,0.880000,5.260000,83.324055,Hold,55.203613,51.000000,Hold,-69770.000000,69632.000000,LowGoal,2970.000000,-3272.727273,Speed,2977.500000,-3272.727273,Speed,Off,Off0.000000,3,Read: /home/lvuser/scripts/auto_03.bee,File good!,SEARCH_FOR_GOAL,SEARCH_FOR_GOAL
10:25:49.159 AM 03/20/2016,Autonomous Enabled,10,FALSE,0,NO ERROR,-0.000000,23.003696,0.000000,-24.049610,TRUE,FALSE,TRUE,TRUE,FALSE,TRUE,Disabled,0.000000,14.734375,-13.254375,TRUE,-1.906265,-0.355972,0.000000,-0.331467,-0.545441,0.000000,-0.221000,0.341000,0.134000,97.120000,-0.090000,2.780000,94.162378,Hold,55.201660,51.000000,Hold,-69741.000000,69632.000000,LowGoal,3195.000000,-3272.727273,Speed,3180.000000,-3272.727273,Speed,Off,Off0.000000,3,Read: /home/lvuser/scripts/auto_03.bee,File good!,SEARCH_FOR_GOAL,SEARCH_FOR_GOAL
10:25:49.259 AM 03/20/2016,Autonomous Enabled,8,FALSE,0,NO ERROR,-0.000000,23.953361,0.000000,-24.883775,TRUE,FALSE,TRUE,TRUE,FALSE,TRUE,Disabled,0.000000,14.734375,-13.254375,TRUE,-1.925812,-0.378387,0.000000,-0.399918,-0.399277,0.000000,-0.221000,0.341000,0.134000,97.120000,-0.090000,2.780000,98.993980,Hold,55.138672,51.000000,Hold,-69734.000000,69632.000000,LowGoal,3277.500000,-3272.727273,Speed,3285.000000,-3272.727273,Speed,Off,Off0.000000,3,Read: /home/lvuser/scripts/auto_03.bee,File good!,SEARCH_FOR_GOAL,SEARCH_FOR_GOAL
10:25:49.360 AM 03/20/2016,Autonomous Enabled,9,FALSE,0,NO ERROR,-0.000000,24.011111,0.000000,-24.774692,TRUE,FALSE,TRUE,TRUE,FALSE,TRUE,Disabled,0.000000,14.734375,-13.254375,TRUE,-1.925812,-0.378387,0.000000,-0.399918,-0.399277,0.000000,-0.024000,0.397000,0.004000,101.650000,-1.210000,1.750000,99.310654,Hold,55.138916,51.000000,Hold,-69733.000000,69632.000000,LowGoal,3225.000000,-3272.727273,Speed,3232.500000,-3272.727273,Speed,Off,Off0.000000,3,Read: /home/lvuser/scripts/auto_03.bee,File good!,SEARCH_FOR_GOAL,SEARCH_FOR_GOAL
10:25:49.460 AM 03/20/2016,Autonomous Enabled,10,FALSE,0,NO ERROR,-0.000000,23.889194,0.000000,-24.710526,TRUE,FALSE,TRUE,TRUE,FALSE,TRUE,Disabled,0.000000,14.734375,-13.254375,TRUE,-1.949356,-0.394394,0.000000,-0.533417,-0.303436,0.000000,0.080000,-0.096000,0.018000,101.650000,-1.210000,1.750000,98.091762,Hold,55.138916,51.000000,Hold,-69732.000000,69632.000000,LowGoal,3195.000000,-3272.727273,Speed,3210.000000,-3272.727273,Speed,Off,Off0.000000,3,Read: /home/lvuser/scripts/auto_03.bee,File good!,SEARCH_FOR_GOAL,SEARCH_FOR_GOAL
10:25:49.560 AM 03/20/2016,Autonomous Enabled,9,FALSE,0,NO ERROR,-0.000000,23.882777,0.000000,-24.704109,TRUE,FALSE,TRUE,TRUE,FALSE,TRUE,Disabled,0.000000,14.734375,-13.254375,TRUE,-1.980713,-0.415176,0.000000,-0.493866,-0.380295,0.000000,0.162000,0.073000,-0.082000,100.280000,-0.950000,2.100000,97.970673,Hold,55.138916,51.000000,Hold,-69731.000000,69632.000000,LowGoal,3202.500000,-3272.727273,Speed,3240.000000,-3272.727273,Speed,Off,Off0.000000,3,Read: /home/lvuser/scripts/auto_03.bee,File good!,SEARCH_FOR_GOAL,SEARCH_FOR_GOAL
10:25:49.660 AM 03/20/2016,Autonomous Enabled,10,FALSE,0,NO ERROR,-0.000000,23.882777,0.000000,-24.704109,TRUE,FALSE,TRUE,TRUE,FALSE,TRUE,Disabled,0.000000,14.734375,-13.254375,TRUE,-2.021652,-0.448792,0.000000,-0.446854,-0.356201,0.000000,-0.029000,-0.112000,0.010000,100.290000,-0.950000,2.190000,97.956572,Hold,55.138916,51.000000,Hold,-69731.000000,69632.000000,LowGoal,3225.000000,-3272.727273,Speed,3240.000000,-3272.727273,Speed,Off,Off0.000000,3,Read: /home/lvuser/scripts/auto_03.bee,File good!,SEARCH_FOR_GOAL,SEARCH_FOR_GOAL
10:25:49.760 AM 03/20/2016,Autonomous Enabled,9,FALSE,0,NO ERROR,-0.000000,23.882777,0.000000,-24.704109,TRUE,FALSE,TRUE,TRUE,FALSE,TRUE,Disabled,0.000000,14.734375,-13.254375,TRUE,-2.021652,-0.448792,0.000000,-0.446854,-0.356201,0.000000,0.153000,-0.245000,0.138000,100.290000,-0.950000,2.190000,97.997690,Hold,55.138916,51.000000,Hold,-69729.000000,69632.000000,LowGoal,3225.000000,-3272.727273,Speed,3225.000000,-3272.727273,Speed,Off,Off0.000000,3,Read: /home/lvuser/scripts/auto_03.bee,File good!,SEARCH_FOR_GOAL,SEARCH_FOR_GOAL
10:25:49.864 AM 03/20/2016,Autonomous Enabled,11,FALSE,0,NO ERROR,-0.000000,23.882777,0.000000,-24.704109,TRUE,FALSE,TRUE,TRUE,FALSE,TRUE,Disabled,0.000000,14.734375,-13.254375,TRUE,-2.046005,-0.471268,0.000000,-0.374466,-0.393005,0.000000,-0.029000,0.050000,0.000000,100.340000,-0.860000,2.300000,97.967967,Hold,55.138916,51.000000,Hold,-69729.000000,69632.000000,LowGoal,3217.500000,-3272.727273,Speed,3232.500000,-3272.727273,Speed,Off,Off0.000000,3,Read: /home/lvuser/scripts/auto_03.bee,File good!,SEARCH_FOR_GOAL,SEARCH_FOR_GOAL
10:25:49.963 AM 03/20/2016,Autonomous Enabled,9,FALSE,0,NO ERROR,-0.000000,23.882777,0.000000,-24.704109,TRUE,FALSE,TRUE,TRUE,FALSE,TRUE,Disabled,0.000000,14.734375,-13.254375,TRUE,-2.077469,-0.511597,0.000000,-0.363663,-0.478073,0.000000,-0.159000,-0.080000,-0.001000,100.290000,-0.860000,2.410000,97.981114,Hold,55.138916,51.000000,Hold,-69728.000000,69632.000000,LowGoal,3217.500000,-3272.727273,Speed,3240.000000,-3272.727273,Speed,Off,Off0.000000,3,Read: /home/lvuser/scripts/auto_03.bee,File good!,SEARCH_FOR_GOAL,SEARCH_FOR_GOAL
10:25:50.063 AM 03/20/2016,Autonomous Enabled,9,FALSE,0,NO ERROR,-0.000000,23.882777,0.000000,-24.704109,TRUE,FALSE,TRUE,TRUE,FALSE,TRUE,Disabled,0.000000,14.734375,-13.254375,TRUE,-2.095688,-0.511429,0.000000,-0.358414,0.006256,0.000000,-0.110000,-0.004000,0.061000,100.300000,-0.830000,2.390000,97.983438,Hold,55.138916,51.000000,Hold,-69728.000000,69632.000000,LowGoal,3217.500000,-3272.727273,Speed,3240.000000,-3272.727273,Speed,Off,Off0.000000,3,Read: /home/lvuser/scripts/auto_03.bee,File good!,SEARCH_FOR_GOAL,SEARCH_FOR_GOAL
10:25:50.163 AM 03/20/2016,Autonomous Enabled,10,FALSE,0,NO ERROR,-0.000000,23.882777,0.000000,-24.704109,TRUE,FALSE,TRUE,TRUE,FALSE,TRUE,Disabled,0.000000,14.734375,-13.254375,TRUE,-2.113312,-0.510956,0.000000,-0.339706,0.016846,0.000000,0.029000,0.105000,0.020000,100.310000,-0.790000,2.400000,97.988957,Hold,55.138916,51.000000,Hold,-69727.000000,69632.000000,LowGoal,3225.000000,-3272.727273,Speed,3232.500000,-3272.727273,Speed,Off,Off0.000000,3,Read: /home/lvuser/scripts/auto_03.bee,File good!,SEARCH_FOR_GOAL,SEARCH_FOR_GOAL
10:25:50.264 AM 03/20/2016,Autonomous Enabled,11,FALSE,0,NO ERROR,-0.000000,23.882777,0.000000,-24.704109,TRUE,FALSE,TRUE,TRUE,FALSE,TRUE,Disabled,0.000000,14.734375,-13.254375,TRUE,-2.112640,-0.509842,0.000000,0.023376,0.032959,0.000000,-0.002000,-0.153000,0.053000,100.290000,-0.770000,2.420000,97.985962,Hold,55.138916,51.000000,Hold,-69727.000000,69632.000000,LowGoal,3225.000000,-3272.727273,Speed,3232.500000,-3272.727273,Speed,Off,Off0.000000,3,Read: /home/lvuser/scripts/auto_03.bee,File good!,SEARCH_FOR_GOAL,SEARCH_FOR_GOAL
10:25:50.365 AM 03/20/2016,Autonomous Enabled,11,FALSE,0,NO ERROR,-0.000000,23.882777,0.000000,-24.704109,TRUE,FALSE,TRUE,TRUE,FALSE,TRUE,Disabled,0.000000,14.734375,-13.254375,TRUE,-2.111877,-0.508713,0.000000,0.012772,0.015839,0.000000,-0.135000,0.113000,-0.146000,100.300000,-0.710000,2.440000,97.983734,Hold,55.138916,51.000000,Hold,-69727.000000,69632.000000,LowGoal,3217.500000,-3272.727273,Speed,3240.000000,-3272.727273,Speed,Off,Off0.000000,3,Read: /home/lvuser/scripts/auto_03.bee,File good!,SEARCH_FOR_GOAL,SEARCH_FOR_GOAL
10:25:50.466 AM 03/20/2016,Autonomous Enabled,11,FALSE,0,NO ERROR,-0.000000,23.882777,0.000000,-24.704109,TRUE,FALSE,TRUE,TRUE,FALSE,TRUE,Disabled,0.000000,14.734375,-13.254375,TRUE,-2.110229,-0.507477,0.000000,0.046539,0.022278,0.000000,-0.119000,0.033000,-0.032000,100.290000,-0.690000,2.550000,97.993256,Hold,55.138916,51.000000,Hold,-69727.000000,69632.000000,LowGoal,3217.500000,-3272.727273,Speed,3240.000000,-3272.727273,Speed,Off,Off0.000000,3,Read: /home/lvuser/scripts/auto_03.bee,File good!,SEARCH_FOR_GOAL,SEARCH_FOR_GOAL
10:25:50.567 AM 03/20/2016,Autonomous Enabled,11,FALSE,0,NO ERROR,-0.000000,23.882777,0.000000,-24.704109,TRUE,FALSE,TRUE,TRUE,FALSE,TRUE,Disabled,0.000000,14.734375,-13.254375,TRUE,-2.109055,-0.506927,0.000000,-0.000488,-0.003693,0.000000,-0.119000,0.033000,-0.032000,100.290000,-0.650000,2.550000,98.005223,Hold,55.138916,51.000000,Hold,-69727.000000,69632.000000,LowGoal,3225.000000,-3272.727273,Speed,3232.500000,-3272.727273,Speed,Off,Off0.000000,3,Read: /home/lvuser/scripts/auto_03.bee,File good!,SEARCH_FOR_GOAL,SEARCH_FOR_GOAL
10:25:50.668 AM 03/20/2016,Autonomous Enabled,10,FALSE,0,NO ERROR,-0.000000,23.882777,0.000000,-24.704109,TRUE,FALSE,TRUE,TRUE,FALSE,TRUE,Disabled,0.000000,14.734375,-13.254375,TRUE,-2.109009,-0.507355,0.000000,0.022781,-0.013428,0.000000,-0.030000,0.047000,0.106000,100.290000,-0.650000,2.550000,98.013946,Hold,55.138916,51.000000,Hold,-69727.000000,69632.000000,LowGoal,3217.500000,-3272.727273,Speed,3232.500000,-3272.727273,Speed,Off,Off0.000000,3,Read: /home/lvuser/scripts/auto_03.bee,File good!,SEARCH_FOR_GOAL,SEARCH_FOR_GOAL
10:25:50.769 AM 03/20/2016,Autonomous Enabled,11,FALSE,0,NO ERROR,-0.000000,23.882777,0.000000,-24.704109,TRUE,FALSE,TRUE,TRUE,FALSE,TRUE,Disabled,0.000000,14.734375,-13.254375,TRUE,-2.106613,-0.508118,0.000000,0.036865,-0.006699,0.000000,0.154000,-0.144000,0.151000,100.290000,-0.640000,2.530000,98.031999,Hold,55.138916,51.000000,Hold,-69727.000000,69632.000000,LowGoal,3210.000000,-3272.727273,Speed,3240.000000,-3272.727273,Speed,Off,Off0.000000,3,Read: /home/lvuser/scripts/auto_03.bee,File good!,SEARCH_FOR_GOAL,SEARCH_FOR_GOAL
10:25:50.869 AM 03/20/2016,Autonomous Enabled,9,FALSE,0,NO ERROR,-0.000000,23.882777,0.000000,-24.704109,TRUE,FALSE,TRUE,TRUE,FALSE,TRUE,Disabled,0.000000,14.734375,-13.254375,TRUE,-2.106613,-0.508118,0.000000,0.036865,-0.006699,0.000000,-0.178000,0.150000,-0.068000,100.290000,-0.640000,2.540000,98.016094,Hold,55.138916,51.000000,Hold,-69727.000000,69632.000000,LowGoal,3202.500000,-3272.727273,Speed,3217.500000,-3272.727273,Speed,Off,Off0.000000,3,Read: /home/lvuser/scripts/auto_03.bee,File good!,SEARCH_FOR_GOAL,SEARCH_FOR_GOAL
10:25:50.970 AM 03/20/2016,Autonomous Enabled,10,FALSE,0,NO ERROR,-0.000000,23.882777,0.000000,-24.704109,TRUE,FALSE,TRUE,TRUE,FALSE,TRUE,Disabled,0.000000,14.734375,-13.254375,TRUE,-2.107605,-0.506165,0.000000,-0.025253,0.053558,0.000000,0.124000,-0.110000,0.014000,100.300000,-0.620000,2.520000,98.008731,Hold,55.138916,51.000000,Hold,-69727.000000,69632.000000,LowGoal,3225.000000,-3272.727273,Speed,3202.500000,-3272.727273,Speed,Off,Off0.000000,3,Read: /home/lvuser/scripts/auto_03.bee,File good!,SEARCH_FOR_GOAL,SEARCH_FOR_GOAL
10:25:51.070 AM 03/20/2016,Autonomous Enabled,10,FALSE,0,NO ERROR,-0.000000,23.882777,0.000000,-24.704109,TRUE,FALSE,TRUE,TRUE,FALSE,TRUE,Disabled,0.000000,14.734375,-13.254375,TRUE,-2.106964,-0.504578,0.000000,0.041138,0.014465,0.000000,0.087000,-0.074000,0.122000,100.290000,-0.600000,2.550000,98.010070,Hold,55.138916,51.000000,Hold,-69727.000000,69632.000000,LowGoal,3217.500000,-3272.727273,Speed,3225.000000,-3272.727273,Speed,Off,Off0.000000,3,Read: /home/lvuser/scripts/auto_03.bee,File good!,SEARCH_FOR_GOAL,SEARCH_FOR_GOAL
10:25:51.170 AM 03/20/2016,Autonomous Enabled,9,FALSE,0,NO ERROR,-0.000000,23.882777,0.000000,-24.704109,TRUE,FALSE,TRUE,TRUE,FALSE,TRUE,Disabled,0.000000,14.734375,-13.254375,TRUE,-2.106964,-0.505020,0.000000,-0.026627,-0.020645,0.000000,-0.004000,-0.051000,0.037000,100.290000,-0.590000,2.660000,98.020480,Hold,55.138916,51.000000,Hold,-69727.000000,69632.000000,LowGoal,3210.000000,-3272.727273,Speed,3240.000000,-3272.727273,Speed,Off,Off0.000000,3,Read: /home/lvuser/scripts/auto_03.bee,File good!,SEARCH_FOR_GOAL,SEARCH_FOR_GOAL
10:25:51.270 AM 03/20/2016,Autonomous Enabled,10,FALSE,0,NO ERROR,-0.000000,23.882777,0.000000,-24.704109,TRUE,FALSE,TRUE,TRUE,FALSE,TRUE,Disabled,0.000000,14.734375,-13.254375,TRUE,-2.108673,-0.506516,0.000000,-0.007538,-0.033081,0.000000,0.000000,0.067000,-0.051000,100.300000,-0.560000,2.660000,98.022126,Hold,55.138916,51.000000,Hold,-69727.000000,69632.000000,LowGoal,3232.500000,-3272.727273,Speed,3232.500000,-3272.727273,Speed,Off,Off0.000000,3,Read: /home/lvuser/scripts/auto_03.bee,File good!,SEARCH_FOR_GOAL,SEARCH_FOR_GOAL
10:25:51.370 AM 03/20/2016,Autonomous Enabled,10,FALSE,0,NO ERROR,-0.000000,23.882777,0.000000,-24.704109,TRUE,FALSE,TRUE,TRUE,FALSE,TRUE,Disabled,0.000000,14.734375,-13.254375,TRUE,-2.108170,-0.507812,0.000000,0.010651,-0.012451,0.000000,-0.022000,-0.013000,0.012000,100.290000,-0.550000,2.720000,98.021461,Hold,55.138916,51.000000,Hold,-69727.000000,69632.000000,LowGoal,3232.500000,-3272.727273,Speed,3240.000000,-3272.727273,Speed,Off,Off0.000000,3,Read: /home/lvuser/scripts/auto_03.bee,File good!,SEARCH_FOR_GOAL,SEARCH_FOR_GOAL
10:25:51.471 AM 03/20/2016,Autonomous Enabled,10,FALSE,0,NO ERROR,-0.000000,23.882777,0.000000,-24.704109,TRUE,FALSE,TRUE,TRUE,FALSE,TRUE,Disabled,0.000000,14.734375,-13.254375,TRUE,-2.108902,-0.506302,0.000000,0.000000,0.041870,0.000000,-0.016000,0.046000,-0.051000,100.290000,-0.560000,2.700000,98.030185,Hold,55.138916,51.000000,Hold,-69727.000000,69632.000000,LowGoal,3217.500000,-3272.727273,Speed,3232.500000,-3272.727273,Speed,Off,Off0.000000,3,Read: /home/lvuser/scripts/auto_03.bee,File good!,SEARCH_FOR_GOAL,SEARCH_FOR_GOAL
10:25:51.573 AM 03/20/2016,Autonomous Enabled,12,FALSE,0,NO ERROR,-0.000000,23.882777,0.000000,-24.704109,TRUE,FALSE,TRUE,TRUE,FALSE,TRUE,Disabled,0.000000,14.734375,-13.254375,TRUE,-2.106949,-0.505585,0.000000,0.004807,-0.025787,0.000000,0.046000,-0.149000,0.029000,100.290000,-0.570000,2.680000,98.046416,Hold,55.138916,51.000000,Hold,-69727.000000,69632.000000,LowGoal,3225.000000,-3272.727273,Speed,3232.500000,-3272.727273,Speed,Off,Off0.000000,3,Read: /home/lvuser/scripts/auto_03.bee,File good!,SEARCH_FOR_GOAL,SEARCH_FOR_GOAL
10:25:51.672 AM 03/20/2016,Autonomous Enabled,10,FALSE,0,NO ERROR,-0.000000,23.882777,0.000000,-24.704109,TRUE,FALSE,TRUE,TRUE,FALSE,TRUE,Disabled,0.000000,14.734375,-13.254375,TRUE,-2.106949,-0.505585,0.000000,0.004807,-0.025787,0.000000,-0.135000,-0.089000,-0.020000,100.290000,-0.530000,2.720000,98.046416,Hold,55.138916,51.000000,Hold,-69726.000000,69632.000000,LowGoal,3247.500000,-3272.727273,Speed,3240.000000,-3272.727273,Speed,Off,Off0.000000,3,Read: /home/lvuser/scripts/auto_03.bee,File good!,SEARCH_FOR_GOAL,SEARCH_FOR_GOAL
10:25:51.772 AM 03/20/2016,Autonomous Enabled,10,FALSE,0,NO ERROR,-0.000000,23.882777,0.000000,-24.704109,TRUE,FALSE,TRUE,TRUE,FALSE,TRUE,Disabled,0.000000,14.734375,-13.254375,TRUE,-2.108887,-0.507904,0.000000,-0.046951,-0.062698,0.000000,-0.135000,-0.089000,-0.020000,100.290000,-0.530000,2.720000,98.050003,Hold,55.383545,51.000000,Hold,-69726.000000,69632.000000,LowGoal,3247.500000,-3272.727273,Speed,3225.000000,-3272.727273,Speed,Off,Off0.000000,3,Read: /home/lvuser/scripts/auto_03.bee,File good!,SEARCH_FOR_GOAL,SEARCH_FOR_GOAL
10:25:51.873 AM 03/20/2016,Autonomous Disabled,9,FALSE,0,NO ERROR,-0.000000,23.882777,0.000000,-24.704109,TRUE,FALSE,TRUE,TRUE,FALSE,TRUE,Disabled,0.000000,14.734375,-13.254375,TRUE,-2.108887,-0.507904,0.000000,-0.046951,-0.062698,0.000000,-0.135000,-0.089000,-0.020000,100.280000,-0.400000,2.780000,98.050003,Hold,58.208740,51.000000,Hold,-69815.000000,69632.000000,LowGoal,3150.000000,-3272.727273,Speed,3135.000000,-3272.727273,Speed,Off,Off0.000000,3,Read: /home/lvuser/scripts/auto_03.bee,File good!,SEARCH_FOR_GOAL,SEARCH_FOR_GOAL
10:25:51.973 AM 03/20/2016,Autonomous Disabled,10,FALSE,0,NO ERROR,-0.000000,23.876361,0.000000,-24.704109,TRUE,FALSE,TRUE,TRUE,FALSE,FALSE,Disabled,0.000000,14.734375,-13.254375,TRUE,-2.109222,-0.517700,0.000000,-0.028458,-0.110214,0.000000,-0.218000,0.010000,0.055000,100.280000,-0.400000,2.770000,98.059773,Hold,65.971680,51.000000,Hold,-70711.000000,69632.000000,LowGoal,2895.000000,-1454.545455,Speed,2812.500000,-1454.545455,Speed,Off,Off0.000000,3,Read: /home/lvuser/scripts/auto_03.bee,File good!,SEARCH_FOR_GOAL,SEARCH_FOR_GOAL
10:25:52.074 AM 03/20/2016,Autonomous Disabled,10,FALSE,0,NO ERROR,-0.000000,23.825028,0.000000,-24.723359,TRUE,FALSE,TRUE,TRUE,FALSE,FALSE,Disabled,0.000000,14.734375,-13.254375,TRUE,-2.112625,-0.527863,0.000000,-0.036377,-0.264420,0.000000,-0.094000,-0.014000,0.357000,100.130000,-0.040000,2.800000,97.886093,Hold,66.153809,51.000000,Hold,-72281.000000,69632.000000,LowGoal,2587.500000,-1454.545455,Speed,2542.500000,-1454.545455,Speed,Off,Off0.000000,3,Read: /home/lvuser/scripts/auto_03.bee,File good!,SEARCH_FOR_GOAL,SEARCH_FOR_GOAL
10:25:52.174 AM 03/20/2016,Autonomous Disabled,9,FALSE,0,NO ERROR,-0.000000,23.825028,0.000000,-24.723359,TRUE,FALSE,TRUE,TRUE,FALSE,FALSE,Disabled,0.000000,14.734375,-13.254375,TRUE,-2.115555,-0.537918,0.000000,-0.021652,0.000000,0.000000,0.199000,0.016000,0.000000,100.150000,-0.330000,2.760000,97.913585,Hold,65.225586,51.000000,Hold,-74948.000000,69632.000000,LowGoal,2370.000000,-1454.545455,Speed,2265.000000,-1454.545455,Speed,Off,Off0.000000,3,Read: /home/lvuser/scripts/auto_03.bee,File good!,SEARCH_FOR_GOAL,SEARCH_FOR_GOAL
10:25:52.274 AM 03/20/2016,Autonomous Disabled,9,FALSE,0,NO ERROR,-0.000000,23.818611,0.000000,-24.723359,TRUE,FALSE,TRUE,TRUE,FALSE,FALSE,Disabled,0.000000,14.734375,-13.254375,TRUE,-2.111267,-0.538254,0.000000,0.161575,-0.015640,0.000000,-0.063000,0.037000,-0.150000,100.120000,-0.350000,2.810000,97.881346,Hold,65.185303,51.000000,Hold,-78418.000000,69632.000000,LowGoal,2115.000000,-1454.545455,Speed,1987.500000,-1454.545455,Speed,Off,Off0.000000,3,Read: /home/lvuser/scripts/auto_03.bee,File good!,SEARCH_FOR_GOAL,SEARCH_FOR_GOAL
10:25:52.374 AM 03/20/2016,Autonomous Disabled,11,FALSE,0,NO ERROR,-0.000000,23.818611,0.000000,-24.723359,TRUE,FALSE,TRUE,TRUE,FALSE,FALSE,Disabled,0.000000,14.734375,-13.254375,TRUE,-2.104065,-0.539413,0.000000,0.133179,-0.033264,0.000000,0.093000,0.048000,0.098000,100.140000,-0.290000,2.840000,97.893133,Hold,65.185303,51.000000,Hold,-82830.000000,69632.000000,LowGoal,1897.500000,-1454.545455,Speed,1717.500000,-1454.545455,Speed,Off,Off0.000000,3,Read: /home/lvuser/scripts/auto_03.bee,File good!,SEARCH_FOR_GOAL,SEARCH_FOR_GOAL
10:25:52.474 AM 03/20/2016,Autonomous Disabled,10,FALSE,0,NO ERROR,-0.000000,23.818611,0.000000,-24.723359,TRUE,FALSE,TRUE,TRUE,FALSE,FALSE,Disabled,0.000000,14.734375,-13.254375,TRUE,-2.096848,-0.541168,0.000000,0.106049,-0.014786,0.000000,0.060000,0.007000,0.066000,100.110000,-0.340000,2.830000,97.883607,Hold,65.185303,51.000000,Hold,-88541.000000,69632.000000,LowGoal,1672.500000,-1454.545455,Speed,1507.500000,-1454.545455,Speed,Off,Off0.000000,3,Read: /home/lvuser/scripts/auto_03.bee,File good!,SEARCH_FOR_GOAL,SEARCH_FOR_GOAL
10:25:52.574 AM 03/20/2016,Autonomous Disabled,10,FALSE,0,NO ERROR,-0.000000,23.818611,0.000000,-24.723359,TRUE,FALSE,TRUE,TRUE,FALSE,FALSE,Disabled,0.000000,14.734375,-13.254375,TRUE,-2.093094,-0.542511,0.000000,0.084778,-0.040756,0.000000,0.090000,0.038000,-0.019000,100.110000,-0.380000,2.790000,97.899622,Hold,65.185303,51.000000,Hold,-88541.000000,69632.000000,LowGoal,1455.000000,-1454.545455,Speed,1252.500000,-1454.545455,Speed,Off,Off0.000000,3,Read: /home/lvuser/scripts/auto_03.bee,File good!,SEARCH_FOR_GOAL,SEARCH_FOR_GOAL
10:25:52.674 AM 03/20/2016,Autonomous Disabled,9,FALSE,0,NO ERROR,-0.000000,23.818611,0.000000,-24.723359,TRUE,FALSE,TRUE,TRUE,FALSE,FALSE,Disabled,0.000000,14.734375,-13.254375,TRUE,-2.087143,-0.543655,0.000000,0.125595,-0.027237,0.000000,0.070000,0.072000,0.100000,100.120000,-0.340000,2.810000,97.911916,Hold,65.185303,51.000000,Hold,-95090.000000,69632.000000,LowGoal,1245.000000,-1454.545455,Speed,997.500000,-1454.545455,Speed,Off,Off0.000000,3,Read: /home/lvuser/scripts/auto_03.bee,File good!,SEARCH_FOR_GOAL,SEARCH_FOR_GOAL
10:25:52.774 AM 03/20/2016,Autonomous Disabled,10,FALSE,0,NO ERROR,-0.000000,23.818611,0.000000,-24.723359,TRUE,FALSE,TRUE,TRUE,FALSE,FALSE,Disabled,0.000000,14.734375,-13.254375,TRUE,-2.080597,-0.544250,0.000000,0.128021,-0.004547,0.000000,-0.035000,-0.032000,-0.080000,100.110000,-0.430000,2.780000,97.922470,Hold,65.185303,51.000000,Hold,-101276.000000,69632.000000,LowGoal,1102.500000,-1454.545455,Speed,735.000000,-1454.545455,Speed,Off,Off0.000000,3,Read: /home/lvuser/scripts/auto_03.bee,File good!,SEARCH_FOR_GOAL,SEARCH_FOR_GOAL
10:25:52.874 AM 03/20/2016,Autonomous Disabled,10,FALSE,0,NO ERROR,-0.000000,23.818611,0.000000,-24.723359,TRUE,FALSE,TRUE,TRUE,FALSE,FALSE,Disabled,0.000000,14.734375,-13.254375,TRUE,-2.075882,-0.544693,0.000000,0.000000,0.000000,0.000000,0.001000,-0.012000,0.015000,100.120000,-0.370000,2.770000,97.931769,Hold,65.185303,51.000000,Hold,-108537.000000,69632.000000,LowGoal,915.000000,-1454.545455,Speed,547.500000,-1454.545455,Speed,Off,Off0.000000,3,Read: /home/lvuser/scripts/auto_03.bee,File good!,SEARCH_FOR_GOAL,SEARCH_FOR_GOAL
10:25:52.974 AM 03/20/2016,Autonomous Disabled,10,FALSE,0,NO ERROR,-0.000000,23.818611,0.000000,-24.723359,TRUE,FALSE,TRUE,TRUE,FALSE,FALSE,Disabled,0.000000,14.734375,-13.254375,TRUE,-2.075760,-0.544235,0.000000,0.007355,0.027222,0.000000,0.013000,0.007000,0.022000,100.120000,-0.420000,2.740000,97.947033,Hold,65.185303,51.000000,Hold,-115681.000000,69632.000000,LowGoal,750.000000,-1454.545455,Speed,285.000000,-1454.545455,Speed,Off,Off0.000000,3,Read: /home/lvuser/scripts/auto_03.bee,File good!,SEARCH_FOR_GOAL,SEARCH_FOR_GOAL
10:25:53.075 AM 03/20/2016,Autonomous Disabled,10,FALSE,0,NO ERROR,-0.000000,23.818611,0.000000,-24.723359,TRUE,FALSE,TRUE,TRUE,FALSE,FALSE,Disabled,0.000000,14.734375,-13.254375,TRUE,-2.075699,-0.542877,0.000000,0.000000,0.010559,0.000000,-0.016000,0.005000,-0.056000,100.130000,-0.500000,2.710000,97.968067,Hold,65.185303,51.000000,Hold,-122253.000000,69632.000000,LowGoal,600.000000,-1454.545455,Speed,52.500000,-1454.545455,Speed,Off,Off0.000000,3,Read: /home/lvuser/scripts/auto_03.bee,File good!,SEARCH_FOR_GOAL,SEARCH_FOR_GOAL
10:25:53.175 AM 03/20/2016,Autonomous Disabled,10,FALSE,0,NO ERROR,-0.000000,23.818611,0.000000,-24.723359,TRUE,FALSE,TRUE,TRUE,FALSE,FALSE,Disabled,0.000000,14.734375,-13.254375,TRUE,-2.075653,-0.542236,0.000000,0.004471,0.008408,0.000000,-0.010000,-0.006000,-0.015000,100.130000,-0.370000,2.730000,97.967361,Hold,65.185303,51.000000,Hold,-124084.000000,69632.000000,LowGoal,457.500000,-1454.545455,Speed,0.000000,-1454.545455,Speed,Off,Off0.000000,3,Read: /home/lvuser/scripts/auto_03.bee,File good!,SEARCH_FOR_GOAL,SEARCH_FOR_GOAL
10:25:53.275 AM 03/20/2016,Autonomous Disabled,10,FALSE,0,NO ERROR,-0.000000,23.818611,0.000000,-24.723359,TRUE,FALSE,TRUE,TRUE,FALSE,FALSE,Disabled,0.000000,14.734375,-13.254375,TRUE,-2.075684,-0.542221,0.000000,0.000153,0.000000,0.000000,0.028000,0.007000,0.028000,100.130000,-0.440000,2.730000,97.978529,Hold,65.185303,51.000000,Hold,-124084.000000,69632.000000,LowGoal,345.000000,-1454.545455,Speed,0.000000,-1454.545455,Speed,Off,Off0.000000,3,Read: /home/lvuser/scripts/auto_03.bee,File good!,SEARCH_FOR_GOAL,SEARCH_FOR_GOAL
10:25:53.375 AM 03/20/2016,Autonomous Disabled,11,FALSE,0,NO ERROR,-0.000000,23.818611,0.000000,-24.723359,TRUE,FALSE,TRUE,TRUE,FALSE,FALSE,Disabled,0.000000,14.734375,-13.254375,TRUE,-2.075623,-0.542221,0.000000,0.000000,0.000000,0.000000,-0.011000,-0.004000,0.033000,100.130000,-0.390000,2.740000,97.978219,Hold,65.185303,51.000000,Hold,-124084.000000,69632.000000,LowGoal,202.500000,-1454.545455,Speed,0.000000,-1454.545455,Speed,Off,Off0.000000,3,Read: /home/lvuser/scripts/auto_03.bee,File good!,SEARCH_FOR_GOAL,SEARCH_FOR_GOAL
10:25:53.475 AM 03/20/2016,Autonomous Disabled,10,FALSE,0,NO ERROR,-0.000000,23.818611,0.000000,-24.723359,TRUE,FALSE,TRUE,TRUE,FALSE,FALSE,Disabled,0.000000,14.734375,-13.254375,TRUE,-2.075623,-0.542221,0.000000,0.000000,0.000000,0.000000,0.002000,0.004000,0.028000,100.130000,-0.420000,2.740000,97.999770,Hold,65.185303,51.000000,Hold,-124084.000000,69632.000000,LowGoal,7.500000,-1454.545455,Speed,0.000000,-1454.545455,Speed,Off,Off0.000000,3,Read: /home/lvuser/scripts/auto_03.bee,File good!,SEARCH_FOR_GOAL,SEARCH_FOR_GOAL
10:25:53.575 AM 03/20/2016,Autonomous Disabled,10,FALSE,0,NO ERROR,-0.000000,23.818611,0.000000,-24.723359,TRUE,TRUE,TRUE,TRUE,FALSE,FALSE,Disabled,0.000000,14.734375,-13.254375,TRUE,-2.075623,-0.542221,0.000000,0.000000,0.000000,0.000000,-0.002000,-0.006000,0.025000,100.130000,-0.380000,2.760000,97.999171,Hold,65.185303,51.000000,Hold,-124084.000000,69632.000000,LowGoal,0.000000,-1454.545455,Speed,0.000000,-1454.545455,Speed,Off,Off0.000000,3,Read: /home/lvuser/scripts/auto_03.bee,File good!,SEARCH_FOR_GOAL,SEARCH_FOR_GOAL
10:25:53.675 AM 03/20/2016,Autonomous Disabled,10,FALSE,0,NO ERROR,-0.000000,23.818611,0.000000,-24.723359,TRUE,TRUE,TRUE,TRUE,FALSE,FALSE,Disabled,0.000000,14.734375,-13.254375,TRUE,-2.075623,-0.542221,0.000000,0.000000,0.000000,0.000000,0.001000,0.005000,0.019000,100.140000,-0.400000,2.750000,98.015609,Hold,65.185303,51.000000,Hold,-124084.000000,69632.000000,LowGoal,0.000000,0.000000,Speed,0.000000,0.000000,Speed,Off,Off0.000000,3,Read: /home/lvuser/scripts/auto_03.bee,File good!,SEARCH_FOR_GOAL,SEARCH_FOR_GOAL
10:25:53.775 AM 03/20/2016,Autonomous Disabled,10,FALSE,0,NO ERROR,-0.000000,23.818611,0.000000,-24.723359,TRUE,FALSE,TRUE,TRUE,FALSE,FALSE,Disabled,0.000000,14.734375,-13.254375,TRUE,-2.075623,-0.542221,0.000000,0.000000,0.000000,0.000000,0.001000,-0.002000,0.018000,100.140000,-0.380000,2.750000,98.015888,Hold,65.185303,51.000000,Hold,-124084.000000,69632.000000,LowGoal,0.000000,0.000000,Speed,0.000000,0.000000,Speed,Off,Off0.000000,3,Read: /home/lvuser/scripts/auto_03.bee,File good!,SEARCH_FOR_GOAL,SEARCH_FOR_GOAL
10:25:53.875 AM 03/20/2016,Autonomous Disabled,10,FALSE,0,NO ERROR,-0.000000,23.818611,0.000000,-24.723359,TRUE,FALSE,TRUE,TRUE,FALSE,FALSE,Disabled,0.000000,14.734375,-13.254375,TRUE,-2.075623,-0.542221,0.000000,0.000000,0.000000,0.000000,-0.001000,-0.002000,0.017000,100.140000,-0.380000,2.760000,98.021058,Hold,65.185303,51.000000,Hold,-124084.000000,69632.000000,LowGoal,0.000000,-1454.545455,Speed,0.000000,-1454.545455,Speed,Off,Off0.000000,3,Read: /home/lvuser/scripts/auto_03.bee,File good!,SEARCH_FOR_GOAL,SEARCH_FOR_GOAL
10:25:53.975 AM 03/20/2016,Autonomous Disabled,10,FALSE,0,NO ERROR,-0.000000,23.818611,0.000000,-24.723359,TRUE,FALSE,TRUE,TRUE,FALSE,FALSE,Disabled,0.000000,14.734375,-13.254375,TRUE,-2.075623,-0.542221,0.000000,0.000000,0.000000,0.000000,0.002000,0.001000,0.020000,100.140000,-0.380000,2.760000,98.013753,Hold,65.185303,51.000000,Hold,-124084.000000,69632.000000,LowGoal,0.000000,-1454.545455,Speed,0.000000,-1454.545455,Speed,Off,Off0.000000,3,Read: /home/lvuser/scripts/auto_03.bee,File good!,SEARCH_FOR_GOAL,SEARCH_FOR_GOAL
10:25:54.075 AM 03/20/2016,Autonomous Disabled,10,FALSE,0,NO ERROR,-0.000000,23.818611,0.000000,-24.723359,TRUE,FALSE,TRUE,TRUE,FALSE,FALSE,Disabled,0.000000,14.734375,-13.254375,TRUE,-2.075623,-0.542221,0.000000,0.000000,0.000000,0.000000,0.000000,-0.002000,0.029000,100.140000,-0.370000,2.770000,98.022821,Hold,65.185303,51.000000,Hold,-124084.000000,69632.000000,LowGoal,0.000000,-1454.545455,Speed,0.000000,-1454.545455,Speed,Off,Off0.000000,3,Read: /home/lvuser/scripts/auto_03.bee,File good!,SEARCH_FOR_GOAL,SEARCH_FOR_GOAL
10:25:54.175 AM 03/20/2016,Autonomous Disabled,10,FALSE,0,NO ERROR,-0.000000,23.818611,0.000000,-24.723359,TRUE,FALSE,TRUE,TRUE,FALSE,FALSE,Disabled,0.000000,14.734375,-13.254375,TRUE,-2.075623,-0.542221,0.000000,0.000000,0.000000,0.000000,0.000000,0.000000,0.016000,100.140000,-0.380000,2.760000,98.048354,Hold,65.185303,51.000000,Hold,-124084.000000,69632.000000,LowGoal,0.000000,-1454.545455,Speed,0.000000,-1454.545455,Speed,Off,Off0.000000,3,Read: /home/lvuser/scripts/auto_03.bee,File good!,SEARCH_FOR_GOAL,SEARCH_FOR_GOAL
10:25:54.275 AM 03/20/2016,Autonomous Disabled,10,FALSE,0,NO ERROR,-0.000000,23.818611,0.000000,-24.723359,TRUE,FALSE,TRUE,TRUE,FALSE,FALSE,Disabled,0.000000,14.734375,-13.254375,TRUE,-2.075623,-0.542221,0.000000,0.000000,0.000000,0.000000,0.000000,-0.001000,0.019000,100.140000,-0.370000,2.770000,98.054968,Hold,65.185303,51.000000,Hold,-124084.000000,69632.000000,LowGoal,0.000000,-1454.545455,Speed,0.000000,-1454.545455,Speed,Off,Off0.000000,3,Read: /home/lvuser/scripts/auto_03.bee,File good!,SEARCH_FOR_GOAL,SEARCH_FOR_GOAL
10:25:54.376 AM 03/20/2016,Autonomous Disabled,11,FALSE,0,NO ERROR,-0.000000,23.818611,0.000000,-24.723359,TRUE,TRUE,TRUE,TRUE,FALSE,FALSE,Disabled,0.000000,14.734375,-13.254375,TRUE,-2.075623,-0.542221,0.000000,0.000000,0.000000,0.000000,0.000000,-0.005000,0.022000,100.140000,-0.370000,2.780000,98.081909,Hold,65.185303,51.000000,Hold,-124084.000000,69632.000000,LowGoal,0.000000,-1454.545455,Speed,0.000000,-1454.545455,Speed,Off,Off0.000000,3,Read: /home/lvuser/scripts/auto_03.bee,File good!,SEARCH_FOR_GOAL,SEARCH_FOR_GOAL
10:25:54.476 AM 03/20/2016,Autonomous Disabled,10,FALSE,0,NO ERROR,-0.000000,23.818611,0.000000,-24.723359,TRUE,TRUE,TRUE,TRUE,FALSE,FALSE,Disabled,0.000000,14.734375,-13.254375,TRUE,-2.075623,-0.542221,0.000000,0.000000,0.000000,0.000000,0.001000,0.002000,0.019000,100.140000,-0.370000,2.780000,98.096623,Hold,65.185303,51.000000,Hold,-124084.000000,69632.000000,LowGoal,0.000000,0.000000,Speed,0.000000,0.000000,Speed,Off,Off0.000000,3,Read: /home/lvuser/scripts/auto_03.bee,File good!,SEARCH_FOR_GOAL,SEARCH_FOR_GOAL
10:25:54.576 AM 03/20/2016,Autonomous Disabled,10,FALSE,0,NO ERROR,-0.000000,23.818611,0.000000,-24.723359,TRUE,FALSE,TRUE,TRUE,FALSE,FALSE,Disabled,0.000000,14.734375,-13.254375,TRUE,-2.075623,-0.542221,0.000000,0.000000,0.000000,0.000000,0.000000,0.001000,0.022000,100.140000,-0.370000,2.780000,98.111673,Hold,65.185303,51.000000,Hold,-124084.000000,69632.000000,LowGoal,0.000000,0.000000,Speed,0.000000,0.000000,Speed,Off,Off0.000000,3,Read: /home/lvuser/scripts/auto_03.bee,File good!,SEARCH_FOR_GOAL,SEARCH_FOR_GOAL
10:25:54.677 AM 03/20/2016,Autonomous Disabled,9,FALSE,0,NO ERROR,-0.000000,23.818611,0.000000,-24.723359,TRUE,FALSE,TRUE,TRUE,FALSE,FALSE,Disabled,0.000000,14.734375,-13.254375,TRUE,-2.075623,-0.542221,0.000000,0.000000,0.000000,0.000000,0.000000,0.001000,0.019000,100.140000,-0.380000,2.780000,98.105539,Hold,65.185303,51.000000,Hold,-124084.000000,69632.000000,LowGoal,0.000000,-1454.545455,Speed,0.000000,-1454.545455,Speed,Off,Off0.000000,3,Read: /home/lvuser/scripts/auto_03.bee,File good!,SEARCH_FOR_GOAL,SEARCH_FOR_GOAL
10:25:54.777 AM 03/20/2016,Autonomous Disabled,9,FALSE,0,NO ERROR,-0.000000,23.818611,0.000000,-24.723359,TRUE,FALSE,TRUE,TRUE,FALSE,FALSE,Disabled,0.000000,14.734375,-13.254375,TRUE,-2.075623,-0.542221,0.000000,0.000000,0.000000,0.000000,0.002000,0.000000,0.021000,100.140000,-0.380000,2.780000,98.112875,Hold,65.185303,51.000000,Hold,-124084.000000,69632.000000,LowGoal,0.000000,-1454.545455,Speed,0.000000,-1454.545455,Speed,Off,Off0.000000,3,Read: /home/lvuser/scripts/auto_03.bee,File good!,SEARCH_FOR_GOAL,SEARCH_FOR_GOAL
10:25:54.877 AM 03/20/2016,Autonomous Disabled,10,FALSE,0,NO ERROR,-0.000000,23.818611,0.000000,-24.723359,TRUE,FALSE,TRUE,TRUE,FALSE,FALSE,Disabled,0.000000,14.734375,-13.254375,TRUE,-2.075623,-0.542221,0.000000,0.000000,0.000000,0.000000,-0.004000,-0.003000,0.021000,100.140000,-0.370000,2.780000,98.129613,Hold,65.185303,51.000000,Hold,-124084.000000,69632.000000,LowGoal,0.000000,-1454.545455,Speed,0.000000,-1454.545455,Speed,Off,Off0.000000,3,Read: /home/lvuser/scripts/auto_03.bee,File good!,SEARCH_FOR_GOAL,SEARCH_FOR_GOAL
10:25:54.977 AM 03/20/2016,Autonomous Disabled,10,FALSE,0,NO ERROR,-0.000000,23.818611,0.000000,-24.723359,TRUE,FALSE,TRUE,TRUE,FALSE,FALSE,Disabled,0.000000,14.734375,-13.254375,TRUE,-2.075623,-0.542221,0.000000,0.000000,0.000000,0.000000,0.000000,-0.002000,0.022000,100.140000,-0.370000,2.780000,98.132732,Hold,65.185303,51.000000,Hold,-124084.000000,69632.000000,LowGoal,0.000000,-1454.545455,Speed,0.000000,-1454.545455,Speed,Off,Off0.000000,3,Read: /home/lvuser/scripts/auto_03.bee,File good!,SEARCH_FOR_GOAL,SEARCH_FOR_GOAL
10:25:55.077 AM 03/20/2016,Autonomous Disabled,10,FALSE,0,NO ERROR,-0.000000,23.818611,0.000000,-24.723359,TRUE,FALSE,TRUE,TRUE,FALSE,FALSE,Disabled,0.000000,14.734375,-13.254375,TRUE,-2.075623,-0.542221,0.000000,0.000000,0.000000,0.000000,0.000000,0.001000,0.017000,100.140000,-0.370000,2.780000,98.135847,Hold,65.185303,51.000000,Hold,-124084.000000,69632.000000,LowGoal,0.000000,-1454.545455,Speed,0.000000,-1454.545455,Speed,Off,Off0.000000,3,Read: /home/lvuser/scripts/auto_03.bee,File good!,SEARCH_FOR_GOAL,SEARCH_FOR_GOAL
10:25:55.177 AM 03/20/2016,Autonomous Disabled,10,FALSE,0,NO ERROR,-0.000000,23.818611,0.000000,-24.723359,TRUE,FALSE,TRUE,TRUE,FALSE,FALSE,Disabled,0.000000,14.734375,-13.254375,TRUE,-2.075623,-0.542221,0.000000,0.000000,0.000000,0.000000,0.000000,-0.002000,0.022000,100.140000,-0.370000,2.790000,98.143810,Hold,65.185303,51.000000,Hold,-124084.000000,69632.000000,LowGoal,0.000000,-1454.545455,Speed,0.000000,-1454.545455,Speed,Off,Off0.000000,3,Read: /home/lvuser/scripts/auto_03.bee,File good!,SEARCH_FOR_GOAL,SEARCH_FOR_GOAL
10:25:55.277 AM 03/20/2016,Autonomous Disabled,10,FALSE,0,NO ERROR,-0.000000,23.818611,0.000000,-24.723359,TRUE,TRUE,TRUE,TRUE,FALSE,FALSE,Disabled,0.000000,14.734375,-13.254375,TRUE,-2.075623,-0.542221,0.000000,0.000000,0.000000,0.000000,-0.001000,0.002000,0.023000,100.140000,-0.370000,2.790000,98.156995,Hold,65.185303,51.000000,Hold,-124084.000000,69632.000000,LowGoal,0.000000,-1454.545455,Speed,0.000000,-1454.545455,Speed,Off,Off0.000000,3,Read: /home/lvuser/scripts/auto_03.bee,File good!,SEARCH_FOR_GOAL,SEARCH_FOR_GOAL
10:25:55.378 AM 03/20/2016,Autonomous Disabled,10,FALSE,0,NO ERROR,-0.000000,23.818611,0.000000,-24.723359,TRUE,TRUE,TRUE,TRUE,FALSE,FALSE,Disabled,0.000000,14.734375,-13.254375,TRUE,-2.075623,-0.542221,0.000000,0.000000,0.000000,0.000000,0.000000,0.000000,0.023000,100.140000,-0.370000,2.800000,98.147283,Hold,65.185303,51.000000,Hold,-124084.000000,69632.000000,LowGoal,0.000000,0.000000,Speed,0.000000,0.000000,Speed,Off,Off0.000000,3,Read: /home/lvuser/scripts/auto_03.bee,File good!,SEARCH_FOR_GOAL,SEARCH_FOR_GOAL
10:25:55.478 AM 03/20/2016,Autonomous Disabled,10,FALSE,0,NO ERROR,-0.000000,23.818611,0.000000,-24.723359,TRUE,FALSE,TRUE,TRUE,FALSE,FALSE,Disabled,0.000000,14.734375,-13.254375,TRUE,-2.075623,-0.542221,0.000000,0.000000,0.000000,0.000000,0.000000,0.000000,0.020000,100.140000,-0.370000,2.800000,98.144312,Hold,65.185303,51.000000,Hold,-124084.000000,69632.000000,LowGoal,0.000000,0.000000,Speed,0.000000,0.000000,Speed,Off,Off0.000000,3,Read: /home/lvuser/scripts/auto_03.bee,File good!,SEARCH_FOR_GOAL,SEARCH_FOR_GOAL
10:25:55.578 AM 03/20/2016,Autonomous Disabled,10,FALSE,0,NO ERROR,-0.000000,23.818611,0.000000,-24.723359,TRUE,FALSE,TRUE,TRUE,FALSE,FALSE,Disabled,0.000000,14.734375,-13.254375,TRUE,-2.075623,-0.542221,0.000000,0.000000,0.000000,0.000000,-0.001000,0.000000,0.021000,100.150000,-0.370000,2.800000,98.158027,Hold,65.185303,51.000000,Hold,-124084.000000,69632.000000,LowGoal,0.000000,-1454.545455,Speed,0.000000,-1454.545455,Speed,Off,Off0.000000,3,Read: /home/lvuser/scripts/auto_03.bee,File good!,SEARCH_FOR_GOAL,SEARCH_FOR_GOAL
10:25:55.678 AM 03/20/2016,Autonomous Disabled,10,FALSE,0,NO ERROR,-0.000000,23.818611,0.000000,-24.723359,TRUE,FALSE,TRUE,TRUE,FALSE,FALSE,Disabled,0.000000,14.734375,-13.254375,TRUE,-2.075623,-0.542221,0.000000,0.000000,0.000000,0.000000,-0.002000,0.000000,0.021000,100.150000,-0.370000,2.800000,98.156120,Hold,65.185303,51.000000,Hold,-124084.000000,69632.000000,LowGoal,0.000000,-1454.545455,Speed,0.000000,-1454.545455,Speed,Off,Off0.000000,3,Read: /home/lvuser/scripts/auto_03.bee,File good!,SEARCH_FOR_GOAL,SEARCH_FOR_GOAL
10:25:55.779 AM 03/20/2016,Autonomous Disabled,9,FALSE,0,NO ERROR,-0.000000,23.818611,0.000000,-24.723359,TRUE,FALSE,TRUE,TRUE,FALSE,FALSE,Disabled,0.000000,14.734375,-13.254375,TRUE,-2.075623,-0.542221,0.000000,0.000000,0.000000,0.000000,0.000000,0.000000,0.021000,100.150000,-0.370000,2.800000,98.160768,Hold,65.185303,51.000000,Hold,-124084.000000,69632.000000,LowGoal,0.000000,-1454.545455,Speed,0.000000,-1454.545455,Speed,Off,Off0.000000,3,Read: /home/lvuser/scripts/auto_03.bee,File good!,SEARCH_FOR_GOAL,SEARCH_FOR_GOAL
10:25:55.883 AM 03/20/2016,Autonomous Disabled,12,FALSE,0,NO ERROR,-0.000000,23.818611,0.000000,-24.723359,TRUE,FALSE,TRUE,TRUE,FALSE,FALSE,Disabled,0.000000,14.734375,-13.254375,TRUE,-2.075623,-0.542221,0.000000,0.000000,0.000000,0.000000,0.001000,0.001000,0.017000,100.150000,-0.370000,2.800000,98.150516,Hold,65.185303,51.000000,Hold,-124084.000000,69632.000000,LowGoal,0.000000,-1454.545455,Speed,0.000000,-1454.545455,Speed,Off,Off0.000000,3,Read: /home/lvuser/scripts/auto_03.bee,File good!,SEARCH_FOR_GOAL,SEARCH_FOR_GOAL
10:25:55.983 AM 03/20/2016,Autonomous Disabled,10,FALSE,0,NO ERROR,-0.000000,23.818611,0.000000,-24.723359,TRUE,FALSE,TRUE,TRUE,FALSE,FALSE,Disabled,0.000000,14.734375,-13.254375,TRUE,-2.075623,-0.542221,0.000000,0.000000,0.000000,0.000000,0.000000,0.000000,0.020000,100.150000,-0.370000,2.800000,98.146832,Hold,65.185303,51.000000,Hold,-124084.000000,69632.000000,LowGoal,0.000000,-1454.545455,Speed,0.000000,-1454.545455,Speed,Off,Off0.000000,3,Read: /home/lvuser/scripts/auto_03.bee,File good!,SEARCH_FOR_GOAL,SEARCH_FOR_GOAL
10:25:56.084 AM 03/20/2016,Autonomous Disabled,10,FALSE,0,NO ERROR,-0.000000,23.818611,0.000000,-24.723359,TRUE,TRUE,TRUE,TRUE,FALSE,FALSE,Disabled,0.000000,14.734375,-13.254375,TRUE,-2.075623,-0.542221,0.000000,0.000000,0.000000,0.000000,0.001000,0.000000,0.021000,100.150000,-0.370000,2.800000,98.143562,Hold,65.185303,51.000000,Hold,-124084.000000,69632.000000,LowGoal,0.000000,-1454.545455,Speed,0.000000,-1454.545455,Speed,Off,Off0.000000,3,Read: /home/lvuser/scripts/auto_03.bee,File good!,SEARCH_FOR_GOAL,SEARCH_FOR_GOAL
10:25:56.184 AM 03/20/2016,Autonomous Disabled,10,FALSE,0,NO ERROR,-0.000000,23.818611,0.000000,-24.723359,TRUE,TRUE,TRUE,TRUE,FALSE,FALSE,Disabled,0.000000,14.734375,-13.254375,TRUE,-2.075623,-0.542221,0.000000,0.000000,0.000000,0.000000,-0.003000,-0.001000,0.019000,100.150000,-0.370000,2.800000,98.142942,Hold,65.185303,51.000000,Hold,-124084.000000,69632.000000,LowGoal,0.000000,0.000000,Speed,0.000000,0.000000,Speed,Off,Off0.000000,3,Read: /home/lvuser/scripts/auto_03.bee,File good!,SEARCH_FOR_GOAL,SEARCH_FOR_GOAL
10:25:56.284 AM 03/20/2016,Autonomous Disabled,10,FALSE,0,NO ERROR,-0.000000,23.818611,0.000000,-24.723359,TRUE,FALSE,TRUE,TRUE,FALSE,FALSE,Disabled,0.000000,14.734375,-13.254375,TRUE,-2.075623,-0.542221,0.000000,0.000000,0.000000,0.000000,0.000000,0.004000,0.026000,100.150000,-0.370000,2.800000,98.154158,Hold,65.185303,51.000000,Hold,-124084.000000,69632.000000,LowGoal,0.000000,0.000000,Speed,0.000000,0.000000,Speed,Off,Off0.000000,3,Read: /home/lvuser/scripts/auto_03.bee,File good!,SEARCH_FOR_GOAL,SEARCH_FOR_GOAL
10:25:56.385 AM 03/20/2016,Autonomous Disabled,10,FALSE,0,NO ERROR,-0.000000,23.818611,0.000000,-24.723359,TRUE,FALSE,TRUE,TRUE,FALSE,FALSE,Disabled,0.000000,14.734375,-13.254375,TRUE,-2.075623,-0.542221,0.000000,0.000000,0.000000,0.000000,0.000000,0.004000,0.026000,100.150000,-0.370000,2.800000,98.154031,Hold,65.185303,51.000000,Hold,-124084.000000,69632.000000,LowGoal,0.000000,-1454.545455,Speed,0.000000,-1454.545455,Speed,Off,Off0.000000,3,Read: /home/lvuser/scripts/auto_03.bee,File good!,SEARCH_FOR_GOAL,SEARCH_FOR_GOAL
10:25:56.485 AM 03/20/2016,Autonomous Disabled,10,FALSE,0,NO ERROR,-0.000000,23.818611,0.000000,-24.723359,TRUE,FALSE,TRUE,TRUE,FALSE,FALSE,Disabled,0.000000,14.734375,-13.254375,TRUE,-2.075623,-0.542221,0.000000,0.000000,0.000000,0.000000,0.000000,0.001000,0.020000,100.150000,-0.370000,2.800000,98.152888,Hold,65.185303,51.000000,Hold,-124084.000000,69632.000000,LowGoal,0.000000,-1454.545455,Speed,0.000000,-1454.545455,Speed,Off,Off0.000000,3,Read: /home/lvuser/scripts/auto_03.bee,File good!,SEARCH_FOR_GOAL,SEARCH_FOR_GOAL
