Time,Robot Mode,Loop Time,Error Status,Error Code,Error Source,Left Motor Output,Left Motor Encoder,Right Motor Output,Right Motor Encoder,Is Level,Is Stalled,Ball Detector Photoeye,Vision Enabled,Vision Teleop Control,Vision Auto Control,Vision Current State,Vision X Output,Vision NavX Error,Vision NavX Target,NavX Connection Status,NavX Displacement X,NavX Displacement Y,NavX Displacement Z,NavX Velocity X,NavX Velocity Y,NavX Velocity Z,NavX Acceleration X,NavX Acceleration Y,NavX Acceleration Z,NavX Pitch,NavX Yaw,NavX Roll,Gyro Angle,Roller Arm State,Roller Arm Actual,Roller Arm Desired,Shooter Arm State,Shooter Arm Actual,Shooter Arm Desired,Shooter State,Actual RPM Left,Desired RPM Left,Control Mode Left,Actual RPM Right,Desired RPM Right,Scaler Motor Output,Auto To Run,Auto Current File,Auto File Status,Auto Current Command,Auto Trimmed Command
11:53:38.433 AM 03/20/2016,Teleop Enabled,10,FALSE,0,NO ERROR,-0.000000,0.000000,0.000000,0.000000,TRUE,FALSE,TRUE,FALSE,FALSE,FALSE,Disabled,-0.018750,0.640625,4.859375,TRUE,-31.271866,-0.352615,0.000000,0.000000,0.000000,0.000000,-0.003000,0.000000,0.018000,0.000000,0.040000,2.570000,0.000451,ResetBack,0.937744,-0.000049,ResetBack,-241.000000,-0.300000,Empty,0.000000,0.000000,Speed,0.000000,0.000000,Speed,Off,Off0.000000,0,,,,
11:53:38.532 AM 03/20/2016,Teleop Enabled,10,FALSE,0,NO ERROR,-0.000000,0.000000,0.000000,0.000000,TRUE,FALSE,TRUE,FALSE,FALSE,FALSE,Disabled,-0.018750,0.640625,4.859375,TRUE,-31.271866,-0.352615,0.000000,0.000000,0.000000,0.000000,0.009000,-0.009000,0.011000,0.000000,0.040000,2.570000,-0.004293,ResetBack,-0.057861,-0.000049,ResetBack,-190.000000,-0.300000,Suck,0.000000,2181.818182,Speed,0.000000,2181.818182,Speed,Off,Off0.000000,0,,,,
11:53:38.633 AM 03/20/2016,Teleop Enabled,10,FALSE,0,NO ERROR,-0.000000,0.000000,0.000000,0.000000,TRUE,FALSE,TRUE,FALSE,FALSE,FALSE,Disabled,-0.018750,0.640625,4.859375,TRUE,-31.271973,-0.352692,0.000000,-0.006241,-0.008087,0.000000,-0.037000,0.005000,-0.046000,0.010000,0.030000,2.560000,0.001756,ResetBack,-0.100586,-0.000049,ResetBack,211.000000,-0.300000,Hold,-45.000000,0.000000,Speed,-105.000000,0.000000,Speed,Off,Off0.000000,0,,,,
11:53:38.733 AM 03/20/2016,Teleop Enabled,10,FALSE,0,NO ERROR,-0.000000,0.000000,0.000000,0.000000,TRUE,FALSE,TRUE,FALSE,FALSE,FALSE,Disabled,-0.018750,0.640625,4.859375,TRUE,-31.272705,-0.353180,0.000000,0.000000,-0.009567,0.000000,0.009000,0.007000,0.031000,0.000000,0.020000,2.530000,-0.021464,Reset,-0.113770,0.000000,ResetBack,220.000000,-0.300000,Hold,-592.500000,0.000000,Speed,-712.500000,0.000000,Speed,Off,Off0.000000,0,,,,
11:53:38.833 AM 03/20/2016,Teleop Enabled,10,FALSE,0,NO ERROR,-0.000000,0.000000,0.000000,0.000000,TRUE,FALSE,TRUE,FALSE,FALSE,FALSE,Disabled,-0.018750,0.640625,4.859375,TRUE,-31.272598,-0.353912,0.000000,-0.004822,-0.014740,0.000000,-0.037000,0.043000,0.047000,0.000000,0.030000,2.530000,-0.033400,Hold,1.062256,0.000000,ResetBack,220.000000,-0.300000,Hold,-705.000000,0.000000,Speed,-690.000000,0.000000,Speed,Off,Off0.000000,0,,,,
11:53:38.933 AM 03/20/2016,Teleop Enabled,9,FALSE,0,NO ERROR,-0.000000,0.000000,0.000000,0.000000,TRUE,FALSE,TRUE,FALSE,FALSE,FALSE,Disabled,-0.018750,0.640625,4.859375,TRUE,-31.272751,-0.354935,0.000000,-0.013748,-0.010620,0.000000,0.014000,-0.050000,-0.009000,0.000000,0.030000,2.540000,-0.029613,Hold,0.919189,0.000000,ResetBack,220.000000,-0.300000,Hold,-547.500000,0.000000,Speed,-420.000000,0.000000,Speed,Off,Off0.000000,0,,,,
11:53:39.032 AM 03/20/2016,Teleop Enabled,10,FALSE,0,NO ERROR,-0.000000,0.000000,0.000000,0.000000,TRUE,FALSE,TRUE,FALSE,FALSE,FALSE,Disabled,-0.018750,0.640625,4.859375,TRUE,-31.272964,-0.355072,0.000000,-0.002823,0.014694,0.000000,-0.004000,-0.025000,-0.005000,0.000000,0.040000,2.520000,-0.021395,Hold,0.919189,0.000000,ResetBack,220.000000,-0.300000,Hold,-352.500000,0.000000,Speed,-187.500000,0.000000,Speed,Off,Off0.000000,0,,,,
11:53:39.132 AM 03/20/2016,Teleop Enabled,10,FALSE,0,NO ERROR,-0.000000,0.000000,0.000000,0.000000,TRUE,FALSE,TRUE,FALSE,FALSE,FALSE,Disabled,-0.018750,0.640625,4.859375,TRUE,-31.272995,-0.354691,0.000000,0.000000,0.013641,0.000000,0.001000,0.000000,0.020000,0.000000,0.030000,2.530000,-0.012462,Hold,0.919189,0.000000,ResetBack,220.000000,-0.300000,Hold,-240.000000,0.000000,Speed,0.000000,0.000000,Speed,Off,Off0.000000,0,,,,
11:53:39.233 AM 03/20/2016,Teleop Enabled,9,FALSE,0,NO ERROR,-0.000000,0.000000,0.000000,0.000000,TRUE,FALSE,TRUE,FALSE,FALSE,FALSE,Disabled,-0.018750,0.640625,4.859375,TRUE,-31.272995,-0.354828,0.000000,0.000000,-0.008728,0.000000,-0.010000,0.000000,0.024000,0.010000,0.030000,2.500000,-0.011725,Hold,0.919189,0.000000,ResetBack,221.000000,-0.300000,Hold,-127.500000,0.000000,Speed,0.000000,0.000000,Speed,Off,Off0.000000,0,,,,
11:53:39.333 AM 03/20/2016,Teleop Enabled,10,FALSE,0,NO ERROR,-0.000000,0.000000,0.000000,0.000000,TRUE,FALSE,TRUE,FALSE,FALSE,FALSE,Disabled,-0.018750,0.640625,4.859375,TRUE,-31.272995,-0.354935,0.000000,0.000000,0.000000,0.000000,0.001000,0.003000,0.025000,0.010000,0.030000,2.520000,-0.010937,Hold,0.919189,0.000000,ResetBack,221.000000,-0.300000,Hold,-60.000000,0.000000,Speed,0.000000,0.000000,Speed,Off,Off0.000000,0,,,,
11:53:39.432 AM 03/20/2016,Teleop Enabled,10,FALSE,0,NO ERROR,-0.000000,0.000000,0.000000,0.000000,TRUE,FALSE,TRUE,FALSE,FALSE,FALSE,Disabled,-0.018750,0.640625,4.859375,TRUE,-31.272995,-0.354935,0.000000,0.000000,0.000000,0.000000,-0.004000,-0.006000,0.018000,0.020000,0.040000,2.540000,-0.013192,Hold,0.919189,0.000000,ResetBack,221.000000,-0.300000,Hold,-15.000000,0.000000,Speed,0.000000,0.000000,Speed,Off,Off0.000000,0,,,,
11:53:39.533 AM 03/20/2016,Teleop Enabled,10,FALSE,0,NO ERROR,-0.000000,0.000000,0.000000,0.000000,TRUE,FALSE,TRUE,FALSE,FALSE,FALSE,Disabled,-0.018750,0.640625,4.859375,TRUE,-31.272995,-0.354935,0.000000,0.000000,0.000000,0.000000,0.001000,-0.013000,0.017000,0.010000,0.040000,2.540000,-0.022645,Hold,0.919189,0.000000,ResetBack,221.000000,-0.300000,Hold,0.000000,0.000000,Speed,0.000000,0.000000,Speed,Off,Off0.000000,0,,,,
11:53:39.633 AM 03/20/2016,Teleop Enabled,10,FALSE,0,NO ERROR,-0.000000,0.000000,0.000000,0.000000,TRUE,FALSE,TRUE,FALSE,FALSE,FALSE,Disabled,-0.018750,0.640625,4.859375,TRUE,-31.272995,-0.354935,0.000000,0.000000,0.000000,0.000000,0.000000,-0.006000,0.017000,0.010000,0.040000,2.550000,-0.035551,Hold,0.919189,0.000000,Reset,0.000000,2.000000,Hold,0.000000,0.000000,Speed,0.000000,0.000000,Speed,Off,Off0.000000,0,,,,
11:53:39.733 AM 03/20/2016,Teleop Enabled,10,FALSE,0,NO ERROR,-0.000000,0.000000,0.000000,0.000000,TRUE,FALSE,TRUE,FALSE,FALSE,FALSE,Disabled,-0.018750,0.640625,4.859375,TRUE,-31.272995,-0.354935,0.000000,0.000000,0.000000,0.000000,0.016000,0.009000,0.034000,0.010000,0.040000,2.550000,-0.037221,Hold,0.919189,0.000000,Hold,0.000000,2.000000,Hold,0.000000,0.000000,Speed,0.000000,0.000000,Speed,Off,Off0.000000,0,,,,
11:53:39.832 AM 03/20/2016,Teleop Enabled,10,FALSE,0,NO ERROR,-0.000000,0.000000,0.000000,0.000000,TRUE,FALSE,TRUE,FALSE,FALSE,FALSE,Disabled,-0.018750,0.640625,4.859375,TRUE,-31.273056,-0.354935,0.000000,-0.002625,0.000000,0.000000,-0.007000,-0.006000,0.012000,0.010000,0.030000,2.560000,-0.047655,Hold,0.919189,0.000000,Hold,-246.000000,2.000000,LowGoal,0.000000,-1454.545455,Speed,0.000000,-1454.545455,Speed,Off,Off0.000000,0,,,,
11:53:39.932 AM 03/20/2016,Teleop Enabled,9,FALSE,0,NO ERROR,-0.000000,0.000000,0.000000,0.000000,TRUE,FALSE,TRUE,FALSE,FALSE,FALSE,Disabled,-0.018750,0.640625,4.859375,TRUE,-31.272797,-0.354965,0.000000,0.019592,-0.000504,0.000000,0.013000,0.047000,-0.037000,0.010000,0.060000,2.570000,-0.052193,Hold,0.919189,0.000000,Hold,-272.000000,2.000000,LowGoal,135.000000,-1454.545455,Speed,67.500000,-1454.545455,Speed,Off,Off0.000000,0,,,,
11:53:40.032 AM 03/20/2016,Teleop Enabled,10,FALSE,0,NO ERROR,-0.000000,0.000000,0.000000,0.000000,TRUE,FALSE,TRUE,FALSE,FALSE,FALSE,Disabled,-0.018750,0.640625,4.859375,TRUE,-31.272400,-0.355011,0.000000,0.013260,-0.004028,0.000000,-0.077000,-0.016000,-0.038000,0.010000,0.090000,2.590000,-0.053484,Hold,0.919189,0.000000,Hold,-273.000000,2.000000,LowGoal,885.000000,-1454.545455,Speed,727.500000,-1454.545455,Speed,Off,Off0.000000,0,,,,
11:53:40.132 AM 03/20/2016,Teleop Enabled,10,FALSE,0,NO ERROR,-0.000000,0.000000,0.000000,0.000000,TRUE,FALSE,TRUE,FALSE,FALSE,FALSE,Disabled,-0.018750,0.640625,4.859375,TRUE,-31.272766,-0.354431,0.000000,-0.019302,0.031372,0.000000,0.005000,-0.050000,-0.044000,0.010000,0.070000,2.660000,-0.056933,Hold,0.919434,0.000000,Hold,-264.000000,2.000000,LowGoal,1477.500000,-1454.545455,Speed,1365.000000,-1454.545455,Speed,Off,Off0.000000,0,,,,
11:53:40.233 AM 03/20/2016,Teleop Enabled,9,FALSE,0,NO ERROR,-0.000000,0.000000,0.000000,0.000000,TRUE,FALSE,TRUE,FALSE,FALSE,FALSE,Disabled,-0.018750,0.640625,4.859375,TRUE,-31.273163,-0.353165,0.000000,-0.015457,0.025543,0.000000,0.060000,0.127000,0.036000,0.010000,0.080000,2.640000,-0.045676,Hold,0.919434,0.000000,Hold,-259.000000,2.000000,LowGoal,1552.500000,-1454.545455,Speed,1530.000000,-1454.545455,Speed,Off,Off0.000000,0,,,,
11:53:40.332 AM 03/20/2016,Teleop Enabled,9,FALSE,0,NO ERROR,-0.000000,0.000000,0.000000,0.000000,TRUE,FALSE,TRUE,FALSE,FALSE,FALSE,Disabled,-0.018750,0.640625,4.859375,TRUE,-31.272812,-0.350891,0.000000,0.011673,0.048355,0.000000,0.027000,0.005000,-0.003000,0.010000,0.110000,2.600000,-0.037589,Hold,0.919678,0.000000,Hold,-259.000000,2.000000,LowGoal,1365.000000,-1454.545455,Speed,1320.000000,-1454.545455,Speed,Off,Off0.000000,0,,,,
11:53:40.433 AM 03/20/2016,Teleop Enabled,6,FALSE,0,NO ERROR,-0.000000,0.000000,0.000000,0.000000,TRUE,FALSE,TRUE,FALSE,FALSE,FALSE,Disabled,-0.018750,0.640625,4.859375,TRUE,-31.272293,-0.349380,0.000000,0.019211,0.029068,0.000000,0.059000,0.028000,0.068000,0.010000,0.070000,2.580000,-0.035565,Hold,0.919678,0.000000,Hold,-256.000000,2.000000,LowGoal,1342.500000,-1454.545455,Speed,1267.500000,-1454.545455,Speed,Off,Off0.000000,0,,,,
11:53:40.533 AM 03/20/2016,Teleop Enabled,10,FALSE,0,NO ERROR,-0.000000,0.000000,0.000000,0.000000,TRUE,FALSE,TRUE,FALSE,FALSE,FALSE,Disabled,-0.018750,0.640625,4.859375,TRUE,-31.270126,-0.347168,0.000000,0.053650,0.043488,0.000000,0.028000,-0.042000,-0.027000,0.010000,0.110000,2.580000,-0.043066,Hold,0.919922,0.000000,Hold,-256.000000,2.000000,LowGoal,1410.000000,-1454.545455,Speed,1350.000000,-1454.545455,Speed,Off,Off0.000000,0,,,,
11:53:40.635 AM 03/20/2016,Teleop Enabled,9,FALSE,0,NO ERROR,-0.000000,0.000000,0.000000,0.000000,TRUE,FALSE,TRUE,FALSE,FALSE,FALSE,Disabled,-0.018750,0.640625,4.859375,TRUE,-31.267990,-0.344803,0.000000,0.052795,0.038513,0.000000,-0.053000,-0.101000,0.000000,0.010000,0.110000,2.600000,-0.049735,Hold,0.919922,0.000000,Hold,-252.000000,2.000000,LowGoal,1417.500000,-1454.545455,Speed,1387.500000,-1454.545455,Speed,Off,Off0.000000,0,,,,
11:53:40.736 AM 03/20/2016,Teleop Enabled,9,FALSE,0,NO ERROR,-0.000000,0.000000,0.000000,0.000000,TRUE,FALSE,TRUE,FALSE,FALSE,FALSE,Disabled,-0.018750,0.640625,4.859375,TRUE,-31.266037,-0.343796,0.000000,0.033401,0.013809,0.000000,-0.009000,0.035000,0.027000,0.010000,0.060000,2.580000,-0.055790,Hold,0.919922,0.000000,Hold,-252.000000,2.000000,LowGoal,1395.000000,-1454.545455,Speed,1342.500000,-1454.545455,Speed,Off,Off0.000000,0,,,,
11:53:40.836 AM 03/20/2016,Teleop Enabled,10,FALSE,0,NO ERROR,-0.000000,0.000000,0.000000,0.000000,TRUE,FALSE,TRUE,FALSE,FALSE,FALSE,Disabled,-0.018750,0.640625,4.859375,TRUE,-31.264191,-0.343292,0.000000,0.049316,0.001373,0.000000,0.039000,0.011000,0.023000,0.000000,0.070000,2.560000,-0.062575,Hold,0.919922,0.000000,Hold,-250.000000,2.000000,LowGoal,1387.500000,-1454.545455,Speed,1342.500000,-1454.545455,Speed,Off,Off0.000000,0,,,,
11:53:40.936 AM 03/20/2016,Teleop Enabled,10,FALSE,0,NO ERROR,-0.000000,0.000000,0.000000,0.000000,TRUE,FALSE,TRUE,FALSE,FALSE,FALSE,Disabled,-0.018750,0.640625,4.859375,TRUE,-31.261688,-0.343445,0.000000,0.038834,-0.009613,0.000000,-0.071000,-0.001000,0.083000,0.000000,0.050000,2.540000,-0.068579,Hold,0.919922,0.000000,Hold,-248.000000,2.000000,LowGoal,1402.500000,-1454.545455,Speed,1357.500000,-1454.545455,Speed,Off,Off0.000000,0,,,,
11:53:41.036 AM 03/20/2016,Teleop Enabled,10,FALSE,0,NO ERROR,-0.000000,0.000000,0.000000,0.000000,TRUE,FALSE,TRUE,FALSE,FALSE,FALSE,Disabled,-0.018750,0.640625,4.859375,TRUE,-31.260101,-0.343430,0.000000,0.000000,0.000015,0.000000,0.024000,-0.059000,-0.015000,0.010000,0.060000,2.590000,-0.069481,Hold,0.919922,0.000000,Hold,-248.000000,2.000000,LowGoal,1395.000000,-1454.545455,Speed,1365.000000,-1454.545455,Speed,Off,Off0.000000,0,,,,
11:53:41.137 AM 03/20/2016,Teleop Enabled,11,FALSE,0,NO ERROR,-0.000000,0.000000,0.000000,-0.006417,TRUE,FALSE,TRUE,FALSE,FALSE,FALSE,Disabled,-0.018750,0.640625,4.859375,TRUE,-31.259964,-0.343918,0.000000,0.008759,-0.004868,0.000000,-0.028000,-0.055000,-0.001000,0.000000,0.070000,2.590000,-0.066090,Hold,0.919922,0.000000,Hold,-247.000000,2.000000,LowGoal,1387.500000,-1454.545455,Speed,1357.500000,-1454.545455,Speed,Off,Off0.000000,0,,,,
11:53:41.237 AM 03/20/2016,Teleop Enabled,10,FALSE,0,NO ERROR,-0.000000,0.000000,0.000000,-0.006417,TRUE,FALSE,TRUE,FALSE,FALSE,FALSE,Disabled,-0.018750,0.640625,4.859375,TRUE,-31.259659,-0.344299,0.000000,0.009598,-0.002075,0.000000,-0.032000,-0.019000,0.021000,0.000000,0.030000,2.570000,-0.061519,Hold,0.919922,0.000000,Hold,-246.000000,2.000000,LowGoal,1387.500000,-1454.545455,Speed,1357.500000,-1454.545455,Speed,Off,Off0.000000,0,,,,
11:53:41.339 AM 03/20/2016,Teleop Enabled,8,FALSE,0,NO ERROR,-0.000000,0.000000,0.000000,-0.006417,TRUE,FALSE,TRUE,FALSE,FALSE,FALSE,Disabled,-0.018750,0.640625,4.859375,TRUE,-31.259232,-0.344818,0.000000,0.014664,-0.018707,0.000000,0.033000,0.056000,0.081000,0.000000,0.030000,2.580000,-0.050062,Hold,0.919922,0.000000,Hold,-246.000000,2.000000,LowGoal,1395.000000,-1454.545455,Speed,1357.500000,-1454.545455,Speed,Off,Off0.000000,0,,,,
11:53:41.439 AM 03/20/2016,Teleop Enabled,10,FALSE,0,NO ERROR,-0.000000,0.000000,0.000000,-0.006417,TRUE,FALSE,TRUE,FALSE,FALSE,FALSE,Disabled,-0.018750,0.640625,4.859375,TRUE,-31.258911,-0.345566,0.000000,-0.005859,-0.008942,0.000000,-0.043000,0.026000,-0.010000,0.000000,0.040000,2.540000,-0.053005,Hold,0.919922,0.000000,Hold,-246.000000,2.000000,LowGoal,1387.500000,-1454.545455,Speed,1350.000000,-1454.545455,Speed,Off,Off0.000000,0,,,,
11:53:41.539 AM 03/20/2016,Teleop Enabled,11,FALSE,0,NO ERROR,-0.000000,0.000000,0.000000,-0.006417,TRUE,FALSE,TRUE,FALSE,FALSE,FALSE,Disabled,-0.018750,0.640625,4.859375,TRUE,-31.259262,-0.346039,0.000000,-0.012070,-0.019684,0.000000,0.031000,0.047000,0.054000,0.000000,0.000000,2.540000,-0.041211,Hold,0.919922,0.000000,Hold,-246.000000,2.000000,LowGoal,1387.500000,-1454.545455,Speed,1357.500000,-1454.545455,Speed,Off,Off0.000000,0,,,,
11:53:41.639 AM 03/20/2016,Teleop Enabled,10,FALSE,0,NO ERROR,-0.000000,0.000000,0.000000,-0.006417,TRUE,FALSE,TRUE,FALSE,FALSE,FALSE,Disabled,-0.018750,0.640625,4.859375,TRUE,-31.260040,-0.346436,0.000000,-0.025818,0.002884,0.000000,0.023000,0.016000,-0.054000,0.000000,0.020000,2.550000,-0.026429,Hold,0.919922,0.000000,Hold,-246.000000,2.000000,LowGoal,1387.500000,-1454.545455,Speed,1357.500000,-1454.545455,Speed,Off,Off0.000000,0,,,,
11:53:41.739 AM 03/20/2016,Teleop Enabled,11,FALSE,0,NO ERROR,-0.000000,0.000000,0.000000,-0.006417,TRUE,FALSE,TRUE,FALSE,FALSE,FALSE,Disabled,-0.018750,0.640625,4.859375,TRUE,-31.261368,-0.346603,0.000000,-0.020767,-0.013092,0.000000,-0.027000,0.030000,0.045000,0.000000,0.020000,2.560000,-0.024397,Hold,0.919922,0.000000,Hold,-246.000000,2.000000,LowGoal,1402.500000,-1454.545455,Speed,1357.500000,-1454.545455,Speed,Off,Off0.000000,0,,,,
11:53:41.840 AM 03/20/2016,Teleop Enabled,10,FALSE,0,NO ERROR,-0.000000,0.000000,0.000000,-0.006417,TRUE,FALSE,TRUE,FALSE,FALSE,FALSE,Disabled,-0.018750,0.640625,4.859375,TRUE,-31.262772,-0.346191,0.000000,-0.007523,0.023376,0.000000,0.079000,-0.084000,0.034000,0.000000,0.040000,2.640000,-0.024948,Hold,0.919922,0.000000,Hold,-246.000000,2.000000,LowGoal,1402.500000,-1454.545455,Speed,1357.500000,-1454.545455,Speed,Off,Off0.000000,0,,,,
11:53:41.942 AM 03/20/2016,Teleop Enabled,10,FALSE,0,NO ERROR,-0.000000,0.000000,0.000000,-0.006417,TRUE,FALSE,TRUE,FALSE,FALSE,FALSE,Disabled,-0.018750,0.640625,4.859375,TRUE,-31.263306,-0.346405,0.000000,-0.018845,-0.009125,0.000000,-0.025000,0.075000,-0.016000,0.000000,0.030000,2.570000,-0.018442,Hold,0.919922,0.000000,Hold,-246.000000,2.000000,LowGoal,1402.500000,-1454.545455,Speed,1350.000000,-1454.545455,Speed,Off,Off0.000000,0,,,,
11:53:42.042 AM 03/20/2016,Teleop Enabled,10,FALSE,0,NO ERROR,-0.000000,0.000000,0.000000,-0.006417,TRUE,FALSE,TRUE,FALSE,FALSE,FALSE,Disabled,-0.018750,0.640625,4.859375,TRUE,-31.264664,-0.345871,0.000000,-0.030151,0.014053,0.000000,0.038000,0.036000,0.038000,0.000000,-0.020000,2.580000,-0.033541,Hold,0.919922,0.000000,Hold,-245.000000,2.000000,LowGoal,1395.000000,-1454.545455,Speed,1357.500000,-1454.545455,Speed,Off,Off0.000000,0,,,,
11:53:42.144 AM 03/20/2016,Teleop Enabled,9,FALSE,0,NO ERROR,-0.000000,0.000000,0.000000,-0.006417,TRUE,FALSE,TRUE,FALSE,FALSE,FALSE,Disabled,-0.018750,0.640625,4.859375,TRUE,-31.265411,-0.344177,0.000000,-0.014771,0.028046,0.000000,-0.011000,0.029000,0.081000,0.000000,-0.030000,2.590000,-0.034226,Hold,0.919922,0.000000,Hold,-245.000000,2.000000,LowGoal,1395.000000,-1454.545455,Speed,1357.500000,-1454.545455,Speed,Off,Off0.000000,0,,,,
11:53:42.243 AM 03/20/2016,Teleop Enabled,11,FALSE,0,NO ERROR,-0.000000,0.000000,0.000000,-0.006417,TRUE,FALSE,TRUE,FALSE,FALSE,FALSE,Disabled,-0.018750,0.640625,4.859375,TRUE,-31.266144,-0.342056,0.000000,0.000000,0.038361,0.000000,-0.002000,-0.049000,-0.030000,0.000000,0.000000,2.590000,-0.023086,Hold,0.919922,0.000000,Hold,-245.000000,2.000000,LowGoal,1395.000000,-1454.545455,Speed,1357.500000,-1454.545455,Speed,Off,Off0.000000,0,,,,
11:53:42.344 AM 03/20/2016,Teleop Enabled,10,FALSE,0,NO ERROR,-0.000000,0.000000,0.000000,-0.006417,TRUE,FALSE,TRUE,FALSE,FALSE,FALSE,Disabled,-0.018750,0.640625,4.859375,TRUE,-31.266159,-0.340637,0.000000,-0.004272,0.028046,0.000000,-0.002000,-0.083000,0.011000,0.000000,0.000000,2.620000,-0.033493,Hold,0.919922,0.000000,Hold,-244.000000,2.000000,LowGoal,1395.000000,-1454.545455,Speed,1350.000000,-1454.545455,Speed,Off,Off0.000000,0,,,,
11:53:42.443 AM 03/20/2016,Teleop Enabled,10,FALSE,0,NO ERROR,-0.000000,0.000000,0.000000,-0.006417,TRUE,FALSE,TRUE,FALSE,FALSE,FALSE,Disabled,-0.018750,0.640625,4.859375,TRUE,-31.265869,-0.339310,0.000000,0.008362,0.029312,0.000000,-0.041000,0.081000,-0.046000,0.000000,0.000000,2.590000,-0.029547,Hold,0.919922,0.000000,Hold,-244.000000,2.000000,LowGoal,1395.000000,-1454.545455,Speed,1357.500000,-1454.545455,Speed,Off,Off0.000000,0,,,,
11:53:42.544 AM 03/20/2016,Teleop Enabled,9,FALSE,0,NO ERROR,-0.000000,0.000000,0.000000,-0.006417,TRUE,FALSE,TRUE,FALSE,FALSE,FALSE,Disabled,-0.018750,0.640625,4.859375,TRUE,-31.265823,-0.338333,0.000000,0.002029,0.016602,0.000000,0.009000,0.063000,0.041000,0.000000,0.010000,2.610000,-0.021137,Hold,0.919922,0.000000,Hold,-244.000000,2.000000,LowGoal,1387.500000,-1454.545455,Speed,1357.500000,-1454.545455,Speed,Off,Off0.000000,0,,,,
11:53:42.645 AM 03/20/2016,Teleop Enabled,9,FALSE,0,NO ERROR,-0.000000,0.000000,0.000000,-0.006417,TRUE,FALSE,TRUE,FALSE,FALSE,FALSE,Disabled,-0.018750,0.640625,4.859375,TRUE,-31.265533,-0.336838,0.000000,0.007370,0.036987,0.000000,-0.065000,-0.006000,-0.107000,0.000000,0.010000,2.610000,-0.022621,Hold,0.919922,0.000000,Hold,-244.000000,2.000000,LowGoal,1380.000000,-1454.545455,Speed,1357.500000,-1454.545455,Speed,Off,Off0.000000,0,,,,
11:53:42.746 AM 03/20/2016,Teleop Enabled,10,FALSE,0,NO ERROR,-0.000000,0.000000,0.000000,-0.006417,TRUE,FALSE,TRUE,FALSE,FALSE,FALSE,Disabled,-0.018750,0.640625,4.859375,TRUE,-31.265244,-0.334579,0.000000,0.002960,0.042847,0.000000,-0.005000,0.008000,0.040000,0.000000,0.020000,2.600000,-0.010975,Hold,0.919922,0.000000,Hold,-244.000000,2.000000,LowGoal,1395.000000,-1454.545455,Speed,1350.000000,-1454.545455,Speed,Off,Off0.000000,0,,,,
11:53:42.846 AM 03/20/2016,Teleop Enabled,11,FALSE,0,NO ERROR,-0.000000,0.000000,0.000000,-0.006417,TRUE,FALSE,TRUE,FALSE,FALSE,FALSE,Disabled,-0.018750,0.640625,4.859375,TRUE,-31.265442,-0.334152,0.000000,0.000839,0.015640,0.000000,0.052000,-0.025000,-0.006000,0.000000,0.020000,2.650000,-0.010324,Hold,0.919922,0.000000,Hold,-244.000000,2.000000,LowGoal,1402.500000,-1454.545455,Speed,1350.000000,-1454.545455,Speed,Off,Off0.000000,0,,,,
11:53:42.946 AM 03/20/2016,Teleop Enabled,10,FALSE,0,NO ERROR,-0.000000,0.000000,0.000000,-0.006417,TRUE,FALSE,TRUE,FALSE,FALSE,FALSE,Disabled,-0.018750,0.640625,4.859375,TRUE,-31.265106,-0.333603,0.000000,0.015030,0.011261,0.000000,-0.001000,0.100000,-0.007000,0.000000,0.030000,2.600000,-0.018497,Hold,0.919922,51.000000,Hold,-244.000000,143360.000000,LowGoal,1402.500000,-1454.545455,Speed,1357.500000,-1454.545455,Speed,Off,Off0.000000,0,,,,
11:53:43.047 AM 03/20/2016,Teleop Enabled,10,FALSE,0,NO ERROR,-0.000000,0.000000,0.000000,-0.006417,TRUE,FALSE,TRUE,FALSE,FALSE,FALSE,Disabled,-0.018750,0.640625,4.859375,TRUE,-31.264328,-0.333710,0.000000,0.000351,-0.012985,0.000000,0.037000,-0.004000,0.072000,0.000000,0.100000,2.600000,0.004190,Hold,4.231934,51.000000,Hold,-9042.000000,143360.000000,LowGoal,1395.000000,-1454.545455,Speed,1357.500000,-1454.545455,Speed,Off,Off0.000000,0,,,,
11:53:43.146 AM 03/20/2016,Teleop Enabled,11,FALSE,0,NO ERROR,-0.000000,0.000000,0.000000,-0.006417,TRUE,FALSE,TRUE,FALSE,FALSE,FALSE,Disabled,-0.018750,0.640625,4.859375,TRUE,-31.264709,-0.334137,0.000000,-0.007431,0.000748,0.000000,-0.052000,-0.042000,0.019000,0.040000,0.120000,2.670000,0.018655,Hold,7.737305,51.000000,Hold,-9042.000000,143360.000000,LowGoal,1395.000000,-1454.545455,Speed,1365.000000,-1454.545455,Speed,Off,Off0.000000,0,,,,
11:53:43.247 AM 03/20/2016,Teleop Enabled,9,FALSE,0,NO ERROR,-0.000000,0.000000,0.000000,-0.006417,TRUE,FALSE,TRUE,FALSE,FALSE,FALSE,Disabled,-0.018750,0.640625,4.859375,TRUE,-31.265610,-0.334442,0.000000,0.000000,0.005890,0.000000,0.090000,0.032000,0.006000,0.060000,0.170000,2.650000,0.031152,Hold,12.664307,51.000000,Hold,-23364.000000,143360.000000,LowGoal,1402.500000,-1454.545455,Speed,1380.000000,-1454.545455,Speed,Off,Off0.000000,0,,,,
11:53:43.348 AM 03/20/2016,Teleop Enabled,10,FALSE,0,NO ERROR,-0.000000,0.000000,0.000000,-0.006417,TRUE,FALSE,TRUE,FALSE,FALSE,FALSE,Disabled,-0.018750,0.640625,4.859375,TRUE,-31.264587,-0.334488,0.000000,0.019531,-0.009491,0.000000,-0.046000,0.008000,0.031000,0.060000,0.070000,2.620000,0.047576,Hold,17.215576,51.000000,Hold,-34619.000000,143360.000000,LowGoal,1402.500000,-1454.545455,Speed,1380.000000,-1454.545455,Speed,Off,Off0.000000,0,,,,
11:53:43.448 AM 03/20/2016,Teleop Enabled,10,FALSE,0,NO ERROR,-0.000000,0.000000,0.000000,-0.006417,TRUE,FALSE,TRUE,FALSE,FALSE,FALSE,Disabled,-0.018750,0.640625,4.859375,TRUE,-31.264023,-0.334671,0.000000,0.012268,-0.005112,0.000000,-0.007000,-0.045000,0.014000,0.030000,0.040000,2.580000,0.014844,Hold,23.909912,51.000000,Hold,-47266.000000,143360.000000,LowGoal,1402.500000,-1454.545455,Speed,1380.000000,-1454.545455,Speed,Off,Off0.000000,0,,,,
11:53:43.550 AM 03/20/2016,Teleop Enabled,10,FALSE,0,NO ERROR,-0.000000,0.000000,0.000000,-0.006417,TRUE,FALSE,TRUE,FALSE,FALSE,FALSE,Disabled,-0.018750,0.640625,4.859375,TRUE,-31.264221,-0.335068,0.000000,-0.005356,0.005066,0.000000,0.124000,0.026000,0.018000,0.080000,0.100000,2.600000,0.068028,Hold,31.798340,51.000000,Hold,-61079.000000,143360.000000,LowGoal,1402.500000,-1454.545455,Speed,1380.000000,-1454.545455,Speed,Off,Off0.000000,0,,,,
11:53:43.650 AM 03/20/2016,Teleop Enabled,11,FALSE,0,NO ERROR,-0.000000,-0.089833,0.000000,-0.006417,TRUE,FALSE,TRUE,FALSE,FALSE,FALSE,Disabled,-0.018750,0.640625,4.859375,TRUE,-31.260666,-0.334747,0.000000,0.090057,-0.005676,0.000000,-0.073000,-0.017000,-0.034000,0.000000,-0.310000,2.560000,-0.061061,Hold,41.106445,51.000000,Hold,-75864.000000,143360.000000,LowGoal,1410.000000,-1454.545455,Speed,1387.500000,-1454.545455,Speed,Off,Off0.000000,0,,,,
11:53:43.750 AM 03/20/2016,Teleop Enabled,10,FALSE,0,NO ERROR,-0.000000,-0.519749,0.000000,-0.089833,TRUE,FALSE,TRUE,FALSE,FALSE,FALSE,Disabled,-0.018750,0.640625,4.859375,TRUE,-31.256775,-0.334686,0.000000,0.063248,0.002747,0.000000,-0.080000,0.116000,0.119000,-0.380000,-0.180000,2.530000,-0.440162,Hold,51.886475,51.000000,Hold,-95079.000000,143360.000000,LowGoal,1410.000000,-1454.545455,Speed,1380.000000,-1454.545455,Speed,Off,Off0.000000,0,,,,
11:53:43.851 AM 03/20/2016,Teleop Enabled,9,FALSE,0,NO ERROR,-0.000000,-0.526165,0.000000,-0.102666,TRUE,FALSE,TRUE,FALSE,FALSE,FALSE,Disabled,-0.018750,0.640625,4.859375,TRUE,-31.256561,-0.332031,0.000000,-0.030289,0.063675,0.000000,-0.034000,-0.031000,-0.318000,-0.350000,-1.030000,2.680000,-0.289898,Hold,57.193115,51.000000,Hold,-95079.000000,143360.000000,LowGoal,1410.000000,-1454.545455,Speed,1372.500000,-1454.545455,Speed,Off,Off0.000000,0,,,,
11:53:43.951 AM 03/20/2016,Teleop Enabled,9,FALSE,0,NO ERROR,-0.000000,-0.487666,0.000000,-0.115500,TRUE,FALSE,TRUE,FALSE,FALSE,FALSE,Disabled,-0.018750,0.640625,4.859375,TRUE,-31.258545,-0.329330,0.000000,-0.042618,0.047409,0.000000,-0.034000,-0.031000,-0.318000,-0.200000,-0.300000,2.600000,-0.224885,Hold,57.408691,51.000000,Hold,-114402.000000,143360.000000,LowGoal,1402.500000,-1454.545455,Speed,1380.000000,-1454.545455,Speed,Off,Off0.000000,0,,,,
11:53:44.051 AM 03/20/2016,Teleop Enabled,9,FALSE,0,NO ERROR,-0.000000,-0.461999,0.000000,-0.115500,TRUE,FALSE,TRUE,FALSE,FALSE,FALSE,Disabled,-0.018750,0.640625,4.859375,TRUE,-31.260040,-0.326126,0.000000,0.024078,0.075043,0.000000,-0.067000,0.107000,0.107000,-0.200000,-0.300000,2.600000,-0.244976,Hold,56.493408,51.000000,HighGoal,-135021.000000,69632.000000,HighGoal,1410.000000,-3272.727273,Speed,1380.000000,-3272.727273,Speed,Off,Off0.000000,0,,,,
11:53:44.152 AM 03/20/2016,Teleop Enabled,9,FALSE,0,NO ERROR,-0.000000,-0.468416,0.000000,-0.115500,TRUE,FALSE,TRUE,FALSE,FALSE,FALSE,Disabled,-0.018750,0.640625,4.859375,TRUE,-31.259888,-0.321457,0.000000,-0.014603,0.068359,0.000000,-0.027000,-0.014000,0.166000,-0.230000,-0.450000,2.700000,-0.227605,Hold,56.253174,51.000000,Hold,-144387.000000,69632.000000,HighGoal,1447.500000,-3272.727273,Speed,1462.500000,-3272.727273,Speed,Off,Off0.000000,0,,,,
11:53:44.251 AM 03/20/2016,Teleop Enabled,9,FALSE,0,NO ERROR,-0.000000,-0.461999,0.000000,-0.115500,TRUE,FALSE,TRUE,FALSE,FALSE,FALSE,Disabled,-0.018750,0.640625,4.859375,TRUE,-31.259827,-0.317307,0.000000,0.012650,0.064224,0.000000,-0.027000,-0.014000,0.166000,-0.230000,-0.450000,2.700000,-0.164465,Hold,56.253174,51.000000,HighGoal,-138059.000000,69632.000000,HighGoal,1867.500000,-3272.727273,Speed,1822.500000,-3272.727273,Speed,Off,Off0.000000,0,,,,
11:53:44.351 AM 03/20/2016,Teleop Enabled,10,FALSE,0,NO ERROR,-0.000000,-0.461999,0.000000,-0.115500,TRUE,FALSE,TRUE,FALSE,FALSE,FALSE,Disabled,-0.018750,0.640625,4.859375,TRUE,-31.258179,-0.313400,0.000000,0.025986,0.094833,0.000000,0.066000,-0.011000,0.147000,-0.150000,-0.410000,2.600000,-0.169370,Hold,56.266846,51.000000,Hold,-131621.000000,69632.000000,HighGoal,2235.000000,-3272.727273,Speed,2287.500000,-3272.727273,Speed,Off,Off0.000000,0,,,,
11:53:44.452 AM 03/20/2016,Teleop Enabled,9,FALSE,0,NO ERROR,-0.000000,-0.461999,0.000000,-0.115500,TRUE,FALSE,TRUE,FALSE,FALSE,FALSE,Disabled,-0.018750,0.640625,4.859375,TRUE,-31.257263,-0.310196,0.000000,-0.009888,0.072662,0.000000,0.107000,-0.196000,0.011000,-0.160000,-0.460000,2.680000,-0.185664,Hold,56.266602,51.000000,HighGoal,-131621.000000,69632.000000,HighGoal,2655.000000,-3272.727273,Speed,2662.500000,-3272.727273,Speed,Off,Off0.000000,0,,,,
11:53:44.552 AM 03/20/2016,Teleop Enabled,9,FALSE,0,NO ERROR,-0.000000,-0.461999,0.000000,-0.115500,TRUE,FALSE,TRUE,FALSE,FALSE,FALSE,Disabled,-0.018750,0.640625,4.859375,TRUE,-31.258789,-0.306808,0.000000,-0.029541,0.069641,0.000000,-0.062000,0.069000,-0.035000,-0.190000,-0.480000,2.620000,-0.194050,Hold,56.264648,51.000000,Hold,-124992.000000,69632.000000,HighGoal,2887.500000,-3272.727273,Speed,2970.000000,-3272.727273,Speed,Off,Off0.000000,0,,,,
11:53:44.652 AM 03/20/2016,Teleop Enabled,10,FALSE,0,NO ERROR,-0.000000,-0.461999,0.000000,-0.115500,TRUE,FALSE,TRUE,FALSE,FALSE,FALSE,Disabled,-0.018750,0.640625,4.859375,TRUE,-31.260284,-0.303070,0.000000,-0.022858,0.104309,0.000000,-0.096000,0.038000,-0.010000,-0.180000,-0.520000,2.610000,-0.198653,Hold,56.260498,51.000000,Hold,-118033.000000,69632.000000,HighGoal,3105.000000,-3272.727273,Speed,3172.500000,-3272.727273,Speed,Off,Off0.000000,0,,,,
11:53:44.753 AM 03/20/2016,Teleop Enabled,11,FALSE,0,NO ERROR,-0.000000,-0.461999,0.000000,-0.115500,TRUE,FALSE,TRUE,FALSE,FALSE,FALSE,Disabled,-0.018750,0.640625,4.859375,TRUE,-31.261810,-0.296295,0.000000,-0.023026,0.177597,0.000000,0.002000,-0.116000,-0.052000,-0.180000,-0.510000,2.700000,-0.191943,Hold,56.259521,51.000000,Hold,-110276.000000,69632.000000,HighGoal,3232.500000,-3272.727273,Speed,3285.000000,-3272.727273,Speed,Off,Off0.000000,0,,,,
11:53:44.852 AM 03/20/2016,Teleop Enabled,10,FALSE,0,NO ERROR,-0.000000,-0.461999,0.000000,-0.115500,TRUE,FALSE,TRUE,FALSE,FALSE,FALSE,Disabled,-0.018750,0.640625,4.859375,TRUE,-31.262939,-0.286835,0.000000,-0.021667,0.164886,0.000000,-0.098000,0.179000,-0.023000,-0.180000,-0.490000,2.630000,-0.189781,Hold,56.258789,51.000000,Hold,-101497.000000,69632.000000,HighGoal,3217.500000,-3272.727273,Speed,3225.000000,-3272.727273,Speed,Off,Off0.000000,0,,,,
11:53:44.952 AM 03/20/2016,Teleop Enabled,10,FALSE,0,NO ERROR,-0.000000,-0.461999,0.000000,-0.115500,TRUE,FALSE,TRUE,FALSE,FALSE,FALSE,Disabled,-0.018750,0.640625,4.859375,TRUE,-31.264267,-0.281067,0.000000,-0.014343,0.087204,0.000000,0.146000,-0.004000,0.208000,-0.180000,-0.510000,2.600000,-0.171973,Hold,56.258057,51.000000,Hold,-92405.000000,69632.000000,HighGoal,3180.000000,-3272.727273,Speed,3187.500000,-3272.727273,Speed,Off,Off0.000000,0,,,,
11:53:45.052 AM 03/20/2016,Teleop Enabled,10,FALSE,0,NO ERROR,-0.000000,-0.461999,0.000000,-0.115500,TRUE,FALSE,TRUE,FALSE,FALSE,FALSE,Disabled,-0.018750,0.640625,4.859375,TRUE,-31.264832,-0.272125,0.000000,-0.014618,0.204880,0.000000,-0.065000,-0.170000,0.035000,-0.180000,-0.460000,2.560000,-0.168723,Hold,56.257324,51.000000,Hold,-83124.000000,69632.000000,HighGoal,3180.000000,-3272.727273,Speed,3225.000000,-3272.727273,Speed,Off,Off0.000000,0,,,,
11:53:45.153 AM 03/20/2016,Teleop Enabled,10,FALSE,0,NO ERROR,-0.000000,-0.461999,0.000000,-0.115500,TRUE,FALSE,TRUE,FALSE,FALSE,FALSE,Disabled,-0.018750,0.640625,4.859375,TRUE,-31.265137,-0.263382,0.000000,-0.013474,0.134766,0.000000,-0.076000,0.181000,-0.059000,-0.180000,-0.460000,2.550000,-0.150516,Hold,56.257080,51.000000,Hold,-83124.000000,69632.000000,HighGoal,3195.000000,-3272.727273,Speed,3240.000000,-3272.727273,Speed,Off,Off0.000000,0,,,,
11:53:45.254 AM 03/20/2016,Teleop Enabled,10,FALSE,0,NO ERROR,-0.000000,-0.455582,0.000000,-0.115500,TRUE,FALSE,TRUE,FALSE,FALSE,FALSE,Disabled,-0.018750,0.640625,4.859375,TRUE,-31.265137,-0.263382,0.000000,-0.013474,0.134766,0.000000,-0.290000,-0.251000,-0.209000,-0.190000,-0.510000,2.570000,-0.155235,Hold,56.256348,51.000000,Hold,-73307.000000,69632.000000,HighGoal,3202.500000,-3272.727273,Speed,3217.500000,-3272.727273,Speed,Off,Off0.000000,0,,,,
11:53:45.355 AM 03/20/2016,Teleop Enabled,11,FALSE,0,NO ERROR,-0.000000,-0.449166,0.000000,-0.115500,TRUE,FALSE,TRUE,FALSE,FALSE,FALSE,Disabled,-0.018750,0.640625,4.859375,TRUE,-31.266922,-0.250900,0.000000,0.003250,0.173569,0.000000,0.114000,0.095000,-0.023000,-0.190000,-0.400000,2.540000,-0.197062,Hold,56.255859,51.000000,Hold,-69276.000000,69632.000000,HighGoal,3195.000000,-3272.727273,Speed,3202.500000,-3272.727273,Speed,Off,Off0.000000,0,,,,
11:53:45.457 AM 03/20/2016,Teleop Enabled,10,FALSE,0,NO ERROR,-0.000000,-0.449166,0.000000,-0.115500,TRUE,FALSE,TRUE,FALSE,FALSE,FALSE,Disabled,-0.018750,0.640625,4.859375,TRUE,-31.266922,-0.250900,0.000000,0.003250,0.173569,0.000000,0.204000,0.016000,-0.044000,-0.230000,-0.320000,2.540000,-0.224809,Hold,56.253174,51.000000,Hold,-69642.000000,69632.000000,HighGoal,3195.000000,-3272.727273,Speed,3240.000000,-3272.727273,Speed,Off,Off0.000000,0,,,,
11:53:45.557 AM 03/20/2016,Teleop Enabled,10,FALSE,0,NO ERROR,-0.000000,-0.449166,0.000000,-0.115500,TRUE,FALSE,TRUE,FALSE,FALSE,FALSE,Disabled,-0.018750,0.640625,4.859375,TRUE,-31.265106,-0.243088,0.000000,0.023682,0.138245,0.000000,-0.155000,-0.099000,-0.003000,-0.240000,-0.540000,2.610000,-0.224809,Hold,56.253906,51.000000,Hold,-69685.000000,69632.000000,HighGoal,3202.500000,-3272.727273,Speed,3247.500000,-3272.727273,Speed,Off,Off0.000000,0,,,,
11:53:45.657 AM 03/20/2016,Teleop Enabled,10,FALSE,0,NO ERROR,-0.000000,-0.449166,0.000000,-0.115500,TRUE,FALSE,TRUE,FALSE,FALSE,FALSE,Disabled,-0.018750,0.640625,4.859375,TRUE,-31.265793,-0.237000,0.000000,-0.017227,0.136246,0.000000,0.073000,0.122000,0.073000,-0.210000,-0.440000,2.650000,-0.146553,Hold,56.058838,51.000000,Hold,-69702.000000,69632.000000,HighGoal,3210.000000,-3272.727273,Speed,3232.500000,-3272.727273,Speed,Off,Off0.000000,0,,,,
11:53:45.758 AM 03/20/2016,Teleop Enabled,10,FALSE,0,NO ERROR,-0.000000,-0.449166,0.000000,-0.115500,TRUE,FALSE,TRUE,FALSE,FALSE,FALSE,Disabled,-0.018750,0.640625,4.859375,TRUE,-31.266251,-0.228943,0.000000,-0.011719,0.179535,0.000000,-0.090000,-0.158000,-0.153000,-0.220000,-0.380000,2.610000,-0.187750,Hold,56.048340,51.000000,Hold,-69702.000000,69632.000000,HighGoal,3210.000000,-3272.727273,Speed,3217.500000,-3272.727273,Speed,Off,Off0.000000,0,,,,
11:53:45.859 AM 03/20/2016,Teleop Enabled,10,FALSE,0,NO ERROR,-0.000000,-0.449166,0.000000,-0.115500,TRUE,FALSE,TRUE,FALSE,FALSE,FALSE,Disabled,-0.018750,0.640625,4.859375,TRUE,-31.267258,-0.220840,0.000000,-0.028229,0.093262,0.000000,0.055000,0.127000,0.074000,-0.200000,-0.450000,2.600000,-0.169897,Hold,56.044922,51.000000,Hold,-69708.000000,69632.000000,HighGoal,3202.500000,-3272.727273,Speed,3225.000000,-3272.727273,Speed,Off,Off0.000000,0,,,,
11:53:45.960 AM 03/20/2016,Teleop Enabled,10,FALSE,0,NO ERROR,-0.000000,-0.449166,0.000000,-0.115500,TRUE,FALSE,TRUE,FALSE,FALSE,FALSE,Disabled,-0.018750,0.640625,4.859375,TRUE,-31.269302,-0.214737,0.000000,-0.029617,0.147385,0.000000,-0.026000,0.060000,0.013000,-0.200000,-0.380000,2.560000,-0.159390,Hold,55.994873,51.000000,Hold,-69709.000000,69632.000000,HighGoal,3210.000000,-3272.727273,Speed,3225.000000,-3272.727273,Speed,Off,Off0.000000,0,,,,
11:53:46.061 AM 03/20/2016,Teleop Enabled,11,FALSE,0,NO ERROR,0.000000,-0.449166,-0.000000,-0.115500,TRUE,FALSE,TRUE,TRUE,TRUE,FALSE,Disabled,-0.018750,0.640625,4.859375,TRUE,-31.270004,-0.207962,0.000000,-0.003357,0.161896,0.000000,-0.011000,-0.081000,0.013000,-0.200000,-0.420000,2.600000,-0.156385,Hold,55.994141,51.000000,Hold,-69709.000000,69632.000000,HighGoal,3210.000000,-3272.727273,Speed,3232.500000,-3272.727273,Speed,Off,Off0.000000,0,,,,
11:53:46.162 AM 03/20/2016,Teleop Enabled,11,FALSE,0,NO ERROR,0.000000,-0.449166,-0.000000,-0.115500,TRUE,FALSE,TRUE,TRUE,TRUE,FALSE,Disabled,-0.018750,0.640625,4.859375,TRUE,-31.269516,-0.202499,0.000000,0.005981,0.086853,0.000000,0.016000,0.082000,0.111000,-0.210000,-0.360000,2.570000,-0.166775,Hold,55.992432,51.000000,Hold,-69709.000000,69632.000000,HighGoal,3210.000000,-3272.727273,Speed,3232.500000,-3272.727273,Speed,Off,Off0.000000,0,,,,
11:53:46.263 AM 03/20/2016,Teleop Enabled,10,FALSE,0,NO ERROR,0.000000,-0.442749,-0.000000,-0.115500,TRUE,FALSE,TRUE,TRUE,TRUE,FALSE,Disabled,-0.018750,0.640625,4.859375,TRUE,-31.270325,-0.194992,0.000000,-0.034256,0.161697,0.000000,-0.143000,0.101000,-0.069000,-0.210000,-0.390000,2.600000,-0.155765,Hold,55.991699,51.000000,Hold,-69709.000000,69632.000000,HighGoal,3202.500000,-3272.727273,Speed,3225.000000,-3272.727273,Speed,Off,Off0.000000,0,,,,
11:53:46.363 AM 03/20/2016,Teleop Enabled,11,FALSE,0,NO ERROR,0.000000,-0.429916,-0.000000,-0.115500,TRUE,FALSE,TRUE,TRUE,TRUE,FALSE,Disabled,-0.018750,0.640625,4.859375,TRUE,-31.271393,-0.188828,0.000000,-0.020767,0.142776,0.000000,0.144000,-0.059000,0.010000,-0.190000,-0.400000,2.610000,-0.133527,Hold,55.990967,51.000000,Hold,-69709.000000,69632.000000,HighGoal,3210.000000,-3272.727273,Speed,3225.000000,-3272.727273,Speed,Off,Off0.000000,0,,,,
11:53:46.463 AM 03/20/2016,Teleop Enabled,10,FALSE,0,NO ERROR,0.000000,-0.429916,-0.000000,-0.115500,TRUE,FALSE,TRUE,TRUE,TRUE,FALSE,Enable,-0.012500,0.512500,-0.702500,TRUE,-31.272308,-0.181107,0.000000,-0.009415,0.114029,0.000000,-0.158000,0.008000,-0.036000,-0.180000,-0.370000,2.620000,-0.118937,Hold,55.990479,51.000000,Hold,-69709.000000,69632.000000,HighGoal,3210.000000,-3272.727273,Speed,3225.000000,-3272.727273,Speed,Off,Off0.000000,0,,,,
11:53:46.563 AM 03/20/2016,Teleop Enabled,10,FALSE,0,NO ERROR,0.000000,-0.423499,-0.000000,-0.115500,TRUE,FALSE,TRUE,TRUE,TRUE,FALSE,Suspended,-0.012500,0.512500,-0.702500,TRUE,-31.273056,-0.173828,0.000000,-0.014267,0.149673,0.000000,0.123000,-0.008000,-0.099000,-0.190000,-0.380000,2.610000,-0.126249,Hold,55.989990,51.000000,Hold,-69709.000000,69632.000000,HighGoal,3210.000000,-3272.727273,Speed,3225.000000,-3272.727273,Speed,Off,Off0.000000,0,,,,
11:53:46.663 AM 03/20/2016,Teleop Enabled,10,FALSE,0,NO ERROR,0.000000,-0.423499,-0.000000,-0.115500,TRUE,FALSE,TRUE,TRUE,TRUE,FALSE,Suspended,-0.012500,0.512500,-0.702500,TRUE,-31.273071,-0.166672,0.000000,0.008789,0.146774,0.000000,-0.009000,-0.087000,0.107000,-0.190000,-0.360000,2.600000,-0.122793,Hold,55.989258,51.000000,Hold,-69709.000000,69632.000000,HighGoal,3210.000000,-3272.727273,Speed,3225.000000,-3272.727273,Speed,Off,Off0.000000,0,,,,
11:53:46.763 AM 03/20/2016,Teleop Enabled,10,FALSE,0,NO ERROR,0.000000,-0.423499,-0.000000,-0.115500,TRUE,FALSE,TRUE,TRUE,TRUE,FALSE,Suspended,-0.012500,0.512500,-0.702500,TRUE,-31.273178,-0.158371,0.000000,-0.007324,0.166626,0.000000,-0.097000,-0.059000,-0.200000,-0.190000,-0.370000,2.620000,-0.139947,Hold,55.989014,51.000000,Hold,-69709.000000,69632.000000,HighGoal,3210.000000,-3272.727273,Speed,3232.500000,-3272.727273,Speed,Off,Off0.000000,0,,,,
11:53:46.864 AM 03/20/2016,Teleop Enabled,10,FALSE,0,NO ERROR,0.000000,-0.423499,-0.000000,-0.115500,TRUE,FALSE,TRUE,TRUE,TRUE,FALSE,Suspended,-0.012500,0.512500,-0.702500,TRUE,-31.274033,-0.151154,0.000000,-0.020309,0.127716,0.000000,-0.282000,-0.086000,-0.008000,-0.190000,-0.400000,2.560000,-0.130604,Hold,55.988525,51.000000,Hold,-69709.000000,69632.000000,HighGoal,3210.000000,-3272.727273,Speed,3240.000000,-3272.727273,Speed,Off,Off0.000000,0,,,,
11:53:46.965 AM 03/20/2016,Teleop Enabled,9,FALSE,0,NO ERROR,0.000000,-0.423499,-0.000000,-0.115500,TRUE,FALSE,TRUE,TRUE,TRUE,FALSE,Suspended,-0.012500,0.512500,-0.702500,TRUE,-31.275543,-0.144135,0.000000,-0.026733,0.155304,0.000000,0.193000,0.188000,-0.011000,-0.180000,-0.400000,2.580000,-0.136873,Hold,55.987305,51.000000,Hold,-69709.000000,69632.000000,HighGoal,3217.500000,-3272.727273,Speed,3217.500000,-3272.727273,Speed,Off,Off0.000000,0,,,,
11:53:47.066 AM 03/20/2016,Teleop Enabled,10,FALSE,0,NO ERROR,0.000000,-0.423499,-0.000000,-0.115500,TRUE,FALSE,TRUE,TRUE,TRUE,FALSE,Suspended,-0.012500,0.512500,-0.702500,TRUE,-31.276245,-0.136826,0.000000,-0.008438,0.134888,0.000000,-0.016000,-0.147000,0.095000,-0.180000,-0.360000,2.630000,-0.138208,Hold,55.986816,51.000000,Hold,-69709.000000,69632.000000,Shoot,3240.000000,-3272.727273,Speed,3225.000000,-3272.727273,Speed,Off,On0.000000,0,,,,
11:53:47.167 AM 03/20/2016,Teleop Enabled,9,FALSE,0,NO ERROR,0.000000,-0.423499,-0.000000,-0.115500,TRUE,FALSE,TRUE,TRUE,TRUE,FALSE,Suspended,-0.012500,0.512500,-0.702500,TRUE,-31.276001,-0.128571,0.000000,0.010544,0.202621,0.000000,-0.023000,0.047000,-0.130000,-0.180000,-0.370000,2.590000,-0.143692,Hold,55.986328,51.000000,Hold,-69709.000000,69632.000000,Shoot,3247.500000,-3272.727273,Speed,3240.000000,-3272.727273,Speed,Off,On0.000000,0,,,,
11:53:47.267 AM 03/20/2016,Teleop Enabled,10,FALSE,0,NO ERROR,0.000000,-0.423499,-0.000000,-0.115500,TRUE,FALSE,TRUE,TRUE,TRUE,FALSE,Suspended,-0.012500,0.512500,-0.702500,TRUE,-31.274460,-0.118729,0.000000,0.042221,0.168259,0.000000,0.181000,-0.021000,0.155000,-0.190000,-0.370000,2.520000,-0.143066,Hold,55.986084,51.000000,Hold,-69709.000000,69632.000000,Shoot,3232.500000,-3272.727273,Speed,3225.000000,-3272.727273,Speed,Off,On0.000000,0,,,,
11:53:47.367 AM 03/20/2016,Teleop Enabled,9,FALSE,0,NO ERROR,0.000000,-0.423499,-0.000000,-0.115500,TRUE,FALSE,TRUE,TRUE,TRUE,FALSE,Suspended,-0.012500,0.512500,-0.702500,TRUE,-31.272705,-0.115555,0.000000,0.041702,0.000900,0.000000,-0.304000,-0.022000,-0.073000,-0.180000,-0.300000,2.520000,-0.151992,Hold,55.985840,51.000000,Hold,-69709.000000,69632.000000,Shoot,3195.000000,-3272.727273,Speed,3232.500000,-3272.727273,Speed,Off,On0.000000,0,,,,
11:53:47.467 AM 03/20/2016,Teleop Enabled,11,FALSE,0,NO ERROR,0.000000,-0.423499,-0.000000,-0.115500,TRUE,FALSE,TRUE,TRUE,TRUE,FALSE,Suspended,-0.012500,0.512500,-0.702500,TRUE,-31.269760,-0.114487,0.000000,0.056915,0.025009,0.000000,0.198000,0.110000,0.058000,-0.190000,-0.370000,2.540000,-0.148990,Hold,55.985840,51.000000,Hold,-69709.000000,69632.000000,Shoot,3202.500000,-3272.727273,Speed,3225.000000,-3272.727273,Speed,On,On0.000000,0,,,,
11:53:47.568 AM 03/20/2016,Teleop Enabled,11,FALSE,0,NO ERROR,0.000000,-0.423499,-0.000000,-0.115500,TRUE,FALSE,FALSE,TRUE,TRUE,FALSE,Suspended,-0.012500,0.512500,-0.702500,TRUE,-31.266418,-0.115402,0.000000,0.062927,-0.059891,0.000000,-0.085000,-0.227000,0.089000,-0.190000,-0.320000,2.570000,-0.164317,Hold,55.985596,51.000000,Hold,-69709.000000,69632.000000,Shoot,3187.500000,-3272.727273,Speed,3210.000000,-3272.727273,Speed,On,On0.000000,0,,,,
11:53:47.669 AM 03/20/2016,Teleop Enabled,10,FALSE,0,NO ERROR,0.000000,-0.365749,-0.000000,-0.115500,TRUE,FALSE,FALSE,TRUE,TRUE,FALSE,Suspended,-0.012500,0.512500,-0.702500,TRUE,-31.264694,-0.119843,0.000000,0.024185,-0.095734,0.000000,0.048000,0.096000,0.075000,-0.160000,-0.420000,2.560000,-0.135234,Hold,55.985596,51.000000,Hold,-69709.000000,69632.000000,Shoot,2092.500000,-3272.727273,Speed,2137.500000,-3272.727273,Speed,On,On0.000000,0,,,,
11:53:47.770 AM 03/20/2016,Teleop Enabled,10,FALSE,0,NO ERROR,0.000000,-0.352916,-0.000000,-0.115500,TRUE,FALSE,FALSE,TRUE,TRUE,FALSE,Suspended,-0.012500,0.512500,-0.702500,TRUE,-31.263214,-0.124603,0.000000,0.019104,-0.096375,0.000000,0.037000,-0.053000,0.052000,-0.160000,-0.280000,2.540000,-0.119794,Hold,55.985352,51.000000,Hold,-69709.000000,69632.000000,Shoot,2295.000000,-3272.727273,Speed,2355.000000,-3272.727273,Speed,On,On0.000000,0,,,,
11:53:47.871 AM 03/20/2016,Teleop Enabled,10,FALSE,0,NO ERROR,0.000000,-0.352916,-0.000000,-0.115500,TRUE,FALSE,FALSE,TRUE,TRUE,FALSE,Suspended,-0.012500,0.512500,-0.702500,TRUE,-31.261887,-0.130051,0.000000,0.030228,-0.084946,0.000000,-0.032000,-0.253000,-0.055000,-0.170000,-0.290000,2.630000,-0.127915,Hold,55.985352,51.000000,Hold,-69709.000000,69632.000000,Shoot,2700.000000,-3272.727273,Speed,2730.000000,-3272.727273,Speed,On,On0.000000,0,,,,
11:53:47.972 AM 03/20/2016,Teleop Enabled,10,FALSE,0,NO ERROR,0.000000,-0.352916,-0.000000,-0.115500,TRUE,FALSE,FALSE,TRUE,TRUE,FALSE,Suspended,-0.012500,0.512500,-0.702500,TRUE,-31.260803,-0.134079,0.000000,0.013489,-0.058380,0.000000,0.030000,-0.101000,-0.016000,-0.180000,-0.380000,2.580000,-0.146026,Hold,55.985352,51.000000,Hold,-69709.000000,69632.000000,Shoot,3000.000000,-3272.727273,Speed,3037.500000,-3272.727273,Speed,On,On0.000000,0,,,,
11:53:48.073 AM 03/20/2016,Teleop Enabled,10,FALSE,0,NO ERROR,0.000000,-0.352916,-0.000000,-0.115500,TRUE,FALSE,FALSE,TRUE,TRUE,FALSE,Suspended,-0.012500,0.512500,-0.702500,TRUE,-31.260696,-0.135590,0.000000,-0.006058,-0.006165,0.000000,0.013000,-0.013000,-0.244000,-0.150000,-0.380000,2.560000,-0.117766,Hold,55.985107,51.000000,Hold,-69709.000000,69632.000000,Shoot,3187.500000,-3272.727273,Speed,3255.000000,-3272.727273,Speed,On,On0.000000,0,,,,
11:53:48.173 AM 03/20/2016,Teleop Enabled,10,FALSE,0,NO ERROR,0.000000,-0.352916,-0.000000,-0.115500,TRUE,FALSE,FALSE,TRUE,TRUE,FALSE,Suspended,-0.012500,0.512500,-0.702500,TRUE,-31.260406,-0.134171,0.000000,0.010132,0.044113,0.000000,0.001000,0.032000,0.083000,-0.170000,-0.390000,2.550000,-0.121915,Hold,55.985107,51.000000,Hold,-69709.000000,69632.000000,Shoot,3270.000000,-3272.727273,Speed,3270.000000,-3272.727273,Speed,On,On0.000000,0,,,,
11:53:48.274 AM 03/20/2016,Teleop Enabled,9,FALSE,0,NO ERROR,0.000000,-0.352916,-0.000000,-0.115500,TRUE,FALSE,FALSE,TRUE,TRUE,FALSE,Suspended,-0.012500,0.512500,-0.702500,TRUE,-31.260056,-0.133667,0.000000,0.011566,-0.004272,0.000000,-0.077000,-0.029000,-0.080000,-0.170000,-0.380000,2.540000,-0.126617,Hold,55.984863,51.000000,Hold,-69709.000000,69632.000000,Shoot,3225.000000,-3272.727273,Speed,3232.500000,-3272.727273,Speed,On,On0.000000,0,,,,
11:53:48.375 AM 03/20/2016,Teleop Enabled,9,FALSE,0,NO ERROR,0.000000,-0.352916,-0.000000,-0.115500,TRUE,FALSE,FALSE,TRUE,TRUE,FALSE,Suspended,-0.012500,0.512500,-0.702500,TRUE,-31.259628,-0.134399,0.000000,0.001419,0.007645,0.000000,0.224000,0.134000,0.102000,-0.170000,-0.380000,2.560000,-0.106578,Hold,55.984375,51.000000,Hold,-69709.000000,69632.000000,Shoot,3195.000000,-3272.727273,Speed,3217.500000,-3272.727273,Speed,On,On0.000000,0,,,,
11:53:48.475 AM 03/20/2016,Teleop Enabled,10,FALSE,0,NO ERROR,0.000000,-0.352916,-0.000000,-0.115500,TRUE,FALSE,FALSE,TRUE,TRUE,FALSE,Suspended,-0.012500,0.512500,-0.702500,TRUE,-31.259018,-0.133911,0.000000,0.026520,-0.000641,0.000000,0.200000,0.184000,0.063000,-0.170000,-0.370000,2.540000,-0.124493,Hold,55.984131,51.000000,Hold,-69709.000000,69632.000000,Shoot,3202.500000,-3272.727273,Speed,3225.000000,-3272.727273,Speed,On,On0.000000,0,,,,
11:53:48.576 AM 03/20/2016,Teleop Enabled,11,FALSE,0,NO ERROR,0.000000,-0.352916,-0.000000,-0.115500,TRUE,FALSE,FALSE,TRUE,TRUE,FALSE,Suspended,-0.012500,0.512500,-0.702500,TRUE,-31.256531,-0.134644,0.000000,0.061539,-0.028046,0.000000,0.068000,0.196000,0.101000,-0.170000,-0.350000,2.540000,-0.126032,Hold,55.984131,51.000000,Hold,-69709.000000,69632.000000,Shoot,3195.000000,-3272.727273,Speed,3232.500000,-3272.727273,Speed,On,On0.000000,0,,,,
11:53:48.676 AM 03/20/2016,Teleop Enabled,10,FALSE,0,NO ERROR,0.000000,-0.352916,-0.000000,-0.115500,TRUE,FALSE,FALSE,TRUE,TRUE,FALSE,Suspended,-0.012500,0.512500,-0.702500,TRUE,-31.253967,-0.135468,0.000000,0.044113,-0.021957,0.000000,0.069000,0.018000,0.074000,-0.180000,-0.340000,2.520000,-0.135385,Hold,55.984131,51.000000,Hold,-69709.000000,69632.000000,Shoot,3210.000000,-3272.727273,Speed,3225.000000,-3272.727273,Speed,On,On0.000000,0,,,,
11:53:48.776 AM 03/20/2016,Teleop Enabled,10,FALSE,0,NO ERROR,0.000000,-0.352916,-0.000000,-0.115500,TRUE,FALSE,FALSE,TRUE,TRUE,FALSE,Suspended,-0.012500,0.512500,-0.702500,TRUE,-31.252243,-0.135239,0.000000,0.032547,0.016891,0.000000,-0.324000,-0.057000,-0.090000,-0.170000,-0.320000,2.550000,-0.145100,Hold,55.984131,51.000000,Hold,-69709.000000,69632.000000,Dwell,3217.500000,-3272.727273,Speed,3225.000000,-3272.727273,Speed,On,On0.000000,0,,,,
11:53:48.877 AM 03/20/2016,Teleop Enabled,11,FALSE,0,NO ERROR,0.000000,-0.352916,-0.000000,-0.115500,TRUE,FALSE,FALSE,TRUE,TRUE,FALSE,Suspended,-0.012500,0.512500,-0.702500,TRUE,-31.252228,-0.132736,0.000000,-0.009369,0.032700,0.000000,-0.165000,-0.227000,-0.018000,-0.170000,-0.340000,2.570000,-0.157469,Hold,55.984131,51.000000,Hold,-69709.000000,69632.000000,Dwell,3217.500000,-3272.727273,Speed,3232.500000,-3272.727273,Speed,Off,Off0.000000,0,,,,
11:53:48.977 AM 03/20/2016,Teleop Enabled,10,FALSE,0,NO ERROR,-0.000000,-0.352916,0.000000,-0.115500,TRUE,FALSE,FALSE,FALSE,FALSE,FALSE,Suspended,-0.012500,0.512500,-0.702500,TRUE,-31.252655,-0.131851,0.000000,-0.001083,-0.001877,0.000000,-0.081000,-0.084000,0.173000,-0.180000,-0.320000,2.520000,-0.165143,Hold,55.984131,51.000000,Hold,-69709.000000,69632.000000,Dwell,3210.000000,-3272.727273,Speed,3225.000000,-3272.727273,Speed,Off,Off0.000000,0,,,,
11:53:49.077 AM 03/20/2016,Teleop Enabled,10,FALSE,0,NO ERROR,-0.000000,-0.423499,0.000000,-0.115500,TRUE,FALSE,FALSE,FALSE,FALSE,FALSE,Suspended,-0.012500,0.512500,-0.702500,TRUE,-31.252167,-0.133087,0.000000,0.016800,-0.050278,0.000000,-0.031000,-0.012000,0.012000,-0.270000,-0.290000,2.480000,-0.203579,Hold,55.983887,51.000000,Hold,-69709.000000,69632.000000,Dwell,3217.500000,-3272.727273,Speed,3225.000000,-3272.727273,Speed,Off,Off0.000000,0,,,,
11:53:49.177 AM 03/20/2016,Teleop Enabled,11,FALSE,0,NO ERROR,-0.000000,-0.423499,0.000000,-0.115500,TRUE,FALSE,FALSE,FALSE,FALSE,FALSE,Suspended,-0.012500,0.512500,-0.702500,TRUE,-31.251877,-0.135666,0.000000,0.001175,-0.071747,0.000000,0.087000,-0.014000,0.091000,-0.220000,-0.390000,2.510000,-0.193974,Hold,55.983887,51.000000,Hold,-69709.000000,69632.000000,Dwell,3255.000000,-3272.727273,Speed,3232.500000,-3272.727273,Speed,Off,Off0.000000,0,,,,
11:53:49.278 AM 03/20/2016,Teleop Enabled,10,FALSE,0,NO ERROR,-0.000000,-0.423499,0.000000,-0.115500,TRUE,FALSE,FALSE,FALSE,FALSE,FALSE,Suspended,-0.012500,0.512500,-0.702500,TRUE,-31.251770,-0.136215,0.000000,-0.000656,0.012741,0.000000,0.077000,0.232000,0.060000,-0.260000,-0.340000,2.500000,-0.224286,Hold,55.983643,51.000000,Hold,-69709.000000,69632.000000,Dwell,3247.500000,-3272.727273,Speed,3232.500000,-3272.727273,Speed,Off,Off0.000000,0,,,,
11:53:49.378 AM 03/20/2016,Teleop Enabled,10,FALSE,0,NO ERROR,-0.000000,-0.423499,0.000000,-0.115500,TRUE,FALSE,FALSE,FALSE,FALSE,FALSE,Disabled,-0.012500,0.512500,-0.702500,TRUE,-31.253174,-0.135269,0.000000,-0.037430,0.021194,0.000000,-0.227000,-0.223000,-0.052000,-0.250000,-0.340000,2.570000,-0.213848,Hold,55.982910,51.000000,Hold,-69709.000000,69632.000000,Dwell,3217.500000,-3272.727273,Speed,3240.000000,-3272.727273,Speed,Off,Off0.000000,0,,,,
11:53:49.478 AM 03/20/2016,Teleop Enabled,9,FALSE,0,NO ERROR,-0.000000,-0.423499,0.000000,-0.115500,TRUE,FALSE,FALSE,FALSE,FALSE,FALSE,Disabled,-0.009375,0.512500,-0.702500,TRUE,-31.254898,-0.134567,0.000000,-0.039978,0.007889,0.000000,0.021000,0.266000,0.014000,-0.240000,-0.400000,2.510000,-0.194776,Hold,55.982910,51.000000,Hold,-69709.000000,69632.000000,Dwell,3202.500000,-3272.727273,Speed,3240.000000,-3272.727273,Speed,Off,Off0.000000,0,,,,
11:53:49.579 AM 03/20/2016,Teleop Enabled,10,FALSE,0,NO ERROR,-0.000000,-0.423499,0.000000,-0.115500,TRUE,FALSE,FALSE,FALSE,FALSE,FALSE,Disabled,-0.009375,0.512500,-0.702500,TRUE,-31.257111,-0.133148,0.000000,-0.045746,0.050781,0.000000,0.047000,-0.133000,0.063000,-0.240000,-0.370000,2.560000,-0.192201,Hold,55.982178,51.000000,Hold,-69709.000000,69632.000000,Dwell,3217.500000,-3272.727273,Speed,3217.500000,-3272.727273,Speed,Off,Off0.000000,0,,,,
11:53:49.681 AM 03/20/2016,Teleop Enabled,11,FALSE,0,NO ERROR,-0.000000,-0.423499,0.000000,-0.115500,TRUE,FALSE,FALSE,FALSE,FALSE,FALSE,Disabled,-0.009375,0.512500,-0.702500,TRUE,-31.258835,-0.132401,0.000000,0.000000,-0.002319,0.000000,-0.005000,-0.097000,-0.029000,-0.240000,-0.390000,2.550000,-0.207517,Hold,55.982178,51.000000,Hold,-69709.000000,69632.000000,Dwell,3225.000000,-3272.727273,Speed,3232.500000,-3272.727273,Speed,Off,Off0.000000,0,,,,
11:53:49.780 AM 03/20/2016,Teleop Enabled,10,FALSE,0,NO ERROR,-0.000000,-0.423499,0.000000,-0.115500,TRUE,FALSE,FALSE,FALSE,FALSE,FALSE,Disabled,-0.009375,0.512500,-0.702500,TRUE,-31.257950,-0.129929,0.000000,0.021393,0.090622,0.000000,0.089000,0.121000,0.008000,-0.240000,-0.370000,2.540000,-0.215735,Hold,55.981445,51.000000,Hold,-69709.000000,69632.000000,Dwell,3217.500000,-3272.727273,Speed,3247.500000,-3272.727273,Speed,Off,Off0.000000,0,,,,
11:53:49.881 AM 03/20/2016,Teleop Enabled,10,FALSE,0,NO ERROR,-0.000000,-0.423499,0.000000,-0.115500,TRUE,FALSE,FALSE,FALSE,FALSE,FALSE,Disabled,-0.009375,0.512500,-0.702500,TRUE,-31.257050,-0.126221,0.000000,0.020050,0.041458,0.000000,-0.110000,-0.273000,-0.120000,-0.250000,-0.380000,2.540000,-0.219239,Hold,55.981445,51.000000,Hold,-69709.000000,69632.000000,Dwell,3217.500000,-3272.727273,Speed,3225.000000,-3272.727273,Speed,Off,Off0.000000,0,,,,
11:53:49.982 AM 03/20/2016,Teleop Enabled,10,FALSE,0,NO ERROR,-0.000000,-0.423499,0.000000,-0.115500,TRUE,FALSE,FALSE,FALSE,FALSE,FALSE,Disabled,-0.009375,0.512500,-0.702500,TRUE,-31.257019,-0.126541,0.000000,-0.014450,-0.011307,0.000000,0.060000,0.125000,0.133000,-0.250000,-0.360000,2.500000,-0.219604,Hold,55.981445,51.000000,Hold,-69709.000000,69632.000000,Dwell,3217.500000,-3272.727273,Speed,3225.000000,-3272.727273,Speed,Off,Off0.000000,0,,,,
11:53:50.082 AM 03/20/2016,Teleop Enabled,10,FALSE,0,NO ERROR,-0.000000,-0.423499,0.000000,-0.115500,TRUE,FALSE,FALSE,FALSE,FALSE,FALSE,Disabled,-0.009375,0.512500,-0.702500,TRUE,-31.258514,-0.125000,0.000000,-0.028656,0.059647,0.000000,0.132000,0.045000,0.044000,-0.250000,-0.380000,2.530000,-0.229130,Hold,55.981201,51.000000,Hold,-69709.000000,69632.000000,Empty,3217.500000,0.000000,Speed,3232.500000,0.000000,Speed,Off,Off0.000000,0,,,,
11:53:50.181 AM 03/20/2016,Teleop Enabled,11,FALSE,0,NO ERROR,-0.000000,-0.423499,0.000000,-0.115500,TRUE,FALSE,FALSE,FALSE,FALSE,FALSE,Disabled,-0.009375,0.512500,-0.702500,TRUE,-31.258362,-0.122925,0.000000,0.019409,-0.008499,0.000000,0.033000,-0.067000,0.029000,-0.250000,-0.340000,2.540000,-0.241282,Hold,55.981201,51.000000,Hold,-69709.000000,69632.000000,Empty,3202.500000,0.000000,Speed,3187.500000,0.000000,Speed,Off,Off0.000000,0,,,,
11:53:50.282 AM 03/20/2016,Teleop Enabled,9,FALSE,0,NO ERROR,-0.000000,-0.423499,0.000000,-0.115500,TRUE,FALSE,FALSE,FALSE,FALSE,FALSE,Disabled,-0.009375,0.512500,-0.702500,TRUE,-31.256836,-0.124664,0.000000,0.046509,-0.052567,0.000000,-0.061000,0.169000,0.145000,-0.250000,-0.310000,2.580000,-0.227811,Hold,55.980957,51.000000,Hold,-69709.000000,69632.000000,Empty,2940.000000,0.000000,Speed,2970.000000,0.000000,Speed,Off,Off0.000000,0,,,,
11:53:50.383 AM 03/20/2016,Teleop Enabled,10,FALSE,0,NO ERROR,-0.000000,-0.423499,0.000000,-0.115500,TRUE,FALSE,FALSE,FALSE,FALSE,FALSE,Disabled,-0.009375,0.512500,-0.702500,TRUE,-31.255081,-0.127853,0.000000,0.012192,-0.063263,0.000000,-0.018000,-0.195000,-0.041000,-0.250000,-0.320000,2.630000,-0.232724,Hold,55.980713,51.000000,Hold,-69709.000000,69632.000000,Empty,2722.500000,0.000000,Speed,2700.000000,0.000000,Speed,Off,Off0.000000,0,,,,
11:53:50.483 AM 03/20/2016,Teleop Enabled,11,FALSE,0,NO ERROR,-0.000000,-0.423499,0.000000,-0.115500,TRUE,FALSE,FALSE,FALSE,FALSE,FALSE,Disabled,-0.009375,0.512500,-0.702500,TRUE,-31.255554,-0.132599,0.000000,-0.024597,-0.067734,0.000000,-0.013000,0.102000,0.040000,-0.260000,-0.300000,2.580000,-0.228472,Hold,55.980713,51.000000,Hold,-69709.000000,69632.000000,Empty,2467.500000,0.000000,Speed,2430.000000,0.000000,Speed,Off,Off0.000000,0,,,,
11:53:50.583 AM 03/20/2016,Teleop Enabled,10,FALSE,0,NO ERROR,-0.000000,-0.423499,0.000000,-0.115500,TRUE,FALSE,FALSE,FALSE,FALSE,FALSE,Disabled,-0.009375,0.512500,-0.702500,TRUE,-31.254501,-0.132736,0.000000,0.022568,0.030380,0.000000,0.007000,0.153000,-0.043000,-0.260000,-0.260000,2.610000,-0.236414,Hold,55.979492,51.000000,Hold,-69709.000000,69632.000000,Empty,2242.500000,0.000000,Speed,2160.000000,0.000000,Speed,Off,Off0.000000,0,,,,
11:53:50.684 AM 03/20/2016,Teleop Enabled,10,FALSE,0,NO ERROR,-0.000000,-0.423499,0.000000,-0.115500,TRUE,FALSE,FALSE,FALSE,FALSE,FALSE,Disabled,-0.009375,0.512500,-0.702500,TRUE,-31.252838,-0.132233,0.000000,0.017807,-0.009323,0.000000,-0.136000,-0.021000,-0.065000,-0.270000,-0.280000,2.640000,-0.245613,Hold,55.974121,51.000000,Hold,-69709.000000,69632.000000,Empty,2017.500000,0.000000,Speed,1957.500000,0.000000,Speed,Off,Off0.000000,0,,,,
11:53:50.783 AM 03/20/2016,Teleop Enabled,11,FALSE,0,NO ERROR,-0.000000,-0.423499,0.000000,-0.115500,TRUE,FALSE,FALSE,FALSE,FALSE,FALSE,Disabled,-0.009375,0.512500,-0.702500,TRUE,-31.253311,-0.133331,0.000000,-0.012848,-0.008041,0.000000,0.040000,0.015000,0.081000,-0.270000,-0.260000,2.620000,-0.237234,Hold,55.970703,51.000000,Hold,-69709.000000,69632.000000,Empty,1807.500000,0.000000,Speed,1710.000000,0.000000,Speed,Off,Off0.000000,0,,,,
11:53:50.884 AM 03/20/2016,Teleop Enabled,10,FALSE,0,NO ERROR,-0.000000,-0.423499,0.000000,-0.115500,TRUE,FALSE,FALSE,FALSE,FALSE,FALSE,Disabled,-0.009375,0.512500,-0.702500,TRUE,-31.252838,-0.133743,0.000000,0.025467,-0.018433,0.000000,0.123000,-0.035000,-0.158000,-0.260000,-0.250000,2.570000,-0.236342,Hold,55.970459,51.000000,Hold,-69709.000000,69632.000000,Empty,1605.000000,0.000000,Speed,1470.000000,0.000000,Speed,Off,Off0.000000,0,,,,
11:53:50.985 AM 03/20/2016,Teleop Enabled,10,FALSE,0,NO ERROR,-0.000000,-0.423499,0.000000,-0.115500,TRUE,FALSE,FALSE,FALSE,FALSE,FALSE,Disabled,-0.009375,0.512500,-0.702500,TRUE,-31.251831,-0.136658,0.000000,0.007843,-0.039261,0.000000,0.002000,0.013000,0.037000,-0.260000,-0.280000,2.590000,-0.254009,Hold,55.969971,51.000000,Hold,-69709.000000,69632.000000,Empty,1395.000000,0.000000,Speed,1185.000000,0.000000,Speed,Off,Off0.000000,0,,,,
11:53:51.086 AM 03/20/2016,Teleop Enabled,9,FALSE,0,NO ERROR,-0.000000,-0.423499,0.000000,-0.115500,TRUE,FALSE,FALSE,FALSE,FALSE,FALSE,Disabled,-0.009375,0.512500,-0.702500,TRUE,-31.251068,-0.137650,0.000000,0.011215,-0.017975,0.000000,0.101000,0.032000,0.029000,-0.270000,-0.290000,2.610000,-0.263982,Hold,55.969971,51.000000,Hold,-69709.000000,69632.000000,Empty,1185.000000,0.000000,Speed,997.500000,0.000000,Speed,Off,Off0.000000,0,,,,
11:53:51.187 AM 03/20/2016,Teleop Enabled,11,FALSE,0,NO ERROR,-0.000000,-0.423499,0.000000,-0.115500,TRUE,FALSE,FALSE,FALSE,FALSE,FALSE,Disabled,-0.009375,0.512500,-0.702500,TRUE,-31.249268,-0.138794,0.000000,0.044952,-0.024139,0.000000,0.036000,-0.102000,0.093000,-0.270000,-0.280000,2.590000,-0.270771,Hold,55.969727,51.000000,Hold,-69709.000000,69632.000000,Empty,1042.500000,0.000000,Speed,772.500000,0.000000,Speed,Off,On0.000000,0,,,,
11:53:51.287 AM 03/20/2016,Teleop Enabled,9,FALSE,0,NO ERROR,-0.000000,-0.423499,0.000000,-0.115500,TRUE,FALSE,FALSE,FALSE,FALSE,FALSE,Disabled,-0.009375,0.512500,-0.702500,TRUE,-31.248138,-0.140533,0.000000,-0.007965,-0.025894,0.000000,-0.145000,0.020000,-0.007000,-0.270000,-0.310000,2.620000,-0.275381,Hold,55.969238,51.000000,Hold,-69709.000000,143360.000000,Suck,840.000000,2181.818182,Speed,592.500000,2181.818182,Speed,Off,On0.000000,0,,,,
11:53:51.386 AM 03/20/2016,Teleop Enabled,11,FALSE,0,NO ERROR,-0.000000,-0.417082,0.000000,-0.115500,TRUE,FALSE,FALSE,FALSE,FALSE,FALSE,Disabled,-0.009375,0.512500,-0.702500,TRUE,-31.249344,-0.140472,0.000000,-0.024200,0.012604,0.000000,0.094000,-0.009000,0.012000,-0.270000,-0.180000,2.620000,-0.262165,Hold,55.970703,51.000000,Hold,-69709.000000,143360.000000,Suck,615.000000,2181.818182,Speed,307.500000,2181.818182,Speed,Off,On0.000000,0,,,,
11:53:51.486 AM 03/20/2016,Teleop Enabled,9,FALSE,0,NO ERROR,-0.000000,-0.417082,0.000000,-0.109083,TRUE,FALSE,FALSE,FALSE,FALSE,FALSE,Disabled,-0.009375,0.512500,-0.702500,TRUE,-31.249069,-0.140030,0.000000,0.009369,-0.001938,0.000000,0.020000,0.003000,-0.074000,-0.300000,-0.370000,2.610000,-0.273773,Hold,55.970703,51.000000,Hold,-78211.000000,143360.000000,Suck,-277.500000,2181.818182,Speed,-585.000000,2181.818182,Speed,Off,On0.000000,0,,,,
11:53:51.586 AM 03/20/2016,Teleop Enabled,11,FALSE,0,NO ERROR,-0.000000,-0.417082,0.000000,-0.109083,TRUE,FALSE,FALSE,FALSE,FALSE,FALSE,Disabled,-0.009375,0.512500,-0.702500,TRUE,-31.249908,-0.139771,0.000000,-0.029800,0.016541,0.000000,-0.022000,0.070000,0.113000,-0.290000,-0.460000,2.630000,-0.265039,Hold,55.977539,51.000000,Hold,-91267.000000,143360.000000,Suck,-1117.500000,2181.818182,Speed,-1147.500000,2181.818182,Speed,Off,On0.000000,0,,,,
