Time,Robot Mode,Loop Time,Error Status,Error Code,Error Source,Left Motor Output,Left Motor Encoder,Right Motor Output,Right Motor Encoder,Is Level,Is Stalled,Ball Detector Photoeye,Vision Enabled,Vision Teleop Control,Vision Auto Control,Vision Current State,Vision X Output,Vision NavX Error,Vision NavX Target,NavX Connection Status,NavX Displacement X,NavX Displacement Y,NavX Displacement Z,NavX Velocity X,NavX Velocity Y,NavX Velocity Z,NavX Acceleration X,NavX Acceleration Y,NavX Acceleration Z,NavX Pitch,NavX Yaw,NavX Roll,Gyro Angle,Roller Arm State,Roller Arm Actual,Roller Arm Desired,Shooter Arm State,Shooter Arm Actual,Shooter Arm Desired,Shooter State,Actual RPM Left,Desired RPM Left,Control Mode Left,Actual RPM Right,Desired RPM Right,Control Mode Right,Ball Shooter Cylinder,Ball Halo Cylinder,Scaler Motor Output,Scaler Solenoid Fire,Auto To Run,Auto Current File,Auto File Status,Auto Current Command,Auto Trimmed Command,Shooter Amps Left,Shooter Amps Right
08:22:01.533 PM 04/04/2016,Teleop Enabled,9,TRUE,-44005,<LOCATION>WPI_CameraWait for Raw Image String.vi:6640001<CALLSTACK>WPI_CameraWait for Raw Image String.vi:6640001< <WPI_CameraGet Image.vi< <Vision Processing.vi< <Robot Main.vi,-0.000000,0.000000,-0.000000,0.000000,TRUE,FALSE,FALSE,FALSE,FALSE,FALSE,Disabled,0.000000,0.000000,0.000000,TRUE,0.000229,-0.000214,0.000000,0.000000,0.000000,0.000000,0.000000,0.001000,0.023000,0.000000,0.020000,2.600000,0.060069,ResetBack,-63.608887,-0.000049,ResetBack,122124.000000,-0.250000,Empty,0.000000,0.000000,Speed,0.000000,0.000000,Speed,Off,On,0.000000,FALSE,0,,,,,0.000000,0.000000
08:22:01.634 PM 04/04/2016,Teleop Enabled,10,TRUE,-1074396154,,-0.000000,-0.012833,-0.000000,-0.051333,TRUE,FALSE,FALSE,FALSE,FALSE,FALSE,Disabled,0.000000,0.000000,0.000000,TRUE,0.000198,-0.000092,0.000000,0.011703,-0.002930,0.000000,-0.008000,-0.052000,0.081000,0.000000,0.020000,2.570000,0.008424,ResetBack,-65.689453,-0.000049,ResetBack,122482.000000,-0.250000,Empty,0.000000,0.000000,Speed,0.000000,0.000000,Speed,Off,On,0.000000,FALSE,0,,,,,0.000000,0.000000
08:22:01.734 PM 04/04/2016,Teleop Enabled,10,FALSE,0,NO ERROR,-0.000000,-0.012833,-0.000000,-0.083416,TRUE,FALSE,FALSE,FALSE,FALSE,FALSE,Disabled,0.000000,0.000000,0.000000,TRUE,0.003403,-0.001358,0.000000,0.088058,-0.032364,0.000000,0.013000,0.008000,-0.007000,0.060000,0.050000,2.550000,0.076855,ResetBack,-65.796875,-0.000049,ResetBack,128302.000000,-0.250000,Empty,0.000000,0.000000,Speed,0.000000,0.000000,Speed,Off,On,0.000000,FALSE,0,,,,,0.000000,0.000000
08:22:01.834 PM 04/04/2016,Teleop Enabled,10,FALSE,0,NO ERROR,-0.000000,-0.019250,-0.000000,-0.083416,TRUE,FALSE,FALSE,FALSE,FALSE,FALSE,Disabled,0.000000,0.000000,0.000000,TRUE,0.004257,-0.001099,0.000000,0.000000,0.004272,0.000000,0.012000,-0.016000,-0.008000,0.020000,0.030000,2.520000,0.035355,ResetBack,-65.796875,-0.000049,ResetBack,134582.000000,-0.250000,Empty,0.000000,0.000000,Speed,0.000000,0.000000,Speed,Off,On,0.000000,FALSE,0,,,,,0.000000,0.000000
08:22:01.935 PM 04/04/2016,Teleop Enabled,11,FALSE,0,NO ERROR,-0.000000,-0.019250,-0.000000,-0.102666,TRUE,FALSE,FALSE,FALSE,FALSE,FALSE,Disabled,0.000000,0.000000,0.000000,TRUE,0.004257,-0.001114,0.000000,0.000000,0.000000,0.000000,-0.010000,-0.013000,0.040000,0.050000,0.030000,2.540000,0.066245,Reset,-65.796875,0.000000,ResetBack,138187.000000,-0.250000,Empty,0.000000,0.000000,Speed,0.000000,0.000000,Speed,Off,On,0.000000,FALSE,0,,,,,0.000000,0.000000
08:22:02.036 PM 04/04/2016,Teleop Enabled,15,FALSE,0,NO ERROR,-0.000000,-0.019250,-0.000000,-0.102666,TRUE,FALSE,FALSE,FALSE,FALSE,FALSE,Disabled,0.000000,0.000000,0.000000,TRUE,0.004379,-0.001114,0.000000,0.000000,0.000000,0.000000,0.016000,-0.003000,0.037000,0.060000,0.020000,2.560000,0.069326,Hold,1.158447,0.000000,ResetBack,140137.000000,-0.250000,Empty,0.000000,0.000000,Speed,0.000000,0.000000,Speed,Off,On,0.000000,FALSE,0,,,,,0.000000,0.000000
08:22:02.136 PM 04/04/2016,Teleop Enabled,9,FALSE,0,NO ERROR,-0.000000,-0.019250,-0.000000,-0.102666,TRUE,FALSE,FALSE,FALSE,FALSE,FALSE,Disabled,0.000000,0.000000,0.000000,TRUE,0.004379,-0.001114,0.000000,0.000000,0.000000,0.000000,-0.007000,-0.004000,0.004000,0.050000,0.010000,2.540000,0.063987,Hold,0.926514,0.000000,ResetBack,140137.000000,-0.250000,Suck,0.000000,1818.181818,Speed,0.000000,1818.181818,Speed,Off,On,0.000000,FALSE,0,,,,,0.000000,0.000000
08:22:02.237 PM 04/04/2016,Teleop Enabled,10,FALSE,0,NO ERROR,-0.000000,-0.019250,-0.000000,-0.102666,TRUE,FALSE,FALSE,FALSE,FALSE,FALSE,Disabled,0.000000,0.000000,0.000000,TRUE,0.004242,-0.001038,0.000000,-0.008636,-0.000809,0.000000,0.138000,-0.094000,0.038000,0.050000,0.010000,2.550000,0.042412,Hold,0.925293,0.000000,ResetBack,141654.000000,-0.250000,Suck,-30.000000,1818.181818,Speed,-22.500000,1818.181818,Speed,Off,On,0.000000,FALSE,0,,,,,0.000000,0.000000
08:22:02.339 PM 04/04/2016,Teleop Enabled,11,FALSE,0,NO ERROR,-0.000000,-0.019250,-0.000000,-0.102666,TRUE,FALSE,FALSE,FALSE,FALSE,FALSE,Disabled,0.000000,0.000000,0.000000,TRUE,0.005890,-0.002747,0.000000,0.037735,-0.037720,0.000000,-0.030000,0.041000,-0.006000,0.050000,0.000000,2.560000,0.055136,Hold,0.925293,0.000000,ResetBack,142128.000000,-0.250000,Suck,-675.000000,1818.181818,Speed,-442.500000,1818.181818,Speed,Off,On,0.000000,FALSE,0,,,,,0.000000,0.000000
08:22:02.440 PM 04/04/2016,Teleop Enabled,11,FALSE,0,NO ERROR,-0.000000,-0.019250,-0.000000,-0.102666,TRUE,FALSE,FALSE,FALSE,FALSE,FALSE,Disabled,0.000000,0.000000,0.000000,TRUE,0.007538,-0.004578,0.000000,0.032837,-0.049438,0.000000,-0.098000,0.059000,0.022000,0.060000,0.000000,2.580000,0.058462,Hold,0.925293,0.000000,ResetBack,142134.000000,-0.250000,Suck,-1185.000000,1818.181818,Speed,-1072.500000,1818.181818,Speed,Off,On,0.000000,FALSE,0,,,,,0.000000,0.000000
08:22:02.540 PM 04/04/2016,Teleop Enabled,12,FALSE,0,NO ERROR,-0.000000,-0.019250,-0.000000,-0.109083,TRUE,FALSE,FALSE,FALSE,FALSE,FALSE,Disabled,0.000000,0.000000,0.000000,TRUE,0.006760,-0.006210,0.000000,-0.046494,-0.017227,0.000000,-0.020000,-0.010000,0.042000,0.060000,-0.020000,2.640000,0.038020,Hold,0.925293,0.000000,ResetBack,142263.000000,-0.250000,Suck,-1687.500000,1818.181818,Speed,-1560.000000,1818.181818,Speed,Off,On,0.000000,FALSE,0,,,,,0.000000,0.000000
08:22:02.642 PM 04/04/2016,Teleop Enabled,12,FALSE,0,NO ERROR,-0.000000,-0.019250,-0.000000,-0.109083,TRUE,FALSE,FALSE,FALSE,FALSE,FALSE,Disabled,0.000000,0.000000,0.000000,TRUE,0.004745,-0.006073,0.000000,-0.055832,0.015167,0.000000,0.014000,0.034000,0.064000,0.060000,0.000000,2.640000,0.029788,Hold,0.925293,0.000000,ResetBack,143361.000000,-0.250000,Suck,-1882.500000,1818.181818,Speed,-1822.500000,1818.181818,Speed,Off,On,0.000000,FALSE,0,,,,,0.000000,0.000000
08:22:02.741 PM 04/04/2016,Teleop Enabled,9,FALSE,0,NO ERROR,-0.000000,-0.019250,-0.000000,-0.109083,TRUE,FALSE,FALSE,FALSE,FALSE,FALSE,Disabled,0.000000,0.000000,0.000000,TRUE,0.001282,-0.003998,0.000000,-0.056900,0.052826,0.000000,0.044000,0.058000,-0.013000,0.060000,0.000000,2.700000,0.021368,Hold,0.925293,0.000000,ResetBack,143386.000000,-0.250000,Suck,-1837.500000,1818.181818,Speed,-1777.500000,1818.181818,Speed,Off,On,0.000000,FALSE,0,,,,,0.000000,0.000000
08:22:02.842 PM 04/04/2016,Teleop Enabled,9,FALSE,0,NO ERROR,-0.000000,-0.019250,-0.000000,-0.109083,TRUE,FALSE,FALSE,FALSE,FALSE,FALSE,Disabled,0.000000,0.000000,0.000000,TRUE,-0.001465,-0.000885,0.000000,-0.058319,0.060394,0.000000,0.139000,0.023000,0.117000,0.060000,-0.030000,2.740000,0.026029,Hold,0.925293,0.000000,Reset,143386.000000,2.000000,Suck,-1785.000000,1818.181818,Speed,-1702.500000,1818.181818,Speed,Off,On,0.000000,FALSE,0,,,,,0.000000,0.000000
08:22:02.943 PM 04/04/2016,Teleop Enabled,10,FALSE,0,NO ERROR,-0.000000,-0.019250,-0.000000,-0.109083,TRUE,FALSE,FALSE,FALSE,FALSE,FALSE,Disabled,0.000000,0.000000,0.000000,TRUE,-0.003372,0.003647,0.000000,-0.030716,0.095200,0.000000,-0.140000,0.095000,0.052000,0.060000,0.030000,2.730000,0.025217,Hold,0.925293,0.000000,Hold,-13.000000,2.000000,Suck,-1785.000000,1818.181818,Speed,-1695.000000,1818.181818,Speed,Off,On,0.000000,FALSE,0,,,,,0.000000,0.000000
08:22:03.046 PM 04/04/2016,Teleop Enabled,11,FALSE,0,NO ERROR,-0.000000,-0.019250,-0.000000,-0.109083,TRUE,FALSE,FALSE,FALSE,FALSE,FALSE,Disabled,0.000000,0.000000,0.000000,TRUE,-0.004486,0.009094,0.000000,-0.020859,0.110321,0.000000,-0.024000,-0.021000,-0.067000,0.070000,-0.010000,2.790000,0.011557,Hold,0.925293,0.000000,Hold,-44.000000,143360.000000,Suck,-1792.500000,1818.181818,Speed,-1717.500000,1818.181818,Speed,Off,On,0.000000,FALSE,0,,,,,0.000000,0.000000
08:22:03.147 PM 04/04/2016,Teleop Enabled,10,FALSE,0,NO ERROR,-0.000000,-0.019250,-0.000000,-0.109083,TRUE,FALSE,FALSE,FALSE,FALSE,FALSE,Disabled,0.000000,0.000000,0.000000,TRUE,-0.005615,0.014740,0.000000,-0.010422,0.120499,0.000000,-0.032000,-0.070000,0.024000,0.070000,0.000000,2.880000,0.030112,Hold,4.289551,50.000000,Hold,-2796.000000,143360.000000,Suck,-1807.500000,1818.181818,Speed,-1717.500000,1818.181818,Speed,Off,On,0.000000,FALSE,0,,,,,0.000000,0.000000
08:22:03.250 PM 04/04/2016,Teleop Enabled,11,FALSE,0,NO ERROR,-0.000000,-0.019250,-0.000000,-0.109083,TRUE,FALSE,FALSE,FALSE,FALSE,FALSE,Disabled,0.000000,0.000000,0.000000,TRUE,-0.005554,0.019287,0.000000,0.008926,0.071152,0.000000,0.028000,-0.104000,0.158000,0.110000,0.080000,2.750000,0.081692,Hold,4.289551,50.000000,Hold,-18182.000000,143360.000000,Suck,-1800.000000,1818.181818,Speed,-1717.500000,1818.181818,Speed,Off,On,0.000000,FALSE,0,,,,,0.000000,0.000000
08:22:03.349 PM 04/04/2016,Teleop Enabled,9,FALSE,0,NO ERROR,-0.000000,-0.019250,-0.000000,-0.102666,TRUE,FALSE,FALSE,FALSE,FALSE,FALSE,Disabled,0.000000,0.000000,0.000000,TRUE,-0.005020,0.021805,0.000000,0.006561,0.053711,0.000000,-0.058000,-0.079000,-0.021000,0.160000,0.090000,2.680000,0.130903,Hold,8.387451,50.000000,Hold,-31063.000000,143360.000000,Suck,-1792.500000,1818.181818,Speed,-1732.500000,1818.181818,Speed,Off,On,0.000000,FALSE,0,,,,,0.000000,0.000000
08:22:03.449 PM 04/04/2016,Teleop Enabled,9,FALSE,0,NO ERROR,-0.000000,0.019250,-0.000000,-0.077000,TRUE,FALSE,FALSE,FALSE,FALSE,FALSE,Disabled,0.000000,0.000000,0.000000,TRUE,-0.003784,0.022964,0.000000,0.051132,0.020355,0.000000,-0.029000,-0.026000,0.047000,0.210000,0.010000,2.670000,0.178937,Hold,14.187256,50.000000,Hold,-31063.000000,143360.000000,Suck,-1792.500000,1818.181818,Speed,-1732.500000,1818.181818,Speed,Off,On,0.000000,FALSE,0,,,,,0.000000,0.000000
08:22:03.550 PM 04/04/2016,Teleop Enabled,10,FALSE,0,NO ERROR,-0.000000,0.006417,-0.000000,-0.083416,TRUE,FALSE,FALSE,FALSE,FALSE,FALSE,Disabled,0.000000,0.000000,0.000000,TRUE,-0.002670,0.023712,0.000000,-0.005066,0.020767,0.000000,-0.073000,-0.107000,-0.060000,0.070000,-0.080000,2.580000,0.059429,Hold,26.915771,50.000000,Hold,-45623.000000,143360.000000,Suck,-1792.500000,1818.181818,Speed,-1732.500000,1818.181818,Speed,Off,On,0.000000,FALSE,0,,,,,0.000000,0.000000
08:22:03.650 PM 04/04/2016,Teleop Enabled,11,FALSE,0,NO ERROR,-0.000000,0.012833,-0.000000,-0.089833,TRUE,FALSE,FALSE,FALSE,FALSE,FALSE,Disabled,0.000000,0.000000,0.000000,TRUE,-0.004807,0.024094,0.000000,-0.056290,0.024292,0.000000,-0.005000,-0.017000,0.023000,0.130000,-0.140000,2.530000,0.111415,Hold,26.915771,50.000000,Hold,-45623.000000,143360.000000,Suck,-1792.500000,1818.181818,Speed,-1732.500000,1818.181818,Speed,Off,On,0.000000,FALSE,0,,,,,0.000000,0.000000
08:22:03.752 PM 04/04/2016,Teleop Enabled,10,FALSE,0,NO ERROR,-0.000000,-0.083416,-0.000000,-0.250249,TRUE,FALSE,FALSE,FALSE,FALSE,FALSE,Disabled,0.000000,0.000000,0.000000,TRUE,-0.006470,0.025330,0.000000,-0.014603,0.026077,0.000000,-0.020000,0.045000,0.035000,0.120000,-0.370000,2.470000,0.101294,Hold,35.510498,50.000000,Hold,-81182.000000,143360.000000,Suck,-1792.500000,1818.181818,Speed,-1717.500000,1818.181818,Speed,Off,On,0.000000,FALSE,0,,,,,0.000000,0.000000
08:22:03.855 PM 04/04/2016,Teleop Enabled,10,FALSE,0,NO ERROR,-0.000000,-0.089833,-0.000000,-0.314416,TRUE,FALSE,FALSE,FALSE,FALSE,FALSE,Disabled,0.000000,0.000000,0.000000,TRUE,-0.008331,0.026596,0.000000,-0.054535,0.022400,0.000000,0.095000,0.034000,0.044000,0.250000,-0.720000,2.450000,0.215542,Hold,46.137695,50.000000,Hold,-100380.000000,143360.000000,Suck,-1792.500000,1818.181818,Speed,-1725.000000,1818.181818,Speed,Off,On,0.000000,FALSE,0,,,,,0.000000,0.000000
08:22:03.954 PM 04/04/2016,Teleop Enabled,10,FALSE,0,NO ERROR,-0.204724,-0.096250,-0.204724,-0.314416,TRUE,FALSE,FALSE,FALSE,FALSE,FALSE,Disabled,0.000000,0.000000,0.000000,TRUE,-0.012527,0.026794,0.000000,-0.085602,-0.004013,0.000000,-0.061000,-0.060000,-0.360000,0.150000,-1.120000,2.470000,0.118799,Hold,53.642578,50.000000,Hold,-100380.000000,143360.000000,Suck,-1792.500000,1818.181818,Speed,-1710.000000,1818.181818,Speed,Off,On,0.000000,FALSE,0,,,,,0.000000,0.000000
08:22:04.056 PM 04/04/2016,Teleop Enabled,9,FALSE,0,NO ERROR,-0.566929,0.307999,-0.566929,-0.660915,TRUE,FALSE,FALSE,FALSE,FALSE,FALSE,Disabled,0.000000,0.000000,0.000000,TRUE,-0.016083,0.025650,0.000000,-0.041260,-0.016571,0.000000,0.087000,0.303000,0.180000,0.260000,-0.250000,2.640000,0.290242,Hold,55.423584,50.000000,Hold,-120976.000000,143360.000000,Suck,-1785.000000,1818.181818,Speed,-1710.000000,1818.181818,Speed,Off,On,0.000000,FALSE,0,,,,,0.000000,0.000000
08:22:04.155 PM 04/04/2016,Teleop Enabled,10,FALSE,0,NO ERROR,-0.527559,2.021245,-0.527559,-2.316411,FALSE,FALSE,FALSE,FALSE,FALSE,FALSE,Disabled,0.000000,0.000000,0.000000,TRUE,-0.011322,0.031769,0.000000,0.229355,0.222916,0.000000,0.057000,0.028000,-0.179000,5.060000,0.100000,3.830000,5.195071,Hold,54.721191,50.000000,Hold,-141603.000000,143360.000000,Suck,-1770.000000,1818.181818,Speed,-1717.500000,1818.181818,Speed,Off,On,0.000000,FALSE,0,,,,,0.000000,0.000000
08:22:04.256 PM 04/04/2016,Teleop Enabled,11,FALSE,0,NO ERROR,-0.000000,4.536573,-0.000000,-4.754739,FALSE,FALSE,FALSE,FALSE,FALSE,FALSE,Disabled,0.000000,0.000000,0.000000,TRUE,0.001495,0.039520,0.000000,0.298737,0.058197,0.000000,0.062000,-0.056000,-0.136000,14.840000,0.300000,3.760000,14.767311,Hold,54.471680,50.000000,Hold,-141603.000000,143360.000000,Suck,-1747.500000,1818.181818,Speed,-1687.500000,1818.181818,Speed,Off,On,0.000000,FALSE,0,,,,,0.000000,0.000000
08:22:04.356 PM 04/04/2016,Teleop Enabled,9,FALSE,0,NO ERROR,-0.000000,5.678737,-0.000000,-5.884070,FALSE,FALSE,FALSE,FALSE,FALSE,FALSE,Disabled,0.000000,0.000000,0.000000,TRUE,0.014359,0.038284,0.000000,0.144455,-0.121277,0.000000,-0.239000,-0.414000,-0.689000,24.610000,-0.670000,3.060000,23.265482,Hold,54.293213,50.000000,Hold,-143721.000000,143360.000000,Suck,-1762.500000,1818.181818,Speed,-1680.000000,1818.181818,Speed,Off,On,0.000000,FALSE,0,,,,,0.000000,0.000000
08:22:04.457 PM 04/04/2016,Teleop Enabled,10,FALSE,0,NO ERROR,-0.220472,5.845570,0.220472,-5.916153,TRUE,FALSE,FALSE,FALSE,FALSE,FALSE,Disabled,0.000000,0.000000,0.000000,TRUE,0.014832,0.024948,0.000000,-0.045898,-0.311295,0.000000,0.079000,-0.076000,-0.281000,24.930000,-1.100000,2.350000,24.263236,Hold,54.235352,50.000000,Hold,-143490.000000,143360.000000,Suck,-1762.500000,1818.181818,Speed,-1717.500000,1818.181818,Speed,Off,On,0.000000,FALSE,0,,,,,0.000000,0.000000
08:22:04.559 PM 04/04/2016,Teleop Enabled,11,FALSE,0,NO ERROR,-0.614173,5.197488,0.614173,-6.339652,TRUE,FALSE,FALSE,FALSE,FALSE,FALSE,Disabled,0.000000,0.000000,0.000000,TRUE,0.015228,0.007324,0.000000,0.084549,-0.360886,0.000000,0.431000,-0.236000,-0.217000,23.930000,-0.070000,2.370000,23.196094,Hold,54.014404,50.000000,Hold,-143489.000000,143360.000000,Suck,-1777.500000,1818.181818,Speed,-1747.500000,1818.181818,Speed,Off,On,0.000000,FALSE,0,,,,,0.000000,0.000000
08:22:04.660 PM 04/04/2016,Teleop Enabled,12,FALSE,0,NO ERROR,-0.567376,2.977326,0.723963,-8.643230,FALSE,FALSE,FALSE,FALSE,FALSE,FALSE,Disabled,0.000000,0.000000,0.000000,TRUE,0.035248,-0.015915,0.000000,0.626709,-0.529343,0.000000,0.206000,-0.140000,-0.125000,23.890000,3.100000,2.540000,23.199265,Hold,54.072021,50.000000,Hold,-143489.000000,143360.000000,Suck,-1785.000000,1818.181818,Speed,-1740.000000,1818.181818,Speed,Off,On,0.000000,FALSE,0,,,,,0.000000,0.000000
08:22:04.761 PM 04/04/2016,Teleop Enabled,10,FALSE,0,NO ERROR,-0.521111,-0.840581,0.770228,-12.037639,FALSE,FALSE,FALSE,FALSE,FALSE,FALSE,Disabled,0.000000,0.000000,0.000000,TRUE,0.075119,-0.047119,0.000000,0.871063,-0.676163,0.000000,0.010000,-0.068000,0.065000,23.540000,3.620000,2.300000,22.809646,Hold,53.830811,50.000000,Hold,-143488.000000,143360.000000,Suck,-1755.000000,1818.181818,Speed,-1702.500000,1818.181818,Speed,Off,On,0.000000,FALSE,0,,,,,0.000000,0.000000
08:22:04.863 PM 04/04/2016,Teleop Enabled,10,FALSE,0,NO ERROR,-0.608085,-5.845570,0.793490,-15.817046,TRUE,FALSE,FALSE,FALSE,FALSE,FALSE,Disabled,0.000000,0.000000,0.000000,TRUE,0.128937,-0.089813,0.000000,0.891739,-0.721466,0.000000,-0.127000,0.123000,-0.022000,21.510000,2.680000,1.860000,20.794965,Hold,53.721924,50.000000,Hold,-143486.000000,143360.000000,Suck,-1732.500000,1818.181818,Speed,-1695.000000,1818.181818,Speed,Off,On,0.000000,FALSE,0,,,,,0.000000,0.000000
08:22:04.965 PM 04/04/2016,Teleop Enabled,11,FALSE,0,NO ERROR,-0.621750,-11.428057,0.811321,-20.045620,FALSE,FALSE,FALSE,FALSE,FALSE,FALSE,Disabled,0.000000,0.000000,0.000000,TRUE,0.174515,-0.123642,0.000000,0.929565,-0.618118,0.000000,-0.068000,0.047000,0.173000,18.750000,3.200000,2.190000,18.091197,Hold,54.070312,50.000000,Hold,-143486.000000,143360.000000,Suck,-1732.500000,1818.181818,Speed,-1717.500000,1818.181818,Speed,Off,On,0.000000,FALSE,0,,,,,0.000000,0.000000
08:22:05.065 PM 04/04/2016,Teleop Enabled,9,FALSE,0,NO ERROR,-0.900093,-17.331376,0.548726,-24.684859,TRUE,FALSE,FALSE,FALSE,FALSE,FALSE,Disabled,0.000000,0.000000,0.000000,TRUE,0.220215,-0.153717,0.000000,0.909790,-0.613602,0.000000,0.193000,-0.022000,0.130000,16.150000,2.940000,2.030000,15.531449,Hold,54.011963,50.000000,Hold,-143485.000000,143360.000000,Suck,-1747.500000,1818.181818,Speed,-1717.500000,1818.181818,Speed,Off,On,0.000000,FALSE,0,,,,,0.000000,0.000000
08:22:05.165 PM 04/04/2016,Teleop Enabled,11,FALSE,0,NO ERROR,-1.000000,-22.490364,0.289193,-30.472679,FALSE,FALSE,FALSE,FALSE,FALSE,FALSE,Disabled,0.000000,0.000000,0.000000,TRUE,0.270767,-0.180969,0.000000,1.093414,-0.458328,0.000000,0.281000,0.221000,0.062000,14.980000,3.940000,2.830000,14.455518,Hold,54.007568,50.000000,Hold,-143485.000000,143360.000000,Suck,-1762.500000,1818.181818,Speed,-1717.500000,1818.181818,Speed,Off,On,0.000000,FALSE,0,,,,,0.000000,0.000000
08:22:05.265 PM 04/04/2016,Teleop Enabled,10,FALSE,0,NO ERROR,-1.000000,-26.500771,0.219685,-37.229413,FALSE,FALSE,FALSE,FALSE,FALSE,FALSE,Disabled,0.000000,0.000000,0.000000,TRUE,0.328232,-0.198853,0.000000,1.121323,-0.310959,0.000000,-0.102000,0.028000,-0.023000,19.130000,2.900000,3.670000,17.950207,Hold,53.961670,50.000000,Hold,-143485.000000,143360.000000,Suck,-1770.000000,1818.181818,Speed,-1710.000000,1818.181818,Speed,Off,On,0.000000,FALSE,0,,,,,0.000000,0.000000
08:22:05.366 PM 04/04/2016,Teleop Enabled,10,FALSE,0,NO ERROR,-1.000000,-29.657764,0.262843,-44.345480,FALSE,FALSE,FALSE,FALSE,FALSE,FALSE,Disabled,0.000000,0.000000,0.000000,TRUE,0.380905,-0.213989,0.000000,1.019363,-0.310043,0.000000,-0.102000,0.028000,-0.023000,26.290000,2.570000,3.840000,24.672287,Hold,53.898438,50.000000,Hold,-143485.000000,143360.000000,Suck,-1762.500000,1818.181818,Speed,-1710.000000,1818.181818,Speed,Off,On,0.000000,FALSE,0,,,,,0.000000,0.000000
08:22:05.466 PM 04/04/2016,Teleop Enabled,9,FALSE,0,NO ERROR,-0.779528,-33.353755,0.779528,-51.153547,TRUE,FALSE,FALSE,FALSE,FALSE,FALSE,Disabled,0.000000,0.000000,0.000000,TRUE,0.426590,-0.236496,0.000000,0.830490,-0.591599,0.000000,-0.092000,-0.073000,-0.002000,33.630000,2.620000,2.640000,31.854293,Hold,53.898438,50.000000,Hold,-143485.000000,143360.000000,Suck,-1755.000000,1818.181818,Speed,-1710.000000,1818.181818,Speed,Off,On,0.000000,FALSE,0,,,,,0.000000,0.000000
08:22:05.566 PM 04/04/2016,Teleop Enabled,10,FALSE,0,NO ERROR,-0.779528,-37.986578,0.779528,-57.275033,TRUE,FALSE,TRUE,FALSE,FALSE,FALSE,Disabled,0.000000,0.000000,0.000000,TRUE,0.462326,-0.273819,0.000000,0.628662,-0.812805,0.000000,-0.138000,-0.358000,-0.073000,33.630000,2.620000,2.640000,36.382334,Hold,53.835693,50.000000,Hold,-143485.000000,143360.000000,Suck,-1732.500000,1818.181818,Speed,-1672.500000,1818.181818,Speed,Off,On,0.000000,FALSE,0,,,,,0.000000,0.000000
08:22:05.666 PM 04/04/2016,Teleop Enabled,10,FALSE,0,NO ERROR,-0.440945,-43.030066,0.440945,-62.761270,TRUE,FALSE,TRUE,FALSE,FALSE,FALSE,Disabled,0.000000,0.000000,0.000000,TRUE,0.490417,-0.313202,0.000000,0.527908,-0.783722,0.000000,-0.127000,0.150000,0.282000,37.780000,2.230000,1.980000,37.778564,Hold,53.896240,50.000000,Hold,-143485.000000,143360.000000,Suck,-862.500000,1818.181818,Speed,-810.000000,1818.181818,Speed,Off,On,0.000000,FALSE,0,,,,,0.000000,0.000000
08:22:05.766 PM 04/04/2016,Teleop Enabled,10,FALSE,0,NO ERROR,-0.000000,-46.745307,-0.000000,-66.367428,TRUE,FALSE,TRUE,FALSE,FALSE,FALSE,Disabled,0.000000,0.000000,0.000000,TRUE,0.513153,-0.356598,0.000000,0.103348,-0.499390,0.000000,-0.101000,-0.084000,-0.154000,38.910000,-1.410000,1.870000,37.671056,Hold,53.934814,50.000000,Hold,-143485.000000,143360.000000,Suck,-1132.500000,1818.181818,Speed,-1012.500000,1818.181818,Speed,Off,On,0.000000,FALSE,0,,,,,0.000000,0.000000
08:22:05.866 PM 04/04/2016,Teleop Enabled,10,FALSE,0,NO ERROR,0.181102,-48.278887,0.181102,-67.779092,FALSE,FALSE,TRUE,FALSE,FALSE,FALSE,Disabled,0.000000,0.000000,0.000000,TRUE,0.507858,-0.371170,0.000000,-0.200867,-0.229889,0.000000,-0.780000,0.838000,0.216000,38.840000,-5.230000,1.760000,37.484404,Hold,53.591553,50.000000,Hold,-143485.000000,143360.000000,Hold,-1642.500000,0.000000,Speed,-1537.500000,0.000000,Speed,Off,Off,0.000000,FALSE,0,,,,,0.000000,0.000000
08:22:05.967 PM 04/04/2016,Teleop Enabled,10,FALSE,0,NO ERROR,0.346457,-49.658467,0.346457,-67.657175,FALSE,FALSE,TRUE,FALSE,FALSE,FALSE,Disabled,0.000000,0.000000,0.000000,TRUE,0.489014,-0.378616,0.000000,-0.469376,-0.117325,0.000000,-0.306000,0.191000,-0.167000,38.840000,-5.230000,1.760000,36.126490,Hold,53.652344,50.000000,Hold,-143480.000000,143360.000000,Hold,-1875.000000,0.000000,Speed,-1800.000000,0.000000,Speed,Off,Off,0.000000,FALSE,0,,,,,0.000000,0.000000
08:22:06.067 PM 04/04/2016,Teleop Enabled,10,FALSE,0,NO ERROR,0.354331,-50.832714,0.354331,-66.303262,FALSE,FALSE,TRUE,FALSE,FALSE,FALSE,Disabled,0.000000,0.000000,0.000000,TRUE,0.466156,-0.382416,0.000000,-0.484360,-0.044128,0.000000,0.120000,-0.080000,0.205000,37.760000,-4.610000,1.570000,31.464554,Hold,53.582275,50.000000,Hold,-143462.000000,143360.000000,Hold,-1792.500000,0.000000,Speed,-1672.500000,0.000000,Speed,Off,Off,0.000000,FALSE,0,,,,,0.000000,0.000000
08:22:06.169 PM 04/04/2016,Teleop Enabled,10,FALSE,0,NO ERROR,0.181102,-52.199461,0.181102,-64.744015,FALSE,FALSE,TRUE,FALSE,FALSE,FALSE,Disabled,0.000000,0.000000,0.000000,TRUE,0.440918,-0.390762,0.000000,-0.449371,-0.207367,0.000000,-0.134000,-0.092000,0.114000,33.320000,-4.560000,1.230000,25.184684,Hold,53.381592,50.000000,Hold,-143462.000000,143360.000000,Hold,-1665.000000,0.000000,Speed,-1477.500000,0.000000,Speed,Off,Off,0.000000,FALSE,0,,,,,0.000000,0.000000
08:22:06.269 PM 04/04/2016,Teleop Enabled,10,FALSE,0,NO ERROR,-0.000000,-52.956626,-0.000000,-63.909851,FALSE,FALSE,TRUE,FALSE,FALSE,FALSE,Disabled,0.000000,0.000000,0.000000,TRUE,0.424347,-0.396835,0.000000,-0.269089,-0.077515,0.000000,0.325000,0.240000,-0.168000,26.830000,-4.420000,1.370000,21.181692,Hold,53.585938,50.000000,Hold,-143462.000000,143360.000000,Hold,-1552.500000,0.000000,Speed,-1290.000000,0.000000,Speed,Off,Off,0.000000,FALSE,0,,,,,0.000000,0.000000
08:22:06.369 PM 04/04/2016,Teleop Enabled,9,FALSE,0,NO ERROR,0.338583,-52.988709,-0.338583,-63.736601,FALSE,FALSE,TRUE,FALSE,FALSE,FALSE,Disabled,0.000000,0.000000,0.000000,TRUE,0.424347,-0.396835,0.000000,-0.269089,-0.077515,0.000000,0.296000,-0.081000,-0.025000,22.330000,-3.800000,2.430000,19.874081,Hold,53.583740,50.000000,Hold,-143462.000000,143360.000000,Hold,-1432.500000,0.000000,Speed,-1117.500000,0.000000,Speed,Off,Off,0.000000,FALSE,0,,,,,0.000000,0.000000
08:22:06.469 PM 04/04/2016,Teleop Enabled,10,FALSE,0,NO ERROR,0.512022,-51.570629,-0.653333,-62.517437,FALSE,FALSE,TRUE,FALSE,FALSE,FALSE,Disabled,0.000000,0.000000,0.000000,TRUE,0.415985,-0.402542,0.000000,-0.114227,-0.131989,0.000000,0.290000,0.028000,-0.014000,20.580000,-3.230000,2.400000,20.304900,Hold,53.583740,50.000000,Hold,-143462.000000,143360.000000,Hold,-1320.000000,0.000000,Speed,-990.000000,0.000000,Speed,Off,Off,0.000000,FALSE,0,,,,,0.000000,0.000000
08:22:06.569 PM 04/04/2016,Teleop Enabled,10,FALSE,0,NO ERROR,0.372373,-51.570629,-0.840226,-62.517437,FALSE,FALSE,TRUE,FALSE,FALSE,FALSE,Disabled,0.000000,0.000000,0.000000,TRUE,0.409866,-0.406769,0.000000,-0.278900,-0.013168,0.000000,-0.330000,-0.007000,-0.305000,21.170000,-5.760000,2.830000,20.304900,Hold,53.565674,50.000000,Hold,-143462.000000,143360.000000,Hold,-1207.500000,0.000000,Speed,-832.500000,0.000000,Speed,Off,Off,0.000000,FALSE,0,,,,,0.000000,0.000000
08:22:06.670 PM 04/04/2016,Teleop Enabled,10,FALSE,0,NO ERROR,0.388201,-48.291720,-0.887389,-60.098359,FALSE,FALSE,TRUE,FALSE,FALSE,FALSE,Disabled,0.000000,0.000000,0.000000,TRUE,0.385437,-0.405243,0.000000,-0.561554,0.071716,0.000000,-0.176000,0.309000,-0.096000,21.960000,-7.100000,2.990000,20.895894,Hold,53.782959,50.000000,Hold,-143461.000000,143360.000000,Hold,-1080.000000,0.000000,Speed,-690.000000,0.000000,Speed,Off,Off,0.000000,FALSE,0,,,,,0.000000,0.000000
08:22:06.770 PM 04/04/2016,Teleop Enabled,10,FALSE,0,NO ERROR,0.429568,-43.549815,-1.000000,-57.326366,FALSE,FALSE,TRUE,FALSE,FALSE,FALSE,Disabled,0.000000,0.000000,0.000000,TRUE,0.355377,-0.395477,0.000000,-0.605698,0.228561,0.000000,0.106000,0.146000,1.018000,25.020000,-5.730000,3.060000,23.767659,Hold,53.526123,50.000000,Hold,-143461.000000,143360.000000,Hold,-952.500000,0.000000,Speed,-562.500000,0.000000,Speed,Off,Off,0.000000,FALSE,0,,,,,0.000000,0.000000
08:22:06.870 PM 04/04/2016,Teleop Enabled,9,FALSE,0,NO ERROR,0.420956,-37.473246,-1.000000,-54.079540,FALSE,FALSE,TRUE,FALSE,FALSE,FALSE,Disabled,0.000000,0.000000,0.000000,TRUE,0.326263,-0.382721,0.000000,-0.540634,0.295212,0.000000,0.198000,0.305000,-0.387000,29.880000,-6.810000,3.130000,28.389420,Hold,53.396729,50.000000,Hold,-143461.000000,143360.000000,Hold,-892.500000,0.000000,Speed,-450.000000,0.000000,Speed,Off,Off,0.000000,FALSE,0,,,,,0.000000,0.000000
08:22:06.971 PM 04/04/2016,Teleop Enabled,10,FALSE,0,NO ERROR,0.724409,-30.799928,-0.724409,-50.608132,FALSE,FALSE,TRUE,FALSE,FALSE,FALSE,Disabled,0.000000,0.000000,0.000000,TRUE,0.298553,-0.358337,0.000000,-0.416656,0.431473,0.000000,0.055000,-0.058000,0.091000,35.790000,-6.690000,3.270000,35.374650,Hold,53.637695,50.000000,Hold,-143461.000000,143360.000000,Hold,-780.000000,0.000000,Speed,-337.500000,0.000000,Speed,Off,Off,0.000000,FALSE,0,,,,,0.000000,0.000000
08:22:07.071 PM 04/04/2016,Teleop Enabled,9,FALSE,0,NO ERROR,0.916064,-23.953361,-0.532755,-46.636224,FALSE,FALSE,TRUE,FALSE,FALSE,FALSE,Disabled,0.000000,0.000000,0.000000,TRUE,0.281570,-0.337311,0.000000,-0.276672,0.429642,0.000000,0.069000,0.028000,-0.069000,42.440000,-5.830000,3.120000,41.936503,Hold,53.571533,50.000000,Hold,-143461.000000,143360.000000,LowGoal,-712.500000,-2181.818182,Speed,-240.000000,-2181.818182,Speed,Off,Off,0.000000,FALSE,0,,,,,0.000000,0.000000
08:22:07.171 PM 04/04/2016,Teleop Enabled,10,FALSE,0,NO ERROR,1.000000,-17.639375,-0.214961,-41.688986,FALSE,FALSE,TRUE,FALSE,FALSE,FALSE,Disabled,0.000000,0.000000,0.000000,TRUE,0.266418,-0.313141,0.000000,-0.318634,0.497742,0.000000,0.152000,-0.030000,-0.118000,47.560000,-6.330000,2.770000,45.852430,Hold,53.912109,50.000000,Hold,-143461.000000,143360.000000,LowGoal,-577.500000,-2181.818182,Speed,-135.000000,-2181.818182,Speed,Off,Off,0.000000,FALSE,0,,,,,0.000000,0.000000
08:22:07.272 PM 04/04/2016,Teleop Enabled,10,FALSE,0,NO ERROR,0.965348,-13.057886,-0.467723,-35.740750,FALSE,FALSE,TRUE,FALSE,FALSE,FALSE,Disabled,0.000000,0.000000,0.000000,TRUE,0.250275,-0.292007,0.000000,-0.365189,0.309387,0.000000,0.087000,-0.285000,-0.463000,47.920000,-5.520000,2.130000,45.825220,Hold,53.920654,50.000000,Hold,-143461.000000,143360.000000,LowGoal,105.000000,-2181.818182,Speed,112.500000,-2181.818182,Speed,Off,Off,0.000000,FALSE,0,,,,,0.000000,0.000000
08:22:07.372 PM 04/04/2016,Teleop Enabled,9,FALSE,0,NO ERROR,0.716535,-9.965060,-0.716535,-29.478098,FALSE,FALSE,TRUE,FALSE,FALSE,FALSE,Disabled,0.000000,0.000000,0.000000,TRUE,0.234131,-0.285370,0.000000,-0.346558,0.011978,0.000000,-0.274000,-0.157000,-0.093000,39.930000,-5.510000,1.250000,40.284395,Hold,53.900635,50.000000,Hold,-143461.000000,143360.000000,LowGoal,847.500000,-2181.818182,Speed,952.500000,-2181.818182,Speed,Off,Off,0.000000,FALSE,0,,,,,0.000000,0.000000
08:22:07.473 PM 04/04/2016,Teleop Enabled,10,FALSE,0,NO ERROR,0.716535,-6.589901,-0.716535,-23.715945,FALSE,FALSE,TRUE,FALSE,FALSE,FALSE,Disabled,0.000000,0.000000,0.000000,TRUE,0.215363,-0.291687,0.000000,-0.347412,-0.182755,0.000000,0.086000,0.130000,-0.081000,34.570000,-4.810000,1.460000,33.550531,Hold,54.148193,50.000000,Hold,-143461.000000,143360.000000,LowGoal,1410.000000,-2181.818182,Speed,1447.500000,-2181.818182,Speed,Off,Off,0.000000,FALSE,0,,,,,0.000000,0.000000
08:22:07.573 PM 04/04/2016,Teleop Enabled,10,FALSE,0,NO ERROR,0.361089,-2.444744,-1.000000,-18.691706,FALSE,FALSE,TRUE,FALSE,FALSE,FALSE,Disabled,0.000000,0.000000,0.000000,TRUE,0.201157,-0.300735,0.000000,-0.178970,-0.151505,0.000000,0.032000,0.078000,0.272000,31.540000,-3.800000,1.860000,30.748061,Hold,54.147461,50.000000,Hold,-143461.000000,143360.000000,LowGoal,1770.000000,-2181.818182,Speed,1837.500000,-2181.818182,Speed,Off,Off,0.000000,FALSE,0,,,,,0.000000,0.000000
08:22:07.675 PM 04/04/2016,Teleop Enabled,9,FALSE,0,NO ERROR,0.309746,2.996576,-1.000000,-14.200050,FALSE,FALSE,TRUE,FALSE,FALSE,FALSE,Disabled,0.000000,0.000000,0.000000,TRUE,0.192795,-0.306717,0.000000,-0.152756,-0.078644,0.000000,0.290000,0.136000,-0.026000,31.640000,-4.420000,2.150000,30.542221,Hold,54.145996,50.000000,Hold,-143461.000000,143360.000000,LowGoal,2092.500000,-2181.818182,Speed,2092.500000,-2181.818182,Speed,Off,Off,0.000000,FALSE,0,,,,,0.000000,0.000000
08:22:07.775 PM 04/04/2016,Teleop Enabled,10,FALSE,0,NO ERROR,0.309746,9.547978,-1.000000,-10.529725,FALSE,FALSE,TRUE,FALSE,FALSE,FALSE,Disabled,0.000000,0.000000,0.000000,TRUE,0.193817,-0.307343,0.000000,0.139877,0.008987,0.000000,0.325000,-0.094000,0.102000,36.800000,-3.120000,2.990000,35.539218,Hold,54.148438,50.000000,Hold,-143461.000000,143360.000000,LowGoal,2160.000000,-2181.818182,Speed,2122.500000,-2181.818182,Speed,Off,Off,0.000000,FALSE,0,,,,,0.000000,0.000000
08:22:07.876 PM 04/04/2016,Teleop Enabled,10,FALSE,0,NO ERROR,0.309746,16.728211,-1.000000,-7.263650,FALSE,FALSE,TRUE,FALSE,FALSE,FALSE,Disabled,0.000000,0.000000,0.000000,TRUE,0.207336,-0.308685,0.000000,0.330322,-0.043137,0.000000,0.056000,0.145000,0.070000,44.420000,-2.620000,3.480000,42.948009,Hold,53.988281,50.000000,Hold,-143461.000000,143360.000000,LowGoal,2122.500000,-2181.818182,Speed,2077.500000,-2181.818182,Speed,Off,Off,0.000000,FALSE,0,,,,,0.000000,0.000000
08:22:07.976 PM 04/04/2016,Teleop Enabled,10,FALSE,0,NO ERROR,0.309746,23.972611,-1.000000,-4.401823,FALSE,FALSE,TRUE,FALSE,FALSE,FALSE,Disabled,0.000000,0.000000,0.000000,TRUE,0.228531,-0.307938,0.000000,0.511002,0.069687,0.000000,0.120000,0.168000,-0.112000,51.560000,-2.690000,4.040000,51.751342,Hold,53.991211,50.000000,Hold,-143461.000000,143360.000000,LowGoal,2115.000000,-2181.818182,Speed,2070.000000,-2181.818182,Speed,Off,Off,0.000000,FALSE,0,,,,,0.000000,0.000000
08:22:08.076 PM 04/04/2016,Teleop Enabled,9,FALSE,0,NO ERROR,0.435687,31.403093,-0.698171,-1.597746,FALSE,FALSE,TRUE,FALSE,FALSE,FALSE,Disabled,0.000000,0.000000,0.000000,TRUE,0.257950,-0.304947,0.000000,0.637772,0.074310,0.000000,-0.063000,0.106000,-0.172000,62.810000,-2.510000,4.490000,60.946102,Hold,53.980957,50.000000,Hold,-143461.000000,143360.000000,LowGoal,2130.000000,-2181.818182,Speed,2077.500000,-2181.818182,Speed,Off,Off,0.000000,FALSE,0,,,,,0.000000,0.000000
08:22:08.176 PM 04/04/2016,Teleop Enabled,10,FALSE,0,NO ERROR,-0.000000,38.673160,-0.000000,1.212747,FALSE,FALSE,TRUE,FALSE,FALSE,FALSE,Disabled,0.000000,0.000000,0.000000,TRUE,0.292252,-0.299866,0.000000,0.751709,0.113464,0.000000,0.147000,-0.024000,0.050000,70.550000,-2.450000,4.820000,70.334757,Hold,53.981934,50.000000,Hold,-143461.000000,143360.000000,LowGoal,2130.000000,-2181.818182,Speed,2077.500000,-2181.818182,Speed,Off,Off,0.000000,FALSE,0,,,,,0.000000,0.000000
08:22:08.276 PM 04/04/2016,Teleop Enabled,10,FALSE,0,NO ERROR,-0.000000,42.240818,-0.000000,3.035076,FALSE,FALSE,TRUE,FALSE,FALSE,FALSE,Disabled,0.000000,0.000000,0.000000,TRUE,0.344299,-0.304199,0.000000,0.928070,-0.452988,0.000000,0.235000,-0.506000,0.302000,79.260000,1.470000,3.800000,76.863527,Hold,54.281494,50.000000,Hold,-143461.000000,143360.000000,LowGoal,2145.000000,-2181.818182,Speed,2085.000000,-2181.818182,Speed,Off,Off,0.000000,FALSE,0,,,,,0.000000,0.000000
08:22:08.376 PM 04/04/2016,Teleop Enabled,11,FALSE,0,NO ERROR,-0.000000,43.626815,-0.000000,3.978324,FALSE,FALSE,TRUE,FALSE,FALSE,FALSE,Disabled,0.000000,0.000000,0.000000,TRUE,0.385590,-0.330566,0.000000,1.111893,-0.745178,0.000000,0.018000,-0.023000,0.520000,80.390000,2.370000,4.170000,78.006580,Hold,53.212891,50.000000,Hold,-143460.000000,143360.000000,LowGoal,2160.000000,-2181.818182,Speed,2092.500000,-2181.818182,Speed,Off,Off,0.000000,FALSE,0,,,,,0.000000,0.000000
08:22:08.477 PM 04/04/2016,Teleop Enabled,10,FALSE,0,NO ERROR,-0.000000,43.915564,-0.000000,4.433906,FALSE,FALSE,TRUE,FALSE,FALSE,FALSE,Disabled,0.000000,0.000000,0.000000,TRUE,0.444031,-0.372467,0.000000,1.186142,-0.908722,0.000000,0.055000,-0.048000,-0.297000,80.040000,1.710000,4.020000,77.788191,Hold,53.241455,50.000000,Hold,-143428.000000,143360.000000,LowGoal,2160.000000,-2181.818182,Speed,2107.500000,-2181.818182,Speed,Off,Off,0.000000,FALSE,0,,,,,0.000000,0.000000
08:22:08.578 PM 04/04/2016,Teleop Enabled,10,FALSE,0,NO ERROR,-0.000000,43.915564,-0.000000,4.421073,FALSE,FALSE,TRUE,FALSE,FALSE,FALSE,Disabled,0.000000,0.000000,0.000000,TRUE,0.492294,-0.419174,0.000000,0.000000,-0.921921,0.000000,-0.076000,0.034000,0.087000,79.950000,1.510000,3.780000,77.737912,Hold,53.597900,50.000000,Hold,-143431.000000,143360.000000,LowGoal,2145.000000,-2181.818182,Speed,2092.500000,-2181.818182,Speed,Off,Off,0.000000,FALSE,0,,,,,0.000000,0.000000
08:22:08.678 PM 04/04/2016,Teleop Enabled,10,FALSE,0,NO ERROR,-0.000000,43.915564,-0.000000,4.388990,FALSE,FALSE,TRUE,FALSE,FALSE,FALSE,Disabled,0.000000,0.000000,0.000000,TRUE,0.492310,-0.468323,0.000000,-0.008575,-0.751053,0.000000,-0.089000,0.032000,-0.064000,80.190000,1.370000,3.820000,77.933277,Hold,53.596924,50.000000,Hold,-143432.000000,143360.000000,LowGoal,2145.000000,-2181.818182,Speed,2100.000000,-2181.818182,Speed,Off,Off,0.000000,FALSE,0,,,,,0.000000,0.000000
08:22:08.779 PM 04/04/2016,Teleop Enabled,9,FALSE,0,NO ERROR,-0.000000,43.915564,-0.000000,4.395406,FALSE,FALSE,TRUE,FALSE,FALSE,FALSE,Disabled,0.000000,0.000000,0.000000,TRUE,0.491196,-0.497681,0.000000,-0.024902,-0.710526,0.000000,-0.095000,0.014000,-0.041000,80.090000,1.110000,3.680000,77.868988,Hold,53.596924,50.000000,Hold,-143432.000000,143360.000000,LowGoal,2152.500000,-2181.818182,Speed,2100.000000,-2181.818182,Speed,Off,Off,0.000000,FALSE,0,,,,,0.000000,0.000000
08:22:08.879 PM 04/04/2016,Teleop Enabled,10,FALSE,0,NO ERROR,-0.000000,43.915564,-0.000000,4.395406,FALSE,FALSE,TRUE,FALSE,FALSE,FALSE,Disabled,0.000000,0.000000,0.000000,TRUE,0.488220,-0.540695,0.000000,-0.059692,-0.738312,0.000000,-0.064000,-0.139000,0.137000,80.130000,1.110000,3.500000,77.912429,Hold,53.596924,50.000000,Hold,-143434.000000,143360.000000,LowGoal,2160.000000,-2181.818182,Speed,2100.000000,-2181.818182,Speed,Off,Off,0.000000,FALSE,0,,,,,0.000000,0.000000
08:22:08.979 PM 04/04/2016,Teleop Enabled,10,FALSE,0,NO ERROR,0.244094,43.915564,-0.244094,4.395406,FALSE,FALSE,TRUE,FALSE,FALSE,FALSE,Disabled,0.000000,0.000000,0.000000,TRUE,0.484299,-0.580383,0.000000,-0.076721,-0.822876,0.000000,-0.013000,-0.035000,-0.021000,80.100000,0.970000,3.410000,77.896838,Hold,53.596924,50.000000,Hold,-143434.000000,143360.000000,LowGoal,2160.000000,-2181.818182,Speed,2100.000000,-2181.818182,Speed,Off,Off,0.000000,FALSE,0,,,,,0.000000,0.000000
08:22:09.079 PM 04/04/2016,Teleop Enabled,10,FALSE,0,NO ERROR,0.236220,44.550812,-0.236220,5.094821,FALSE,FALSE,TRUE,FALSE,FALSE,FALSE,Disabled,0.000000,0.000000,0.000000,TRUE,0.479095,-0.620773,0.000000,-0.137253,-0.703552,0.000000,-0.137000,0.069000,-0.074000,79.920000,-0.520000,3.520000,77.798821,Hold,53.581055,50.000000,Hold,-143434.000000,143360.000000,LowGoal,2160.000000,-2181.818182,Speed,2100.000000,-2181.818182,Speed,Off,Off,0.000000,FALSE,0,,,,,0.000000,0.000000
08:22:09.180 PM 04/04/2016,Teleop Enabled,11,FALSE,0,NO ERROR,0.291339,45.474810,-0.291339,6.095819,FALSE,FALSE,TRUE,FALSE,FALSE,FALSE,Disabled,0.000000,0.000000,0.000000,TRUE,0.479095,-0.620773,0.000000,-0.137253,-0.703552,0.000000,-0.137000,0.069000,-0.074000,79.920000,-0.520000,3.520000,77.620284,Hold,53.597168,50.000000,Hold,-143434.000000,143360.000000,LowGoal,2152.500000,-2181.818182,Speed,2092.500000,-2181.818182,Speed,Off,Off,0.000000,FALSE,0,,,,,0.000000,0.000000
08:22:09.281 PM 04/04/2016,Teleop Enabled,10,FALSE,0,NO ERROR,0.291339,46.873640,-0.291339,7.590899,FALSE,FALSE,TRUE,FALSE,FALSE,FALSE,Disabled,0.000000,0.000000,0.000000,TRUE,0.453140,-0.683701,0.000000,-0.310364,-0.413742,0.000000,-0.091000,0.265000,0.208000,79.750000,-0.670000,3.450000,77.522787,Hold,53.512451,50.000000,Hold,-143434.000000,143360.000000,LowGoal,2145.000000,-2181.818182,Speed,2092.500000,-2181.818182,Speed,Off,Off,0.000000,FALSE,0,,,,,0.000000,0.000000
08:22:09.382 PM 04/04/2016,Teleop Enabled,10,FALSE,0,NO ERROR,0.291339,48.535553,-0.291339,9.310562,FALSE,FALSE,TRUE,FALSE,FALSE,FALSE,Disabled,0.000000,0.000000,0.000000,TRUE,0.431976,-0.710205,0.000000,-0.368622,-0.435211,0.000000,-0.093000,-0.149000,0.111000,79.590000,-1.170000,3.360000,77.450362,Hold,53.585449,50.000000,Hold,-143434.000000,143360.000000,LowGoal,2145.000000,-2181.818182,Speed,2092.500000,-2181.818182,Speed,Off,Off,0.000000,FALSE,0,,,,,0.000000,0.000000
08:22:09.482 PM 04/04/2016,Teleop Enabled,9,FALSE,0,NO ERROR,0.291339,50.274466,-0.291339,11.145724,FALSE,FALSE,TRUE,FALSE,FALSE,FALSE,Disabled,0.000000,0.000000,0.000000,TRUE,0.424545,-0.725525,0.000000,0.006210,-0.350403,0.000000,-0.014000,0.113000,-0.034000,79.590000,-1.170000,3.360000,77.358591,Hold,53.585449,50.000000,Hold,-143435.000000,143360.000000,LowGoal,2145.000000,-2181.818182,Speed,2085.000000,-2181.818182,Speed,Off,Off,0.000000,FALSE,0,,,,,0.000000,0.000000
08:22:09.582 PM 04/04/2016,Teleop Enabled,11,FALSE,0,NO ERROR,-0.000000,52.058295,-0.000000,13.006553,FALSE,FALSE,TRUE,FALSE,FALSE,FALSE,Disabled,0.000000,0.000000,0.000000,TRUE,0.423508,-0.730392,0.000000,-0.021729,-0.040482,0.000000,-0.070000,0.006000,-0.224000,79.370000,-1.070000,3.180000,77.253162,Hold,53.585449,50.000000,Hold,-143435.000000,143360.000000,LowGoal,2145.000000,-2181.818182,Speed,2092.500000,-2181.818182,Speed,Off,Off,0.000000,FALSE,0,,,,,0.000000,0.000000
08:22:09.682 PM 04/04/2016,Teleop Enabled,11,FALSE,0,NO ERROR,-0.000000,52.866793,-0.000000,13.872801,FALSE,FALSE,TRUE,FALSE,FALSE,FALSE,Disabled,0.000000,0.000000,0.000000,TRUE,0.424194,-0.738434,0.000000,0.052841,-0.267685,0.000000,0.050000,-0.094000,0.517000,79.250000,0.870000,3.010000,77.080769,Hold,53.585449,50.000000,Hold,-143435.000000,143360.000000,LowGoal,2145.000000,-2181.818182,Speed,2100.000000,-2181.818182,Speed,Off,Off,0.000000,FALSE,0,,,,,0.000000,0.000000
08:22:09.783 PM 04/04/2016,Teleop Enabled,11,FALSE,0,NO ERROR,-0.000000,53.142709,-0.000000,14.206467,TRUE,FALSE,TRUE,FALSE,FALSE,FALSE,Disabled,0.000000,0.000000,0.000000,TRUE,0.431000,-0.757874,0.000000,0.182800,-0.430771,0.000000,0.208000,-0.155000,0.111000,79.140000,0.880000,2.990000,77.003129,Hold,53.492188,50.000000,Hold,-143435.000000,143360.000000,LowGoal,2145.000000,-2181.818182,Speed,2115.000000,-2181.818182,Speed,Off,Off,0.000000,FALSE,0,,,,,0.000000,0.000000
08:22:09.883 PM 04/04/2016,Teleop Enabled,11,FALSE,0,NO ERROR,-0.000000,53.136292,-0.000000,14.187217,TRUE,FALSE,TRUE,FALSE,FALSE,FALSE,Disabled,0.000000,0.000000,0.000000,TRUE,0.442520,-0.783234,0.000000,0.232620,-0.543961,0.000000,0.208000,-0.155000,0.111000,79.180000,0.960000,2.900000,77.017846,Hold,53.337646,50.000000,Hold,-143435.000000,143360.000000,LowGoal,2152.500000,-2181.818182,Speed,2107.500000,-2181.818182,Speed,Off,Off,0.000000,FALSE,0,,,,,0.000000,0.000000
08:22:09.984 PM 04/04/2016,Teleop Enabled,10,FALSE,0,NO ERROR,-0.000000,53.136292,-0.000000,14.129467,TRUE,FALSE,TRUE,FALSE,FALSE,FALSE,Disabled,0.000000,0.000000,0.000000,TRUE,0.454315,-0.799393,0.000000,0.220993,0.002853,0.000000,0.084000,-0.054000,-0.068000,79.240000,0.830000,2.810000,77.100712,Hold,53.438232,50.000000,Hold,-143435.000000,143360.000000,LowGoal,2145.000000,-2181.818182,Speed,2107.500000,-2181.818182,Speed,Off,Off,0.000000,FALSE,0,,,,,0.000000,0.000000
08:22:10.084 PM 04/04/2016,Teleop Enabled,11,FALSE,0,NO ERROR,-0.000000,53.136292,-0.000000,14.129467,TRUE,FALSE,TRUE,FALSE,FALSE,FALSE,Disabled,0.000000,0.000000,0.000000,TRUE,0.465469,-0.799332,0.000000,0.224701,0.002655,0.000000,0.015000,0.017000,-0.146000,79.210000,0.770000,2.770000,77.088983,Hold,53.438232,50.000000,HighGoal,-143435.000000,77824.000000,HighGoal,2145.000000,-2181.818182,Speed,2115.000000,-2181.818182,Speed,Off,Off,0.000000,FALSE,0,,,,,0.000000,0.000000
08:22:10.184 PM 04/04/2016,Teleop Enabled,9,FALSE,0,NO ERROR,-0.000000,53.136292,-0.000000,14.129467,TRUE,FALSE,TRUE,FALSE,FALSE,FALSE,Disabled,0.000000,0.000000,0.000000,TRUE,0.476151,-0.798325,0.000000,0.220673,0.060913,0.000000,-0.038000,0.063000,0.034000,79.200000,0.590000,2.820000,77.083544,Hold,53.438232,50.000000,Hold,-143435.000000,77824.000000,HighGoal,2130.000000,-3272.727273,Speed,2092.500000,-3272.727273,Speed,Off,Off,0.000000,FALSE,0,,,,,0.000000,0.000000
08:22:10.284 PM 04/04/2016,Teleop Enabled,12,FALSE,0,NO ERROR,-0.000000,53.136292,-0.000000,14.103800,TRUE,FALSE,TRUE,FALSE,FALSE,FALSE,Disabled,0.000000,0.000000,0.000000,TRUE,0.488739,-0.799438,0.000000,0.191818,-0.043335,0.000000,-0.038000,0.063000,0.034000,79.200000,0.590000,2.820000,77.112362,Hold,53.438232,50.000000,HighGoal,-139527.000000,77824.000000,HighGoal,2212.500000,-3272.727273,Speed,2092.500000,-3272.727273,Speed,Off,Off,0.000000,FALSE,0,,,,,0.000000,0.000000
08:22:10.384 PM 04/04/2016,Teleop Enabled,9,FALSE,0,NO ERROR,-0.000000,53.136292,-0.000000,14.090967,TRUE,FALSE,TRUE,FALSE,FALSE,FALSE,Disabled,0.000000,0.000000,0.000000,TRUE,0.496262,-0.800064,0.000000,0.204239,0.020020,0.000000,-0.069000,-0.151000,0.119000,79.220000,0.490000,2.770000,77.118768,Hold,53.439697,50.000000,Hold,-131654.000000,77824.000000,HighGoal,2512.500000,-3272.727273,Speed,2235.000000,-3272.727273,Speed,Off,Off,0.000000,FALSE,0,,,,,0.000000,0.000000
08:22:10.486 PM 04/04/2016,Teleop Enabled,11,FALSE,0,NO ERROR,-0.000000,53.136292,-0.000000,14.097384,TRUE,FALSE,TRUE,FALSE,FALSE,FALSE,Disabled,0.000000,0.000000,0.000000,TRUE,0.506912,-0.799850,0.000000,0.250610,0.022186,0.000000,-0.047000,-0.201000,-0.253000,79.220000,0.490000,2.770000,77.107800,Hold,53.438965,50.000000,Hold,-131654.000000,77824.000000,HighGoal,2767.500000,-3272.727273,Speed,2437.500000,-3272.727273,Speed,Off,Off,0.000000,FALSE,0,,,,,0.000000,0.000000
08:22:10.587 PM 04/04/2016,Teleop Enabled,10,FALSE,0,NO ERROR,-0.000000,53.136292,-0.000000,14.097384,TRUE,FALSE,TRUE,FALSE,FALSE,FALSE,Disabled,0.000000,0.000000,0.000000,TRUE,0.517776,-0.797760,0.000000,0.205429,0.060455,0.000000,0.238000,-0.020000,0.060000,79.220000,0.350000,2.770000,77.126999,Hold,53.438965,50.000000,Hold,-122588.000000,77824.000000,HighGoal,3000.000000,-3272.727273,Speed,2662.500000,-3272.727273,Speed,Off,Off,0.000000,FALSE,0,,,,,0.000000,0.000000
08:22:10.687 PM 04/04/2016,Teleop Enabled,9,FALSE,0,NO ERROR,-0.000000,53.136292,-0.000000,14.097384,TRUE,FALSE,TRUE,FALSE,FALSE,FALSE,Disabled,0.000000,0.000000,0.000000,TRUE,0.527328,-0.793991,0.000000,0.183228,0.102448,0.000000,-0.019000,-0.039000,0.189000,79.210000,0.250000,2.700000,77.112231,Hold,53.438721,50.000000,Hold,-113237.000000,77824.000000,HighGoal,3000.000000,-3272.727273,Speed,3030.000000,-3272.727273,Speed,Off,Off,0.000000,FALSE,0,,,,,0.000000,0.000000
08:22:10.788 PM 04/04/2016,Teleop Enabled,10,FALSE,0,NO ERROR,-0.000000,53.136292,-0.000000,14.097384,TRUE,FALSE,TRUE,FALSE,FALSE,FALSE,Disabled,0.000000,0.000000,0.000000,TRUE,0.539276,-0.787186,0.000000,0.198196,0.125519,0.000000,-0.019000,-0.039000,0.189000,79.210000,0.250000,2.700000,77.140546,Hold,53.438965,50.000000,Hold,-103339.000000,77824.000000,HighGoal,3247.500000,-3272.727273,Speed,3030.000000,-3272.727273,Speed,Off,Off,0.000000,FALSE,0,,,,,0.000000,0.000000
08:22:10.889 PM 04/04/2016,Teleop Enabled,11,FALSE,0,NO ERROR,-0.000000,53.136292,-0.000000,14.097384,TRUE,FALSE,TRUE,FALSE,FALSE,FALSE,Disabled,0.000000,0.000000,0.000000,TRUE,0.546875,-0.781387,0.000000,0.181992,0.144012,0.000000,-0.099000,0.116000,0.159000,79.230000,0.240000,2.670000,77.141135,Hold,53.438721,50.000000,Hold,-92457.000000,77824.000000,HighGoal,3247.500000,-3272.727273,Speed,3202.500000,-3272.727273,Speed,Off,Off,0.000000,FALSE,0,,,,,0.000000,0.000000
08:22:10.989 PM 04/04/2016,Teleop Enabled,9,FALSE,0,NO ERROR,-0.000000,53.136292,-0.000000,14.097384,TRUE,FALSE,TRUE,FALSE,FALSE,FALSE,Disabled,0.000000,0.000000,0.000000,TRUE,0.555283,-0.774261,0.000000,0.161865,0.163849,0.000000,0.235000,0.035000,-0.005000,79.230000,0.240000,2.590000,77.162564,Hold,53.438721,50.000000,Hold,-80328.000000,77824.000000,HighGoal,3247.500000,-3272.727273,Speed,3202.500000,-3272.727273,Speed,Off,Off,0.000000,FALSE,0,,,,,0.000000,0.000000
08:22:11.091 PM 04/04/2016,Teleop Enabled,10,FALSE,0,NO ERROR,-0.000000,53.136292,-0.000000,14.200050,TRUE,FALSE,TRUE,FALSE,FALSE,FALSE,Disabled,0.000000,0.000000,0.000000,TRUE,0.565536,-0.768372,0.000000,0.162415,-0.009109,0.000000,-0.060000,-0.009000,0.077000,79.150000,0.240000,2.630000,77.061054,Hold,53.438721,50.000000,Hold,-80328.000000,77824.000000,HighGoal,3240.000000,-3272.727273,Speed,3202.500000,-3272.727273,Speed,Off,Off,0.000000,FALSE,0,,,,,0.000000,0.000000
08:22:11.191 PM 04/04/2016,Teleop Enabled,10,FALSE,0,NO ERROR,-0.000000,53.136292,-0.000000,14.142300,TRUE,FALSE,TRUE,FALSE,FALSE,FALSE,Disabled,0.000000,0.000000,0.000000,TRUE,0.573959,-0.770844,0.000000,0.173203,-0.091812,0.000000,-0.060000,-0.009000,0.077000,79.150000,0.240000,2.630000,77.084263,Hold,53.438232,50.000000,Hold,-77990.000000,77824.000000,HighGoal,3240.000000,-3272.727273,Speed,3187.500000,-3272.727273,Speed,Off,Off,0.000000,FALSE,0,,,,,0.000000,0.000000
08:22:11.292 PM 04/04/2016,Teleop Enabled,10,FALSE,0,NO ERROR,-0.000000,53.117042,-0.000000,14.033217,TRUE,FALSE,TRUE,FALSE,FALSE,FALSE,Disabled,0.000000,0.000000,0.000000,TRUE,0.583221,-0.775208,0.000000,0.183578,-0.064041,0.000000,0.145000,0.108000,-0.005000,79.130000,0.190000,2.630000,77.260980,Hold,53.443115,50.000000,Hold,-77870.000000,77824.000000,HighGoal,3232.500000,-3272.727273,Speed,3195.000000,-3272.727273,Speed,Off,Off,0.000000,FALSE,0,,,,,0.000000,0.000000
08:22:11.395 PM 04/04/2016,Teleop Enabled,10,FALSE,0,NO ERROR,-0.000000,53.117042,-0.000000,14.084550,TRUE,FALSE,TRUE,FALSE,FALSE,FALSE,Disabled,0.000000,0.000000,0.000000,TRUE,0.591965,-0.777863,0.000000,0.170288,-0.075439,0.000000,-0.041000,-0.108000,-0.110000,79.330000,0.240000,2.630000,77.126672,Hold,53.439453,50.000000,Hold,-77917.000000,77824.000000,HighGoal,3232.500000,-3272.727273,Speed,3210.000000,-3272.727273,Speed,Off,Off,0.000000,FALSE,0,,,,,0.000000,0.000000
08:22:11.494 PM 04/04/2016,Teleop Enabled,11,FALSE,0,NO ERROR,-0.000000,53.117042,-0.000000,14.078134,TRUE,FALSE,TRUE,FALSE,FALSE,FALSE,Disabled,0.000000,0.000000,0.000000,TRUE,0.591965,-0.777863,0.000000,0.170288,-0.075439,0.000000,0.068000,-0.027000,-0.163000,79.170000,0.020000,2.640000,77.199593,Hold,53.456055,50.000000,Hold,-77915.000000,77824.000000,HighGoal,3247.500000,-3272.727273,Speed,3210.000000,-3272.727273,Speed,Off,Off,0.000000,FALSE,0,,,,,0.000000,0.000000
08:22:11.595 PM 04/04/2016,Teleop Enabled,11,FALSE,0,NO ERROR,-0.251969,53.463542,-0.251969,13.859968,TRUE,FALSE,TRUE,FALSE,FALSE,FALSE,Disabled,0.000000,0.000000,0.000000,TRUE,0.610260,-0.779190,0.000000,0.173203,0.042297,0.000000,0.088000,0.029000,-0.050000,79.240000,0.130000,2.740000,77.162255,Hold,53.449707,50.000000,Hold,-77915.000000,77824.000000,HighGoal,3247.500000,-3272.727273,Speed,3210.000000,-3272.727273,Speed,Off,Off,0.000000,FALSE,0,,,,,0.000000,0.000000
08:22:11.695 PM 04/04/2016,Teleop Enabled,10,FALSE,0,NO ERROR,-0.000000,53.899874,-0.000000,13.365885,TRUE,FALSE,TRUE,FALSE,FALSE,FALSE,Disabled,0.000000,0.000000,0.000000,TRUE,0.610260,-0.779190,0.000000,0.173203,0.042297,0.000000,0.470000,-0.246000,-0.287000,79.200000,0.150000,2.690000,79.323289,Hold,53.469727,50.000000,Hold,-77915.000000,77824.000000,HighGoal,3247.500000,-3272.727273,Speed,3202.500000,-3272.727273,Speed,Off,Off,0.000000,FALSE,0,,,,,0.000000,0.000000
08:22:11.795 PM 04/04/2016,Teleop Enabled,10,FALSE,0,NO ERROR,-0.000000,53.919124,-0.000000,13.397969,FALSE,FALSE,TRUE,FALSE,FALSE,FALSE,Disabled,0.000000,0.000000,0.000000,TRUE,0.624329,-0.779129,0.000000,0.330399,0.005768,0.000000,-0.272000,0.097000,-0.076000,81.580000,0.150000,3.280000,79.859853,Hold,53.481934,50.000000,Hold,-77915.000000,77824.000000,HighGoal,3232.500000,-3272.727273,Speed,3202.500000,-3272.727273,Speed,Off,Off,0.000000,FALSE,0,,,,,0.000000,0.000000
08:22:11.896 PM 04/04/2016,Teleop Enabled,10,FALSE,0,NO ERROR,-0.000000,53.822874,-0.000000,13.551968,TRUE,FALSE,TRUE,FALSE,FALSE,FALSE,Disabled,0.000000,0.000000,0.000000,TRUE,0.637146,-0.775772,0.000000,0.183365,0.110489,0.000000,0.097000,0.017000,-0.054000,82.170000,-0.340000,2.540000,79.859853,Hold,53.483154,50.000000,Hold,-77915.000000,77824.000000,HighGoal,3232.500000,-3272.727273,Speed,3210.000000,-3272.727273,Speed,Off,Off,0.000000,FALSE,0,,,,,0.000000,0.000000
08:22:11.999 PM 04/04/2016,Teleop Enabled,10,FALSE,0,NO ERROR,-0.000000,53.822874,-0.000000,13.551968,TRUE,FALSE,TRUE,FALSE,FALSE,FALSE,Disabled,0.000000,0.000000,0.000000,TRUE,0.645615,-0.772125,0.000000,0.200485,0.052185,0.000000,-0.146000,-0.092000,0.078000,81.270000,-0.090000,2.840000,79.224767,Hold,53.483398,50.000000,Hold,-77915.000000,77824.000000,HighGoal,3240.000000,-3272.727273,Speed,3217.500000,-3272.727273,Speed,Off,Off,0.000000,FALSE,0,,,,,0.000000,0.000000
08:22:12.099 PM 04/04/2016,Teleop Enabled,9,FALSE,0,NO ERROR,-0.000000,53.822874,-0.000000,13.545552,TRUE,FALSE,TRUE,FALSE,FALSE,FALSE,Disabled,0.000000,0.000000,0.000000,TRUE,0.657578,-0.769745,0.000000,0.197464,0.051834,0.000000,0.088000,0.131000,0.016000,81.330000,-0.050000,2.740000,79.280967,Hold,53.483643,50.000000,Hold,-77915.000000,77824.000000,HighGoal,3247.500000,-3272.727273,Speed,3217.500000,-3272.727273,Speed,Off,Off,0.000000,FALSE,0,,,,,0.000000,0.000000
08:22:12.200 PM 04/04/2016,Teleop Enabled,10,FALSE,0,NO ERROR,-0.000000,53.822874,-0.000000,13.545552,TRUE,FALSE,TRUE,FALSE,FALSE,FALSE,Disabled,0.000000,0.000000,0.000000,TRUE,0.665985,-0.765823,0.000000,0.000000,0.094620,0.000000,0.020000,0.106000,0.173000,81.290000,-0.050000,2.700000,79.274928,Hold,53.483643,50.000000,Hold,-77915.000000,77824.000000,HighGoal,3255.000000,-3272.727273,Speed,3202.500000,-3272.727273,Speed,Off,Off,0.000000,FALSE,0,,,,,0.000000,0.000000
08:22:12.300 PM 04/04/2016,Teleop Enabled,10,FALSE,0,NO ERROR,0.314961,53.816457,0.314961,13.545552,TRUE,FALSE,TRUE,FALSE,FALSE,FALSE,Disabled,0.000000,0.000000,0.000000,TRUE,0.666580,-0.763290,0.000000,0.027252,-0.002731,0.000000,-0.009000,-0.074000,0.145000,81.300000,-0.120000,2.780000,79.278798,Hold,53.483887,50.000000,Hold,-77915.000000,77824.000000,HighGoal,3255.000000,-3272.727273,Speed,3195.000000,-3272.727273,Speed,Off,Off,0.000000,FALSE,0,,,,,0.000000,0.000000
08:22:12.401 PM 04/04/2016,Teleop Enabled,10,FALSE,0,NO ERROR,0.535433,53.598291,0.535433,13.725218,TRUE,FALSE,TRUE,FALSE,FALSE,FALSE,Disabled,0.000000,0.000000,0.000000,TRUE,0.669083,-0.762634,0.000000,0.057159,0.011292,0.000000,-0.093000,-0.151000,0.211000,81.300000,-0.080000,2.810000,79.295515,Hold,53.483887,50.000000,Hold,-77915.000000,77824.000000,HighGoal,3247.500000,-3272.727273,Speed,3202.500000,-3272.727273,Speed,Off,Off,0.000000,FALSE,0,,,,,0.000000,0.000000
08:22:12.502 PM 04/04/2016,Teleop Enabled,11,FALSE,0,NO ERROR,0.425197,52.366294,0.425197,15.181798,TRUE,FALSE,TRUE,FALSE,FALSE,FALSE,Disabled,0.000000,0.000000,0.000000,TRUE,0.666718,-0.758850,0.000000,-0.181717,0.180618,0.000000,-0.175000,0.166000,-0.061000,78.300000,-1.050000,1.670000,76.527027,Hold,53.498291,50.000000,Hold,-77915.000000,77824.000000,HighGoal,3232.500000,-3272.727273,Speed,3187.500000,-3272.727273,Speed,Off,Off,0.000000,FALSE,0,,,,,0.000000,0.000000
08:22:12.602 PM 04/04/2016,Teleop Enabled,11,FALSE,0,NO ERROR,-0.000000,50.094800,-0.000000,17.478959,TRUE,FALSE,TRUE,FALSE,FALSE,FALSE,Disabled,0.000000,0.000000,0.000000,TRUE,0.652832,-0.745499,0.000000,-0.276901,0.270691,0.000000,-0.256000,0.037000,0.014000,69.480000,-1.260000,1.360000,68.064792,Hold,53.498535,50.000000,Hold,-77915.000000,77824.000000,HighGoal,3195.000000,-3272.727273,Speed,3157.500000,-3272.727273,Speed,Off,Off,0.000000,FALSE,0,,,,,0.000000,0.000000
08:22:12.704 PM 04/04/2016,Teleop Enabled,9,FALSE,0,NO ERROR,-0.000000,48.753719,-0.000000,18.845706,TRUE,FALSE,TRUE,FALSE,FALSE,FALSE,Disabled,0.000000,0.000000,0.000000,TRUE,0.638535,-0.732742,0.000000,-0.228760,0.193756,0.000000,0.611000,-0.126000,-0.058000,61.560000,-0.850000,1.450000,59.050798,Hold,53.493164,50.000000,Hold,-77915.000000,77824.000000,HighGoal,3165.000000,-3272.727273,Speed,3180.000000,-3272.727273,Speed,Off,Off,0.000000,FALSE,0,,,,,0.000000,0.000000
08:22:12.805 PM 04/04/2016,Teleop Enabled,10,FALSE,0,NO ERROR,-0.000000,48.420053,-0.000000,19.044622,TRUE,FALSE,TRUE,FALSE,FALSE,FALSE,Disabled,0.000000,0.000000,0.000000,TRUE,0.638992,-0.725998,0.000000,0.080002,0.117020,0.000000,-0.068000,-0.064000,-0.002000,58.780000,0.310000,2.760000,57.369243,Hold,53.492432,50.000000,Hold,-77915.000000,77824.000000,HighGoal,3187.500000,-3272.727273,Speed,3210.000000,-3272.727273,Speed,Off,Off,0.000000,FALSE,0,,,,,0.000000,0.000000
08:22:12.906 PM 04/04/2016,Teleop Enabled,12,FALSE,0,NO ERROR,-0.000000,48.452137,-0.000000,18.986872,TRUE,FALSE,TRUE,FALSE,FALSE,FALSE,Disabled,0.000000,0.000000,0.000000,TRUE,0.646347,-0.720276,0.000000,0.167068,0.130432,0.000000,-0.012000,-0.093000,0.085000,59.490000,0.190000,2.780000,58.206163,Hold,53.492432,50.000000,Hold,-77915.000000,77824.000000,HighGoal,3232.500000,-3272.727273,Speed,3202.500000,-3272.727273,Speed,Off,Off,0.000000,FALSE,0,,,,,0.000000,0.000000
08:22:13.007 PM 04/04/2016,Teleop Enabled,11,FALSE,0,NO ERROR,-0.000000,48.452137,-0.000000,18.986872,TRUE,FALSE,TRUE,FALSE,FALSE,FALSE,Disabled,0.000000,0.000000,0.000000,TRUE,0.644745,-0.712128,0.000000,-0.050262,0.144135,0.000000,0.066000,0.146000,0.129000,59.510000,0.040000,2.560000,58.203492,Hold,53.492432,50.000000,Hold,-77915.000000,77824.000000,HighGoal,3255.000000,-3272.727273,Speed,3187.500000,-3272.727273,Speed,Off,Off,0.000000,FALSE,0,,,,,0.000000,0.000000
08:22:13.108 PM 04/04/2016,Teleop Enabled,9,FALSE,0,NO ERROR,-0.000000,48.708803,-0.000000,18.672456,TRUE,FALSE,TRUE,FALSE,FALSE,FALSE,Disabled,0.000000,0.000000,0.000000,TRUE,0.643723,-0.704590,0.000000,0.039108,0.162704,0.000000,0.489000,-0.239000,-0.295000,59.770000,-0.020000,2.880000,58.854641,Hold,53.492676,50.000000,Hold,-77915.000000,77824.000000,HighGoal,3247.500000,-3272.727273,Speed,3202.500000,-3272.727273,Speed,Off,Off,0.000000,FALSE,0,,,,,0.000000,0.000000
08:22:13.209 PM 04/04/2016,Teleop Enabled,10,FALSE,0,NO ERROR,-0.000000,48.747303,-0.000000,18.563373,TRUE,FALSE,TRUE,FALSE,FALSE,FALSE,Disabled,0.000000,0.000000,0.000000,TRUE,0.645660,-0.698776,0.000000,0.010681,0.093826,0.000000,-0.104000,-0.032000,0.176000,60.820000,0.090000,2.530000,59.505660,Hold,53.492676,50.000000,Hold,-77915.000000,77824.000000,HighGoal,3232.500000,-3272.727273,Speed,3217.500000,-3272.727273,Speed,Off,Off,0.000000,FALSE,0,,,,,0.000000,0.000000
08:22:13.310 PM 04/04/2016,Teleop Enabled,9,FALSE,0,NO ERROR,-0.000000,48.740886,-0.000000,18.685290,TRUE,FALSE,TRUE,FALSE,FALSE,FALSE,Disabled,0.000000,0.000000,0.000000,TRUE,0.645081,-0.692902,0.000000,-0.019333,0.130569,0.000000,-0.202000,0.044000,0.266000,60.340000,0.000000,2.560000,59.065278,Hold,53.492920,50.000000,Hold,-77915.000000,77824.000000,HighGoal,3232.500000,-3272.727273,Speed,3210.000000,-3272.727273,Speed,Off,Off,0.000000,FALSE,0,,,,,0.000000,0.000000
08:22:13.410 PM 04/04/2016,Teleop Enabled,10,FALSE,0,NO ERROR,-0.000000,48.740886,-0.000000,18.678873,TRUE,FALSE,TRUE,FALSE,FALSE,FALSE,Disabled,0.000000,0.000000,0.000000,TRUE,0.644608,-0.684647,0.000000,-0.005844,0.177261,0.000000,0.147000,0.074000,-0.015000,60.420000,0.050000,2.600000,59.151245,Hold,53.492920,50.000000,Hold,-77915.000000,77824.000000,HighGoal,3240.000000,-3272.727273,Speed,3217.500000,-3272.727273,Speed,Off,Off,0.000000,FALSE,0,,,,,0.000000,0.000000
08:22:13.510 PM 04/04/2016,Teleop Enabled,9,FALSE,0,NO ERROR,-0.000000,48.740886,-0.000000,18.678873,TRUE,FALSE,TRUE,FALSE,FALSE,FALSE,Disabled,0.000000,0.000000,0.000000,TRUE,0.643463,-0.675369,0.000000,-0.029861,0.177841,0.000000,-0.159000,-0.150000,0.148000,60.410000,-0.010000,2.580000,59.133950,Hold,53.492920,50.000000,Hold,-77915.000000,77824.000000,HighGoal,3247.500000,-3272.727273,Speed,3217.500000,-3272.727273,Speed,Off,Off,0.000000,FALSE,0,,,,,0.000000,0.000000
08:22:13.610 PM 04/04/2016,Teleop Enabled,9,FALSE,0,NO ERROR,-0.000000,48.740886,-0.000000,18.678873,TRUE,FALSE,TRUE,FALSE,FALSE,FALSE,Disabled,0.000000,0.000000,0.000000,TRUE,0.642380,-0.666870,0.000000,-0.022568,0.172180,0.000000,0.237000,0.090000,-0.046000,60.410000,0.010000,2.500000,59.147572,Hold,53.493164,50.000000,Hold,-77915.000000,77824.000000,HighGoal,3255.000000,-3272.727273,Speed,3210.000000,-3272.727273,Speed,Off,Off,0.000000,FALSE,0,,,,,0.000000,0.000000
08:22:13.711 PM 04/04/2016,Teleop Enabled,10,FALSE,0,NO ERROR,0.000000,48.740886,-0.000000,18.678873,TRUE,FALSE,TRUE,TRUE,TRUE,FALSE,Disabled,0.000000,0.000000,0.000000,TRUE,0.643082,-0.658676,0.000000,0.029709,0.156891,0.000000,-0.086000,-0.152000,0.022000,60.410000,-0.010000,2.550000,59.149782,Hold,53.493164,50.000000,Hold,-77915.000000,77824.000000,HighGoal,3262.500000,-3272.727273,Speed,3210.000000,-3272.727273,Speed,Off,Off,0.000000,FALSE,0,,,,,0.000000,0.000000
08:22:13.811 PM 04/04/2016,Teleop Enabled,10,FALSE,0,NO ERROR,0.000000,48.740886,-0.000000,18.678873,TRUE,FALSE,TRUE,TRUE,TRUE,FALSE,Disabled,0.000000,0.000000,0.000000,TRUE,0.644943,-0.652374,0.000000,0.037933,0.113358,0.000000,0.051000,0.137000,-0.008000,60.410000,-0.030000,2.540000,59.154997,Hold,53.493164,45.000000,Hold,-77915.000000,77824.000000,HighGoal,3262.500000,-3272.727273,Speed,3225.000000,-3272.727273,Speed,Off,Off,0.000000,FALSE,0,,,,,0.000000,0.000000
08:22:13.911 PM 04/04/2016,Teleop Enabled,10,FALSE,0,NO ERROR,0.000000,48.740886,-0.000000,18.672456,TRUE,FALSE,TRUE,TRUE,TRUE,FALSE,Enable,0.650000,0.000000,0.000000,TRUE,0.648193,-0.643341,0.000000,0.038269,0.128738,0.000000,0.044000,0.069000,0.131000,60.410000,-0.110000,2.520000,59.191034,Hold,52.635254,45.000000,Hold,-77915.000000,77824.000000,HighGoal,3255.000000,-3272.727273,Speed,3232.500000,-3272.727273,Speed,Off,Off,0.000000,FALSE,0,,,,,0.000000,0.000000
