Time,Robot Mode,Loop Time,Error Status,Error Code,Error Source,Left Motor Output,Left Motor Encoder,Right Motor Output,Right Motor Encoder,Is Level,Is Stalled,Ball Detector Photoeye,Vision Enabled,Vision Teleop Control,Vision Auto Control,Vision Current State,Vision X Output,Vision NavX Error,Vision NavX Target,NavX Connection Status,NavX Displacement X,NavX Displacement Y,NavX Displacement Z,NavX Velocity X,NavX Velocity Y,NavX Velocity Z,NavX Acceleration X,NavX Acceleration Y,NavX Acceleration Z,NavX Pitch,NavX Yaw,NavX Roll,Gyro Angle,Roller Arm State,Roller Arm Actual,Roller Arm Desired,Shooter Arm State,Shooter Arm Actual,Shooter Arm Desired,Shooter State,Actual RPM Left,Desired RPM Left,Control Mode Left,Actual RPM Right,Desired RPM Right,Control Mode Right,Ball Shooter Cylinder,Ball Halo Cylinder,Scaler Motor Output,Scaler Solenoid Fire,Auto To Run,Auto Current File,Auto File Status,Auto Current Command,Auto Trimmed Command,Shooter Amps Left,Shooter Amps Right
07:42:39.156 PM 04/04/2016,Autonomous Enabled,10,TRUE,-44005,<LOCATION>WPI_CameraWait for Raw Image String.vi:6640001<CALLSTACK>WPI_CameraWait for Raw Image String.vi:6640001< <WPI_CameraGet Image.vi< <Vision Processing.vi< <Robot Main.vi,0.000000,0.000000,-0.000000,0.000000,TRUE,FALSE,TRUE,TRUE,FALSE,FALSE,Disabled,0.000000,0.000000,0.000000,TRUE,0.000031,-0.008560,0.000000,0.000000,0.000000,0.000000,0.000000,-0.002000,0.024000,-0.060000,-0.220000,2.450000,-0.279181,ResetBack,0.000000,-0.000049,ResetBack,0.000000,-0.250000,LowGoal,0.000000,-2181.818182,Speed,0.000000,-2181.818182,Speed,Off,Off,0.000000,FALSE,43,,,,,0.000000,0.000000
07:42:39.259 PM 04/04/2016,Autonomous Enabled,11,TRUE,-1074396154,,0.000000,-0.006417,-0.000000,0.006417,TRUE,FALSE,TRUE,TRUE,FALSE,FALSE,Disabled,0.000000,0.000000,0.000000,TRUE,-0.001068,-0.010620,0.000000,-0.020279,-0.050018,0.000000,0.074000,-0.020000,0.078000,-0.070000,-0.190000,2.380000,-0.191076,ResetBack,-0.974854,-0.000049,ResetBack,57.000000,-0.250000,LowGoal,270.000000,-2181.818182,Speed,60.000000,-2181.818182,Speed,Off,Off,0.000000,FALSE,43,Read: /home/lvuser/scripts/auto_43.bee,File good!,WAIT 1500,WAIT,0.000000,0.000000
07:42:39.359 PM 04/04/2016,Autonomous Enabled,9,TRUE,-44005,<LOCATION>WPI_CameraWait for Raw Image String.vi:6640001<CALLSTACK>WPI_CameraWait for Raw Image String.vi:6640001< <WPI_CameraGet Image.vi< <Vision Processing.vi< <Robot Main.vi,0.000000,-0.006417,-0.000000,0.006417,TRUE,FALSE,TRUE,TRUE,FALSE,FALSE,Disabled,0.000000,0.000000,0.000000,TRUE,-0.001358,-0.011307,0.000000,-0.010681,-0.006729,0.000000,-0.031000,-0.010000,-0.142000,-0.070000,-0.200000,2.380000,-0.223952,ResetBack,-1.209717,-0.000049,ResetBack,93.000000,-0.250000,LowGoal,772.500000,-2181.818182,Speed,202.500000,-2181.818182,Speed,Off,Off,0.000000,FALSE,43,Read: /home/lvuser/scripts/auto_43.bee,File good!,WAIT 1500,WAIT,0.000000,0.000000
07:42:39.460 PM 04/04/2016,Autonomous Enabled,10,TRUE,-1074396154,,0.000000,-0.006417,-0.000000,0.006417,TRUE,FALSE,TRUE,TRUE,FALSE,FALSE,Disabled,0.000000,0.000000,0.000000,TRUE,-0.003036,-0.010696,0.000000,-0.051147,0.036453,0.000000,-0.026000,-0.079000,-0.070000,-0.070000,-0.200000,2.430000,-0.228620,Reset,-1.209717,-0.000049,ResetBack,93.000000,-0.250000,LowGoal,1425.000000,-2181.818182,Speed,262.500000,-2181.818182,Speed,Off,Off,0.000000,FALSE,43,Read: /home/lvuser/scripts/auto_43.bee,File good!,WAIT 1500,WAIT,0.000000,0.000000
07:42:39.562 PM 04/04/2016,Autonomous Enabled,11,TRUE,7,Read from Text File in DoesScriptNumberContainNull.vi->Disabled.vi->Robot Main.vi<APPEND> /home/lvuser/scripts/auto_42.bee,0.000000,-0.006417,-0.000000,0.006417,TRUE,FALSE,TRUE,TRUE,FALSE,FALSE,Disabled,0.000000,0.000000,0.000000,TRUE,-0.005966,-0.008270,0.000000,-0.066772,0.068375,0.000000,-0.032000,0.071000,0.020000,-0.070000,-0.280000,2.430000,-0.231891,Hold,-1.211426,0.000000,ResetBack,93.000000,-0.250000,LowGoal,1785.000000,-2181.818182,Speed,450.000000,-2181.818182,Speed,Off,Off,0.000000,FALSE,43,Read: /home/lvuser/scripts/auto_43.bee,File good!,WAIT 1500,WAIT,0.000000,0.000000
07:42:39.662 PM 04/04/2016,Autonomous Enabled,10,TRUE,7,Read from Text File in DoesScriptNumberContainNull.vi->Disabled.vi->Robot Main.vi<APPEND> /home/lvuser/scripts/auto_42.bee,0.000000,-0.006417,-0.000000,0.006417,TRUE,FALSE,TRUE,TRUE,FALSE,FALSE,Disabled,0.000000,0.000000,0.000000,TRUE,-0.010361,-0.003998,0.000000,-0.094604,0.081833,0.000000,-0.032000,0.071000,0.020000,-0.070000,-0.310000,2.410000,-0.245596,Hold,1.072998,0.000000,ResetBack,193.000000,-0.250000,LowGoal,2115.000000,-2181.818182,Speed,450.000000,-2181.818182,Speed,Off,Off,0.000000,FALSE,43,Read: /home/lvuser/scripts/auto_43.bee,File good!,WAIT 1500,WAIT,0.000000,0.000000
07:42:39.763 PM 04/04/2016,Autonomous Enabled,10,TRUE,7,Read from Text File in DoesScriptNumberContainNull.vi->Disabled.vi->Robot Main.vi<APPEND> /home/lvuser/scripts/auto_42.bee,0.000000,-0.006417,-0.000000,0.006417,TRUE,FALSE,TRUE,TRUE,FALSE,FALSE,Disabled,0.000000,0.000000,0.000000,TRUE,-0.017273,-0.002853,0.000000,-0.164795,-0.042297,0.000000,-0.002000,-0.181000,0.257000,-0.080000,-0.350000,2.410000,-0.261948,Hold,0.923584,0.000000,ResetBack,210.000000,-0.250000,LowGoal,2190.000000,-2181.818182,Speed,1402.500000,-2181.818182,Speed,Off,Off,0.000000,FALSE,43,Read: /home/lvuser/scripts/auto_43.bee,File good!,WAIT 1500,WAIT,0.000000,0.000000
07:42:39.867 PM 04/04/2016,Autonomous Enabled,11,TRUE,7,Read from Text File in DoesScriptNumberContainNull.vi->Disabled.vi->Robot Main.vi<APPEND> /home/lvuser/scripts/auto_42.bee,0.000000,-0.006417,-0.000000,0.006417,TRUE,FALSE,TRUE,TRUE,FALSE,FALSE,Disabled,0.000000,0.000000,0.000000,TRUE,-0.022217,-0.005188,0.000000,-0.013672,0.002899,0.000000,-0.002000,-0.181000,0.257000,-0.080000,-0.350000,2.410000,-0.271656,Hold,0.923584,0.000000,ResetBack,298.000000,-0.250000,LowGoal,2160.000000,-2181.818182,Speed,2302.500000,-2181.818182,Speed,Off,Off,0.000000,FALSE,43,Read: /home/lvuser/scripts/auto_43.bee,File good!,WAIT 1500,WAIT,0.000000,0.000000
07:42:39.967 PM 04/04/2016,Autonomous Enabled,10,TRUE,7,Read from Text File in DoesScriptNumberContainNull.vi->Disabled.vi->Robot Main.vi<APPEND> /home/lvuser/scripts/auto_42.bee,0.000000,-0.006417,-0.000000,0.006417,TRUE,FALSE,TRUE,TRUE,FALSE,FALSE,Disabled,0.000000,0.000000,0.000000,TRUE,-0.025894,-0.005753,0.000000,-0.096405,-0.017685,0.000000,0.015000,-0.038000,0.075000,-0.080000,-0.410000,2.380000,-0.271218,Hold,0.923584,0.000000,ResetBack,298.000000,-0.250000,LowGoal,2145.000000,-2181.818182,Speed,2085.000000,-2181.818182,Speed,Off,Off,0.000000,FALSE,43,Read: /home/lvuser/scripts/auto_43.bee,File good!,WAIT 1500,WAIT,0.000000,0.000000
07:42:40.067 PM 04/04/2016,Autonomous Enabled,11,TRUE,7,Read from Text File in DoesScriptNumberContainNull.vi->Disabled.vi->Robot Main.vi<APPEND> /home/lvuser/scripts/auto_42.bee,0.000000,-0.006417,-0.000000,0.006417,TRUE,FALSE,TRUE,TRUE,FALSE,FALSE,Disabled,0.000000,0.000000,0.000000,TRUE,-0.026855,-0.007782,0.000000,0.000000,-0.085175,0.000000,0.015000,-0.038000,0.075000,-0.080000,-0.400000,2.400000,-0.270478,Hold,0.923584,0.000000,ResetBack,716.000000,-0.250000,LowGoal,2145.000000,-2181.818182,Speed,1942.500000,-2181.818182,Speed,Off,Off,0.000000,FALSE,43,Read: /home/lvuser/scripts/auto_43.bee,File good!,WAIT 1500,WAIT,0.000000,0.000000
07:42:40.168 PM 04/04/2016,Autonomous Enabled,12,TRUE,7,Read from Text File in DoesScriptNumberContainNull.vi->Disabled.vi->Robot Main.vi<APPEND> /home/lvuser/scripts/auto_42.bee,0.000000,-0.006417,-0.000000,0.006417,TRUE,FALSE,TRUE,TRUE,FALSE,FALSE,Disabled,0.000000,0.000000,0.000000,TRUE,-0.023117,-0.017303,0.000000,0.140549,-0.239639,0.000000,0.055000,-0.179000,0.361000,-0.080000,-0.430000,2.380000,-0.277780,Hold,0.923584,0.000000,ResetBack,1060.000000,-0.250000,LowGoal,2145.000000,-2181.818182,Speed,1965.000000,-2181.818182,Speed,Off,Off,0.000000,FALSE,43,Read: /home/lvuser/scripts/auto_43.bee,File good!,WAIT 1500,WAIT,0.000000,0.000000
07:42:40.268 PM 04/04/2016,Autonomous Enabled,11,TRUE,7,Read from Text File in DoesScriptNumberContainNull.vi->Disabled.vi->Robot Main.vi<APPEND> /home/lvuser/scripts/auto_42.bee,0.000000,-0.006417,-0.000000,0.006417,TRUE,FALSE,TRUE,TRUE,FALSE,FALSE,Disabled,0.000000,0.000000,0.000000,TRUE,-0.013321,-0.030975,0.000000,0.239075,-0.310577,0.000000,0.007000,-0.031000,0.000000,-0.080000,-0.400000,2.460000,-0.316034,Hold,0.923340,0.000000,ResetBack,1060.000000,-0.250000,LowGoal,2137.500000,-2181.818182,Speed,1965.000000,-2181.818182,Speed,Off,Off,0.000000,FALSE,43,Read: /home/lvuser/scripts/auto_43.bee,File good!,WAIT 1500,WAIT,0.000000,0.000000
07:42:40.369 PM 04/04/2016,Autonomous Enabled,9,TRUE,7,Read from Text File in DoesScriptNumberContainNull.vi->Disabled.vi->Robot Main.vi<APPEND> /home/lvuser/scripts/auto_42.bee,0.000000,-0.006417,-0.000000,0.006417,TRUE,FALSE,TRUE,TRUE,FALSE,FALSE,Disabled,0.000000,0.000000,0.000000,TRUE,0.000748,-0.050705,0.000000,0.287216,-0.446701,0.000000,0.163000,-0.116000,-0.175000,-0.080000,-0.400000,2.460000,-0.330782,Hold,0.923340,0.000000,Reset,1119.000000,2.000000,LowGoal,2137.500000,-2181.818182,Speed,2025.000000,-2181.818182,Speed,Off,Off,0.000000,FALSE,43,Read: /home/lvuser/scripts/auto_43.bee,File good!,WAIT 1500,WAIT,0.000000,0.000000
07:42:40.472 PM 04/04/2016,Autonomous Enabled,9,TRUE,7,Read from Text File in DoesScriptNumberContainNull.vi->Disabled.vi->Robot Main.vi<APPEND> /home/lvuser/scripts/auto_42.bee,0.000000,-0.006417,-0.000000,0.006417,TRUE,FALSE,TRUE,TRUE,FALSE,FALSE,Disabled,0.000000,0.000000,0.000000,TRUE,0.019348,-0.080063,0.000000,0.320801,-0.513214,0.000000,0.059000,-0.022000,-0.001000,-0.070000,-0.430000,2.410000,-0.339570,Hold,0.923340,0.000000,Hold,1119.000000,2.000000,LowGoal,2137.500000,-2181.818182,Speed,2055.000000,-2181.818182,Speed,Off,Off,0.000000,FALSE,43,Read: /home/lvuser/scripts/auto_43.bee,File good!,WAIT 1500,WAIT,0.000000,0.000000
07:42:40.572 PM 04/04/2016,Autonomous Enabled,9,TRUE,7,Read from Text File in DoesScriptNumberContainNull.vi->Disabled.vi->Robot Main.vi<APPEND> /home/lvuser/scripts/auto_42.bee,0.000000,-0.006417,-0.000000,0.006417,TRUE,FALSE,TRUE,TRUE,FALSE,FALSE,Disabled,0.000000,0.000000,0.000000,TRUE,0.033554,-0.102020,0.000000,0.253906,-0.344116,0.000000,0.075000,0.352000,-0.140000,-0.070000,-0.430000,2.410000,-0.343354,Hold,0.923340,0.000000,Hold,-111.000000,2.000000,LowGoal,2137.500000,-2181.818182,Speed,2055.000000,-2181.818182,Speed,Off,Off,0.000000,FALSE,43,Read: /home/lvuser/scripts/auto_43.bee,File good!,WAIT 1500,WAIT,0.000000,0.000000
07:42:40.673 PM 04/04/2016,Autonomous Enabled,10,TRUE,7,Read from Text File in DoesScriptNumberContainNull.vi->Disabled.vi->Robot Main.vi<APPEND> /home/lvuser/scripts/auto_42.bee,0.000000,-0.006417,-0.000000,0.006417,TRUE,FALSE,TRUE,TRUE,FALSE,FALSE,Disabled,0.000000,0.000000,0.000000,TRUE,0.048264,-0.111481,0.000000,0.297684,-0.102097,0.000000,0.075000,0.352000,-0.140000,-0.080000,-0.380000,2.300000,-0.347182,Hold,0.923340,0.000000,Hold,-112.000000,2.000000,LowGoal,2115.000000,-2181.818182,Speed,2055.000000,-2181.818182,Speed,Off,Off,0.000000,FALSE,43,Read: /home/lvuser/scripts/auto_43.bee,File good!,WAIT 1500,WAIT,0.000000,0.000000
07:42:40.773 PM 04/04/2016,Autonomous Enabled,10,TRUE,7,Read from Text File in DoesScriptNumberContainNull.vi->Disabled.vi->Robot Main.vi<APPEND> /home/lvuser/scripts/auto_42.bee,0.000000,-0.006417,-0.000000,0.006417,TRUE,FALSE,TRUE,TRUE,FALSE,FALSE,Disabled,0.000000,0.000000,0.000000,TRUE,0.059113,-0.113113,0.000000,0.184662,0.000000,0.000000,-0.250000,0.163000,-0.032000,-0.080000,-0.380000,2.300000,-0.006510,Hold,0.923340,0.000000,Hold,-112.000000,2.000000,LowGoal,2115.000000,-2181.818182,Speed,2055.000000,-2181.818182,Speed,Off,Off,0.000000,FALSE,43,Read: /home/lvuser/scripts/auto_43.bee,File good!,NAVX_ZERO_YAW,NAVX_ZERO_YAW,0.000000,0.000000
07:42:40.876 PM 04/04/2016,Autonomous Enabled,10,TRUE,7,Read from Text File in DoesScriptNumberContainNull.vi->Disabled.vi->Robot Main.vi<APPEND> /home/lvuser/scripts/auto_42.bee,-0.562500,-0.603165,0.562500,-0.686582,TRUE,FALSE,TRUE,TRUE,FALSE,FALSE,Disabled,0.000000,0.000000,0.000000,TRUE,0.059113,-0.113113,0.000000,0.184662,0.000000,0.000000,-0.164000,-0.135000,0.233000,0.000000,-0.360000,2.340000,-0.052031,Hold,0.923340,0.000000,Hold,-112.000000,2.000000,LowGoal,2107.500000,-2181.818182,Speed,2047.500000,-2181.818182,Speed,Off,Off,0.000000,FALSE,43,Read: /home/lvuser/scripts/auto_43.bee,File good!,DRIVE_STRAIGHT_NAVX_RAMPARTS 200 5000 10,DRIVE_STRAIGHT_NAVX_RAMPARTS,0.000000,0.000000
07:42:40.978 PM 04/04/2016,Autonomous Enabled,9,TRUE,7,Read from Text File in DoesScriptNumberContainNull.vi->Disabled.vi->Robot Main.vi<APPEND> /home/lvuser/scripts/auto_42.bee,-0.562500,-2.489661,0.562500,-2.611577,TRUE,FALSE,TRUE,TRUE,FALSE,FALSE,Disabled,0.000000,0.000000,0.000000,TRUE,0.074829,-0.118835,0.000000,0.454071,-0.134232,0.000000,0.442000,-0.039000,0.409000,-0.140000,1.790000,2.260000,-0.103834,Hold,0.923096,0.000000,Hold,-112.000000,2.000000,LowGoal,2107.500000,2400.000000,Speed,2047.500000,2400.000000,Speed,Off,Off,0.000000,FALSE,43,Read: /home/lvuser/scripts/auto_43.bee,File good!,DRIVE_STRAIGHT_NAVX_RAMPARTS 200 5000 10,DRIVE_STRAIGHT_NAVX_RAMPARTS,0.000000,0.000000
07:42:41.080 PM 04/04/2016,Autonomous Enabled,11,TRUE,7,Read from Text File in DoesScriptNumberContainNull.vi->Disabled.vi->Robot Main.vi<APPEND> /home/lvuser/scripts/auto_42.bee,-0.562500,-5.043488,0.562500,-5.094821,FALSE,FALSE,TRUE,TRUE,FALSE,FALSE,Disabled,0.000000,0.000000,0.000000,TRUE,0.097061,-0.126389,0.000000,0.642868,-0.205383,0.000000,0.079000,-0.078000,-0.009000,-0.200000,3.830000,2.080000,-0.175884,Hold,0.923096,0.000000,Hold,-114.000000,2.000000,LowGoal,2025.000000,2400.000000,Speed,1912.500000,2400.000000,Speed,Off,Off,0.000000,FALSE,43,Read: /home/lvuser/scripts/auto_43.bee,File good!,DRIVE_STRAIGHT_NAVX_RAMPARTS 200 5000 10,DRIVE_STRAIGHT_NAVX_RAMPARTS,0.000000,0.000000
07:42:41.182 PM 04/04/2016,Autonomous Enabled,12,TRUE,7,Read from Text File in DoesScriptNumberContainNull.vi->Disabled.vi->Robot Main.vi<APPEND> /home/lvuser/scripts/auto_42.bee,-0.562500,-8.880646,0.562500,-8.951229,FALSE,FALSE,TRUE,TRUE,FALSE,FALSE,Disabled,0.000000,0.000000,0.000000,TRUE,0.146301,-0.137039,0.000000,0.945633,-0.155380,0.000000,0.148000,0.012000,-0.240000,-0.340000,3.070000,2.140000,-0.234032,Hold,0.923096,0.000000,Hold,-119.000000,2.000000,LowGoal,945.000000,2400.000000,Speed,1027.500000,2400.000000,Speed,Off,Off,0.000000,FALSE,43,Read: /home/lvuser/scripts/auto_43.bee,File good!,DRIVE_STRAIGHT_NAVX_RAMPARTS 200 5000 10,DRIVE_STRAIGHT_NAVX_RAMPARTS,0.000000,0.000000
07:42:41.283 PM 04/04/2016,Autonomous Enabled,11,TRUE,7,Read from Text File in DoesScriptNumberContainNull.vi->Disabled.vi->Robot Main.vi<APPEND> /home/lvuser/scripts/auto_42.bee,-0.562500,-13.077136,0.562500,-13.038636,FALSE,FALSE,TRUE,TRUE,FALSE,FALSE,Disabled,0.000000,0.000000,0.000000,TRUE,0.198914,-0.139832,0.000000,1.085510,0.015961,0.000000,0.044000,0.023000,0.056000,-0.490000,4.730000,2.220000,-0.473310,Hold,0.923096,0.000000,Hold,-119.000000,2.000000,LowGoal,120.000000,2400.000000,Speed,757.500000,2400.000000,Speed,Off,Off,0.000000,FALSE,43,Read: /home/lvuser/scripts/auto_43.bee,File good!,DRIVE_STRAIGHT_NAVX_RAMPARTS 200 5000 10,DRIVE_STRAIGHT_NAVX_RAMPARTS,0.000000,0.000000
07:42:41.383 PM 04/04/2016,Autonomous Enabled,10,TRUE,7,Read from Text File in DoesScriptNumberContainNull.vi->Disabled.vi->Robot Main.vi<APPEND> /home/lvuser/scripts/auto_42.bee,-0.562500,-17.915291,0.532491,-17.844708,FALSE,FALSE,TRUE,TRUE,FALSE,FALSE,Disabled,0.000000,0.000000,0.000000,TRUE,0.254242,-0.138351,0.000000,1.131210,0.033752,0.000000,0.054000,0.081000,0.100000,-0.710000,3.780000,2.280000,-0.631451,Hold,0.923096,0.000000,Hold,-119.000000,2.000000,LowGoal,-615.000000,2400.000000,Speed,435.000000,2400.000000,Speed,Off,Off,0.000000,FALSE,43,Read: /home/lvuser/scripts/auto_43.bee,File good!,DRIVE_STRAIGHT_NAVX_RAMPARTS 200 5000 10,DRIVE_STRAIGHT_NAVX_RAMPARTS,0.000000,0.000000
07:42:41.485 PM 04/04/2016,Autonomous Enabled,10,TRUE,7,Read from Text File in DoesScriptNumberContainNull.vi->Disabled.vi->Robot Main.vi<APPEND> /home/lvuser/scripts/auto_42.bee,-0.562500,-23.298862,0.524553,-23.292446,FALSE,FALSE,TRUE,TRUE,FALSE,FALSE,Disabled,0.000000,0.000000,0.000000,TRUE,0.300690,-0.137619,0.000000,1.181030,-0.013977,0.000000,0.104000,-0.012000,0.021000,-0.880000,3.700000,2.350000,-0.698116,Hold,0.923096,0.000000,Hold,-120.000000,2.000000,LowGoal,-1057.500000,2400.000000,Speed,135.000000,2400.000000,Speed,Off,Off,0.000000,FALSE,43,Read: /home/lvuser/scripts/auto_43.bee,File good!,DRIVE_STRAIGHT_NAVX_RAMPARTS 200 5000 10,DRIVE_STRAIGHT_NAVX_RAMPARTS,0.000000,0.000000
07:42:41.585 PM 04/04/2016,Autonomous Enabled,9,TRUE,7,Read from Text File in DoesScriptNumberContainNull.vi->Disabled.vi->Robot Main.vi<APPEND> /home/lvuser/scripts/auto_42.bee,-0.562500,-28.682433,0.529460,-28.797933,FALSE,FALSE,TRUE,TRUE,FALSE,FALSE,Disabled,0.000000,0.000000,0.000000,TRUE,0.373947,-0.139343,0.000000,1.219696,-0.040207,0.000000,0.013000,-0.087000,0.082000,-0.900000,4.610000,2.360000,-0.582164,Hold,0.923096,0.000000,Hold,-120.000000,2.000000,LowGoal,-1635.000000,2400.000000,Speed,-142.500000,2400.000000,Speed,Off,Off,0.000000,FALSE,43,Read: /home/lvuser/scripts/auto_43.bee,File good!,DRIVE_STRAIGHT_NAVX_RAMPARTS 200 5000 10,DRIVE_STRAIGHT_NAVX_RAMPARTS,0.000000,0.000000
07:42:41.687 PM 04/04/2016,Autonomous Enabled,10,TRUE,7,Read from Text File in DoesScriptNumberContainNull.vi->Disabled.vi->Robot Main.vi<APPEND> /home/lvuser/scripts/auto_42.bee,-0.562500,-34.913002,0.532491,-35.240251,FALSE,FALSE,TRUE,TRUE,FALSE,FALSE,Disabled,0.000000,0.000000,0.000000,TRUE,0.433762,-0.142532,0.000000,1.181793,-0.068512,0.000000,0.119000,0.035000,0.068000,-0.810000,3.720000,2.310000,-0.482981,Hold,0.923096,0.000000,Hold,-120.000000,2.000000,LowGoal,-1965.000000,2400.000000,Speed,-1770.000000,2400.000000,Speed,Off,Off,0.000000,FALSE,43,Read: /home/lvuser/scripts/auto_43.bee,File good!,DRIVE_STRAIGHT_NAVX_RAMPARTS 200 5000 10,DRIVE_STRAIGHT_NAVX_RAMPARTS,0.000000,0.000000
07:42:41.786 PM 04/04/2016,Autonomous Enabled,12,TRUE,7,Read from Text File in DoesScriptNumberContainNull.vi->Disabled.vi->Robot Main.vi<APPEND> /home/lvuser/scripts/auto_42.bee,-0.562500,-40.880488,0.539343,-41.310403,FALSE,FALSE,TRUE,TRUE,FALSE,FALSE,Disabled,0.000000,0.000000,0.000000,TRUE,0.507599,-0.148865,0.000000,1.252411,-0.179611,0.000000,-0.108000,-0.131000,0.136000,-0.670000,4.980000,2.300000,-0.349912,Hold,0.923096,0.000000,Hold,-122.000000,2.000000,LowGoal,-2272.500000,2400.000000,Speed,-1965.000000,2400.000000,Speed,Off,Off,0.000000,FALSE,43,Read: /home/lvuser/scripts/auto_43.bee,File good!,DRIVE_STRAIGHT_NAVX_RAMPARTS 200 5000 10,DRIVE_STRAIGHT_NAVX_RAMPARTS,0.000000,0.000000
07:42:41.887 PM 04/04/2016,Autonomous Enabled,10,TRUE,7,Read from Text File in DoesScriptNumberContainNull.vi->Disabled.vi->Robot Main.vi<APPEND> /home/lvuser/scripts/auto_42.bee,-0.562500,-47.996554,0.528703,-48.330220,FALSE,FALSE,TRUE,TRUE,FALSE,FALSE,Disabled,0.000000,0.000000,0.000000,TRUE,0.545898,-0.154877,0.000000,1.297104,-0.199600,0.000000,-0.026000,0.092000,-0.071000,-0.640000,4.900000,2.460000,-0.808416,Hold,0.923096,0.000000,Hold,-122.000000,2.000000,LowGoal,-2377.500000,2400.000000,Speed,-2242.500000,2400.000000,Speed,Off,Off,0.000000,FALSE,43,Read: /home/lvuser/scripts/auto_43.bee,File good!,DRIVE_STRAIGHT_NAVX_RAMPARTS 200 5000 10,DRIVE_STRAIGHT_NAVX_RAMPARTS,0.000000,0.000000
07:42:41.988 PM 04/04/2016,Autonomous Enabled,11,TRUE,7,Read from Text File in DoesScriptNumberContainNull.vi->Disabled.vi->Robot Main.vi<APPEND> /home/lvuser/scripts/auto_42.bee,-0.562500,-54.778955,0.515179,-55.016371,FALSE,FALSE,TRUE,TRUE,FALSE,FALSE,Disabled,0.000000,0.000000,0.000000,TRUE,0.620575,-0.162354,0.000000,1.161896,-0.080841,0.000000,-0.263000,0.101000,0.359000,-1.020000,10.320000,2.020000,-1.094193,Hold,0.924561,0.000000,Hold,-122.000000,2.000000,LowGoal,-2355.000000,2400.000000,Speed,-2347.500000,2400.000000,Speed,Off,Off,0.000000,FALSE,43,Read: /home/lvuser/scripts/auto_43.bee,File good!,DRIVE_STRAIGHT_NAVX_RAMPARTS 200 5000 10,DRIVE_STRAIGHT_NAVX_RAMPARTS,0.000000,0.000000
07:42:42.088 PM 04/04/2016,Autonomous Enabled,10,TRUE,7,Read from Text File in DoesScriptNumberContainNull.vi->Disabled.vi->Robot Main.vi<APPEND> /home/lvuser/scripts/auto_42.bee,-0.562500,-54.778955,0.515926,-55.016371,FALSE,FALSE,TRUE,TRUE,FALSE,FALSE,Disabled,0.000000,0.000000,0.000000,TRUE,0.676132,-0.168076,0.000000,1.129272,-0.175079,0.000000,-0.284000,0.247000,0.023000,-1.340000,12.930000,1.890000,-1.094193,Hold,0.926025,0.000000,Hold,-123.000000,2.000000,LowGoal,-2362.500000,2400.000000,Speed,-2332.500000,2400.000000,Speed,Off,Off,0.000000,FALSE,43,Read: /home/lvuser/scripts/auto_43.bee,File good!,DRIVE_STRAIGHT_NAVX_RAMPARTS 200 5000 10,DRIVE_STRAIGHT_NAVX_RAMPARTS,0.000000,0.000000
07:42:42.189 PM 04/04/2016,Autonomous Enabled,10,FALSE,0,NO ERROR,-0.562500,-61.086524,0.550475,-61.741022,FALSE,FALSE,TRUE,TRUE,FALSE,FALSE,Disabled,0.000000,0.000000,0.000000,TRUE,0.732300,-0.170761,0.000000,0.751129,0.042130,0.000000,-0.415000,0.025000,-0.459000,-0.260000,19.800000,2.240000,-0.616576,Hold,0.926270,0.000000,Hold,-124.000000,2.000000,LowGoal,-2370.000000,2400.000000,Speed,-2250.000000,2400.000000,Speed,Off,Off,0.000000,FALSE,43,Read: /home/lvuser/scripts/auto_43.bee,File good!,DRIVE_STRAIGHT_NAVX_RAMPARTS 200 5000 10,DRIVE_STRAIGHT_NAVX_RAMPARTS,0.000000,0.000000
07:42:42.290 PM 04/04/2016,Autonomous Enabled,11,FALSE,0,NO ERROR,-0.562500,-67.310676,0.544703,-67.734175,FALSE,FALSE,TRUE,TRUE,FALSE,FALSE,Disabled,0.000000,0.000000,0.000000,TRUE,0.752930,-0.172806,0.000000,0.265854,-0.174927,0.000000,0.111000,-0.014000,0.066000,-0.650000,21.470000,2.110000,-0.245444,Hold,0.964111,0.000000,Hold,-124.000000,2.000000,LowGoal,-2362.500000,2400.000000,Speed,-2182.500000,2400.000000,Speed,Off,Off,0.000000,FALSE,43,Read: /home/lvuser/scripts/auto_43.bee,File good!,DRIVE_STRAIGHT_NAVX_RAMPARTS 200 5000 10,DRIVE_STRAIGHT_NAVX_RAMPARTS,0.000000,0.000000
07:42:42.390 PM 04/04/2016,Autonomous Enabled,10,FALSE,0,NO ERROR,-0.562500,-72.950913,0.598550,-72.392664,FALSE,FALSE,TRUE,TRUE,FALSE,FALSE,Disabled,0.000000,0.000000,0.000000,TRUE,0.769974,-0.184296,0.000000,0.444946,-0.210617,0.000000,-1.026000,0.180000,0.506000,-0.160000,18.690000,1.840000,-0.139317,Hold,0.983643,0.000000,Hold,-125.000000,2.000000,LowGoal,-2347.500000,2400.000000,Speed,-2265.000000,2400.000000,Speed,Off,Off,0.000000,FALSE,43,Read: /home/lvuser/scripts/auto_43.bee,File good!,DRIVE_STRAIGHT_NAVX_RAMPARTS 200 5000 10,DRIVE_STRAIGHT_NAVX_RAMPARTS,0.000000,0.000000
07:42:42.490 PM 04/04/2016,Autonomous Enabled,11,FALSE,0,NO ERROR,-0.562500,-76.172072,0.782659,-76.685404,FALSE,FALSE,TRUE,TRUE,FALSE,FALSE,Disabled,0.000000,0.000000,0.000000,TRUE,0.778168,-0.179031,0.000000,0.058411,0.431152,0.000000,0.310000,-0.038000,-0.473000,3.570000,10.400000,0.020000,2.341511,Hold,0.950928,0.000000,Hold,-125.000000,2.000000,LowGoal,-2340.000000,2400.000000,Speed,-2257.500000,2400.000000,Speed,Off,Off,0.000000,FALSE,43,Read: /home/lvuser/scripts/auto_43.bee,File good!,DRIVE_STRAIGHT_NAVX_RAMPARTS 200 5000 10,DRIVE_STRAIGHT_NAVX_RAMPARTS,0.000000,0.000000
07:42:42.591 PM 04/04/2016,Autonomous Enabled,11,FALSE,0,NO ERROR,-0.562500,-85.604550,0.910803,-82.312808,FALSE,FALSE,TRUE,TRUE,FALSE,FALSE,Disabled,0.000000,0.000000,0.000000,TRUE,0.788406,-0.156860,0.000000,0.272903,0.438171,0.000000,-0.906000,-0.133000,0.918000,7.910000,7.300000,-2.840000,6.682043,Hold,1.697021,0.000000,Hold,-126.000000,2.000000,LowGoal,-2332.500000,2400.000000,Speed,-2235.000000,2400.000000,Speed,Off,Off,0.000000,FALSE,43,Read: /home/lvuser/scripts/auto_43.bee,File good!,DRIVE_STRAIGHT_NAVX_RAMPARTS 200 5000 10,DRIVE_STRAIGHT_NAVX_RAMPARTS,0.000000,0.000000
07:42:42.691 PM 04/04/2016,Autonomous Enabled,9,FALSE,0,NO ERROR,-0.562500,-93.035032,0.595336,-85.379967,TRUE,FALSE,TRUE,TRUE,FALSE,FALSE,Disabled,0.000000,0.000000,0.000000,TRUE,0.793396,-0.153641,0.000000,0.133453,-0.345154,0.000000,-0.125000,-0.063000,-0.586000,4.310000,-1.100000,-2.340000,3.323704,Hold,1.236816,0.000000,Hold,-128.000000,2.000000,LowGoal,-2325.000000,2400.000000,Speed,-2190.000000,2400.000000,Speed,Off,Off,0.000000,FALSE,43,Read: /home/lvuser/scripts/auto_43.bee,File good!,DRIVE_STRAIGHT_NAVX_RAMPARTS 200 5000 10,DRIVE_STRAIGHT_NAVX_RAMPARTS,0.000000,0.000000
07:42:42.791 PM 04/04/2016,Autonomous Enabled,11,FALSE,0,NO ERROR,-0.562500,-101.087930,0.318502,-89.486624,FALSE,FALSE,TRUE,TRUE,FALSE,FALSE,Disabled,0.000000,0.000000,0.000000,TRUE,0.809143,-0.169281,0.000000,0.368057,-0.349304,0.000000,0.295000,0.404000,-0.815000,-4.550000,-6.350000,-0.710000,-5.297136,Hold,1.003174,0.000000,Hold,-129.000000,2.000000,LowGoal,-2265.000000,2400.000000,Speed,-2212.500000,2400.000000,Speed,Off,Off,0.000000,FALSE,43,Read: /home/lvuser/scripts/auto_43.bee,File good!,DRIVE_STRAIGHT_NAVX_RAMPARTS 200 5000 10,DRIVE_STRAIGHT_NAVX_RAMPARTS,0.000000,0.000000
07:42:42.892 PM 04/04/2016,Autonomous Enabled,10,FALSE,0,NO ERROR,-0.562500,-107.209416,0.377340,-95.338610,FALSE,FALSE,TRUE,TRUE,FALSE,FALSE,Disabled,0.000000,0.000000,0.000000,TRUE,0.846634,-0.181503,0.000000,0.780670,-0.144028,0.000000,0.288000,0.760000,0.499000,-6.490000,-9.320000,3.480000,-7.091825,Hold,0.950195,0.000000,Hold,-129.000000,2.000000,LowGoal,-2272.500000,2400.000000,Speed,-2220.000000,2400.000000,Speed,Off,Off,0.000000,FALSE,43,Read: /home/lvuser/scripts/auto_43.bee,File good!,DRIVE_STRAIGHT_NAVX_RAMPARTS 200 5000 10,DRIVE_STRAIGHT_NAVX_RAMPARTS,0.000000,0.000000
07:42:42.992 PM 04/04/2016,Autonomous Enabled,9,FALSE,0,NO ERROR,-0.562500,-113.523401,0.454033,-103.571174,FALSE,FALSE,TRUE,TRUE,FALSE,FALSE,Disabled,0.000000,0.000000,0.000000,TRUE,0.883133,-0.185776,0.000000,0.996857,-0.164307,0.000000,-0.094000,-0.044000,1.038000,-3.450000,-8.570000,3.440000,-4.200238,Hold,1.322998,0.000000,Hold,-129.000000,2.000000,LowGoal,-2347.500000,2400.000000,Speed,-2235.000000,2400.000000,Speed,Off,Off,0.000000,FALSE,43,Read: /home/lvuser/scripts/auto_43.bee,File good!,DRIVE_STRAIGHT_NAVX_RAMPARTS 200 5000 10,DRIVE_STRAIGHT_NAVX_RAMPARTS,0.000000,0.000000
07:42:43.091 PM 04/04/2016,Autonomous Enabled,10,FALSE,0,NO ERROR,-0.562500,-121.229800,0.437371,-111.187740,FALSE,FALSE,TRUE,TRUE,FALSE,FALSE,Disabled,0.000000,0.000000,0.000000,TRUE,0.932068,-0.191483,0.000000,0.576584,-0.036392,0.000000,0.989000,-0.700000,-2.951000,-3.340000,-3.810000,2.660000,-4.013661,Hold,1.056396,0.000000,Hold,-129.000000,2.000000,LowGoal,-2385.000000,2400.000000,Speed,-2257.500000,2400.000000,Speed,Off,Off,0.000000,FALSE,43,Read: /home/lvuser/scripts/auto_43.bee,File good!,DRIVE_STRAIGHT_NAVX_RAMPARTS 200 5000 10,DRIVE_STRAIGHT_NAVX_RAMPARTS,0.000000,0.000000
07:42:43.191 PM 04/04/2016,Autonomous Enabled,9,FALSE,0,NO ERROR,-0.250000,-129.378947,-0.250000,-119.452387,FALSE,FALSE,TRUE,TRUE,FALSE,FALSE,Disabled,0.000000,0.000000,0.000000,TRUE,0.973419,-0.201355,0.000000,0.898209,-0.197876,0.000000,0.001000,-0.165000,0.649000,-3.610000,2.130000,3.000000,-4.362076,Hold,2.100830,0.000000,Hold,-130.000000,2.000000,LowGoal,-2362.500000,2400.000000,Speed,-2325.000000,2400.000000,Speed,Off,Off,0.000000,FALSE,43,Read: /home/lvuser/scripts/auto_43.bee,File good!,SET_HEADING 0,SET_HEADING,0.000000,0.000000
07:42:43.291 PM 04/04/2016,Autonomous Enabled,11,FALSE,0,NO ERROR,-0.250000,-135.802016,-0.250000,-127.190869,FALSE,FALSE,TRUE,TRUE,FALSE,FALSE,Disabled,0.000000,0.000000,0.000000,TRUE,1.014359,-0.204071,0.000000,0.749008,0.036774,0.000000,-0.155000,0.221000,-0.736000,-2.980000,3.950000,3.660000,-3.727082,Hold,1.267822,0.000000,Hold,-130.000000,2.000000,LowGoal,-2355.000000,2400.000000,Speed,-2325.000000,2400.000000,Speed,Off,Off,0.000000,FALSE,43,Read: /home/lvuser/scripts/auto_43.bee,File good!,SET_HEADING 0,SET_HEADING,0.000000,0.000000
07:42:43.391 PM 04/04/2016,Autonomous Enabled,9,FALSE,0,NO ERROR,0.000000,-139.074508,-0.000000,-133.530521,FALSE,FALSE,TRUE,TRUE,FALSE,TRUE,Disabled,0.000000,0.000000,0.000000,TRUE,1.033920,-0.203186,0.000000,0.223969,0.056366,0.000000,0.000000,0.590000,0.435000,0.230000,-0.140000,4.900000,-0.431783,Hold,1.783691,0.000000,Hold,-130.000000,2.000000,LowGoal,-2362.500000,2400.000000,Speed,-2242.500000,2400.000000,Speed,Off,Off,0.000000,FALSE,43,Read: /home/lvuser/scripts/auto_43.bee,File good!,SEARCH_FOR_GOAL,SEARCH_FOR_GOAL,0.000000,0.000000
07:42:43.491 PM 04/04/2016,Autonomous Enabled,10,FALSE,0,NO ERROR,0.000000,-141.596252,-0.000000,-138.387926,FALSE,FALSE,TRUE,TRUE,FALSE,TRUE,Disabled,0.000000,0.000000,0.000000,TRUE,1.042374,-0.198532,0.000000,0.029236,0.085190,0.000000,-0.190000,-0.621000,0.122000,6.110000,-2.690000,4.710000,5.163713,Hold,1.186279,58.000000,Hold,-130.000000,70041.600000,LowGoal,-2362.500000,-3272.727273,Speed,-2235.000000,-3272.727273,Speed,Off,Off,0.000000,FALSE,43,Read: /home/lvuser/scripts/auto_43.bee,File good!,SEARCH_FOR_GOAL,SEARCH_FOR_GOAL,0.000000,0.000000
07:42:43.591 PM 04/04/2016,Autonomous Enabled,11,FALSE,0,NO ERROR,0.000000,-144.137246,-0.000000,-142.212251,TRUE,FALSE,TRUE,TRUE,FALSE,TRUE,Disabled,0.000000,0.000000,0.000000,TRUE,1.030304,-0.208771,0.000000,-0.441193,-0.388855,0.000000,-0.497000,-0.235000,0.992000,9.540000,-0.660000,2.850000,8.327806,Hold,3.329346,58.000000,Hold,-6441.000000,70041.600000,LowGoal,-2182.500000,-3272.727273,Speed,-2182.500000,-3272.727273,Speed,Off,Off,0.000000,FALSE,43,Read: /home/lvuser/scripts/auto_43.bee,File good!,SEARCH_FOR_GOAL,SEARCH_FOR_GOAL,0.000000,0.000000
07:42:43.691 PM 04/04/2016,Autonomous Enabled,10,FALSE,0,NO ERROR,0.000000,-145.709326,-0.000000,-144.111580,FALSE,FALSE,TRUE,TRUE,FALSE,TRUE,Disabled,0.000000,0.000000,0.000000,TRUE,1.002441,-0.227692,0.000000,-0.557770,-0.284164,0.000000,-0.011000,0.109000,-0.073000,10.850000,-3.680000,3.230000,9.566026,Hold,6.741699,58.000000,Hold,-17249.000000,70041.600000,LowGoal,-1365.000000,-3272.727273,Speed,-1417.500000,-3272.727273,Speed,Off,Off,0.000000,FALSE,43,Read: /home/lvuser/scripts/auto_43.bee,File good!,SEARCH_FOR_GOAL,SEARCH_FOR_GOAL,0.000000,0.000000
07:42:43.791 PM 04/04/2016,Autonomous Enabled,10,FALSE,0,NO ERROR,0.000000,-146.896406,-0.000000,-145.439827,FALSE,FALSE,TRUE,TRUE,FALSE,TRUE,Disabled,0.000000,0.000000,0.000000,TRUE,0.971848,-0.240921,0.000000,-0.683182,-0.306412,0.000000,-0.124000,-0.142000,0.628000,11.220000,-3.100000,2.530000,9.924189,Hold,10.777344,58.000000,Hold,-17249.000000,70041.600000,LowGoal,-255.000000,-3272.727273,Speed,-705.000000,-3272.727273,Speed,Off,Off,0.000000,FALSE,43,Read: /home/lvuser/scripts/auto_43.bee,File good!,SEARCH_FOR_GOAL,SEARCH_FOR_GOAL,0.000000,0.000000
07:42:43.891 PM 04/04/2016,Autonomous Enabled,9,FALSE,0,NO ERROR,0.000000,-147.544488,-0.000000,-146.023742,FALSE,FALSE,TRUE,TRUE,FALSE,TRUE,Disabled,0.000000,0.000000,0.000000,TRUE,0.935150,-0.257004,0.000000,-0.750961,-0.291229,0.000000,-0.044000,0.089000,-0.096000,11.180000,-4.000000,2.800000,9.870978,Hold,15.915039,58.000000,Hold,-28975.000000,70041.600000,LowGoal,525.000000,-3272.727273,Speed,-337.500000,-3272.727273,Speed,Off,Off,0.000000,FALSE,43,Read: /home/lvuser/scripts/auto_43.bee,File good!,SEARCH_FOR_GOAL,SEARCH_FOR_GOAL,0.000000,0.000000
07:42:43.991 PM 04/04/2016,Autonomous Enabled,11,FALSE,0,NO ERROR,0.000000,-147.794738,-0.000000,-146.158492,FALSE,FALSE,TRUE,TRUE,FALSE,TRUE,Disabled,0.000000,0.000000,0.000000,TRUE,0.896881,-0.270813,0.000000,-0.777237,-0.296127,0.000000,0.071000,-0.073000,-0.121000,10.900000,-3.930000,2.620000,9.648678,Hold,21.567139,58.000000,Hold,-41395.000000,70041.600000,LowGoal,1132.500000,-3272.727273,Speed,-75.000000,-3272.727273,Speed,Off,Off,0.000000,FALSE,43,Read: /home/lvuser/scripts/auto_43.bee,File good!,SEARCH_FOR_GOAL,SEARCH_FOR_GOAL,0.000000,0.000000
07:42:44.093 PM 04/04/2016,Autonomous Enabled,10,FALSE,0,NO ERROR,0.000000,-147.788321,-0.000000,-146.158492,FALSE,FALSE,TRUE,TRUE,FALSE,TRUE,Disabled,0.000000,0.000000,0.000000,TRUE,0.852859,-0.288788,0.000000,-0.700668,-0.272964,0.000000,0.073000,-0.014000,-0.049000,10.870000,-3.800000,2.740000,9.705411,Hold,26.822510,58.000000,Hold,-55415.000000,70041.600000,LowGoal,1627.500000,-3272.727273,Speed,15.000000,-3272.727273,Speed,Off,Off,0.000000,FALSE,43,Read: /home/lvuser/scripts/auto_43.bee,File good!,SEARCH_FOR_GOAL,SEARCH_FOR_GOAL,0.000000,0.000000
07:42:44.193 PM 04/04/2016,Autonomous Enabled,10,FALSE,0,NO ERROR,0.000000,-147.743405,-0.000000,-146.081492,FALSE,FALSE,TRUE,TRUE,FALSE,TRUE,Disabled,0.000000,0.000000,0.000000,TRUE,0.819550,-0.303024,0.000000,-0.641205,-0.312637,0.000000,0.066000,-0.246000,-0.054000,10.830000,-3.440000,2.630000,9.728497,Hold,34.095947,58.000000,Hold,-70406.000000,70041.600000,LowGoal,2047.500000,-3272.727273,Speed,690.000000,-3272.727273,Speed,Off,Off,0.000000,FALSE,43,Read: /home/lvuser/scripts/auto_43.bee,File good!,SEARCH_FOR_GOAL,SEARCH_FOR_GOAL,0.000000,0.000000
07:42:44.294 PM 04/04/2016,Autonomous Enabled,7,FALSE,0,NO ERROR,0.000000,-147.679238,-0.000000,-146.062242,FALSE,FALSE,TRUE,TRUE,FALSE,TRUE,Enable,-0.287500,11.910665,-1.080665,TRUE,0.791122,-0.326599,0.000000,-0.478653,-0.614822,0.000000,-0.044000,-0.074000,-0.040000,10.890000,-3.380000,2.580000,9.859287,Hold,43.575195,58.000000,Hold,-70230.000000,70041.600000,LowGoal,2370.000000,-3272.727273,Speed,2062.500000,-3272.727273,Speed,Off,Off,0.000000,FALSE,43,Read: /home/lvuser/scripts/auto_43.bee,File good!,SEARCH_FOR_GOAL,SEARCH_FOR_GOAL,0.000000,0.000000
07:42:44.394 PM 04/04/2016,Autonomous Enabled,9,FALSE,0,NO ERROR,0.359560,-147.871738,0.359560,-146.171325,TRUE,FALSE,TRUE,TRUE,FALSE,TRUE,PID,-0.287500,11.910665,-1.080665,TRUE,0.769394,-0.362366,0.000000,-0.446762,-0.737900,0.000000,-0.163000,0.097000,0.431000,10.820000,-2.830000,2.610000,9.833137,Hold,53.872314,58.000000,Hold,-70230.000000,70041.600000,LowGoal,2632.500000,-3272.727273,Speed,2362.500000,-3272.727273,Speed,Off,Off,0.000000,FALSE,43,Read: /home/lvuser/scripts/auto_43.bee,File good!,SEARCH_FOR_GOAL,SEARCH_FOR_GOAL,0.000000,0.000000
07:42:44.493 PM 04/04/2016,Autonomous Enabled,9,FALSE,0,NO ERROR,0.351066,-148.834235,0.351066,-145.465493,FALSE,FALSE,TRUE,TRUE,FALSE,TRUE,PID,-0.287500,11.910665,-1.080665,TRUE,0.740860,-0.407410,0.000000,-0.449722,-0.780029,0.000000,-0.143000,-0.098000,0.109000,9.190000,-3.230000,2.050000,7.930270,Hold,63.013916,58.000000,Hold,-70118.000000,70041.600000,LowGoal,2812.500000,-3272.727273,Speed,2617.500000,-3272.727273,Speed,Off,Off,0.000000,FALSE,43,Read: /home/lvuser/scripts/auto_43.bee,File good!,SEARCH_FOR_GOAL,SEARCH_FOR_GOAL,0.000000,0.000000
07:42:44.593 PM 04/04/2016,Autonomous Enabled,9,FALSE,0,NO ERROR,0.302784,-149.617067,0.302784,-144.695495,FALSE,FALSE,TRUE,TRUE,FALSE,TRUE,PID,-0.287500,11.910665,-1.080665,TRUE,0.720032,-0.448563,0.000000,-0.402435,-0.846329,0.000000,0.118000,0.147000,0.087000,5.670000,-3.560000,2.110000,4.664807,Hold,64.517822,58.000000,Hold,-70121.000000,70041.600000,LowGoal,3000.000000,-3272.727273,Speed,2752.500000,-3272.727273,Speed,Off,Off,0.000000,FALSE,43,Read: /home/lvuser/scripts/auto_43.bee,File good!,SEARCH_FOR_GOAL,SEARCH_FOR_GOAL,0.000000,0.000000
07:42:44.694 PM 04/04/2016,Autonomous Enabled,10,FALSE,0,NO ERROR,0.272362,-150.265149,0.272362,-144.156496,TRUE,FALSE,TRUE,TRUE,FALSE,TRUE,PID,-0.287500,11.910665,-1.080665,TRUE,0.702179,-0.485458,0.000000,-0.361908,-0.674606,0.000000,-0.010000,-0.130000,0.245000,3.180000,-2.640000,2.880000,2.284557,Hold,62.858643,58.000000,Hold,-70121.000000,70041.600000,LowGoal,3150.000000,-3272.727273,Speed,2880.000000,-3272.727273,Speed,Off,Off,0.000000,FALSE,43,Read: /home/lvuser/scripts/auto_43.bee,File good!,SEARCH_FOR_GOAL,SEARCH_FOR_GOAL,0.000000,0.000000
07:42:44.793 PM 04/04/2016,Autonomous Enabled,11,FALSE,0,NO ERROR,0.234506,-150.938897,0.234506,-143.367248,TRUE,FALSE,TRUE,TRUE,FALSE,TRUE,PID,-0.287500,11.910665,-1.080665,TRUE,0.684967,-0.521835,0.000000,-0.333786,-0.837433,0.000000,0.086000,-0.054000,0.145000,-0.270000,-2.680000,2.150000,-0.473624,Hold,62.096191,58.000000,Hold,-70121.000000,70041.600000,LowGoal,3202.500000,-3272.727273,Speed,3000.000000,-3272.727273,Speed,Off,Off,0.000000,FALSE,43,Read: /home/lvuser/scripts/auto_43.bee,File good!,SEARCH_FOR_GOAL,SEARCH_FOR_GOAL,0.000000,0.000000
07:42:44.894 PM 04/04/2016,Autonomous Enabled,9,FALSE,0,NO ERROR,-0.207928,-151.266146,-0.207928,-142.834666,TRUE,FALSE,TRUE,TRUE,FALSE,TRUE,PID,-0.287500,11.910665,-1.080665,TRUE,0.669830,-0.562637,0.000000,-0.260452,-0.751633,0.000000,0.239000,0.277000,-0.186000,-2.600000,-2.480000,2.890000,-3.203789,Hold,62.096191,58.000000,Hold,-70121.000000,70041.600000,LowGoal,3195.000000,-3272.727273,Speed,3112.500000,-3272.727273,Speed,Off,Off,0.000000,FALSE,43,Read: /home/lvuser/scripts/auto_43.bee,File good!,SEARCH_FOR_GOAL,SEARCH_FOR_GOAL,0.000000,0.000000
07:42:44.994 PM 04/04/2016,Autonomous Enabled,9,FALSE,0,NO ERROR,-0.229313,-150.695064,-0.229313,-143.399331,FALSE,FALSE,TRUE,TRUE,FALSE,TRUE,PID,-0.287500,11.910665,-1.080665,TRUE,0.661911,-0.596283,0.000000,-0.103607,-0.636902,0.000000,0.125000,-0.116000,-0.021000,-2.320000,-1.620000,3.350000,-2.772963,Hold,62.060791,58.000000,Hold,-70121.000000,70041.600000,LowGoal,3202.500000,-3272.727273,Speed,3202.500000,-3272.727273,Speed,Off,Off,0.000000,FALSE,43,Read: /home/lvuser/scripts/auto_43.bee,File good!,SEARCH_FOR_GOAL,SEARCH_FOR_GOAL,0.000000,0.000000
07:42:45.095 PM 04/04/2016,Autonomous Enabled,9,FALSE,0,NO ERROR,-0.204749,-150.014899,-0.204749,-143.886997,FALSE,FALSE,TRUE,TRUE,FALSE,TRUE,PID,-0.287500,11.910665,-1.080665,TRUE,0.659775,-0.628784,0.000000,-0.017380,-0.653717,0.000000,0.030000,0.009000,0.121000,-0.260000,-1.600000,3.330000,-0.282193,Hold,62.022461,58.000000,Hold,-70121.000000,70041.600000,LowGoal,3210.000000,-3272.727273,Speed,3202.500000,-3272.727273,Speed,Off,Off,0.000000,FALSE,43,Read: /home/lvuser/scripts/auto_43.bee,File good!,SEARCH_FOR_GOAL,SEARCH_FOR_GOAL,0.000000,0.000000
07:42:45.196 PM 04/04/2016,Autonomous Enabled,9,FALSE,0,NO ERROR,0.235112,-149.501567,0.235112,-144.130830,TRUE,FALSE,TRUE,TRUE,FALSE,TRUE,PID,-0.287500,11.910665,-1.080665,TRUE,0.657883,-0.662613,0.000000,-0.046066,-0.687042,0.000000,0.070000,-0.145000,0.053000,2.210000,-1.660000,2.940000,1.551144,Hold,61.941162,58.000000,Hold,-70121.000000,70041.600000,LowGoal,3210.000000,-3272.727273,Speed,3127.500000,-3272.727273,Speed,Off,Off,0.000000,FALSE,43,Read: /home/lvuser/scripts/auto_43.bee,File good!,SEARCH_FOR_GOAL,SEARCH_FOR_GOAL,0.000000,0.000000
07:42:45.297 PM 04/04/2016,Autonomous Enabled,9,FALSE,0,NO ERROR,0.242934,-150.123982,0.242934,-143.309498,TRUE,FALSE,TRUE,TRUE,FALSE,TRUE,PID,0.018750,11.910665,-1.080665,TRUE,0.654922,-0.699463,0.000000,-0.066406,-0.835464,0.000000,0.070000,-0.145000,0.053000,2.210000,-1.660000,2.940000,0.855028,Hold,61.941162,58.000000,Hold,-70121.000000,70041.600000,LowGoal,3217.500000,-3272.727273,Speed,3127.500000,-3272.727273,Speed,Off,Off,0.000000,FALSE,43,Read: /home/lvuser/scripts/auto_43.bee,File good!,SEARCH_FOR_GOAL,SEARCH_FOR_GOAL,0.000000,0.000000
07:42:45.398 PM 04/04/2016,Autonomous Enabled,9,FALSE,0,NO ERROR,0.218798,-150.739981,0.218798,-142.526667,TRUE,FALSE,TRUE,TRUE,FALSE,TRUE,PID,0.018750,11.910665,-1.080665,TRUE,0.650345,-0.745087,0.000000,-0.082581,-0.938797,0.000000,0.100000,0.198000,0.004000,-1.440000,-1.850000,2.390000,-1.945324,Hold,61.940674,58.000000,Hold,-70121.000000,70041.600000,LowGoal,3217.500000,-3272.727273,Speed,3127.500000,-3272.727273,Speed,Off,Off,0.000000,FALSE,43,Read: /home/lvuser/scripts/auto_43.bee,File good!,SEARCH_FOR_GOAL,SEARCH_FOR_GOAL,0.000000,0.000000
07:42:45.499 PM 04/04/2016,Autonomous Enabled,10,FALSE,0,NO ERROR,0.000000,-151.060813,-0.000000,-142.141668,TRUE,FALSE,TRUE,TRUE,FALSE,TRUE,Suspended,0.018750,11.910665,-1.080665,TRUE,0.644913,-0.798279,0.000000,-0.102203,-0.827682,0.000000,-0.047000,-0.038000,-0.046000,-3.590000,-1.640000,2.780000,-3.784380,Hold,61.937744,58.000000,Hold,-70121.000000,70041.600000,LowGoal,3210.000000,-3272.727273,Speed,3142.500000,-3272.727273,Speed,Off,Off,0.000000,FALSE,43,Read: /home/lvuser/scripts/auto_43.bee,File good!,SEARCH_FOR_GOAL,SEARCH_FOR_GOAL,0.000000,0.000000
07:42:45.600 PM 04/04/2016,Autonomous Enabled,11,FALSE,0,NO ERROR,0.000000,-150.932480,-0.000000,-142.237917,FALSE,FALSE,TRUE,TRUE,FALSE,TRUE,Suspended,0.018750,11.910665,-1.080665,TRUE,0.641571,-0.845215,0.000000,-0.033920,-0.785950,0.000000,-0.061000,-0.280000,0.180000,-3.390000,-1.220000,3.020000,-3.409640,Hold,61.937744,58.000000,Hold,-70121.000000,70041.600000,LowGoal,3210.000000,-3272.727273,Speed,3157.500000,-3272.727273,Speed,Off,Off,0.000000,FALSE,43,Read: /home/lvuser/scripts/auto_43.bee,File good!,SEARCH_FOR_GOAL,SEARCH_FOR_GOAL,0.000000,0.000000
07:42:45.701 PM 04/04/2016,Autonomous Enabled,11,FALSE,0,NO ERROR,0.000000,-150.893980,-0.000000,-142.250751,TRUE,FALSE,TRUE,TRUE,FALSE,TRUE,Suspended,0.018750,11.910665,-1.080665,TRUE,0.640579,-0.886551,0.000000,-0.007446,-0.846024,0.000000,0.036000,-0.216000,0.073000,-3.260000,-1.230000,2.830000,-3.206543,Hold,61.874023,58.000000,Hold,-70121.000000,70041.600000,LowGoal,3217.500000,-3272.727273,Speed,3180.000000,-3272.727273,Speed,Off,Off,0.000000,FALSE,43,Read: /home/lvuser/scripts/auto_43.bee,File good!,SEARCH_FOR_GOAL,SEARCH_FOR_GOAL,0.000000,0.000000
07:42:45.802 PM 04/04/2016,Autonomous Enabled,10,FALSE,0,NO ERROR,0.000000,-150.893980,-0.000000,-142.250751,TRUE,FALSE,TRUE,TRUE,FALSE,TRUE,Suspended,0.018750,11.910665,-1.080665,TRUE,0.641312,-0.919922,0.000000,0.029404,-0.830429,0.000000,0.124000,0.125000,0.053000,-3.260000,-1.230000,2.830000,-3.172431,Hold,61.871826,58.000000,Hold,-70121.000000,70041.600000,LowGoal,3232.500000,-3272.727273,Speed,3195.000000,-3272.727273,Speed,Off,Off,0.000000,FALSE,43,Read: /home/lvuser/scripts/auto_43.bee,File good!,SEARCH_FOR_GOAL,SEARCH_FOR_GOAL,0.000000,0.000000
07:42:45.902 PM 04/04/2016,Autonomous Enabled,11,FALSE,0,NO ERROR,0.000000,-150.893980,-0.000000,-142.250751,TRUE,FALSE,TRUE,TRUE,FALSE,TRUE,Suspended,0.018750,11.910665,-1.080665,TRUE,0.643982,-0.962326,0.000000,0.058273,-0.855133,0.000000,0.124000,0.125000,0.053000,-3.270000,-1.160000,2.800000,-3.134033,Hold,61.862061,58.000000,Hold,-70121.000000,70041.600000,LowGoal,3240.000000,-3272.727273,Speed,3187.500000,-3272.727273,Speed,Off,Off,0.000000,FALSE,43,Read: /home/lvuser/scripts/auto_43.bee,File good!,SEARCH_FOR_GOAL,SEARCH_FOR_GOAL,0.000000,0.000000
07:42:46.003 PM 04/04/2016,Autonomous Enabled,10,FALSE,0,NO ERROR,0.000000,-150.893980,-0.000000,-142.250751,TRUE,FALSE,TRUE,TRUE,FALSE,TRUE,Suspended,0.018750,11.910665,-1.080665,TRUE,0.646912,-1.012070,0.000000,0.059250,-0.805222,0.000000,0.098000,0.062000,0.106000,-3.280000,-0.990000,2.760000,-3.103136,Hold,61.860352,58.000000,Hold,-70121.000000,70041.600000,LowGoal,3247.500000,-3272.727273,Speed,3157.500000,-3272.727273,Speed,Off,Off,0.000000,FALSE,43,Read: /home/lvuser/scripts/auto_43.bee,File good!,SEARCH_FOR_GOAL,SEARCH_FOR_GOAL,0.000000,0.000000
07:42:46.104 PM 04/04/2016,Autonomous Enabled,11,FALSE,0,NO ERROR,0.000000,-150.893980,-0.000000,-142.250751,TRUE,FALSE,TRUE,TRUE,FALSE,TRUE,Suspended,0.018750,11.910665,-1.080665,TRUE,0.650955,-1.044571,0.000000,0.116806,-0.837799,0.000000,0.002000,-0.185000,0.211000,-3.290000,-0.960000,2.770000,-3.083227,Hold,61.859131,58.000000,Hold,-70121.000000,70041.600000,LowGoal,3232.500000,-3272.727273,Speed,3172.500000,-3272.727273,Speed,Off,Off,0.000000,FALSE,43,Read: /home/lvuser/scripts/auto_43.bee,File good!,SEARCH_FOR_GOAL,SEARCH_FOR_GOAL,0.000000,0.000000
07:42:46.204 PM 04/04/2016,Autonomous Enabled,11,FALSE,0,NO ERROR,0.000000,-150.893980,-0.000000,-142.250751,TRUE,FALSE,TRUE,TRUE,FALSE,TRUE,Suspended,0.018750,11.910665,-1.080665,TRUE,0.658264,-1.096313,0.000000,0.113876,-0.863586,0.000000,0.002000,-0.185000,0.211000,-3.290000,-0.920000,2.780000,-3.039304,Hold,61.857910,58.000000,Hold,-70121.000000,70041.600000,LowGoal,3225.000000,-3272.727273,Speed,3180.000000,-3272.727273,Speed,Off,Off,0.000000,FALSE,43,Read: /home/lvuser/scripts/auto_43.bee,File good!,SEARCH_FOR_GOAL,SEARCH_FOR_GOAL,0.000000,0.000000
07:42:46.305 PM 04/04/2016,Autonomous Enabled,9,FALSE,0,NO ERROR,0.000000,-150.893980,-0.000000,-142.250751,TRUE,FALSE,TRUE,TRUE,FALSE,TRUE,Suspended,0.068750,11.910665,-1.080665,TRUE,0.662506,-1.138977,0.000000,0.069794,-0.847610,0.000000,-0.156000,-0.171000,0.081000,-3.290000,-0.920000,2.780000,-2.987662,Hold,61.857178,58.000000,Hold,-70121.000000,70041.600000,LowGoal,3232.500000,-3272.727273,Speed,3150.000000,-3272.727273,Speed,Off,Off,0.000000,FALSE,43,Read: /home/lvuser/scripts/auto_43.bee,File good!,SEARCH_FOR_GOAL,SEARCH_FOR_GOAL,0.000000,0.000000
07:42:46.405 PM 04/04/2016,Autonomous Enabled,10,FALSE,0,NO ERROR,0.000000,-150.893980,-0.000000,-142.250751,TRUE,FALSE,TRUE,TRUE,FALSE,TRUE,Enable,0.068750,-2.848203,-0.461797,TRUE,0.664810,-1.172485,0.000000,0.063644,-0.840866,0.000000,0.050000,0.254000,-0.076000,-3.310000,-0.790000,2.730000,-2.949649,Hold,61.856201,58.000000,Hold,-70121.000000,70041.600000,LowGoal,3232.500000,-3272.727273,Speed,3165.000000,-3272.727273,Speed,Off,Off,0.000000,FALSE,43,Read: /home/lvuser/scripts/auto_43.bee,File good!,SEARCH_FOR_GOAL,SEARCH_FOR_GOAL,0.000000,0.000000
07:42:46.506 PM 04/04/2016,Autonomous Enabled,9,FALSE,0,NO ERROR,-0.235931,-150.483315,-0.235931,-142.590833,TRUE,FALSE,TRUE,TRUE,FALSE,TRUE,PID,0.068750,-2.848203,-0.461797,TRUE,0.669968,-1.231018,0.000000,0.091003,-0.802689,0.000000,-0.081000,-0.163000,0.069000,-3.310000,-0.790000,2.730000,-2.893535,Hold,61.855713,58.000000,Hold,-70121.000000,70041.600000,LowGoal,3225.000000,-3272.727273,Speed,3187.500000,-3272.727273,Speed,Off,Off,0.000000,FALSE,43,Read: /home/lvuser/scripts/auto_43.bee,File good!,SEARCH_FOR_GOAL,SEARCH_FOR_GOAL,0.000000,0.000000
07:42:46.607 PM 04/04/2016,Autonomous Enabled,10,FALSE,0,NO ERROR,-0.234355,-150.034149,-0.234355,-143.001499,TRUE,FALSE,TRUE,TRUE,FALSE,TRUE,PID,0.068750,-2.848203,-0.461797,TRUE,0.676056,-1.261505,0.000000,0.179398,-0.766006,0.000000,0.041000,0.107000,-0.253000,-3.320000,-0.790000,2.710000,-1.207023,Hold,61.855225,58.000000,Hold,-70121.000000,70041.600000,LowGoal,3217.500000,-3272.727273,Speed,3187.500000,-3272.727273,Speed,Off,Off,0.000000,FALSE,43,Read: /home/lvuser/scripts/auto_43.bee,File good!,SEARCH_FOR_GOAL,SEARCH_FOR_GOAL,0.000000,0.000000
07:42:46.707 PM 04/04/2016,Autonomous Enabled,9,FALSE,0,NO ERROR,-0.210546,-149.488734,-0.210546,-143.347998,TRUE,FALSE,TRUE,TRUE,FALSE,TRUE,PID,0.068750,-2.848203,-0.461797,TRUE,0.685181,-1.309982,0.000000,0.113312,-0.847610,0.000000,0.085000,0.195000,0.134000,-2.060000,-0.520000,2.920000,0.698182,Hold,61.815430,58.000000,Hold,-70121.000000,70041.600000,LowGoal,3217.500000,-3272.727273,Speed,3165.000000,-3272.727273,Speed,Off,Off,0.000000,FALSE,43,Read: /home/lvuser/scripts/auto_43.bee,File good!,SEARCH_FOR_GOAL,SEARCH_FOR_GOAL,0.000000,0.000000
07:42:46.807 PM 04/04/2016,Autonomous Enabled,10,FALSE,0,NO ERROR,0.214390,-149.681233,0.214390,-142.918082,TRUE,FALSE,TRUE,TRUE,FALSE,TRUE,PID,0.068750,-2.848203,-0.461797,TRUE,0.689575,-1.353119,0.000000,0.088120,-0.880142,0.000000,-0.063000,0.096000,-0.150000,0.300000,-0.590000,2.760000,1.578107,Hold,61.814941,58.000000,Hold,-70121.000000,70041.600000,LowGoal,3225.000000,-3272.727273,Speed,3135.000000,-3272.727273,Speed,Off,Off,0.000000,FALSE,43,Read: /home/lvuser/scripts/auto_43.bee,File good!,SEARCH_FOR_GOAL,SEARCH_FOR_GOAL,0.000000,0.000000
07:42:46.907 PM 04/04/2016,Autonomous Enabled,11,FALSE,0,NO ERROR,0.214274,-150.156066,0.214274,-142.282834,TRUE,FALSE,TRUE,TRUE,FALSE,TRUE,PID,0.068750,-2.848203,-0.461797,TRUE,0.691086,-1.402786,0.000000,0.048126,-0.987411,0.000000,-0.398000,-0.540000,-0.026000,1.170000,-0.700000,2.590000,-0.504455,Hold,61.804199,58.000000,Hold,-70121.000000,70041.600000,LowGoal,3232.500000,-3272.727273,Speed,3157.500000,-3272.727273,Speed,Off,Off,0.000000,FALSE,43,Read: /home/lvuser/scripts/auto_43.bee,File good!,SEARCH_FOR_GOAL,SEARCH_FOR_GOAL,0.000000,0.000000
07:42:47.008 PM 04/04/2016,Autonomous Enabled,10,FALSE,0,NO ERROR,-0.221232,-150.046982,-0.221232,-142.257167,TRUE,FALSE,TRUE,TRUE,FALSE,TRUE,PID,0.068750,-2.848203,-0.461797,TRUE,0.691086,-1.402786,0.000000,0.048126,-0.987411,0.000000,0.064000,-0.075000,-0.028000,-1.030000,-0.920000,2.180000,-2.542391,Hold,61.803711,58.000000,Hold,-70121.000000,70041.600000,LowGoal,3225.000000,-3272.727273,Speed,3172.500000,-3272.727273,Speed,Off,Off,0.000000,FALSE,43,Read: /home/lvuser/scripts/auto_43.bee,File good!,SEARCH_FOR_GOAL,SEARCH_FOR_GOAL,0.000000,0.000000
07:42:47.109 PM 04/04/2016,Autonomous Enabled,10,FALSE,0,NO ERROR,-0.231099,-149.565734,-0.231099,-142.674250,TRUE,FALSE,TRUE,TRUE,FALSE,TRUE,PID,0.068750,-2.848203,-0.461797,TRUE,0.706558,-1.489639,0.000000,0.204987,-0.747513,0.000000,0.182000,0.466000,0.223000,-3.220000,-0.570000,2.740000,-0.890779,Hold,61.802979,58.000000,Hold,-70121.000000,70041.600000,LowGoal,3225.000000,-3272.727273,Speed,3165.000000,-3272.727273,Speed,Off,Off,0.000000,FALSE,43,Read: /home/lvuser/scripts/auto_43.bee,File good!,SEARCH_FOR_GOAL,SEARCH_FOR_GOAL,0.000000,0.000000
07:42:47.209 PM 04/04/2016,Autonomous Enabled,10,FALSE,0,NO ERROR,0.206477,-149.289818,0.206477,-142.841083,FALSE,FALSE,TRUE,TRUE,FALSE,TRUE,PID,0.062500,-2.848203,-0.461797,TRUE,0.706558,-1.489639,0.000000,0.204987,-0.747513,0.000000,-0.103000,-0.124000,0.199000,-1.600000,-0.280000,3.110000,1.363687,Hold,61.798584,58.000000,Hold,-70121.000000,70041.600000,LowGoal,3217.500000,-3272.727273,Speed,3180.000000,-3272.727273,Speed,Off,Off,0.000000,FALSE,43,Read: /home/lvuser/scripts/auto_43.bee,File good!,SEARCH_FOR_GOAL,SEARCH_FOR_GOAL,0.000000,0.000000
07:42:47.309 PM 04/04/2016,Autonomous Enabled,10,FALSE,0,NO ERROR,0.000000,-149.289818,-0.000000,-142.340584,TRUE,FALSE,TRUE,TRUE,FALSE,TRUE,Suspended,0.062500,-2.848203,-0.461797,TRUE,0.715698,-1.529572,0.000000,0.170731,-0.818283,0.000000,-0.037000,0.028000,-0.068000,0.700000,-0.390000,2.870000,0.449688,Hold,61.797852,58.000000,Hold,-70121.000000,70041.600000,LowGoal,3225.000000,-3272.727273,Speed,3172.500000,-3272.727273,Speed,Off,Off,0.000000,FALSE,43,Read: /home/lvuser/scripts/auto_43.bee,File good!,SEARCH_FOR_GOAL,SEARCH_FOR_GOAL,0.000000,0.000000
07:42:47.409 PM 04/04/2016,Autonomous Enabled,9,FALSE,0,NO ERROR,0.000000,-149.674817,-0.000000,-142.257167,TRUE,FALSE,TRUE,TRUE,FALSE,TRUE,Suspended,0.062500,-2.848203,-0.461797,TRUE,0.719498,-1.575317,0.000000,0.051331,-0.940170,0.000000,0.096000,0.301000,0.071000,-0.220000,-0.630000,2.320000,-0.407330,Hold,61.791260,58.000000,Hold,-70121.000000,70041.600000,LowGoal,3232.500000,-3272.727273,Speed,3157.500000,-3272.727273,Speed,Off,Off,0.000000,FALSE,43,Read: /home/lvuser/scripts/auto_43.bee,File good!,SEARCH_FOR_GOAL,SEARCH_FOR_GOAL,0.000000,0.000000
07:42:47.509 PM 04/04/2016,Autonomous Enabled,10,FALSE,0,NO ERROR,0.000000,-149.674817,-0.000000,-142.257167,TRUE,FALSE,TRUE,TRUE,FALSE,TRUE,Suspended,0.062500,-2.848203,-0.461797,TRUE,0.723465,-1.619812,0.000000,0.088181,-0.839249,0.000000,0.132000,-0.129000,-0.015000,-1.140000,-0.360000,2.720000,-0.407330,Hold,61.762695,58.000000,Hold,-70121.000000,70041.600000,LowGoal,3247.500000,-3272.727273,Speed,3150.000000,-3272.727273,Speed,Off,Off,0.000000,FALSE,43,Read: /home/lvuser/scripts/auto_43.bee,File good!,SEARCH_FOR_GOAL,SEARCH_FOR_GOAL,0.000000,0.000000
07:42:47.609 PM 04/04/2016,Autonomous Enabled,10,FALSE,0,NO ERROR,0.000000,-149.661983,-0.000000,-142.385500,TRUE,FALSE,TRUE,TRUE,FALSE,TRUE,Suspended,0.062500,-2.848203,-0.461797,TRUE,0.726639,-1.661270,0.000000,0.024734,-0.824783,0.000000,-0.157000,0.091000,0.130000,-0.700000,-0.370000,2.550000,0.098027,Hold,61.725830,58.000000,Hold,-70121.000000,70041.600000,LowGoal,3247.500000,-3272.727273,Speed,3187.500000,-3272.727273,Speed,Off,Off,0.000000,FALSE,43,Read: /home/lvuser/scripts/auto_43.bee,File good!,SEARCH_FOR_GOAL,SEARCH_FOR_GOAL,0.000000,0.000000
07:42:47.709 PM 04/04/2016,Autonomous Enabled,9,FALSE,0,NO ERROR,0.000000,-149.661983,-0.000000,-142.385500,TRUE,FALSE,TRUE,TRUE,FALSE,TRUE,Suspended,0.062500,-2.848203,-0.461797,TRUE,0.725220,-1.700958,0.000000,-0.057861,-0.768463,0.000000,0.014000,0.142000,-0.077000,-0.840000,-0.400000,2.610000,0.022614,Hold,61.723877,58.000000,Hold,-70121.000000,70041.600000,LowGoal,3247.500000,-3272.727273,Speed,3195.000000,-3272.727273,Speed,Off,Off,0.000000,FALSE,43,Read: /home/lvuser/scripts/auto_43.bee,File good!,SEARCH_FOR_GOAL,SEARCH_FOR_GOAL,0.000000,0.000000
07:42:47.809 PM 04/04/2016,Autonomous Enabled,9,FALSE,0,NO ERROR,0.000000,-149.661983,-0.000000,-142.385500,TRUE,FALSE,TRUE,TRUE,FALSE,TRUE,Suspended,0.062500,-2.848203,-0.461797,TRUE,0.718216,-1.745911,0.000000,-0.173676,-0.743103,0.000000,-0.184000,-0.125000,0.141000,-0.800000,-0.440000,2.650000,0.096399,Hold,61.722656,58.000000,Hold,-70121.000000,70041.600000,LowGoal,3255.000000,-3272.727273,Speed,3217.500000,-3272.727273,Speed,Off,Off,0.000000,FALSE,43,Read: /home/lvuser/scripts/auto_43.bee,File good!,SEARCH_FOR_GOAL,SEARCH_FOR_GOAL,0.000000,0.000000
07:42:47.909 PM 04/04/2016,Autonomous Enabled,10,FALSE,0,NO ERROR,0.000000,-149.661983,-0.000000,-142.385500,TRUE,FALSE,TRUE,TRUE,FALSE,TRUE,Suspended,0.062500,-2.848203,-0.461797,TRUE,0.706818,-1.781570,0.000000,-0.262344,-0.708176,0.000000,0.053000,0.218000,-0.081000,-0.820000,-0.440000,2.620000,0.133905,Hold,61.721924,58.000000,Hold,-70121.000000,70041.600000,LowGoal,3255.000000,-3272.727273,Speed,3217.500000,-3272.727273,Speed,Off,Off,0.000000,FALSE,43,Read: /home/lvuser/scripts/auto_43.bee,File good!,SEARCH_FOR_GOAL,SEARCH_FOR_GOAL,0.000000,0.000000
07:42:48.008 PM 04/04/2016,Autonomous Enabled,11,FALSE,0,NO ERROR,0.000000,-149.661983,-0.000000,-142.385500,TRUE,FALSE,TRUE,TRUE,FALSE,TRUE,Suspended,0.062500,-2.848203,-0.461797,TRUE,0.695297,-1.810501,0.000000,-0.297028,-0.735107,0.000000,0.090000,0.175000,-0.069000,-0.810000,-0.470000,2.620000,0.150612,Hold,61.718018,58.000000,Hold,-70121.000000,70041.600000,LowGoal,3247.500000,-3272.727273,Speed,3210.000000,-3272.727273,Speed,Off,Off,0.000000,FALSE,43,Read: /home/lvuser/scripts/auto_43.bee,File good!,SEARCH_FOR_GOAL,SEARCH_FOR_GOAL,0.000000,0.000000
07:42:48.108 PM 04/04/2016,Autonomous Enabled,10,FALSE,0,NO ERROR,0.000000,-149.661983,-0.000000,-142.385500,TRUE,FALSE,TRUE,TRUE,FALSE,TRUE,Suspended,0.062500,-2.848203,-0.461797,TRUE,0.676666,-1.855301,0.000000,-0.314499,-0.741714,0.000000,-0.086000,-0.235000,0.112000,-0.820000,-0.410000,2.650000,0.185389,Hold,61.717041,58.000000,Hold,-70121.000000,70041.600000,LowGoal,3247.500000,-3272.727273,Speed,3202.500000,-3272.727273,Speed,Off,Off,0.000000,FALSE,43,Read: /home/lvuser/scripts/auto_43.bee,File good!,SEARCH_FOR_GOAL,SEARCH_FOR_GOAL,0.000000,0.000000
07:42:48.208 PM 04/04/2016,Autonomous Enabled,10,FALSE,0,NO ERROR,0.000000,-149.661983,-0.000000,-142.385500,TRUE,FALSE,TRUE,TRUE,FALSE,TRUE,Suspended,0.062500,-2.848203,-0.461797,TRUE,0.661896,-1.892883,0.000000,-0.266998,-0.762482,0.000000,0.213000,0.209000,-0.061000,-0.830000,-0.430000,2.610000,0.222482,Hold,61.715332,58.000000,Hold,-70121.000000,70041.600000,LowGoal,3255.000000,-3272.727273,Speed,3187.500000,-3272.727273,Speed,Off,Off,0.000000,FALSE,43,Read: /home/lvuser/scripts/auto_43.bee,File good!,SEARCH_FOR_GOAL,SEARCH_FOR_GOAL,0.000000,0.000000
07:42:48.310 PM 04/04/2016,Autonomous Enabled,9,FALSE,0,NO ERROR,0.000000,-149.661983,-0.000000,-142.385500,TRUE,FALSE,TRUE,TRUE,FALSE,TRUE,Suspended,0.003125,-2.848203,-0.461797,TRUE,0.651489,-1.931488,0.000000,-0.178223,-0.766098,0.000000,0.074000,0.283000,0.009000,-0.830000,-0.380000,2.600000,0.277002,Hold,61.714600,58.000000,Hold,-70121.000000,70041.600000,LowGoal,3262.500000,-3272.727273,Speed,3187.500000,-3272.727273,Speed,Off,Off,0.000000,FALSE,43,Read: /home/lvuser/scripts/auto_43.bee,File good!,SEARCH_FOR_GOAL,SEARCH_FOR_GOAL,0.000000,0.000000
07:42:48.409 PM 04/04/2016,Autonomous Enabled,10,FALSE,0,NO ERROR,0.000000,-149.661983,-0.000000,-142.385500,TRUE,FALSE,TRUE,TRUE,FALSE,TRUE,Suspended,0.003125,-2.848203,-0.461797,TRUE,0.645660,-1.962357,0.000000,-0.122208,-0.783615,0.000000,0.038000,0.176000,0.089000,-0.830000,-0.380000,2.610000,0.299630,Hold,61.713379,58.000000,Hold,-70121.000000,70041.600000,LowGoal,3255.000000,-3272.727273,Speed,3195.000000,-3272.727273,Speed,Off,Off,0.000000,FALSE,43,Read: /home/lvuser/scripts/auto_43.bee,File good!,SEARCH_FOR_GOAL,SEARCH_FOR_GOAL,0.000000,0.000000
07:42:48.510 PM 04/04/2016,Autonomous Enabled,11,FALSE,0,NO ERROR,0.000000,-149.661983,-0.000000,-142.385500,TRUE,FALSE,TRUE,TRUE,FALSE,TRUE,Suspended,0.003125,-2.848203,-0.461797,TRUE,0.640244,-2.019409,0.000000,-0.060333,-0.824875,0.000000,0.091000,-0.108000,0.033000,-0.840000,-0.330000,2.620000,0.349681,Hold,61.712402,58.000000,Hold,-70121.000000,70041.600000,LowGoal,3255.000000,-3272.727273,Speed,3195.000000,-3272.727273,Speed,Off,Off,0.000000,FALSE,43,Read: /home/lvuser/scripts/auto_43.bee,File good!,SEARCH_FOR_GOAL,SEARCH_FOR_GOAL,0.000000,0.000000
07:42:48.611 PM 04/04/2016,Autonomous Enabled,10,FALSE,0,NO ERROR,0.000000,-149.661983,-0.000000,-142.385500,TRUE,FALSE,TRUE,TRUE,FALSE,TRUE,Suspended,0.003125,-2.848203,-0.461797,TRUE,0.637604,-2.051910,0.000000,-0.064072,-0.816742,0.000000,-0.077000,0.149000,0.047000,-0.850000,-0.320000,2.560000,0.392744,Hold,61.711670,58.000000,Hold,-70121.000000,70041.600000,LowGoal,3255.000000,-3272.727273,Speed,3172.500000,-3272.727273,Speed,Off,Off,0.000000,FALSE,43,Read: /home/lvuser/scripts/auto_43.bee,File good!,SEARCH_FOR_GOAL,SEARCH_FOR_GOAL,0.000000,0.000000
07:42:48.712 PM 04/04/2016,Autonomous Enabled,9,FALSE,0,NO ERROR,0.000000,-149.661983,-0.000000,-142.385500,TRUE,FALSE,TRUE,TRUE,FALSE,TRUE,Suspended,0.003125,-2.848203,-0.461797,TRUE,0.631485,-2.101089,0.000000,-0.141846,-0.813324,0.000000,0.036000,-0.037000,-0.020000,-0.840000,-0.340000,2.630000,0.434420,Hold,61.710938,58.000000,Hold,-70121.000000,70041.600000,LowGoal,3262.500000,-3272.727273,Speed,3210.000000,-3272.727273,Speed,Off,Off,0.000000,FALSE,43,Read: /home/lvuser/scripts/auto_43.bee,File good!,SEARCH_FOR_GOAL,SEARCH_FOR_GOAL,0.000000,0.000000
07:42:48.812 PM 04/04/2016,Autonomous Enabled,10,FALSE,0,NO ERROR,0.000000,-149.661983,-0.000000,-142.385500,TRUE,FALSE,TRUE,TRUE,FALSE,TRUE,Suspended,0.003125,-2.848203,-0.461797,TRUE,0.622833,-2.140930,0.000000,-0.205963,-0.787521,0.000000,0.014000,0.045000,-0.011000,-0.850000,-0.310000,2.630000,0.477359,Hold,61.710449,58.000000,Hold,-70121.000000,70041.600000,LowGoal,3262.500000,-3272.727273,Speed,3225.000000,-3272.727273,Speed,Off,Off,0.000000,FALSE,43,Read: /home/lvuser/scripts/auto_43.bee,File good!,SEARCH_FOR_GOAL,SEARCH_FOR_GOAL,0.000000,0.000000
07:42:48.913 PM 04/04/2016,Autonomous Enabled,9,FALSE,0,NO ERROR,0.000000,-149.661983,-0.000000,-142.385500,TRUE,FALSE,TRUE,TRUE,FALSE,TRUE,Suspended,0.003125,-2.848203,-0.461797,TRUE,0.609802,-2.171936,0.000000,-0.302383,0.000000,0.000000,-0.142000,-0.002000,0.071000,-0.860000,-0.310000,2.580000,0.506032,Hold,61.709473,58.000000,Hold,-70121.000000,70041.600000,LowGoal,3255.000000,-3272.727273,Speed,3217.500000,-3272.727273,Speed,Off,Off,0.000000,FALSE,43,Read: /home/lvuser/scripts/auto_43.bee,File good!,SEARCH_FOR_GOAL,SEARCH_FOR_GOAL,0.000000,0.000000
07:42:49.013 PM 04/04/2016,Autonomous Enabled,10,FALSE,0,NO ERROR,0.000000,-149.661983,-0.000000,-142.385500,TRUE,FALSE,TRUE,TRUE,FALSE,TRUE,Suspended,0.003125,-2.848203,-0.461797,TRUE,0.591751,-2.171066,0.000000,-0.398590,0.035919,0.000000,0.019000,0.159000,-0.041000,-0.860000,-0.330000,2.570000,0.544620,Hold,61.708496,58.000000,Hold,-70121.000000,70041.600000,LowGoal,3247.500000,-3272.727273,Speed,3225.000000,-3272.727273,Speed,Off,Off,0.000000,FALSE,43,Read: /home/lvuser/scripts/auto_43.bee,File good!,SEARCH_FOR_GOAL,SEARCH_FOR_GOAL,0.000000,0.000000
