Time,Robot Mode,Loop Time,Error Status,Error Code,Error Source,Left Motor Output,Left Motor Encoder,Right Motor Output,Right Motor Encoder,Is Level,Is Stalled,Ball Detector Photoeye,Vision Enabled,Vision Teleop Control,Vision Auto Control,Vision Current State,Vision X Output,Vision NavX Error,Vision NavX Target,NavX Connection Status,NavX Displacement X,NavX Displacement Y,NavX Displacement Z,NavX Velocity X,NavX Velocity Y,NavX Velocity Z,NavX Acceleration X,NavX Acceleration Y,NavX Acceleration Z,NavX Pitch,NavX Yaw,NavX Roll,Gyro Angle,Roller Arm State,Roller Arm Actual,Roller Arm Desired,Shooter Arm State,Shooter Arm Actual,Shooter Arm Desired,Shooter State,Actual RPM Left,Desired RPM Left,Control Mode Left,Actual RPM Right,Desired RPM Right,Control Mode Right,Ball Shooter Cylinder,Ball Halo Cylinder,Scaler Motor Output,Scaler Solenoid Fire,Auto To Run,Auto Current File,Auto File Status,Auto Current Command,Auto Trimmed Command,Shooter Amps Left,Shooter Amps Right
07:15:14.704 PM 04/04/2016,Teleop Enabled,10,FALSE,0,NO ERROR,-0.000000,0.147583,-0.000000,0.070583,TRUE,TRUE,TRUE,FALSE,FALSE,FALSE,Disabled,0.000000,0.000000,0.000000,TRUE,0.002960,-0.001663,0.000000,0.000000,0.000000,0.000000,-0.001000,-0.002000,0.022000,-0.570000,0.370000,2.660000,0.226982,ResetBack,0.000000,-0.000049,ResetBack,0.000000,-0.250000,LowGoal,0.000000,0.000000,Speed,0.000000,0.000000,Speed,Off,Off,0.000000,FALSE,0,,,,,0.000000,0.000000
07:15:14.804 PM 04/04/2016,Teleop Enabled,10,FALSE,0,NO ERROR,-0.000000,0.147583,-0.000000,0.070583,TRUE,FALSE,TRUE,FALSE,FALSE,FALSE,Disabled,0.000000,0.000000,0.000000,TRUE,0.002960,-0.001663,0.000000,0.000000,0.000000,0.000000,0.005000,-0.003000,-0.009000,-0.570000,0.370000,2.660000,0.234562,ResetBack,0.000000,-0.000049,ResetBack,0.000000,-0.250000,LowGoal,0.000000,0.000000,Speed,0.000000,0.000000,Speed,Off,Off,0.000000,FALSE,0,,,,,0.000000,0.000000
07:15:14.904 PM 04/04/2016,Teleop Enabled,9,FALSE,0,NO ERROR,-0.000000,0.044917,-0.000000,-0.077000,TRUE,FALSE,TRUE,FALSE,FALSE,FALSE,Disabled,0.000000,0.000000,0.000000,TRUE,0.003540,-0.001602,0.000000,0.019943,0.000000,0.000000,-0.006000,0.043000,-0.004000,-0.500000,0.510000,2.660000,0.282882,ResetBack,-1.028320,-0.000049,ResetBack,5222.000000,-0.250000,LowGoal,0.000000,-2181.818182,Speed,0.000000,-2181.818182,Speed,Off,Off,0.000000,FALSE,0,,,,,0.000000,0.000000
07:15:15.005 PM 04/04/2016,Teleop Enabled,11,FALSE,0,NO ERROR,-0.000000,-0.051333,-0.000000,-0.089833,TRUE,FALSE,TRUE,FALSE,FALSE,FALSE,Disabled,0.000000,0.000000,0.000000,TRUE,0.004013,-0.001175,0.000000,0.007401,0.017822,0.000000,0.038000,0.096000,0.056000,-0.590000,0.400000,2.660000,0.217373,ResetBack,-1.028320,-0.000049,ResetBack,5222.000000,-0.250000,LowGoal,52.500000,-2181.818182,Speed,0.000000,-2181.818182,Speed,Off,Off,0.000000,FALSE,0,,,,,0.000000,0.000000
07:15:15.108 PM 04/04/2016,Teleop Enabled,11,FALSE,0,NO ERROR,-0.000000,-0.096250,-0.000000,-0.089833,TRUE,FALSE,TRUE,FALSE,FALSE,FALSE,Disabled,0.000000,0.000000,0.000000,TRUE,0.005875,0.001633,0.000000,0.045319,0.050919,0.000000,0.007000,0.000000,0.111000,-0.680000,0.470000,2.680000,0.159569,Reset,-1.028320,0.000000,ResetBack,6514.000000,-0.250000,LowGoal,570.000000,-2181.818182,Speed,22.500000,-2181.818182,Speed,Off,Off,0.000000,FALSE,0,,,,,0.000000,0.000000
07:15:15.209 PM 04/04/2016,Teleop Enabled,10,FALSE,0,NO ERROR,-0.000000,-0.096250,-0.000000,-0.089833,TRUE,FALSE,TRUE,FALSE,FALSE,FALSE,Disabled,0.000000,0.000000,0.000000,TRUE,0.007370,0.003326,0.000000,0.001053,0.025513,0.000000,-0.070000,0.031000,0.024000,-0.650000,0.450000,2.690000,0.203448,Hold,1.107178,0.000000,ResetBack,6521.000000,-0.250000,LowGoal,1140.000000,-2181.818182,Speed,45.000000,-2181.818182,Speed,Off,Off,0.000000,FALSE,0,,,,,0.000000,0.000000
07:15:15.309 PM 04/04/2016,Teleop Enabled,10,FALSE,0,NO ERROR,-0.000000,-0.096250,-0.000000,-0.089833,TRUE,FALSE,TRUE,FALSE,FALSE,FALSE,Disabled,0.000000,0.000000,0.000000,TRUE,0.007828,0.004623,0.000000,0.000000,0.036957,0.000000,0.010000,0.099000,-0.021000,-0.660000,0.460000,2.650000,0.188360,Hold,0.968506,0.000000,ResetBack,6577.000000,-0.250000,LowGoal,1515.000000,-2181.818182,Speed,105.000000,-2181.818182,Speed,Off,Off,0.000000,FALSE,0,,,,,0.000000,0.000000
07:15:15.410 PM 04/04/2016,Teleop Enabled,10,FALSE,0,NO ERROR,-0.000000,-0.096250,-0.000000,-0.096250,TRUE,FALSE,TRUE,FALSE,FALSE,FALSE,Disabled,0.000000,0.000000,0.000000,TRUE,0.005890,0.007034,0.000000,-0.052994,0.032639,0.000000,0.076000,-0.068000,0.081000,-0.640000,0.330000,2.710000,0.197782,Hold,0.919434,0.000000,ResetBack,6589.000000,-0.250000,LowGoal,1890.000000,-2181.818182,Speed,697.500000,-2181.818182,Speed,Off,Off,0.000000,FALSE,0,,,,,0.000000,0.000000
07:15:15.510 PM 04/04/2016,Teleop Enabled,10,FALSE,0,NO ERROR,-0.000000,-0.096250,-0.000000,-0.096250,TRUE,FALSE,TRUE,FALSE,FALSE,FALSE,Disabled,0.000000,0.000000,0.000000,TRUE,0.004303,0.006241,0.000000,-0.016983,-0.042618,0.000000,-0.040000,-0.007000,-0.002000,-0.650000,0.360000,2.660000,0.188914,Hold,0.919189,0.000000,ResetBack,7005.000000,-0.250000,LowGoal,2107.500000,-2181.818182,Speed,1972.500000,-2181.818182,Speed,Off,Off,0.000000,FALSE,0,,,,,0.000000,0.000000
07:15:15.611 PM 04/04/2016,Teleop Enabled,10,FALSE,0,NO ERROR,-0.000000,-0.096250,-0.000000,-0.096250,TRUE,FALSE,TRUE,FALSE,FALSE,FALSE,Disabled,0.000000,0.000000,0.000000,TRUE,0.001938,0.007172,0.000000,-0.077774,0.100143,0.000000,-0.059000,0.305000,-0.206000,-0.650000,0.310000,2.650000,0.168899,Hold,0.919189,0.000000,ResetBack,7400.000000,-0.250000,LowGoal,2145.000000,-2181.818182,Speed,2212.500000,-2181.818182,Speed,Off,Off,0.000000,FALSE,0,,,,,0.000000,0.000000
07:15:15.711 PM 04/04/2016,Teleop Enabled,9,FALSE,0,NO ERROR,-0.000000,-0.096250,-0.000000,-0.096250,TRUE,FALSE,TRUE,FALSE,FALSE,FALSE,Disabled,0.000000,0.000000,0.000000,TRUE,-0.003296,0.019638,0.000000,-0.124130,0.327118,0.000000,-0.105000,0.209000,-0.199000,-0.650000,0.290000,2.680000,0.173880,Hold,0.918945,0.000000,ResetBack,7400.000000,-0.250000,LowGoal,2145.000000,-2181.818182,Speed,2130.000000,-2181.818182,Speed,Off,Off,0.000000,FALSE,0,,,,,0.000000,0.000000
07:15:15.811 PM 04/04/2016,Teleop Enabled,11,FALSE,0,NO ERROR,-0.000000,-0.096250,-0.000000,-0.096250,TRUE,FALSE,TRUE,FALSE,FALSE,FALSE,Disabled,0.000000,0.000000,0.000000,TRUE,-0.009872,0.043167,0.000000,-0.120850,0.591003,0.000000,-0.024000,0.355000,-0.264000,-0.630000,0.330000,2.560000,0.167635,Hold,0.918945,0.000000,ResetBack,7649.000000,-0.250000,LowGoal,2130.000000,-2181.818182,Speed,2032.500000,-2181.818182,Speed,Off,Off,0.000000,FALSE,0,,,,,0.000000,0.000000
07:15:15.911 PM 04/04/2016,Teleop Enabled,10,FALSE,0,NO ERROR,-0.000000,-0.096250,-0.000000,-0.096250,TRUE,FALSE,TRUE,FALSE,FALSE,FALSE,Disabled,0.000000,0.000000,0.000000,TRUE,-0.018997,0.090622,0.000000,-0.192780,0.879684,0.000000,-0.183000,-0.013000,-0.019000,-0.640000,0.360000,2.580000,0.162451,Hold,0.918945,0.000000,ResetBack,7808.000000,-0.250000,LowGoal,2115.000000,-2181.818182,Speed,2025.000000,-2181.818182,Speed,Off,Off,0.000000,FALSE,0,,,,,0.000000,0.000000
07:15:16.011 PM 04/04/2016,Teleop Enabled,10,FALSE,0,NO ERROR,-0.000000,-0.096250,-0.000000,-0.096250,TRUE,FALSE,TRUE,FALSE,FALSE,FALSE,Disabled,0.000000,0.000000,0.000000,TRUE,-0.031143,0.133057,0.000000,-0.238998,0.784302,0.000000,0.046000,-0.269000,0.209000,-0.640000,0.340000,2.660000,0.182084,Hold,0.918945,0.000000,Reset,7827.000000,2.000000,LowGoal,2085.000000,-2181.818182,Speed,2047.500000,-2181.818182,Speed,Off,Off,0.000000,FALSE,0,,,,,0.000000,0.000000
07:15:16.112 PM 04/04/2016,Teleop Enabled,10,FALSE,0,NO ERROR,-0.000000,-0.096250,-0.000000,-0.096250,TRUE,FALSE,TRUE,FALSE,FALSE,FALSE,Disabled,0.000000,0.000000,0.000000,TRUE,-0.042282,0.165146,0.000000,-0.191986,0.570404,0.000000,0.133000,-0.064000,0.127000,-0.640000,0.360000,2.660000,0.177812,Hold,0.918945,0.000000,Hold,-80.000000,2.000000,LowGoal,2085.000000,-2181.818182,Speed,2062.500000,-2181.818182,Speed,Off,Off,0.000000,FALSE,0,,,,,0.000000,0.000000
07:15:16.212 PM 04/04/2016,Teleop Enabled,12,FALSE,0,NO ERROR,-0.000000,-0.096250,-0.000000,-0.096250,TRUE,FALSE,TRUE,FALSE,FALSE,FALSE,Disabled,0.000000,0.000000,0.000000,TRUE,-0.049683,0.193390,0.000000,-0.153519,0.602478,0.000000,-0.136000,0.153000,-0.289000,-0.640000,0.350000,2.610000,0.198949,Hold,0.918945,0.000000,Hold,-80.000000,2.000000,LowGoal,2100.000000,-2181.818182,Speed,2070.000000,-2181.818182,Speed,Off,Off,0.000000,FALSE,0,,,,,0.000000,0.000000
07:15:16.312 PM 04/04/2016,Teleop Enabled,11,FALSE,0,NO ERROR,-0.000000,-0.096250,-0.000000,-0.096250,TRUE,FALSE,TRUE,FALSE,FALSE,FALSE,Disabled,0.000000,0.000000,0.000000,TRUE,-0.059891,0.228516,0.000000,-0.210007,0.789780,0.000000,-0.007000,0.162000,-0.084000,-0.640000,0.380000,2.540000,0.199954,Hold,0.918945,0.000000,Hold,-82.000000,2.000000,LowGoal,2100.000000,-2181.818182,Speed,2070.000000,-2181.818182,Speed,Off,Off,0.000000,FALSE,0,,,,,0.000000,0.000000
07:15:16.412 PM 04/04/2016,Teleop Enabled,12,FALSE,0,NO ERROR,-0.000000,-0.096250,-0.000000,-0.096250,TRUE,FALSE,TRUE,FALSE,FALSE,FALSE,Disabled,0.000000,0.000000,0.000000,TRUE,-0.071899,0.272644,0.000000,-0.288269,0.913589,0.000000,0.017000,-0.004000,0.177000,-0.640000,0.360000,2.570000,0.199359,Hold,0.918945,0.000000,Hold,-84.000000,2.000000,LowGoal,2092.500000,-2181.818182,Speed,2062.500000,-2181.818182,Speed,Off,Off,0.000000,FALSE,0,,,,,0.000000,0.000000
07:15:16.512 PM 04/04/2016,Teleop Enabled,11,FALSE,0,NO ERROR,-0.000000,-0.096250,-0.000000,-0.096250,TRUE,FALSE,TRUE,FALSE,FALSE,FALSE,Disabled,0.000000,0.000000,0.000000,TRUE,-0.085129,0.314789,0.000000,-0.242752,0.744400,0.000000,0.029000,-0.237000,0.325000,-0.640000,0.360000,2.630000,0.191420,Hold,0.918945,0.000000,Hold,-84.000000,2.000000,LowGoal,2092.500000,-2181.818182,Speed,2062.500000,-2181.818182,Speed,Off,Off,0.000000,FALSE,0,,,,,0.000000,0.000000
07:15:16.612 PM 04/04/2016,Teleop Enabled,9,FALSE,0,NO ERROR,-0.000000,-0.096250,-0.000000,-0.096250,TRUE,FALSE,TRUE,FALSE,FALSE,FALSE,Disabled,0.000000,0.000000,0.000000,TRUE,-0.095581,0.344055,0.000000,-0.183228,0.509460,0.000000,-0.009000,-0.059000,-0.002000,-0.630000,0.350000,2.660000,0.195055,Hold,0.918945,0.000000,Hold,-86.000000,2.000000,LowGoal,2100.000000,-2181.818182,Speed,2070.000000,-2181.818182,Speed,Off,Off,0.000000,FALSE,0,,,,,0.000000,0.000000
07:15:16.713 PM 04/04/2016,Teleop Enabled,9,FALSE,0,NO ERROR,-0.000000,-0.096250,-0.000000,-0.096250,TRUE,FALSE,TRUE,FALSE,FALSE,FALSE,Disabled,0.000000,0.000000,0.000000,TRUE,-0.104584,0.354889,0.000000,-0.136703,0.068039,0.000000,-0.009000,-0.059000,-0.002000,-0.630000,0.310000,2.580000,0.204233,Hold,0.918945,0.000000,Hold,-88.000000,2.000000,LowGoal,2107.500000,-2181.818182,Speed,2070.000000,-2181.818182,Speed,Off,Off,0.000000,FALSE,0,,,,,0.000000,0.000000
07:15:16.814 PM 04/04/2016,Teleop Enabled,9,FALSE,0,NO ERROR,-0.000000,-0.096250,-0.000000,-0.096250,TRUE,FALSE,TRUE,FALSE,FALSE,FALSE,Disabled,0.000000,0.000000,0.000000,TRUE,-0.111649,0.363022,0.000000,-0.194992,0.290802,0.000000,-0.045000,0.315000,-0.162000,-0.630000,0.350000,2.530000,0.192339,Hold,0.918945,0.000000,HighGoal,-88.000000,77824.000000,HighGoal,2100.000000,-2181.818182,Speed,2100.000000,-2181.818182,Speed,Off,Off,0.000000,FALSE,0,,,,,0.000000,0.000000
07:15:16.915 PM 04/04/2016,Teleop Enabled,10,FALSE,0,NO ERROR,-0.000000,-0.096250,-0.000000,-0.096250,TRUE,FALSE,TRUE,FALSE,FALSE,FALSE,Disabled,0.000000,0.000000,0.000000,TRUE,-0.121460,0.385361,0.000000,-0.200684,0.523041,0.000000,-0.091000,0.117000,0.052000,-0.630000,0.410000,2.520000,0.193864,Hold,0.918945,0.000000,Hold,-89.000000,77824.000000,HighGoal,2100.000000,-3272.727273,Speed,2092.500000,-3272.727273,Speed,Off,Off,0.000000,FALSE,0,,,,,0.000000,0.000000
07:15:17.015 PM 04/04/2016,Teleop Enabled,10,FALSE,0,NO ERROR,-0.000000,-0.096250,-0.000000,-0.096250,TRUE,FALSE,TRUE,FALSE,FALSE,FALSE,Disabled,0.000000,0.000000,0.000000,TRUE,-0.133179,0.415619,0.000000,0.000000,0.441467,0.000000,-0.016000,-0.037000,-0.035000,-0.620000,0.360000,2.610000,0.196525,Hold,0.918945,0.000000,Hold,-8585.000000,77824.000000,HighGoal,2107.500000,-3272.727273,Speed,2092.500000,-3272.727273,Speed,Off,Off,0.000000,FALSE,0,,,,,0.000000,0.000000
07:15:17.116 PM 04/04/2016,Teleop Enabled,10,FALSE,0,NO ERROR,-0.000000,-0.096250,-0.000000,-0.089833,TRUE,FALSE,TRUE,FALSE,FALSE,FALSE,Disabled,0.000000,0.000000,0.000000,TRUE,-0.135605,0.443756,0.000000,-0.061417,0.508347,0.000000,-0.016000,-0.037000,-0.035000,-0.620000,0.360000,2.610000,0.147393,Hold,0.918945,0.000000,Hold,-8585.000000,77824.000000,HighGoal,2265.000000,-3272.727273,Speed,2257.500000,-3272.727273,Speed,Off,Off,0.000000,FALSE,0,,,,,0.000000,0.000000
07:15:17.216 PM 04/04/2016,Teleop Enabled,10,FALSE,0,NO ERROR,-0.000000,-0.096250,-0.000000,-0.089833,TRUE,FALSE,TRUE,FALSE,FALSE,FALSE,Disabled,0.000000,0.000000,0.000000,TRUE,-0.135605,0.443756,0.000000,-0.061417,0.508347,0.000000,0.102000,-0.056000,0.147000,-0.680000,0.430000,2.650000,0.173164,Hold,0.918945,0.000000,Hold,-21238.000000,77824.000000,HighGoal,2497.500000,-3272.727273,Speed,2482.500000,-3272.727273,Speed,Off,Off,0.000000,FALSE,0,,,,,0.000000,0.000000
07:15:17.316 PM 04/04/2016,Teleop Enabled,10,FALSE,0,NO ERROR,-0.000000,-0.096250,-0.000000,-0.089833,TRUE,FALSE,TRUE,FALSE,FALSE,FALSE,Disabled,0.000000,0.000000,0.000000,TRUE,-0.138992,0.467621,0.000000,-0.063156,0.452118,0.000000,-0.060000,0.167000,0.216000,-0.670000,0.400000,2.690000,0.208894,Hold,0.918945,0.000000,Hold,-31495.000000,77824.000000,HighGoal,2685.000000,-3272.727273,Speed,2662.500000,-3272.727273,Speed,Off,Off,0.000000,FALSE,0,,,,,0.000000,0.000000
07:15:17.416 PM 04/04/2016,Teleop Enabled,9,FALSE,0,NO ERROR,-0.000000,-0.096250,-0.000000,-0.089833,TRUE,FALSE,TRUE,FALSE,FALSE,FALSE,Disabled,0.000000,0.000000,0.000000,TRUE,-0.143600,0.490295,0.000000,-0.118027,0.467407,0.000000,0.099000,0.209000,0.055000,-0.640000,0.240000,2.650000,0.155493,Hold,0.918945,0.000000,Hold,-43799.000000,77824.000000,HighGoal,2880.000000,-3272.727273,Speed,2827.500000,-3272.727273,Speed,Off,Off,0.000000,FALSE,0,,,,,0.000000,0.000000
07:15:17.516 PM 04/04/2016,Teleop Enabled,10,FALSE,0,NO ERROR,-0.000000,-0.096250,-0.000000,-0.096250,TRUE,FALSE,TRUE,FALSE,FALSE,FALSE,Disabled,0.000000,0.000000,0.000000,TRUE,-0.152191,0.533707,0.000000,-0.058075,0.485031,0.000000,0.109000,-0.211000,-0.016000,-0.660000,0.220000,2.620000,0.164279,Hold,0.918945,0.000000,Hold,-57218.000000,77824.000000,HighGoal,3045.000000,-3272.727273,Speed,2947.500000,-3272.727273,Speed,Off,Off,0.000000,FALSE,0,,,,,0.000000,0.000000
07:15:17.616 PM 04/04/2016,Teleop Enabled,10,FALSE,0,NO ERROR,-0.000000,-0.096250,-0.000000,-0.096250,TRUE,FALSE,TRUE,FALSE,FALSE,FALSE,Disabled,0.000000,0.000000,0.000000,TRUE,-0.152191,0.533707,0.000000,-0.058075,0.485031,0.000000,0.109000,-0.211000,-0.016000,-0.660000,0.220000,2.620000,0.195196,Hold,0.918945,0.000000,Hold,-73244.000000,77824.000000,HighGoal,3150.000000,-3272.727273,Speed,3090.000000,-3272.727273,Speed,Off,Off,0.000000,FALSE,0,,,,,0.000000,0.000000
07:15:17.716 PM 04/04/2016,Teleop Enabled,9,FALSE,0,NO ERROR,-0.000000,-0.109083,-0.000000,-0.096250,TRUE,FALSE,TRUE,FALSE,FALSE,FALSE,Disabled,0.000000,0.000000,0.000000,TRUE,-0.164108,0.584381,0.000000,-0.126617,0.443649,0.000000,0.164000,0.172000,-0.092000,-0.590000,0.190000,2.630000,0.140656,Hold,0.918945,0.000000,Hold,-78168.000000,77824.000000,HighGoal,3180.000000,-3272.727273,Speed,3142.500000,-3272.727273,Speed,Off,Off,0.000000,FALSE,0,,,,,0.000000,0.000000
07:15:17.818 PM 04/04/2016,Teleop Enabled,11,FALSE,0,NO ERROR,-0.000000,-0.096250,-0.000000,-0.096250,TRUE,FALSE,TRUE,FALSE,FALSE,FALSE,Disabled,0.000000,0.000000,0.000000,TRUE,-0.164108,0.584381,0.000000,-0.126617,0.443649,0.000000,-0.138000,0.299000,-0.073000,-0.650000,0.310000,2.560000,0.203221,Hold,0.918945,0.000000,Hold,-78168.000000,77824.000000,HighGoal,3180.000000,-3272.727273,Speed,3150.000000,-3272.727273,Speed,Off,Off,0.000000,FALSE,0,,,,,0.000000,0.000000
07:15:17.918 PM 04/04/2016,Teleop Enabled,12,FALSE,0,NO ERROR,-0.000000,-0.070583,-0.000000,-0.070583,TRUE,FALSE,TRUE,FALSE,FALSE,FALSE,Disabled,0.000000,0.000000,0.000000,TRUE,-0.180389,0.629639,0.000000,-0.108978,0.448837,0.000000,0.096000,0.013000,0.138000,-0.560000,0.160000,2.650000,0.117766,Hold,0.918945,0.000000,Hold,-77919.000000,77824.000000,HighGoal,3195.000000,-3272.727273,Speed,3172.500000,-3272.727273,Speed,Off,Off,0.000000,FALSE,0,,,,,0.000000,0.000000
07:15:18.020 PM 04/04/2016,Teleop Enabled,10,FALSE,0,NO ERROR,-0.000000,-0.083416,-0.000000,-0.109083,TRUE,FALSE,TRUE,FALSE,FALSE,FALSE,Disabled,0.000000,0.000000,0.000000,TRUE,-0.180389,0.629639,0.000000,-0.108978,0.448837,0.000000,-0.067000,-0.069000,0.276000,-0.660000,0.360000,2.640000,0.160413,Hold,0.918945,0.000000,Hold,-77915.000000,77824.000000,HighGoal,3202.500000,-3272.727273,Speed,3157.500000,-3272.727273,Speed,Off,Off,0.000000,FALSE,0,,,,,0.000000,0.000000
07:15:18.121 PM 04/04/2016,Teleop Enabled,10,FALSE,0,NO ERROR,-0.000000,-0.083416,-0.000000,-0.083416,TRUE,FALSE,TRUE,FALSE,FALSE,FALSE,Disabled,0.000000,0.000000,0.000000,TRUE,-0.193039,0.675507,0.000000,-0.141418,0.452988,0.000000,-0.104000,-0.184000,0.020000,-0.610000,0.220000,2.670000,0.120438,Hold,0.918945,0.000000,Hold,-77915.000000,77824.000000,HighGoal,3202.500000,-3272.727273,Speed,3142.500000,-3272.727273,Speed,Off,Off,0.000000,FALSE,0,,,,,0.000000,0.000000
07:15:18.221 PM 04/04/2016,Teleop Enabled,8,FALSE,0,NO ERROR,-0.000000,-0.083416,-0.000000,-0.077000,TRUE,FALSE,TRUE,FALSE,FALSE,FALSE,Disabled,0.000000,0.000000,0.000000,TRUE,-0.198975,0.697678,0.000000,-0.113510,0.424988,0.000000,0.083000,0.091000,0.130000,-0.660000,0.130000,2.570000,0.111253,Hold,0.918945,0.000000,Hold,-77915.000000,77824.000000,HighGoal,3202.500000,-3272.727273,Speed,3165.000000,-3272.727273,Speed,Off,Off,0.000000,FALSE,0,,,,,0.000000,0.000000
07:15:18.321 PM 04/04/2016,Teleop Enabled,10,FALSE,0,NO ERROR,-0.000000,-0.083416,-0.000000,-0.077000,TRUE,FALSE,TRUE,FALSE,FALSE,FALSE,Disabled,0.000000,0.000000,0.000000,TRUE,-0.206879,0.719208,0.000000,-0.160568,0.428375,0.000000,-0.156000,0.195000,0.046000,-0.660000,0.220000,2.590000,0.112637,Hold,0.918945,0.000000,Hold,-77915.000000,77824.000000,HighGoal,3202.500000,-3272.727273,Speed,3150.000000,-3272.727273,Speed,Off,Off,0.000000,FALSE,0,,,,,0.000000,0.000000
07:15:18.422 PM 04/04/2016,Teleop Enabled,10,FALSE,0,NO ERROR,-0.000000,-0.083416,-0.000000,-0.077000,TRUE,FALSE,TRUE,FALSE,FALSE,FALSE,Disabled,0.000000,0.000000,0.000000,TRUE,-0.206879,0.719208,0.000000,-0.160568,0.428375,0.000000,-0.039000,-0.160000,0.054000,-0.650000,0.150000,2.540000,0.115890,Hold,0.918945,0.000000,Hold,-77915.000000,77824.000000,HighGoal,3195.000000,-3272.727273,Speed,3165.000000,-3272.727273,Speed,Off,Off,0.000000,FALSE,0,,,,,0.000000,0.000000
07:15:18.522 PM 04/04/2016,Teleop Enabled,10,FALSE,0,NO ERROR,-0.000000,-0.083416,-0.000000,-0.077000,TRUE,FALSE,TRUE,FALSE,FALSE,FALSE,Disabled,0.000000,0.000000,0.000000,TRUE,-0.214874,0.741058,0.000000,-0.153671,0.448456,0.000000,-0.078000,0.015000,-0.035000,-0.640000,0.140000,2.600000,0.113921,Hold,0.918945,0.000000,Hold,-77915.000000,77824.000000,HighGoal,3195.000000,-3272.727273,Speed,3127.500000,-3272.727273,Speed,Off,Off,0.000000,FALSE,0,,,,,0.000000,0.000000
07:15:18.623 PM 04/04/2016,Teleop Enabled,9,FALSE,0,NO ERROR,-0.000000,-0.083416,-0.000000,-0.077000,TRUE,FALSE,TRUE,FALSE,FALSE,FALSE,Disabled,0.000000,0.000000,0.000000,TRUE,-0.234573,0.741089,0.000000,-0.200668,-0.003983,0.000000,-0.184000,0.249000,0.006000,-0.640000,0.130000,2.560000,0.106017,Hold,0.918945,0.000000,Hold,-77915.000000,77824.000000,HighGoal,3195.000000,-3272.727273,Speed,3142.500000,-3272.727273,Speed,Off,Off,0.000000,FALSE,0,,,,,0.000000,0.000000
07:15:18.723 PM 04/04/2016,Teleop Enabled,9,FALSE,0,NO ERROR,-0.000000,-0.083416,-0.000000,-0.077000,TRUE,FALSE,TRUE,FALSE,FALSE,FALSE,Disabled,0.000000,0.000000,0.000000,TRUE,-0.234573,0.741089,0.000000,-0.200668,-0.003983,0.000000,0.122000,-0.172000,-0.029000,-0.640000,0.130000,2.630000,0.116992,Hold,0.918945,0.000000,Hold,-77915.000000,77824.000000,HighGoal,3195.000000,-3272.727273,Speed,3157.500000,-3272.727273,Speed,Off,Off,0.000000,FALSE,0,,,,,0.000000,0.000000
07:15:18.823 PM 04/04/2016,Teleop Enabled,9,FALSE,0,NO ERROR,-0.000000,-0.083416,-0.000000,-0.077000,TRUE,FALSE,TRUE,FALSE,FALSE,FALSE,Disabled,0.000000,0.000000,0.000000,TRUE,-0.243393,0.740280,0.000000,-0.175293,-0.017288,0.000000,-0.023000,-0.145000,0.055000,-0.640000,0.130000,2.610000,0.102406,Hold,0.918945,0.000000,Hold,-77915.000000,77824.000000,HighGoal,3195.000000,-3272.727273,Speed,3172.500000,-3272.727273,Speed,Off,Off,0.000000,FALSE,0,,,,,0.000000,0.000000
07:15:18.924 PM 04/04/2016,Teleop Enabled,10,FALSE,0,NO ERROR,-0.000000,-0.083416,-0.000000,-0.077000,TRUE,FALSE,TRUE,FALSE,FALSE,FALSE,Disabled,0.000000,0.000000,0.000000,TRUE,-0.252655,0.739136,0.000000,-0.197235,-0.026428,0.000000,0.053000,0.341000,0.161000,-0.640000,0.150000,2.550000,0.102406,Hold,0.918945,0.000000,Hold,-77915.000000,77824.000000,HighGoal,3202.500000,-3272.727273,Speed,3165.000000,-3272.727273,Speed,Off,Off,0.000000,FALSE,0,,,,,0.000000,0.000000
07:15:19.026 PM 04/04/2016,Teleop Enabled,11,FALSE,0,NO ERROR,-0.000000,-0.083416,-0.000000,-0.077000,TRUE,FALSE,TRUE,FALSE,FALSE,FALSE,Disabled,0.000000,0.000000,0.000000,TRUE,-0.264206,0.738922,0.000000,-0.185547,0.011826,0.000000,0.122000,-0.193000,0.056000,-0.640000,0.140000,2.630000,0.083448,Hold,0.918945,0.000000,Hold,-77915.000000,77824.000000,HighGoal,3195.000000,-3272.727273,Speed,3165.000000,-3272.727273,Speed,Off,Off,0.000000,FALSE,0,,,,,0.000000,0.000000
07:15:19.126 PM 04/04/2016,Teleop Enabled,10,FALSE,0,NO ERROR,-0.000000,-0.083416,-0.000000,-0.077000,TRUE,FALSE,TRUE,FALSE,FALSE,FALSE,Disabled,0.000000,0.000000,0.000000,TRUE,-0.274902,0.739304,0.000000,-0.227432,0.004379,0.000000,0.016000,0.071000,-0.034000,-0.640000,0.140000,2.620000,0.093207,Hold,0.918945,0.000000,Hold,-77915.000000,77824.000000,HighGoal,3202.500000,-3272.727273,Speed,3157.500000,-3272.727273,Speed,Off,Off,0.000000,FALSE,0,,,,,0.000000,0.000000
07:15:19.226 PM 04/04/2016,Teleop Enabled,10,FALSE,0,NO ERROR,-0.314961,-0.083416,-0.314961,-0.077000,TRUE,FALSE,TRUE,FALSE,FALSE,FALSE,Disabled,0.000000,0.000000,0.000000,TRUE,-0.288284,0.739395,0.000000,-0.278641,-0.005234,0.000000,0.039000,-0.323000,0.181000,-0.640000,0.130000,2.620000,0.077055,Hold,0.918945,0.000000,Hold,-77915.000000,77824.000000,HighGoal,3195.000000,-3272.727273,Speed,3187.500000,-3272.727273,Speed,Off,Off,0.000000,FALSE,0,,,,,0.000000,0.000000
07:15:19.326 PM 04/04/2016,Teleop Enabled,11,FALSE,0,NO ERROR,-0.000000,-0.083416,-0.000000,-0.109083,TRUE,FALSE,TRUE,FALSE,FALSE,FALSE,Disabled,0.000000,0.000000,0.000000,TRUE,-0.301086,0.739273,0.000000,-0.237473,0.010101,0.000000,0.167000,-0.224000,-0.016000,-0.640000,0.150000,2.580000,0.069529,Hold,0.918945,0.000000,Hold,-77915.000000,77824.000000,HighGoal,3187.500000,-3272.727273,Speed,3187.500000,-3272.727273,Speed,Off,Off,0.000000,FALSE,0,,,,,0.000000,0.000000
07:15:19.427 PM 04/04/2016,Teleop Enabled,10,FALSE,0,NO ERROR,-0.000000,0.577499,-0.000000,-0.705832,FALSE,FALSE,TRUE,FALSE,FALSE,FALSE,Disabled,0.000000,0.000000,0.000000,TRUE,-0.312164,0.743866,0.000000,-0.207535,0.125000,0.000000,-0.046000,0.087000,-0.191000,1.540000,0.170000,3.160000,1.562980,Hold,0.918945,0.000000,Hold,-77915.000000,77824.000000,HighGoal,3187.500000,-3272.727273,Speed,3187.500000,-3272.727273,Speed,Off,Off,0.000000,FALSE,0,,,,,0.000000,0.000000
07:15:19.527 PM 04/04/2016,Teleop Enabled,10,FALSE,0,NO ERROR,-0.000000,0.571082,-0.000000,-0.712248,TRUE,FALSE,TRUE,FALSE,FALSE,FALSE,Disabled,0.000000,0.000000,0.000000,TRUE,-0.322968,0.744858,0.000000,-0.317932,-0.035797,0.000000,-0.102000,-0.164000,0.116000,1.590000,-0.120000,2.430000,2.201478,Hold,0.918945,0.000000,Hold,-77915.000000,77824.000000,HighGoal,3187.500000,-3272.727273,Speed,3165.000000,-3272.727273,Speed,Off,Off,0.000000,FALSE,0,,,,,0.000000,0.000000
07:15:19.627 PM 04/04/2016,Teleop Enabled,11,FALSE,0,NO ERROR,-0.000000,0.494082,-0.000000,-0.660915,TRUE,FALSE,TRUE,FALSE,FALSE,FALSE,Disabled,0.000000,0.000000,0.000000,TRUE,-0.338470,0.744263,0.000000,-0.277634,0.029678,0.000000,-0.187000,-0.040000,-0.042000,1.100000,0.100000,2.700000,1.764993,Hold,0.918945,0.000000,Hold,-77915.000000,77824.000000,HighGoal,3195.000000,-3272.727273,Speed,3180.000000,-3272.727273,Speed,Off,Off,0.000000,FALSE,0,,,,,0.000000,0.000000
07:15:19.728 PM 04/04/2016,Teleop Enabled,11,FALSE,0,NO ERROR,0.307087,0.500499,0.307087,-0.654498,TRUE,FALSE,TRUE,FALSE,FALSE,FALSE,Disabled,0.000000,0.000000,0.000000,TRUE,-0.354050,0.745148,0.000000,-0.307892,0.018646,0.000000,0.048000,0.145000,-0.004000,1.060000,0.110000,2.630000,1.731720,Hold,0.918945,0.000000,Hold,-77915.000000,77824.000000,HighGoal,3210.000000,-3272.727273,Speed,3187.500000,-3272.727273,Speed,Off,Off,0.000000,FALSE,0,,,,,0.000000,0.000000
07:15:19.831 PM 04/04/2016,Teleop Enabled,11,FALSE,0,NO ERROR,-0.000000,-0.083416,-0.000000,-0.083416,TRUE,FALSE,TRUE,FALSE,FALSE,FALSE,Disabled,0.000000,0.000000,0.000000,TRUE,-0.372543,0.745102,0.000000,-0.322891,-0.042725,0.000000,-0.303000,-0.370000,0.022000,0.460000,-0.190000,2.290000,1.558343,Hold,0.918945,0.000000,Hold,-77915.000000,77824.000000,HighGoal,3217.500000,-3272.727273,Speed,3180.000000,-3272.727273,Speed,Off,Off,0.000000,FALSE,0,,,,,0.000000,0.000000
07:15:19.933 PM 04/04/2016,Teleop Enabled,9,FALSE,0,NO ERROR,-0.000000,-0.301583,-0.000000,0.237416,TRUE,FALSE,TRUE,FALSE,FALSE,FALSE,Disabled,0.000000,0.000000,0.000000,TRUE,-0.389038,0.742004,0.000000,-0.271439,-0.023285,0.000000,0.126000,0.212000,0.053000,-1.710000,-0.220000,2.240000,-0.949371,Hold,0.918945,0.000000,Hold,-77915.000000,77824.000000,HighGoal,3210.000000,-3272.727273,Speed,3187.500000,-3272.727273,Speed,Off,Off,0.000000,FALSE,0,,,,,0.000000,0.000000
07:15:20.033 PM 04/04/2016,Teleop Enabled,10,FALSE,0,NO ERROR,-0.000000,-0.243833,-0.000000,0.173250,TRUE,FALSE,TRUE,FALSE,FALSE,FALSE,Disabled,0.000000,0.000000,0.000000,TRUE,-0.400482,0.745300,0.000000,-0.231796,0.084442,0.000000,0.000000,-0.288000,0.122000,-0.960000,0.170000,2.680000,-0.287609,Hold,0.918945,0.000000,Hold,-77915.000000,77824.000000,HighGoal,3210.000000,-3272.727273,Speed,3172.500000,-3272.727273,Speed,Off,Off,0.000000,FALSE,0,,,,,0.000000,0.000000
07:15:20.133 PM 04/04/2016,Teleop Enabled,10,FALSE,0,NO ERROR,-0.000000,-0.243833,-0.000000,0.173250,TRUE,FALSE,TRUE,FALSE,FALSE,FALSE,Disabled,0.000000,0.000000,0.000000,TRUE,-0.413422,0.746094,0.000000,-0.286789,0.018646,0.000000,0.043000,0.232000,-0.031000,-1.140000,0.070000,2.590000,-0.417321,Hold,0.918945,0.000000,Hold,-77915.000000,77824.000000,HighGoal,3225.000000,-3272.727273,Speed,3165.000000,-3272.727273,Speed,Off,Off,0.000000,FALSE,0,,,,,0.000000,0.000000
07:15:20.234 PM 04/04/2016,Teleop Enabled,10,FALSE,0,NO ERROR,-0.228346,-0.243833,-0.228346,0.173250,TRUE,FALSE,TRUE,FALSE,FALSE,FALSE,Disabled,0.000000,0.000000,0.000000,TRUE,-0.428635,0.748016,0.000000,-0.299515,0.044479,0.000000,-0.084000,-0.103000,0.160000,-1.100000,0.050000,2.560000,-0.402201,Hold,0.918945,0.000000,Hold,-77915.000000,77824.000000,HighGoal,3225.000000,-3272.727273,Speed,3180.000000,-3272.727273,Speed,Off,Off,0.000000,FALSE,0,,,,,0.000000,0.000000
07:15:20.335 PM 04/04/2016,Teleop Enabled,9,FALSE,0,NO ERROR,-0.000000,0.288749,-0.000000,-0.275916,TRUE,FALSE,TRUE,FALSE,FALSE,FALSE,Disabled,0.000000,0.000000,0.000000,TRUE,-0.442978,0.751282,0.000000,-0.261444,0.067032,0.000000,0.406000,0.328000,0.126000,-0.870000,0.230000,2.790000,-0.317428,Hold,0.918945,0.000000,Hold,-77915.000000,77824.000000,HighGoal,3225.000000,-3272.727273,Speed,3172.500000,-3272.727273,Speed,Off,Off,0.000000,FALSE,0,,,,,0.000000,0.000000
07:15:20.436 PM 04/04/2016,Teleop Enabled,10,FALSE,0,NO ERROR,-0.000000,0.660915,-0.000000,-0.564665,TRUE,FALSE,TRUE,FALSE,FALSE,FALSE,Disabled,0.000000,0.000000,0.000000,TRUE,-0.453232,0.756470,0.000000,-0.240463,0.071320,0.000000,-0.262000,-0.135000,0.140000,1.470000,0.070000,2.680000,1.996756,Hold,0.918945,0.000000,Hold,-77915.000000,77824.000000,HighGoal,3217.500000,-3272.727273,Speed,3165.000000,-3272.727273,Speed,Off,Off,0.000000,FALSE,0,,,,,0.000000,0.000000
07:15:20.537 PM 04/04/2016,Teleop Enabled,10,FALSE,0,NO ERROR,-0.000000,0.564665,-0.000000,-0.423499,TRUE,FALSE,TRUE,FALSE,FALSE,FALSE,Disabled,0.000000,0.000000,0.000000,TRUE,-0.468140,0.757523,0.000000,-0.303391,0.037155,0.000000,0.006000,-0.191000,0.046000,0.720000,0.040000,2.640000,1.370885,Hold,0.918945,0.000000,Hold,-77915.000000,77824.000000,HighGoal,3225.000000,-3272.727273,Speed,3172.500000,-3272.727273,Speed,Off,Off,0.000000,FALSE,0,,,,,0.000000,0.000000
07:15:20.638 PM 04/04/2016,Teleop Enabled,10,FALSE,0,NO ERROR,-0.000000,0.558249,-0.000000,-0.423499,TRUE,FALSE,TRUE,FALSE,FALSE,FALSE,Disabled,0.000000,0.000000,0.000000,TRUE,-0.484772,0.757935,0.000000,-0.254410,0.003784,0.000000,-0.103000,-0.110000,0.150000,0.700000,0.120000,2.640000,1.376744,Hold,0.918945,0.000000,Hold,-77915.000000,77824.000000,HighGoal,3225.000000,-3272.727273,Speed,3180.000000,-3272.727273,Speed,Off,Off,0.000000,FALSE,0,,,,,0.000000,0.000000
07:15:20.738 PM 04/04/2016,Teleop Enabled,10,FALSE,0,NO ERROR,-0.000000,0.551832,-0.000000,-0.423499,TRUE,FALSE,TRUE,FALSE,FALSE,FALSE,Disabled,0.000000,0.000000,0.000000,TRUE,-0.497513,0.758804,0.000000,-0.261688,0.025970,0.000000,0.126000,0.175000,-0.034000,0.680000,0.090000,2.610000,1.350629,Hold,0.918945,0.000000,Hold,-77915.000000,77824.000000,HighGoal,3225.000000,-3272.727273,Speed,3180.000000,-3272.727273,Speed,Off,Off,0.000000,FALSE,0,,,,,0.000000,0.000000
07:15:20.839 PM 04/04/2016,Teleop Enabled,10,FALSE,0,NO ERROR,-0.000000,0.551832,-0.000000,-0.417082,TRUE,FALSE,TRUE,FALSE,FALSE,FALSE,Disabled,0.000000,0.000000,0.000000,TRUE,-0.509338,0.759735,0.000000,-0.221481,0.000412,0.000000,-0.088000,-0.086000,0.098000,0.680000,0.170000,2.590000,1.354881,Hold,0.918945,0.000000,Hold,-77915.000000,77824.000000,HighGoal,3232.500000,-3272.727273,Speed,3180.000000,-3272.727273,Speed,Off,Off,0.000000,FALSE,0,,,,,0.000000,0.000000
07:15:20.940 PM 04/04/2016,Teleop Enabled,11,FALSE,0,NO ERROR,-0.000000,0.551832,-0.000000,-0.423499,TRUE,FALSE,TRUE,FALSE,FALSE,FALSE,Disabled,0.000000,0.000000,0.000000,TRUE,-0.521774,0.759003,0.000000,-0.272308,-0.002136,0.000000,-0.081000,-0.009000,0.069000,0.680000,0.140000,2.590000,1.352116,Hold,0.918945,0.000000,Hold,-77915.000000,77824.000000,HighGoal,3232.500000,-3272.727273,Speed,3187.500000,-3272.727273,Speed,Off,Off,0.000000,FALSE,0,,,,,0.000000,0.000000
07:15:21.041 PM 04/04/2016,Teleop Enabled,9,FALSE,0,NO ERROR,-0.000000,0.551832,-0.000000,-0.417082,TRUE,FALSE,TRUE,FALSE,FALSE,FALSE,Disabled,0.000000,0.000000,0.000000,TRUE,-0.537292,0.759552,0.000000,-0.325439,0.007904,0.000000,-0.043000,-0.122000,0.014000,0.680000,0.140000,2.600000,1.342033,Hold,0.918945,0.000000,Hold,-77915.000000,77824.000000,HighGoal,3225.000000,-3272.727273,Speed,3202.500000,-3272.727273,Speed,Off,Off,0.000000,FALSE,0,,,,,0.000000,0.000000
07:15:21.140 PM 04/04/2016,Teleop Enabled,10,FALSE,0,NO ERROR,-0.000000,0.551832,-0.000000,-0.417082,TRUE,FALSE,TRUE,FALSE,FALSE,FALSE,Disabled,0.000000,0.000000,0.000000,TRUE,-0.553970,0.759857,0.000000,-0.337540,0.002533,0.000000,-0.090000,-0.113000,0.176000,0.680000,0.150000,2.590000,1.319842,Hold,0.919189,0.000000,Hold,-77915.000000,77824.000000,HighGoal,3217.500000,-3272.727273,Speed,3180.000000,-3272.727273,Speed,Off,Off,0.000000,FALSE,0,,,,,0.000000,0.000000
07:15:21.240 PM 04/04/2016,Teleop Enabled,10,FALSE,0,NO ERROR,-0.000000,0.551832,-0.000000,-0.417082,TRUE,FALSE,TRUE,FALSE,FALSE,FALSE,Disabled,0.000000,0.000000,0.000000,TRUE,-0.569504,0.760742,0.000000,-0.286057,0.026871,0.000000,0.036000,0.091000,-0.049000,0.680000,0.150000,2.560000,1.305848,Hold,0.919189,0.000000,Hold,-77915.000000,77824.000000,HighGoal,3217.500000,-3272.727273,Speed,3180.000000,-3272.727273,Speed,Off,Off,0.000000,FALSE,0,,,,,0.000000,0.000000
07:15:21.341 PM 04/04/2016,Teleop Enabled,11,FALSE,0,NO ERROR,-0.000000,0.551832,-0.000000,-0.417082,TRUE,FALSE,TRUE,FALSE,FALSE,FALSE,Disabled,0.000000,0.000000,0.000000,TRUE,-0.583954,0.761795,0.000000,-0.292374,0.019470,0.000000,-0.048000,-0.003000,-0.014000,0.690000,0.140000,2.610000,1.303380,Hold,0.919189,0.000000,Hold,-77915.000000,77824.000000,HighGoal,3225.000000,-3272.727273,Speed,3180.000000,-3272.727273,Speed,Off,Off,0.000000,FALSE,0,,,,,0.000000,0.000000
07:15:21.441 PM 04/04/2016,Teleop Enabled,9,FALSE,0,NO ERROR,-0.000000,0.551832,-0.000000,-0.417082,TRUE,FALSE,TRUE,FALSE,FALSE,FALSE,Disabled,0.000000,0.000000,0.000000,TRUE,-0.602646,0.761627,0.000000,-0.331757,-0.014359,0.000000,-0.081000,-0.204000,0.072000,0.690000,0.140000,2.600000,1.305191,Hold,0.919189,0.000000,Hold,-77915.000000,77824.000000,HighGoal,3225.000000,-3272.727273,Speed,3187.500000,-3272.727273,Speed,Off,Off,0.000000,FALSE,0,,,,,0.000000,0.000000
07:15:21.542 PM 04/04/2016,Teleop Enabled,11,FALSE,0,NO ERROR,-0.000000,0.551832,-0.000000,-0.417082,TRUE,FALSE,TRUE,FALSE,FALSE,FALSE,Disabled,0.000000,0.000000,0.000000,TRUE,-0.617416,0.760849,0.000000,-0.382492,-0.023438,0.000000,0.035000,0.244000,0.006000,0.690000,0.170000,2.530000,1.307807,Hold,0.919189,0.000000,Hold,-77915.000000,77824.000000,HighGoal,3225.000000,-3272.727273,Speed,3180.000000,-3272.727273,Speed,Off,Off,0.000000,FALSE,0,,,,,0.000000,0.000000
07:15:21.642 PM 04/04/2016,Teleop Enabled,9,FALSE,0,NO ERROR,-0.000000,0.551832,-0.000000,-0.417082,TRUE,FALSE,TRUE,FALSE,FALSE,FALSE,Disabled,0.000000,0.000000,0.000000,TRUE,-0.640625,0.760040,0.000000,-0.379608,-0.005249,0.000000,0.029000,-0.148000,0.116000,0.670000,0.170000,2.620000,1.303528,Hold,0.919189,0.000000,Hold,-77915.000000,77824.000000,HighGoal,3217.500000,-3272.727273,Speed,3172.500000,-3272.727273,Speed,Off,Off,0.000000,FALSE,0,,,,,0.000000,0.000000
07:15:21.742 PM 04/04/2016,Teleop Enabled,11,FALSE,0,NO ERROR,0.000000,0.551832,-0.000000,-0.417082,TRUE,FALSE,TRUE,TRUE,TRUE,FALSE,Disabled,0.000000,0.000000,0.000000,TRUE,-0.658157,0.759552,0.000000,-0.324783,-0.007904,0.000000,0.086000,0.054000,0.146000,0.680000,0.140000,2.600000,1.304478,Hold,0.919189,0.000000,Hold,-77915.000000,77824.000000,HighGoal,3217.500000,-3272.727273,Speed,3180.000000,-3272.727273,Speed,Off,Off,0.000000,FALSE,0,,,,,0.000000,0.000000
07:15:21.843 PM 04/04/2016,Teleop Enabled,8,FALSE,0,NO ERROR,0.000000,0.551832,-0.000000,-0.397832,TRUE,FALSE,TRUE,TRUE,TRUE,FALSE,Disabled,0.000000,0.000000,0.000000,TRUE,-0.658157,0.759552,0.000000,-0.324783,-0.007904,0.000000,0.086000,0.054000,0.146000,0.680000,0.140000,2.600000,1.274738,Hold,4.266602,45.000000,Hold,-77915.000000,77824.000000,HighGoal,3217.500000,-3272.727273,Speed,3195.000000,-3272.727273,Speed,Off,Off,0.000000,FALSE,0,,,,,0.000000,0.000000
07:15:21.944 PM 04/04/2016,Teleop Enabled,8,FALSE,0,NO ERROR,0.000000,0.577499,-0.000000,-0.340083,TRUE,FALSE,TRUE,TRUE,TRUE,FALSE,Disabled,0.000000,0.000000,0.000000,TRUE,-0.684372,0.758255,0.000000,-0.307220,-0.051544,0.000000,-0.068000,0.192000,-0.065000,0.640000,0.150000,2.540000,1.247810,Hold,4.266602,45.000000,Hold,-77915.000000,77824.000000,HighGoal,3217.500000,-3272.727273,Speed,3187.500000,-3272.727273,Speed,Off,Off,0.000000,FALSE,0,,,,,0.000000,0.000000
07:15:22.045 PM 04/04/2016,Teleop Enabled,9,FALSE,0,NO ERROR,0.000000,0.583915,-0.000000,-0.301583,TRUE,FALSE,TRUE,TRUE,TRUE,FALSE,Enable,0.031250,-1.294638,1.834637,TRUE,-0.708359,0.753967,0.000000,-0.362518,-0.049881,0.000000,0.100000,0.014000,0.018000,0.540000,0.110000,2.530000,1.158879,Hold,12.569824,45.000000,Hold,-77915.000000,77824.000000,HighGoal,3225.000000,-3272.727273,Speed,3165.000000,-3272.727273,Speed,Off,Off,0.000000,FALSE,0,,,,,0.000000,0.000000
07:15:22.144 PM 04/04/2016,Teleop Enabled,11,FALSE,0,NO ERROR,-0.153024,0.590332,-0.153024,-0.301583,TRUE,FALSE,TRUE,TRUE,TRUE,FALSE,PID,0.031250,-1.294638,1.834637,TRUE,-0.724625,0.753586,0.000000,-0.306992,0.006088,0.000000,0.020000,0.122000,0.166000,0.550000,0.080000,2.560000,1.176456,Hold,18.833984,45.000000,Hold,-77915.000000,77824.000000,HighGoal,3217.500000,-3272.727273,Speed,3172.500000,-3272.727273,Speed,Off,Off,0.000000,FALSE,0,,,,,0.000000,0.000000
07:15:22.244 PM 04/04/2016,Teleop Enabled,10,FALSE,0,NO ERROR,-0.152926,0.571082,-0.152926,-0.391416,TRUE,FALSE,TRUE,TRUE,TRUE,FALSE,PID,0.031250,-1.294638,1.834637,TRUE,-0.739731,0.754211,0.000000,-0.299927,0.020187,0.000000,0.014000,0.165000,-0.013000,0.520000,0.040000,2.510000,1.190905,Hold,26.121094,45.000000,Hold,-77915.000000,77824.000000,HighGoal,3210.000000,-3272.727273,Speed,3217.500000,-3272.727273,Speed,Off,Off,0.000000,FALSE,0,,,,,0.000000,0.000000
07:15:22.345 PM 04/04/2016,Teleop Enabled,11,FALSE,0,NO ERROR,-0.151463,0.692998,-0.151463,-0.622415,TRUE,FALSE,TRUE,TRUE,TRUE,FALSE,PID,0.031250,-1.294638,1.834637,TRUE,-0.752533,0.756851,0.000000,-0.245117,0.056274,0.000000,-0.145000,0.014000,-0.100000,1.270000,0.100000,2.610000,1.851759,Hold,32.579346,45.000000,Hold,-77915.000000,77824.000000,HighGoal,3210.000000,-3272.727273,Speed,3202.500000,-3272.727273,Speed,Off,Off,0.000000,FALSE,0,,,,,0.000000,0.000000
07:15:22.445 PM 04/04/2016,Teleop Enabled,11,FALSE,0,NO ERROR,-0.145586,0.692998,-0.145586,-0.635249,TRUE,FALSE,TRUE,TRUE,TRUE,FALSE,PID,0.031250,-1.294638,1.834637,TRUE,-0.767426,0.757446,0.000000,-0.247177,0.008667,0.000000,-0.105000,-0.116000,-0.018000,1.270000,-0.010000,2.580000,1.870572,Hold,32.579346,45.000000,Hold,-77915.000000,77824.000000,HighGoal,3210.000000,-3272.727273,Speed,3165.000000,-3272.727273,Speed,Off,Off,0.000000,FALSE,0,,,,,0.000000,0.000000
07:15:22.550 PM 04/04/2016,Teleop Enabled,9,FALSE,0,NO ERROR,-0.145682,0.699415,-0.145682,-0.654498,TRUE,FALSE,TRUE,TRUE,TRUE,FALSE,PID,0.031250,-1.294638,1.834637,TRUE,-0.779449,0.757339,0.000000,-0.323700,-0.005508,0.000000,-0.064000,0.089000,0.106000,1.270000,-0.010000,2.580000,1.973075,Hold,41.558594,45.000000,Hold,-77915.000000,77824.000000,HighGoal,3202.500000,-3272.727273,Speed,3157.500000,-3272.727273,Speed,Off,Off,0.000000,FALSE,0,,,,,0.000000,0.000000
07:15:22.649 PM 04/04/2016,Teleop Enabled,10,FALSE,0,NO ERROR,-0.145205,0.712248,-0.145205,-0.680165,TRUE,FALSE,TRUE,TRUE,TRUE,FALSE,PID,0.031250,-1.294638,1.834637,TRUE,-0.798203,0.759552,0.000000,-0.294632,0.057938,0.000000,0.025000,0.231000,-0.005000,1.450000,-0.200000,2.490000,2.036858,Hold,48.901123,45.000000,Hold,-77915.000000,77824.000000,HighGoal,3202.500000,-3272.727273,Speed,3157.500000,-3272.727273,Speed,Off,Off,0.000000,FALSE,0,,,,,0.000000,0.000000
07:15:22.751 PM 04/04/2016,Teleop Enabled,10,FALSE,0,NO ERROR,-0.144349,0.731498,-0.144349,-0.686582,TRUE,FALSE,TRUE,TRUE,TRUE,FALSE,PID,0.031250,-1.294638,1.834637,TRUE,-0.811600,0.761597,0.000000,-0.237839,0.039474,0.000000,0.205000,-0.192000,0.054000,1.490000,0.020000,2.520000,2.082441,Hold,49.812744,45.000000,Hold,-77915.000000,77824.000000,HighGoal,3202.500000,-3272.727273,Speed,3202.500000,-3272.727273,Speed,Off,Off,0.000000,FALSE,0,,,,,0.000000,0.000000
07:15:22.853 PM 04/04/2016,Teleop Enabled,10,FALSE,0,NO ERROR,-0.143780,0.737915,-0.143780,-0.686582,TRUE,FALSE,TRUE,TRUE,TRUE,FALSE,PID,0.031250,-1.294638,1.834637,TRUE,-0.821182,0.763687,0.000000,-0.180420,0.042435,0.000000,-0.084000,0.046000,0.199000,1.510000,0.040000,2.470000,2.108322,Hold,49.378906,45.000000,Hold,-77915.000000,77824.000000,HighGoal,3202.500000,-3272.727273,Speed,3202.500000,-3272.727273,Speed,Off,Off,0.000000,FALSE,0,,,,,0.000000,0.000000
07:15:22.954 PM 04/04/2016,Teleop Enabled,11,FALSE,0,NO ERROR,-0.143685,0.737915,-0.143685,-0.692998,TRUE,FALSE,TRUE,TRUE,TRUE,FALSE,PID,0.031250,-1.294638,1.834637,TRUE,-0.831421,0.766464,0.000000,-0.240723,0.051254,0.000000,-0.084000,0.046000,0.199000,1.530000,-0.020000,2.560000,2.116378,Hold,49.274658,45.000000,Hold,-77915.000000,77824.000000,HighGoal,3202.500000,-3272.727273,Speed,3195.000000,-3272.727273,Speed,Off,Off,0.000000,FALSE,0,,,,,0.000000,0.000000
07:15:23.054 PM 04/04/2016,Teleop Enabled,9,FALSE,0,NO ERROR,0.000000,0.686582,-0.000000,-0.635249,TRUE,FALSE,TRUE,TRUE,TRUE,FALSE,Disabled,0.000000,-1.294638,1.834637,TRUE,-0.846863,0.767654,0.000000,-0.345200,0.008804,0.000000,-0.118000,-0.209000,0.101000,1.500000,0.000000,2.560000,1.995995,Hold,49.272705,45.000000,Hold,-77915.000000,77824.000000,HighGoal,3202.500000,-3272.727273,Speed,3195.000000,-3272.727273,Speed,Off,Off,0.000000,FALSE,0,,,,,0.000000,0.000000
07:15:23.155 PM 04/04/2016,Teleop Enabled,9,FALSE,0,NO ERROR,0.000000,0.603165,-0.000000,-0.545415,TRUE,FALSE,TRUE,TRUE,TRUE,FALSE,Disabled,0.000000,-1.294638,1.834637,TRUE,-0.849152,0.768417,0.000000,0.059097,0.019363,0.000000,0.199000,-0.026000,-0.026000,1.060000,0.020000,2.510000,1.609296,Hold,49.270020,45.000000,Hold,-77915.000000,77824.000000,HighGoal,3195.000000,-3272.727273,Speed,3202.500000,-3272.727273,Speed,Off,Off,0.000000,FALSE,0,,,,,0.000000,0.000000
07:15:23.255 PM 04/04/2016,Teleop Enabled,10,FALSE,0,NO ERROR,0.000000,0.603165,-0.000000,-0.538999,TRUE,FALSE,TRUE,TRUE,TRUE,FALSE,Disabled,0.000000,-1.294638,1.834637,TRUE,-0.844223,0.770294,0.000000,0.098267,0.051407,0.000000,0.046000,0.130000,-0.017000,1.050000,0.060000,2.560000,1.630265,Hold,49.258545,45.000000,Hold,-77915.000000,77824.000000,HighGoal,3202.500000,-3272.727273,Speed,3195.000000,-3272.727273,Speed,Off,Off,0.000000,FALSE,0,,,,,0.000000,0.000000
07:15:23.355 PM 04/04/2016,Teleop Enabled,10,FALSE,0,NO ERROR,0.000000,0.603165,-0.000000,-0.538999,TRUE,FALSE,TRUE,TRUE,TRUE,FALSE,Disabled,0.000000,-1.294638,1.834637,TRUE,-0.837952,0.772400,0.000000,0.131119,0.034790,0.000000,0.185000,0.180000,-0.104000,1.040000,0.060000,2.520000,1.628860,Hold,49.254639,45.000000,Hold,-77915.000000,77824.000000,HighGoal,3210.000000,-3272.727273,Speed,3195.000000,-3272.727273,Speed,Off,Off,0.000000,FALSE,0,,,,,0.000000,0.000000
07:15:23.455 PM 04/04/2016,Teleop Enabled,10,FALSE,0,NO ERROR,0.000000,0.603165,-0.000000,-0.538999,TRUE,FALSE,TRUE,TRUE,TRUE,FALSE,Disabled,0.000000,-1.294638,1.834637,TRUE,-0.828995,0.774826,0.000000,0.195755,0.056366,0.000000,-0.012000,-0.101000,0.055000,1.040000,0.060000,2.520000,1.637635,Hold,49.250732,45.000000,Hold,-77915.000000,77824.000000,HighGoal,3217.500000,-3272.727273,Speed,3210.000000,-3272.727273,Speed,Off,Off,0.000000,FALSE,0,,,,,0.000000,0.000000
07:15:23.555 PM 04/04/2016,Teleop Enabled,10,FALSE,0,NO ERROR,0.000000,0.603165,-0.000000,-0.538999,TRUE,FALSE,TRUE,TRUE,TRUE,FALSE,Disabled,0.000000,-1.294638,1.834637,TRUE,-0.814667,0.778580,0.000000,0.263718,0.063522,0.000000,-0.012000,-0.101000,0.055000,1.030000,0.050000,2.530000,1.631848,Hold,49.249512,45.000000,Hold,-77915.000000,77824.000000,HighGoal,3217.500000,-3272.727273,Speed,3210.000000,-3272.727273,Speed,Off,Off,0.000000,FALSE,0,,,,,0.000000,0.000000
07:15:23.655 PM 04/04/2016,Teleop Enabled,10,FALSE,0,NO ERROR,0.000000,0.603165,-0.000000,-0.538999,TRUE,FALSE,TRUE,TRUE,TRUE,FALSE,Disabled,0.000000,-1.294638,1.834637,TRUE,-0.804489,0.780762,0.000000,0.252609,0.055267,0.000000,0.013000,-0.099000,-0.049000,1.030000,0.030000,2.540000,1.622970,Hold,49.246826,45.000000,Hold,-77915.000000,77824.000000,HighGoal,3210.000000,-3272.727273,Speed,3202.500000,-3272.727273,Speed,Off,Off,0.000000,FALSE,0,,,,,0.000000,0.000000
07:15:23.755 PM 04/04/2016,Teleop Enabled,9,FALSE,0,NO ERROR,0.000000,0.603165,-0.000000,-0.538999,TRUE,FALSE,TRUE,TRUE,TRUE,FALSE,Disabled,0.000000,-1.294638,1.834637,TRUE,-0.791565,0.784943,0.000000,0.000000,0.071075,0.000000,-0.035000,0.300000,0.099000,1.040000,0.000000,2.510000,1.614963,Hold,49.243408,45.000000,Hold,-77915.000000,77824.000000,HighGoal,3210.000000,-3272.727273,Speed,3210.000000,-3272.727273,Speed,Off,Off,0.000000,FALSE,0,,,,,0.000000,0.000000
07:15:23.856 PM 04/04/2016,Teleop Enabled,11,FALSE,0,NO ERROR,0.000000,0.603165,-0.000000,-0.538999,TRUE,FALSE,TRUE,TRUE,TRUE,FALSE,Disabled,0.000000,-1.294638,1.834637,TRUE,-0.792664,0.788193,0.000000,-0.049255,0.046265,0.000000,0.007000,-0.244000,-0.020000,1.040000,0.000000,2.580000,1.623786,Hold,49.243164,45.000000,Hold,-77915.000000,77824.000000,HighGoal,3217.500000,-3272.727273,Speed,3202.500000,-3272.727273,Speed,Off,Off,0.000000,FALSE,0,,,,,0.000000,0.000000
07:15:23.956 PM 04/04/2016,Teleop Enabled,10,FALSE,0,NO ERROR,0.000000,0.603165,-0.000000,-0.538999,TRUE,FALSE,TRUE,TRUE,TRUE,FALSE,Disabled,0.000000,-1.294638,1.834637,TRUE,-0.792664,0.788193,0.000000,-0.049255,0.046265,0.000000,-0.086000,0.034000,-0.018000,1.040000,-0.010000,2.550000,1.630454,Hold,49.243164,45.000000,Hold,-77915.000000,77824.000000,HighGoal,3210.000000,-3272.727273,Speed,3195.000000,-3272.727273,Speed,Off,Off,0.000000,FALSE,0,,,,,0.000000,0.000000
07:15:24.057 PM 04/04/2016,Teleop Enabled,10,FALSE,0,NO ERROR,0.000000,0.603165,-0.000000,-0.532582,TRUE,FALSE,TRUE,TRUE,TRUE,FALSE,Disabled,0.000000,-1.294638,1.834637,TRUE,-0.795822,0.791138,0.000000,-0.075500,0.092514,0.000000,0.245000,-0.194000,-0.056000,1.040000,-0.040000,2.550000,1.625893,Hold,49.243164,45.000000,Hold,-77915.000000,77824.000000,HighGoal,3217.500000,-3272.727273,Speed,3172.500000,-3272.727273,Speed,Off,Off,0.000000,FALSE,0,,,,,0.000000,0.000000
07:15:24.157 PM 04/04/2016,Teleop Enabled,10,FALSE,0,NO ERROR,0.000000,0.603165,-0.000000,-0.532582,TRUE,FALSE,TRUE,TRUE,TRUE,FALSE,Disabled,0.000000,-1.294638,1.834637,TRUE,-0.797043,0.796021,0.000000,-0.016556,0.096207,0.000000,-0.159000,0.309000,0.072000,1.040000,-0.090000,2.640000,1.625893,Hold,49.242676,45.000000,Hold,-77915.000000,77824.000000,HighGoal,3217.500000,-3272.727273,Speed,3165.000000,-3272.727273,Speed,Off,Off,0.000000,FALSE,0,,,,,0.000000,0.000000
07:15:24.257 PM 04/04/2016,Teleop Enabled,10,FALSE,0,NO ERROR,0.000000,0.603165,-0.000000,-0.532582,TRUE,FALSE,TRUE,TRUE,TRUE,FALSE,Disabled,0.000000,-1.294638,1.834637,TRUE,-0.797684,0.800766,0.000000,-0.010330,0.051758,0.000000,-0.043000,0.110000,-0.051000,1.040000,-0.060000,2.660000,1.638568,Hold,49.241943,45.000000,Hold,-77915.000000,77824.000000,HighGoal,3210.000000,-3272.727273,Speed,3180.000000,-3272.727273,Speed,Off,Off,0.000000,FALSE,0,,,,,0.000000,0.000000
07:15:24.358 PM 04/04/2016,Teleop Enabled,9,FALSE,0,NO ERROR,0.000000,0.603165,-0.000000,-0.532582,TRUE,FALSE,TRUE,TRUE,TRUE,FALSE,Disabled,0.000000,-1.294638,1.834637,TRUE,-0.798264,0.803665,0.000000,-0.011002,0.097244,0.000000,0.011000,0.044000,0.039000,1.040000,-0.060000,2.650000,1.656500,Hold,49.241943,45.000000,Hold,-77915.000000,77824.000000,HighGoal,3210.000000,-3272.727273,Speed,3172.500000,-3272.727273,Speed,Off,Off,0.000000,FALSE,0,,,,,0.000000,0.000000
07:15:24.458 PM 04/04/2016,Teleop Enabled,10,FALSE,0,NO ERROR,0.000000,0.603165,-0.000000,-0.532582,TRUE,FALSE,TRUE,TRUE,TRUE,FALSE,Disabled,0.000000,-1.294638,1.834637,TRUE,-0.799362,0.810455,0.000000,-0.010162,0.112244,0.000000,0.062000,-0.326000,0.028000,1.040000,0.000000,2.610000,1.670205,Hold,49.241943,45.000000,Hold,-77915.000000,77824.000000,HighGoal,3210.000000,-3272.727273,Speed,3187.500000,-3272.727273,Speed,Off,Off,0.000000,FALSE,0,,,,,0.000000,0.000000
07:15:24.559 PM 04/04/2016,Teleop Enabled,10,FALSE,0,NO ERROR,0.000000,0.603165,-0.000000,-0.532582,TRUE,FALSE,TRUE,TRUE,TRUE,FALSE,Disabled,0.000000,-1.294638,1.834637,TRUE,-0.796783,0.817642,0.000000,0.080643,0.085419,0.000000,0.057000,-0.073000,-0.106000,1.040000,-0.020000,2.600000,1.683951,Hold,49.241943,45.000000,Hold,-77915.000000,77824.000000,HighGoal,3202.500000,-3272.727273,Speed,3202.500000,-3272.727273,Speed,Off,Off,0.000000,FALSE,0,,,,,0.000000,0.000000
07:15:24.659 PM 04/04/2016,Teleop Enabled,10,FALSE,0,NO ERROR,0.000000,0.603165,-0.000000,-0.532582,TRUE,FALSE,TRUE,TRUE,TRUE,FALSE,Disabled,0.000000,-1.294638,1.834637,TRUE,-0.794052,0.820572,0.000000,0.100052,0.097687,0.000000,-0.072000,-0.034000,0.109000,1.030000,-0.030000,2.630000,1.675903,Hold,49.241943,45.000000,Hold,-77915.000000,77824.000000,HighGoal,3187.500000,-3272.727273,Speed,3202.500000,-3272.727273,Speed,Off,Off,0.000000,FALSE,0,,,,,0.000000,0.000000
07:15:24.759 PM 04/04/2016,Teleop Enabled,9,FALSE,0,NO ERROR,0.000000,0.603165,-0.000000,-0.532582,TRUE,FALSE,TRUE,TRUE,TRUE,FALSE,Disabled,0.000000,-1.294638,1.834637,TRUE,-0.791046,0.826141,0.000000,-0.012878,0.068909,0.000000,-0.108000,-0.187000,0.004000,1.040000,-0.040000,2.620000,1.686991,Hold,49.241943,45.000000,Hold,-77915.000000,77824.000000,HighGoal,3180.000000,-3272.727273,Speed,3180.000000,-3272.727273,Speed,Off,Off,0.000000,FALSE,0,,,,,0.000000,0.000000
07:15:24.860 PM 04/04/2016,Teleop Enabled,9,FALSE,0,NO ERROR,0.000000,0.603165,-0.000000,-0.532582,TRUE,FALSE,TRUE,TRUE,TRUE,FALSE,Disabled,0.000000,-1.294638,1.834637,TRUE,-0.791885,0.828598,0.000000,-0.014435,0.063492,0.000000,-0.013000,0.106000,-0.054000,1.040000,0.000000,2.650000,1.693842,Hold,49.241943,45.000000,Hold,-77915.000000,77824.000000,HighGoal,3195.000000,-3272.727273,Speed,3202.500000,-3272.727273,Speed,Off,Off,0.000000,FALSE,0,,,,,0.000000,0.000000
07:15:24.960 PM 04/04/2016,Teleop Enabled,10,FALSE,0,NO ERROR,0.000000,0.603165,-0.000000,-0.532582,TRUE,FALSE,TRUE,TRUE,TRUE,FALSE,Disabled,0.000000,-1.294638,1.834637,TRUE,-0.793350,0.831833,0.000000,-0.058365,0.096039,0.000000,0.012000,-0.088000,-0.044000,1.040000,-0.010000,2.640000,1.681098,Hold,49.239990,45.000000,Hold,-77915.000000,77824.000000,HighGoal,3210.000000,-3272.727273,Speed,3217.500000,-3272.727273,Speed,Off,Off,0.000000,FALSE,0,,,,,0.000000,0.000000
07:15:25.060 PM 04/04/2016,Teleop Enabled,9,FALSE,0,NO ERROR,0.000000,0.603165,-0.000000,-0.532582,TRUE,FALSE,TRUE,TRUE,TRUE,FALSE,Disabled,0.000000,-1.294638,1.834637,TRUE,-0.798370,0.837311,0.000000,-0.106873,0.086700,0.000000,0.048000,0.068000,-0.053000,1.040000,0.000000,2.630000,1.675018,Hold,49.239746,45.000000,Hold,-77915.000000,77824.000000,HighGoal,3225.000000,-3272.727273,Speed,3217.500000,-3272.727273,Speed,Off,Off,0.000000,FALSE,0,,,,,0.000000,0.000000
07:15:25.160 PM 04/04/2016,Teleop Enabled,10,FALSE,0,NO ERROR,0.000000,0.603165,-0.000000,-0.532582,TRUE,FALSE,TRUE,TRUE,TRUE,FALSE,Disabled,0.000000,-1.294638,1.834637,TRUE,-0.802048,0.840393,0.000000,-0.079895,0.087219,0.000000,0.051000,-0.177000,0.157000,1.040000,-0.010000,2.590000,1.677917,Hold,49.239746,45.000000,Hold,-77915.000000,77824.000000,HighGoal,3225.000000,-3272.727273,Speed,3195.000000,-3272.727273,Speed,Off,Off,0.000000,FALSE,0,,,,,0.000000,0.000000
07:15:25.260 PM 04/04/2016,Teleop Enabled,10,FALSE,0,NO ERROR,0.000000,0.603165,-0.000000,-0.532582,TRUE,FALSE,TRUE,TRUE,TRUE,FALSE,Disabled,0.000000,-1.294638,1.834637,TRUE,-0.803680,0.845291,0.000000,-0.001678,0.100433,0.000000,-0.046000,-0.205000,0.105000,1.030000,0.000000,2.650000,1.692300,Hold,49.239746,45.000000,Hold,-77915.000000,77824.000000,HighGoal,3225.000000,-3272.727273,Speed,3210.000000,-3272.727273,Speed,Off,Off,0.000000,FALSE,0,,,,,0.000000,0.000000
07:15:25.361 PM 04/04/2016,Teleop Enabled,10,FALSE,0,NO ERROR,0.000000,0.603165,-0.000000,-0.532582,TRUE,FALSE,TRUE,TRUE,TRUE,FALSE,Disabled,0.000000,-1.294638,1.834637,TRUE,-0.801300,0.849701,0.000000,0.063782,0.066437,0.000000,0.023000,0.072000,0.149000,1.040000,-0.040000,2.600000,1.695818,Hold,49.239746,45.000000,Hold,-77915.000000,77824.000000,HighGoal,3225.000000,-3272.727273,Speed,3210.000000,-3272.727273,Speed,Off,Off,0.000000,FALSE,0,,,,,0.000000,0.000000
07:15:25.461 PM 04/04/2016,Teleop Enabled,9,FALSE,0,NO ERROR,0.000000,0.603165,-0.000000,-0.532582,TRUE,FALSE,TRUE,TRUE,TRUE,FALSE,Disabled,0.000000,-1.294638,1.834637,TRUE,-0.797394,0.854523,0.000000,0.054550,0.099777,0.000000,-0.033000,-0.303000,-0.096000,1.040000,-0.030000,2.650000,1.688888,Hold,49.239746,45.000000,Hold,-77915.000000,77824.000000,HighGoal,3217.500000,-3272.727273,Speed,3210.000000,-3272.727273,Speed,Off,Off,0.000000,FALSE,0,,,,,0.000000,0.000000
07:15:25.561 PM 04/04/2016,Teleop Enabled,10,FALSE,0,NO ERROR,0.000000,0.603165,-0.000000,-0.532582,TRUE,FALSE,TRUE,TRUE,TRUE,FALSE,Disabled,0.000000,-1.294638,1.834637,TRUE,-0.796463,0.857300,0.000000,0.023788,0.087708,0.000000,-0.097000,-0.257000,0.127000,1.040000,0.000000,2.630000,1.670467,Hold,49.239746,45.000000,Hold,-77915.000000,77824.000000,HighGoal,3217.500000,-3272.727273,Speed,3180.000000,-3272.727273,Speed,Off,Off,0.000000,FALSE,0,,,,,0.000000,0.000000
07:15:25.661 PM 04/04/2016,Teleop Enabled,10,FALSE,0,NO ERROR,0.000000,0.603165,-0.000000,-0.532582,TRUE,FALSE,TRUE,TRUE,TRUE,FALSE,Disabled,0.000000,-1.294638,1.834637,TRUE,-0.796509,0.862122,0.000000,0.002701,0.073959,0.000000,-0.012000,-0.127000,0.038000,1.040000,-0.010000,2.650000,1.665393,Hold,49.239746,45.000000,Hold,-77915.000000,77824.000000,HighGoal,3210.000000,-3272.727273,Speed,3187.500000,-3272.727273,Speed,Off,Off,0.000000,FALSE,0,,,,,0.000000,0.000000
07:15:25.761 PM 04/04/2016,Teleop Enabled,9,FALSE,0,NO ERROR,0.000000,0.603165,-0.000000,-0.532582,TRUE,FALSE,TRUE,TRUE,TRUE,FALSE,Disabled,0.000000,-1.294638,1.834637,TRUE,-0.796890,0.864899,0.000000,-0.012390,0.081909,0.000000,-0.115000,0.103000,0.048000,1.040000,0.020000,2.560000,1.667789,Hold,49.239746,45.000000,Hold,-77915.000000,77824.000000,HighGoal,3217.500000,-3272.727273,Speed,3180.000000,-3272.727273,Speed,Off,Off,0.000000,FALSE,0,,,,,0.000000,0.000000
07:15:25.861 PM 04/04/2016,Teleop Enabled,10,FALSE,0,NO ERROR,0.000000,0.603165,-0.000000,-0.532582,TRUE,FALSE,TRUE,TRUE,TRUE,FALSE,Disabled,0.000000,-1.294638,1.834637,TRUE,-0.798965,0.871704,0.000000,-0.026474,0.094147,0.000000,0.048000,0.279000,0.098000,1.050000,-0.010000,2.580000,1.668360,Hold,49.239746,45.000000,Hold,-77915.000000,77824.000000,HighGoal,3217.500000,-3272.727273,Speed,3180.000000,-3272.727273,Speed,Off,Off,0.000000,FALSE,0,,,,,0.000000,0.000000
07:15:25.961 PM 04/04/2016,Teleop Enabled,10,FALSE,0,NO ERROR,0.000000,0.596749,-0.000000,-0.532582,TRUE,FALSE,TRUE,TRUE,TRUE,FALSE,Disabled,0.000000,-1.294638,1.834637,TRUE,-0.799622,0.874954,0.000000,-0.013519,0.117249,0.000000,-0.005000,-0.234000,0.041000,1.050000,0.000000,2.570000,1.673259,Hold,49.239746,45.000000,Hold,-77915.000000,77824.000000,HighGoal,3225.000000,-3272.727273,Speed,3187.500000,-3272.727273,Speed,Off,Off,0.000000,FALSE,0,,,,,0.000000,0.000000
07:15:26.061 PM 04/04/2016,Teleop Enabled,10,FALSE,0,NO ERROR,0.000000,0.596749,-0.000000,-0.532582,TRUE,FALSE,TRUE,TRUE,TRUE,FALSE,Disabled,0.000000,-1.294638,1.834637,TRUE,-0.800598,0.883041,0.000000,-0.018921,0.130493,0.000000,0.023000,-0.077000,0.054000,1.060000,-0.030000,2.600000,1.670419,Hold,49.239746,45.000000,Hold,-77915.000000,77824.000000,HighGoal,3217.500000,-3272.727273,Speed,3172.500000,-3272.727273,Speed,Off,Off,0.000000,FALSE,0,,,,,0.000000,0.000000
07:15:26.161 PM 04/04/2016,Teleop Enabled,10,FALSE,0,NO ERROR,0.000000,0.596749,-0.000000,-0.532582,TRUE,FALSE,TRUE,TRUE,TRUE,FALSE,Disabled,0.000000,-1.294638,1.834637,TRUE,-0.800949,0.888000,0.000000,-0.008255,0.113541,0.000000,0.035000,0.055000,0.127000,1.060000,-0.040000,2.620000,1.670271,Hold,49.239746,45.000000,Hold,-77915.000000,77824.000000,HighGoal,3210.000000,-3272.727273,Speed,3172.500000,-3272.727273,Speed,Off,Off,0.000000,FALSE,0,,,,,0.000000,0.000000
07:15:26.261 PM 04/04/2016,Teleop Enabled,10,FALSE,0,NO ERROR,0.000000,0.596749,-0.000000,-0.532582,TRUE,FALSE,TRUE,TRUE,TRUE,FALSE,Disabled,0.000000,-1.294638,1.834637,TRUE,-0.800354,0.893692,0.000000,0.018829,0.131622,0.000000,-0.035000,-0.155000,-0.077000,1.060000,-0.090000,2.620000,1.666105,Hold,49.239746,45.000000,Hold,-77915.000000,77824.000000,HighGoal,3210.000000,-3272.727273,Speed,3187.500000,-3272.727273,Speed,Off,Off,0.000000,FALSE,0,,,,,0.000000,0.000000
07:15:26.362 PM 04/04/2016,Teleop Enabled,10,FALSE,0,NO ERROR,0.000000,0.596749,-0.000000,-0.532582,TRUE,FALSE,TRUE,TRUE,TRUE,FALSE,Disabled,0.000000,-1.294638,1.834637,TRUE,-0.798553,0.903198,0.000000,0.049591,0.163177,0.000000,0.146000,-0.269000,-0.121000,1.060000,-0.040000,2.600000,1.682137,Hold,49.239746,45.000000,Hold,-77915.000000,77824.000000,HighGoal,3202.500000,-3272.727273,Speed,3210.000000,-3272.727273,Speed,Off,Off,0.000000,FALSE,0,,,,,0.000000,0.000000
07:15:26.462 PM 04/04/2016,Teleop Enabled,10,FALSE,0,NO ERROR,0.000000,0.596749,-0.000000,-0.532582,TRUE,FALSE,TRUE,TRUE,TRUE,FALSE,Disabled,0.000000,-1.294638,1.834637,TRUE,-0.796036,0.909073,0.000000,0.061859,0.129456,0.000000,-0.084000,-0.021000,-0.014000,1.050000,-0.070000,2.650000,1.682956,Hold,49.239746,45.000000,Hold,-77915.000000,77824.000000,HighGoal,3195.000000,-3272.727273,Speed,3202.500000,-3272.727273,Speed,Off,Off,0.000000,FALSE,0,,,,,0.000000,0.000000
07:15:26.564 PM 04/04/2016,Teleop Enabled,10,FALSE,0,NO ERROR,0.000000,0.596749,-0.000000,-0.532582,TRUE,FALSE,TRUE,TRUE,TRUE,FALSE,Disabled,0.000000,-1.294638,1.834637,TRUE,-0.793335,0.916840,0.000000,-0.004730,0.146210,0.000000,-0.211000,-0.079000,0.049000,1.050000,-0.070000,2.660000,1.688630,Hold,49.239746,45.000000,Hold,-77915.000000,77824.000000,HighGoal,3195.000000,-3272.727273,Speed,3195.000000,-3272.727273,Speed,Off,Off,0.000000,FALSE,0,,,,,0.000000,0.000000
07:15:26.666 PM 04/04/2016,Teleop Enabled,10,FALSE,0,NO ERROR,0.000000,0.596749,-0.000000,-0.532582,TRUE,FALSE,TRUE,TRUE,TRUE,FALSE,Disabled,0.000000,-1.294638,1.834637,TRUE,-0.795547,0.925491,0.000000,-0.044479,0.179779,0.000000,0.027000,-0.316000,0.063000,1.050000,-0.090000,2.650000,1.687680,Hold,49.239746,45.000000,Hold,-77915.000000,77824.000000,HighGoal,3225.000000,-3272.727273,Speed,3195.000000,-3272.727273,Speed,Off,Off,0.000000,FALSE,0,,,,,0.000000,0.000000
07:15:26.767 PM 04/04/2016,Teleop Enabled,10,FALSE,0,NO ERROR,0.000000,0.596749,-0.000000,-0.532582,TRUE,FALSE,TRUE,TRUE,TRUE,FALSE,Disabled,0.000000,-1.294638,1.834637,TRUE,-0.797607,0.933411,0.000000,-0.019547,0.142944,0.000000,0.006000,0.201000,0.052000,1.060000,-0.080000,2.640000,1.686540,Hold,49.239746,45.000000,Hold,-77915.000000,77824.000000,HighGoal,3225.000000,-3272.727273,Speed,3217.500000,-3272.727273,Speed,Off,Off,0.000000,FALSE,0,,,,,0.000000,0.000000
07:15:26.868 PM 04/04/2016,Teleop Enabled,9,FALSE,0,NO ERROR,0.000000,0.596749,-0.000000,-0.532582,TRUE,FALSE,TRUE,TRUE,TRUE,FALSE,Disabled,0.000000,-1.294638,1.834637,TRUE,-0.796524,0.942764,0.000000,0.051346,0.166199,0.000000,0.019000,0.047000,0.010000,1.050000,-0.080000,2.670000,1.682020,Hold,49.239746,45.000000,Hold,-77915.000000,77824.000000,HighGoal,3217.500000,-3272.727273,Speed,3217.500000,-3272.727273,Speed,Off,Off,0.000000,FALSE,0,,,,,0.000000,0.000000
07:15:26.969 PM 04/04/2016,Teleop Enabled,10,FALSE,0,NO ERROR,0.000000,0.596749,-0.000000,-0.532582,TRUE,FALSE,TRUE,TRUE,TRUE,FALSE,Disabled,0.000000,-1.294638,1.834637,TRUE,-0.792206,0.950760,0.000000,0.097839,0.151520,0.000000,-0.143000,-0.110000,0.132000,1.060000,-0.070000,2.640000,1.678244,Hold,49.239746,45.000000,Hold,-77915.000000,77824.000000,HighGoal,3217.500000,-3272.727273,Speed,3195.000000,-3272.727273,Speed,Off,Off,0.000000,FALSE,0,,,,,0.000000,0.000000
07:15:27.070 PM 04/04/2016,Teleop Enabled,10,FALSE,0,NO ERROR,0.000000,0.596749,-0.000000,-0.532582,TRUE,FALSE,TRUE,TRUE,TRUE,FALSE,Disabled,0.000000,-1.294638,1.834637,TRUE,-0.788101,0.956528,0.000000,0.114914,0.139420,0.000000,0.181000,0.274000,-0.070000,1.060000,-0.100000,2.610000,1.658611,Hold,49.239746,45.000000,Hold,-77915.000000,77824.000000,HighGoal,3217.500000,-3272.727273,Speed,3217.500000,-3272.727273,Speed,Off,Off,0.000000,FALSE,0,,,,,0.000000,0.000000
07:15:27.171 PM 04/04/2016,Teleop Enabled,11,FALSE,0,NO ERROR,0.000000,0.596749,-0.000000,-0.532582,TRUE,FALSE,TRUE,TRUE,TRUE,FALSE,Disabled,0.000000,-1.294638,1.834637,TRUE,-0.779510,0.964676,0.000000,0.208023,0.169357,0.000000,0.061000,-0.100000,0.091000,1.060000,-0.070000,2.660000,1.661410,Hold,49.239746,45.000000,Hold,-77915.000000,77824.000000,HighGoal,3217.500000,-3272.727273,Speed,3217.500000,-3272.727273,Speed,Off,Off,0.000000,FALSE,0,,,,,0.000000,0.000000
