Time,Robot Mode,Loop Time,Error Status,Error Code,Error Source,Left Motor Output,Left Motor Encoder,Right Motor Output,Right Motor Encoder,Is Level,Is Stalled,Ball Detector Photoeye,Vision Enabled,Vision Teleop Control,Vision Auto Control,Vision Current State,Vision X Output,Vision NavX Error,Vision NavX Target,NavX Connection Status,NavX Displacement X,NavX Displacement Y,NavX Displacement Z,NavX Velocity X,NavX Velocity Y,NavX Velocity Z,NavX Acceleration X,NavX Acceleration Y,NavX Acceleration Z,NavX Pitch,NavX Yaw,NavX Roll,Gyro Angle,Roller Arm State,Roller Arm Actual,Roller Arm Desired,Shooter Arm State,Shooter Arm Actual,Shooter Arm Desired,Shooter State,Actual RPM Left,Desired RPM Left,Control Mode Left,Actual RPM Right,Desired RPM Right,Control Mode Right,Ball Shooter Cylinder,Ball Halo Cylinder,Scaler Motor Output,Scaler Solenoid Fire,Auto To Run,Auto Current File,Auto File Status,Auto Current Command,Auto Trimmed Command,Shooter Amps Left,Shooter Amps Right
08:16:23.014 AM 04/14/2016,Teleop Enabled,10,FALSE,0,NO ERROR,-0.000000,-0.442749,-0.000000,0.051333,TRUE,FALSE,TRUE,FALSE,FALSE,FALSE,Disabled,0.000000,0.000000,0.000000,TRUE,-0.079773,0.000610,0.000000,0.000000,0.000000,0.000000,0.000000,0.001000,0.017000,0.940000,-62.490000,0.310000,-61.410272,ResetBack,-0.755615,-0.000049,ResetBack,0.000000,-0.250000,LowGoal,15.000000,-2181.818182,Speed,0.000000,-2181.818182,Speed,Off,Off,0.000000,FALSE,0,,,,,0.000000,0.000000
08:16:23.116 AM 04/14/2016,Teleop Enabled,10,FALSE,0,NO ERROR,-0.000000,-0.442749,-0.000000,0.051333,TRUE,FALSE,TRUE,FALSE,FALSE,FALSE,Disabled,0.000000,0.000000,0.000000,TRUE,-0.079727,0.000580,0.000000,0.005310,-0.002975,0.000000,0.024000,0.020000,0.000000,0.930000,-62.490000,0.320000,-61.404713,ResetBack,-2.016846,-0.000049,ResetBack,0.000000,-0.250000,LowGoal,15.000000,-2181.818182,Speed,22.500000,-2181.818182,Speed,Off,Off,0.000000,FALSE,0,,,,,0.000000,0.000000
08:16:23.221 AM 04/14/2016,Teleop Enabled,10,FALSE,0,NO ERROR,-0.000000,-0.442749,-0.000000,0.051333,TRUE,FALSE,TRUE,FALSE,FALSE,FALSE,Disabled,0.000000,0.000000,0.000000,TRUE,-0.078430,0.000565,0.000000,0.038376,0.002777,0.000000,-0.056000,0.026000,-0.054000,0.930000,-62.490000,0.320000,-61.433272,ResetBack,-2.470215,-0.000049,ResetBack,3330.000000,-0.250000,LowGoal,1237.500000,-2181.818182,Speed,547.500000,-2181.818182,Speed,Off,Off,0.000000,FALSE,0,,,,,0.000000,0.000000
08:16:23.320 AM 04/14/2016,Teleop Enabled,10,FALSE,0,NO ERROR,-0.000000,-0.442749,-0.000000,0.051333,TRUE,FALSE,TRUE,FALSE,FALSE,FALSE,Disabled,0.000000,0.000000,0.000000,TRUE,-0.077820,0.001434,0.000000,-0.006210,0.010971,0.000000,0.064000,-0.034000,-0.077000,0.970000,-62.490000,0.250000,-61.417877,Reset,-2.566406,-0.000049,ResetBack,8375.000000,-0.250000,LowGoal,1807.500000,-2181.818182,Speed,1215.000000,-2181.818182,Speed,Off,Off,0.000000,FALSE,0,,,,,0.000000,0.000000
08:16:23.420 AM 04/14/2016,Teleop Enabled,10,FALSE,0,NO ERROR,-0.000000,-0.442749,-0.000000,0.051333,TRUE,FALSE,TRUE,FALSE,FALSE,FALSE,Disabled,0.000000,0.000000,0.000000,TRUE,-0.077927,0.001846,0.000000,-0.020187,0.021393,0.000000,-0.109000,0.042000,0.023000,0.970000,-62.490000,0.380000,-61.418979,Hold,-2.618164,0.000000,ResetBack,14168.000000,-0.250000,LowGoal,1807.500000,-2181.818182,Speed,1755.000000,-2181.818182,Speed,Off,Off,0.000000,FALSE,0,,,,,0.000000,0.000000
08:16:23.523 AM 04/14/2016,Teleop Enabled,12,FALSE,0,NO ERROR,-0.000000,-0.436332,-0.000000,0.051333,TRUE,FALSE,TRUE,FALSE,FALSE,FALSE,Disabled,0.000000,0.000000,0.000000,TRUE,-0.081467,0.003067,0.000000,-0.094849,0.022537,0.000000,-0.024000,0.041000,-0.071000,1.040000,-62.490000,0.250000,-61.423068,Hold,0.486084,0.000000,ResetBack,14168.000000,-0.250000,LowGoal,2280.000000,-2181.818182,Speed,2145.000000,-2181.818182,Speed,Off,Off,0.000000,FALSE,0,,,,,0.000000,0.000000
08:16:23.622 AM 04/14/2016,Teleop Enabled,11,FALSE,0,NO ERROR,-0.000000,-0.436332,-0.000000,0.051333,TRUE,FALSE,TRUE,FALSE,FALSE,FALSE,Disabled,0.000000,0.000000,0.000000,TRUE,-0.085403,0.003677,0.000000,-0.033722,-0.016602,0.000000,0.211000,0.030000,0.200000,1.060000,-62.510000,0.250000,-61.423068,Hold,0.541992,0.000000,ResetBack,26484.000000,-0.250000,LowGoal,2280.000000,-2181.818182,Speed,2205.000000,-2181.818182,Speed,Off,Off,0.000000,FALSE,0,,,,,0.000000,0.000000
08:16:23.723 AM 04/14/2016,Teleop Enabled,10,FALSE,0,NO ERROR,-0.000000,-0.436332,-0.000000,0.044917,TRUE,FALSE,TRUE,FALSE,FALSE,FALSE,Disabled,0.000000,0.000000,0.000000,TRUE,-0.080353,0.002579,0.000000,0.144745,-0.028625,0.000000,0.089000,-0.054000,0.237000,1.170000,-62.510000,0.390000,-61.404344,Hold,0.541992,0.000000,ResetBack,26484.000000,-0.250000,LowGoal,2190.000000,-2181.818182,Speed,2137.500000,-2181.818182,Speed,Off,Off,0.000000,FALSE,0,,,,,0.000000,0.000000
08:16:23.824 AM 04/14/2016,Teleop Enabled,10,FALSE,0,NO ERROR,-0.000000,-0.436332,-0.000000,0.044917,TRUE,FALSE,TRUE,FALSE,FALSE,FALSE,Disabled,0.000000,0.000000,0.000000,TRUE,-0.070236,-0.000687,0.000000,0.223724,-0.107086,0.000000,-0.021000,-0.142000,0.314000,1.080000,-62.490000,0.320000,-61.394777,Hold,0.541992,0.000000,ResetBack,27877.000000,-0.250000,LowGoal,2130.000000,-2181.818182,Speed,2100.000000,-2181.818182,Speed,Off,Off,0.000000,FALSE,0,,,,,0.000000,0.000000
08:16:23.924 AM 04/14/2016,Teleop Enabled,10,FALSE,0,NO ERROR,-0.000000,-0.436332,-0.000000,0.044917,TRUE,FALSE,TRUE,FALSE,FALSE,FALSE,Disabled,0.000000,0.000000,0.000000,TRUE,-0.058823,-0.006546,0.000000,0.252121,0.000000,0.000000,0.090000,-0.002000,0.214000,1.110000,-62.510000,0.350000,-61.407140,Hold,0.541992,0.000000,ResetBack,28296.000000,-0.250000,LowGoal,2145.000000,-2181.818182,Speed,2115.000000,-2181.818182,Speed,Off,Off,0.000000,FALSE,0,,,,,0.000000,0.000000
08:16:24.025 AM 04/14/2016,Teleop Enabled,11,FALSE,0,NO ERROR,-0.000000,-0.436332,-0.000000,0.044917,TRUE,FALSE,TRUE,FALSE,FALSE,FALSE,Disabled,0.000000,0.000000,0.000000,TRUE,-0.053635,-0.006317,0.000000,-0.005600,-0.000305,0.000000,-0.024000,-0.024000,0.037000,1.120000,-62.500000,0.460000,-61.396805,Hold,0.541992,0.000000,ResetBack,28297.000000,-0.250000,LowGoal,2152.500000,-2181.818182,Speed,2130.000000,-2181.818182,Speed,Off,Off,0.000000,FALSE,0,,,,,0.000000,0.000000
08:16:24.125 AM 04/14/2016,Teleop Enabled,11,FALSE,0,NO ERROR,-0.000000,-0.436332,-0.000000,0.044917,TRUE,FALSE,TRUE,FALSE,FALSE,FALSE,Disabled,0.000000,0.000000,0.000000,TRUE,-0.055954,-0.008530,0.000000,-0.050156,0.000000,0.000000,-0.064000,-0.006000,-0.169000,0.960000,-62.510000,0.330000,-61.405942,Hold,0.541992,0.000000,ResetBack,28310.000000,-0.250000,LowGoal,2152.500000,-2181.818182,Speed,2122.500000,-2181.818182,Speed,Off,Off,0.000000,FALSE,0,,,,,0.000000,0.000000
08:16:24.226 AM 04/14/2016,Teleop Enabled,10,FALSE,0,NO ERROR,-0.000000,-0.436332,-0.000000,0.044917,TRUE,FALSE,TRUE,FALSE,FALSE,FALSE,Disabled,0.000000,0.000000,0.000000,TRUE,-0.059601,-0.008698,0.000000,-0.120224,-0.002853,0.000000,-0.010000,0.126000,-0.215000,1.010000,-62.510000,0.250000,-61.395087,Hold,0.541992,0.000000,ResetBack,28310.000000,-0.250000,LowGoal,2160.000000,-2181.818182,Speed,2122.500000,-2181.818182,Speed,Off,Off,0.000000,FALSE,0,,,,,0.000000,0.000000
08:16:24.327 AM 04/14/2016,Teleop Enabled,10,FALSE,0,NO ERROR,-0.000000,-0.436332,-0.000000,0.044917,TRUE,FALSE,TRUE,FALSE,FALSE,FALSE,Disabled,0.000000,0.000000,0.000000,TRUE,-0.065750,-0.005966,0.000000,-0.114044,0.096252,0.000000,-0.016000,0.072000,-0.229000,1.050000,-62.510000,0.590000,-61.381345,Hold,0.541992,0.000000,Reset,28310.000000,2.000000,LowGoal,2152.500000,-2181.818182,Speed,2122.500000,-2181.818182,Speed,Off,Off,0.000000,FALSE,0,,,,,0.000000,0.000000
08:16:24.428 AM 04/14/2016,Teleop Enabled,10,FALSE,0,NO ERROR,-0.000000,-0.436332,-0.000000,0.044917,TRUE,FALSE,TRUE,FALSE,FALSE,FALSE,Disabled,0.000000,0.000000,0.000000,TRUE,-0.069748,-0.001465,0.000000,0.000000,0.071060,0.000000,-0.055000,-0.030000,-0.074000,1.070000,-62.510000,0.500000,-61.376921,Hold,0.541992,0.000000,Hold,-51.000000,2.000000,LowGoal,2137.500000,-2181.818182,Speed,2122.500000,-2181.818182,Speed,Off,Off,0.000000,FALSE,0,,,,,0.000000,0.000000
08:16:24.529 AM 04/14/2016,Teleop Enabled,11,FALSE,0,NO ERROR,-0.000000,-0.436332,-0.000000,0.044917,TRUE,FALSE,TRUE,FALSE,FALSE,FALSE,Disabled,0.000000,0.000000,0.000000,TRUE,-0.070511,0.000900,0.000000,-0.022980,0.044693,0.000000,-0.044000,0.000000,0.029000,1.000000,-62.510000,0.410000,-61.382491,Hold,0.541992,0.000000,Hold,-175.000000,2.000000,LowGoal,2130.000000,-2181.818182,Speed,2122.500000,-2181.818182,Speed,Off,Off,0.000000,FALSE,0,,,,,0.000000,0.000000
08:16:24.629 AM 04/14/2016,Teleop Enabled,10,FALSE,0,NO ERROR,-0.000000,-0.436332,-0.000000,0.044917,TRUE,FALSE,TRUE,FALSE,FALSE,FALSE,Disabled,0.000000,0.000000,0.000000,TRUE,-0.071625,0.003265,0.000000,0.003525,0.055267,0.000000,0.062000,0.013000,0.017000,1.100000,-62.510000,0.440000,-61.375547,Hold,0.541992,0.000000,Hold,-175.000000,2.000000,LowGoal,2137.500000,-2181.818182,Speed,2122.500000,-2181.818182,Speed,Off,Off,0.000000,FALSE,0,,,,,0.000000,0.000000
08:16:24.729 AM 04/14/2016,Teleop Enabled,10,FALSE,0,NO ERROR,-0.000000,-0.436332,-0.000000,0.044917,TRUE,FALSE,TRUE,FALSE,FALSE,FALSE,Disabled,0.000000,0.000000,0.000000,TRUE,-0.070023,0.005737,0.000000,0.038223,0.036163,0.000000,-0.021000,-0.040000,0.046000,0.950000,-62.520000,0.380000,-61.379262,Hold,0.542236,0.000000,Hold,-175.000000,2.000000,LowGoal,2145.000000,-2181.818182,Speed,2122.500000,-2181.818182,Speed,Off,Off,0.000000,FALSE,0,,,,,0.000000,0.000000
08:16:24.829 AM 04/14/2016,Teleop Enabled,10,FALSE,0,NO ERROR,-0.000000,-0.436332,-0.000000,0.044917,TRUE,FALSE,TRUE,FALSE,FALSE,FALSE,Disabled,0.000000,0.000000,0.000000,TRUE,-0.068726,0.007355,0.000000,0.019791,0.038376,0.000000,0.033000,0.070000,0.117000,0.980000,-62.520000,0.240000,-61.376174,Hold,0.542236,0.000000,Hold,-175.000000,2.000000,LowGoal,2145.000000,-2181.818182,Speed,2130.000000,-2181.818182,Speed,Off,Off,0.000000,FALSE,0,,,,,0.000000,0.000000
08:16:24.929 AM 04/14/2016,Teleop Enabled,10,FALSE,0,NO ERROR,-0.000000,-0.436332,-0.000000,0.044917,TRUE,FALSE,TRUE,FALSE,FALSE,FALSE,Disabled,0.000000,0.000000,0.000000,TRUE,-0.066666,0.011108,0.000000,0.064468,0.100098,0.000000,0.065000,0.087000,0.051000,0.960000,-62.520000,0.440000,-61.365072,Hold,0.542236,0.000000,Hold,-175.000000,2.000000,LowGoal,2137.500000,-2181.818182,Speed,2122.500000,-2181.818182,Speed,Off,Off,0.000000,FALSE,0,,,,,0.000000,0.000000
08:16:25.029 AM 04/14/2016,Teleop Enabled,10,FALSE,0,NO ERROR,-0.000000,-0.436332,-0.000000,0.044917,TRUE,FALSE,TRUE,FALSE,FALSE,FALSE,Disabled,0.000000,0.000000,0.000000,TRUE,-0.062378,0.015732,0.000000,0.095535,0.074249,0.000000,0.024000,-0.026000,0.163000,0.940000,-62.520000,0.250000,-61.362163,Hold,0.542236,0.000000,Hold,-175.000000,2.000000,LowGoal,2145.000000,-2181.818182,Speed,2130.000000,-2181.818182,Speed,Off,Off,0.000000,FALSE,0,,,,,0.000000,0.000000
08:16:25.129 AM 04/14/2016,Teleop Enabled,10,FALSE,0,NO ERROR,-0.000000,-0.436332,-0.000000,0.044917,TRUE,FALSE,TRUE,FALSE,FALSE,FALSE,Disabled,0.000000,0.000000,0.000000,TRUE,-0.056061,0.018997,0.000000,0.147858,0.059448,0.000000,0.037000,0.030000,0.207000,0.990000,-62.520000,0.310000,-61.376501,Hold,0.542236,0.000000,Hold,-175.000000,2.000000,LowGoal,2145.000000,-2181.818182,Speed,2130.000000,-2181.818182,Speed,Off,Off,0.000000,FALSE,0,,,,,0.000000,0.000000
08:16:25.229 AM 04/14/2016,Teleop Enabled,10,FALSE,0,NO ERROR,-0.000000,-0.436332,-0.000000,0.044917,TRUE,FALSE,TRUE,FALSE,FALSE,FALSE,Disabled,0.000000,0.000000,0.000000,TRUE,-0.047821,0.021988,0.000000,0.172058,0.056580,0.000000,0.037000,-0.064000,0.207000,1.070000,-62.520000,0.410000,-61.369509,Hold,0.542236,0.000000,Hold,-175.000000,2.000000,LowGoal,2152.500000,-2181.818182,Speed,2130.000000,-2181.818182,Speed,Off,Off,0.000000,FALSE,0,,,,,0.000000,0.000000
08:16:25.329 AM 04/14/2016,Teleop Enabled,10,FALSE,0,NO ERROR,-0.000000,-0.436332,-0.000000,0.044917,TRUE,FALSE,TRUE,FALSE,FALSE,FALSE,Disabled,0.000000,0.000000,0.000000,TRUE,-0.043945,0.023117,0.000000,0.019714,0.003525,0.000000,-0.026000,-0.033000,0.165000,0.920000,-62.530000,0.490000,-61.359154,Hold,0.542236,0.000000,Hold,-175.000000,2.000000,LowGoal,2152.500000,-2181.818182,Speed,2130.000000,-2181.818182,Speed,Off,Off,0.000000,FALSE,0,,,,,0.000000,0.000000
08:16:25.429 AM 04/14/2016,Teleop Enabled,10,FALSE,0,NO ERROR,-0.000000,-0.436332,-0.000000,0.044917,TRUE,FALSE,TRUE,FALSE,FALSE,FALSE,Disabled,0.000000,0.000000,0.000000,TRUE,-0.044266,0.022675,0.000000,-0.046494,-0.020035,0.000000,-0.130000,0.006000,0.017000,0.920000,-62.520000,0.380000,-61.367330,Hold,0.542236,0.000000,Hold,-175.000000,2.000000,LowGoal,2137.500000,-2181.818182,Speed,2130.000000,-2181.818182,Speed,Off,Off,0.000000,FALSE,0,,,,,0.000000,0.000000
08:16:25.529 AM 04/14/2016,Teleop Enabled,10,FALSE,0,NO ERROR,-0.000000,-0.436332,-0.000000,0.044917,TRUE,FALSE,TRUE,FALSE,FALSE,FALSE,Disabled,0.000000,0.000000,0.000000,TRUE,-0.049377,0.022003,0.000000,-0.114105,0.002380,0.000000,0.034000,0.040000,-0.196000,1.010000,-62.520000,0.350000,-61.349460,Hold,0.542236,0.000000,Hold,-175.000000,2.000000,LowGoal,2145.000000,-2181.818182,Speed,2130.000000,-2181.818182,Speed,Off,Off,0.000000,FALSE,0,,,,,0.000000,0.000000
08:16:25.629 AM 04/14/2016,Teleop Enabled,10,FALSE,0,NO ERROR,-0.000000,-0.436332,-0.000000,0.044917,TRUE,FALSE,TRUE,FALSE,FALSE,FALSE,Disabled,0.000000,0.000000,0.000000,TRUE,-0.055069,0.022476,0.000000,-0.129608,0.003067,0.000000,-0.013000,-0.002000,-0.245000,0.970000,-62.530000,0.530000,-61.335021,Hold,0.542236,0.000000,Hold,-175.000000,2.000000,LowGoal,2167.500000,-2181.818182,Speed,2130.000000,-2181.818182,Speed,Off,Off,0.000000,FALSE,0,,,,,0.000000,0.000000
08:16:25.729 AM 04/14/2016,Teleop Enabled,10,FALSE,0,NO ERROR,-0.000000,-0.436332,-0.000000,0.044917,TRUE,FALSE,TRUE,FALSE,FALSE,FALSE,Disabled,0.000000,0.000000,0.000000,TRUE,-0.064545,0.021820,0.000000,-0.185394,-0.031815,0.000000,-0.045000,-0.046000,-0.181000,0.940000,-62.530000,0.480000,-61.337504,Hold,0.542236,0.000000,Hold,-175.000000,2.000000,LowGoal,2167.500000,-2181.818182,Speed,2130.000000,-2181.818182,Speed,Off,Off,0.000000,FALSE,0,,,,,0.000000,0.000000
08:16:25.829 AM 04/14/2016,Teleop Enabled,10,FALSE,0,NO ERROR,-0.000000,-0.436332,-0.000000,0.044917,TRUE,FALSE,TRUE,FALSE,FALSE,FALSE,Disabled,0.000000,0.000000,0.000000,TRUE,-0.068481,0.020538,0.000000,0.000000,0.000000,0.000000,-0.085000,-0.098000,-0.143000,0.800000,-62.530000,0.450000,-61.334736,Hold,0.542236,0.000000,Hold,-175.000000,2.000000,LowGoal,2145.000000,-2181.818182,Speed,2130.000000,-2181.818182,Speed,Off,Off,0.000000,FALSE,0,,,,,0.000000,0.000000
08:16:25.929 AM 04/14/2016,Teleop Enabled,10,FALSE,0,NO ERROR,-0.000000,-0.436332,-0.000000,0.044917,TRUE,FALSE,TRUE,FALSE,FALSE,FALSE,Disabled,0.000000,0.000000,0.000000,TRUE,-0.070038,0.019867,0.000000,-0.041443,0.009079,0.000000,0.021000,0.168000,-0.150000,0.900000,-62.530000,0.310000,-61.329352,Hold,0.542236,0.000000,Hold,-175.000000,2.000000,LowGoal,2137.500000,-2181.818182,Speed,2130.000000,-2181.818182,Speed,Off,Off,0.000000,FALSE,0,,,,,0.000000,0.000000
08:16:26.031 AM 04/14/2016,Teleop Enabled,6,FALSE,0,NO ERROR,-0.000000,-0.436332,-0.000000,0.044917,TRUE,FALSE,TRUE,FALSE,FALSE,FALSE,Disabled,0.000000,0.000000,0.000000,TRUE,-0.070679,0.024292,0.000000,0.015549,0.123947,0.000000,0.050000,0.066000,-0.111000,0.910000,-62.530000,0.540000,-61.326319,Hold,0.542236,0.000000,Hold,-175.000000,2.000000,LowGoal,2145.000000,-2181.818182,Speed,2130.000000,-2181.818182,Speed,Off,Off,0.000000,FALSE,0,,,,,0.000000,0.000000
08:16:26.131 AM 04/14/2016,Teleop Enabled,9,FALSE,0,NO ERROR,-0.000000,-0.436332,-0.000000,0.044917,TRUE,FALSE,TRUE,FALSE,FALSE,FALSE,Disabled,0.000000,0.000000,0.000000,TRUE,-0.069748,0.030792,0.000000,0.000534,0.117462,0.000000,-0.060000,-0.060000,0.015000,0.860000,-62.530000,0.400000,-61.303687,Hold,0.542236,0.000000,Hold,-175.000000,2.000000,LowGoal,2152.500000,-2181.818182,Speed,2137.500000,-2181.818182,Speed,Off,Off,0.000000,FALSE,0,,,,,0.000000,0.000000
08:16:26.230 AM 04/14/2016,Teleop Enabled,9,FALSE,0,NO ERROR,-0.000000,-0.436332,-0.000000,0.044917,TRUE,FALSE,TRUE,FALSE,FALSE,FALSE,Disabled,0.000000,0.000000,0.000000,TRUE,-0.071182,0.035950,0.000000,-0.044754,0.111588,0.000000,-0.019000,0.089000,0.219000,0.840000,-62.530000,0.210000,-61.280615,Hold,0.542236,0.000000,Hold,-175.000000,2.000000,LowGoal,2145.000000,-2181.818182,Speed,2137.500000,-2181.818182,Speed,Off,Off,0.000000,FALSE,0,,,,,0.000000,0.000000
08:16:26.331 AM 04/14/2016,Teleop Enabled,9,FALSE,0,NO ERROR,-0.000000,-0.436332,-0.000000,0.044917,TRUE,FALSE,TRUE,FALSE,FALSE,FALSE,Disabled,0.000000,0.000000,0.000000,TRUE,-0.073746,0.044434,0.000000,-0.046082,0.199570,0.000000,-0.003000,0.039000,0.221000,0.870000,-62.530000,0.460000,-61.279930,Hold,0.542236,0.000000,Hold,-175.000000,2.000000,LowGoal,2137.500000,-2181.818182,Speed,2137.500000,-2181.818182,Speed,Off,Off,0.000000,FALSE,0,,,,,0.000000,0.000000
08:16:26.431 AM 04/14/2016,Teleop Enabled,9,FALSE,0,NO ERROR,-0.000000,-0.436332,-0.000000,0.044917,TRUE,FALSE,TRUE,FALSE,FALSE,FALSE,Disabled,0.000000,0.000000,0.000000,TRUE,-0.076599,0.053085,0.000000,-0.058807,0.129166,0.000000,0.115000,-0.081000,0.188000,0.890000,-62.530000,0.300000,-61.270315,Hold,0.542236,0.000000,Hold,-175.000000,2.000000,LowGoal,2145.000000,-2181.818182,Speed,2130.000000,-2181.818182,Speed,Off,Off,0.000000,FALSE,0,,,,,0.000000,0.000000
08:16:26.531 AM 04/14/2016,Teleop Enabled,9,FALSE,0,NO ERROR,-0.000000,-0.436332,-0.000000,0.044917,TRUE,FALSE,TRUE,FALSE,FALSE,FALSE,Disabled,0.000000,0.000000,0.000000,TRUE,-0.076630,0.057495,0.000000,0.038254,0.067810,0.000000,0.066000,-0.011000,0.213000,0.860000,-62.530000,0.280000,-61.263946,Hold,0.542236,0.000000,Hold,-175.000000,2.000000,LowGoal,2145.000000,-2181.818182,Speed,2137.500000,-2181.818182,Speed,Off,Off,0.000000,FALSE,0,,,,,0.000000,0.000000
08:16:26.631 AM 04/14/2016,Teleop Enabled,9,FALSE,0,NO ERROR,-0.000000,-0.436332,-0.000000,0.044917,TRUE,FALSE,TRUE,FALSE,FALSE,FALSE,Disabled,0.000000,0.000000,0.000000,TRUE,-0.072083,0.060623,0.000000,0.086899,0.039230,0.000000,-0.087000,-0.062000,0.121000,0.920000,-62.530000,0.420000,-61.274883,Hold,0.542236,0.000000,Hold,-175.000000,2.000000,LowGoal,2152.500000,-2181.818182,Speed,2137.500000,-2181.818182,Speed,Off,Off,0.000000,FALSE,0,,,,,0.000000,0.000000
08:16:26.731 AM 04/14/2016,Teleop Enabled,9,FALSE,0,NO ERROR,-0.000000,-0.436332,-0.000000,0.044917,TRUE,FALSE,TRUE,FALSE,FALSE,FALSE,Disabled,0.000000,0.000000,0.000000,TRUE,-0.068665,0.061234,0.000000,0.089783,-0.006226,0.000000,0.001000,-0.056000,-0.033000,0.920000,-62.530000,0.350000,-61.272271,Hold,0.542236,0.000000,Hold,-175.000000,2.000000,LowGoal,2145.000000,-2181.818182,Speed,2137.500000,-2181.818182,Speed,Off,Off,0.000000,FALSE,0,,,,,0.000000,0.000000
08:16:26.831 AM 04/14/2016,Teleop Enabled,9,FALSE,0,NO ERROR,-0.000000,-0.436332,-0.000000,0.044917,TRUE,FALSE,TRUE,FALSE,FALSE,FALSE,Disabled,0.000000,0.000000,0.000000,TRUE,-0.066757,0.059311,0.000000,-0.001831,-0.027039,0.000000,-0.053000,0.043000,-0.224000,0.810000,-62.530000,0.400000,-61.262841,Hold,0.542236,0.000000,Hold,-175.000000,2.000000,LowGoal,2145.000000,-2181.818182,Speed,2137.500000,-2181.818182,Speed,Off,Off,0.000000,FALSE,0,,,,,0.000000,0.000000
08:16:26.932 AM 04/14/2016,Teleop Enabled,8,FALSE,0,NO ERROR,-0.000000,-0.436332,-0.000000,0.044917,TRUE,FALSE,TRUE,FALSE,FALSE,FALSE,Disabled,0.000000,0.000000,0.000000,TRUE,-0.068695,0.059311,0.000000,-0.064636,0.024277,0.000000,-0.053000,0.043000,-0.224000,0.810000,-62.530000,0.400000,-61.260080,Hold,0.542236,0.000000,Hold,-175.000000,2.000000,LowGoal,2152.500000,-2181.818182,Speed,2137.500000,-2181.818182,Speed,Off,Off,0.000000,FALSE,0,,,,,0.000000,0.000000
08:16:27.033 AM 04/14/2016,Teleop Enabled,8,FALSE,0,NO ERROR,-0.000000,-0.436332,-0.000000,0.044917,TRUE,FALSE,TRUE,FALSE,FALSE,FALSE,Disabled,0.000000,0.000000,0.000000,TRUE,-0.069672,0.061630,0.000000,-0.018936,0.000000,0.000000,-0.002000,0.063000,-0.225000,0.950000,-62.540000,0.570000,-61.263217,Hold,0.542236,0.000000,Hold,-175.000000,2.000000,LowGoal,2145.000000,-2181.818182,Speed,2130.000000,-2181.818182,Speed,Off,Off,0.000000,FALSE,0,,,,,0.000000,0.000000
08:16:27.134 AM 04/14/2016,Teleop Enabled,10,FALSE,0,NO ERROR,-0.000000,-0.436332,-0.000000,0.044917,TRUE,FALSE,TRUE,FALSE,FALSE,FALSE,Disabled,0.000000,0.000000,0.000000,TRUE,-0.071671,0.061478,0.000000,-0.063736,-0.013336,0.000000,0.026000,0.038000,-0.247000,0.930000,-62.540000,0.410000,-61.260315,Hold,0.542236,0.000000,Hold,-175.000000,2.000000,LowGoal,2152.500000,-2181.818182,Speed,2137.500000,-2181.818182,Speed,Off,Off,0.000000,FALSE,0,,,,,0.000000,0.000000
08:16:27.233 AM 04/14/2016,Teleop Enabled,8,FALSE,0,NO ERROR,-0.000000,-0.436332,-0.000000,0.044917,TRUE,FALSE,TRUE,FALSE,FALSE,FALSE,Disabled,0.000000,0.000000,0.000000,TRUE,-0.076874,0.058029,0.000000,-0.103363,-0.079117,0.000000,-0.031000,-0.116000,-0.120000,0.830000,-62.530000,0.230000,-61.255863,Hold,0.542236,0.000000,Hold,-175.000000,2.000000,LowGoal,2152.500000,-2181.818182,Speed,2137.500000,-2181.818182,Speed,Off,Off,0.000000,FALSE,0,,,,,0.000000,0.000000
08:16:27.334 AM 04/14/2016,Teleop Enabled,10,FALSE,0,NO ERROR,-0.000000,-0.436332,-0.000000,0.044917,TRUE,FALSE,TRUE,FALSE,FALSE,FALSE,Disabled,0.000000,0.000000,0.000000,TRUE,-0.083832,0.054535,0.000000,-0.163620,-0.052994,0.000000,-0.091000,-0.074000,-0.019000,0.820000,-62.530000,0.190000,-61.254655,Hold,0.542236,0.000000,Hold,-175.000000,2.000000,LowGoal,2152.500000,-2181.818182,Speed,2145.000000,-2181.818182,Speed,Off,Off,0.000000,FALSE,0,,,,,0.000000,0.000000
08:16:27.434 AM 04/14/2016,Teleop Enabled,11,FALSE,0,NO ERROR,-0.000000,-0.436332,-0.000000,0.044917,TRUE,FALSE,TRUE,FALSE,FALSE,FALSE,Disabled,0.000000,0.000000,0.000000,TRUE,-0.083832,0.054535,0.000000,-0.163620,-0.052994,0.000000,-0.057000,0.078000,0.045000,0.820000,-62.530000,0.190000,-61.237122,Hold,0.542236,0.000000,Hold,-175.000000,2.000000,LowGoal,2167.500000,-2181.818182,Speed,2137.500000,-2181.818182,Speed,Off,Off,0.000000,FALSE,0,,,,,0.000000,0.000000
08:16:27.535 AM 04/14/2016,Teleop Enabled,13,FALSE,0,NO ERROR,-0.000000,-0.436332,-0.000000,0.044917,TRUE,FALSE,TRUE,FALSE,FALSE,FALSE,Disabled,0.000000,0.000000,0.000000,TRUE,-0.095276,0.054291,0.000000,-0.267578,0.015747,0.000000,-0.076000,0.010000,0.025000,1.040000,-62.530000,0.210000,-61.235266,Hold,0.542236,0.000000,Hold,-175.000000,2.000000,LowGoal,2152.500000,-2181.818182,Speed,2137.500000,-2181.818182,Speed,Off,Off,0.000000,FALSE,0,,,,,0.000000,0.000000
08:16:27.637 AM 04/14/2016,Teleop Enabled,12,FALSE,0,NO ERROR,-0.000000,-0.436332,-0.000000,0.044917,TRUE,FALSE,TRUE,FALSE,FALSE,FALSE,Disabled,0.000000,0.000000,0.000000,TRUE,-0.108994,0.056503,0.000000,-0.255295,0.071030,0.000000,0.069000,0.003000,0.000000,1.050000,-62.540000,0.280000,-61.249429,Hold,0.542236,0.000000,Hold,-175.000000,2.000000,LowGoal,2145.000000,-2181.818182,Speed,2137.500000,-2181.818182,Speed,Off,Off,0.000000,FALSE,0,,,,,0.000000,0.000000
08:16:27.736 AM 04/14/2016,Teleop Enabled,10,FALSE,0,NO ERROR,-0.000000,-0.436332,-0.000000,0.044917,TRUE,FALSE,TRUE,FALSE,FALSE,FALSE,Disabled,0.000000,0.000000,0.000000,TRUE,-0.119598,0.060104,0.000000,-0.195892,0.058868,0.000000,-0.002000,-0.028000,0.079000,0.930000,-62.540000,0.320000,-61.249429,Hold,0.542236,0.000000,Hold,-175.000000,2.000000,LowGoal,2145.000000,-2181.818182,Speed,2137.500000,-2181.818182,Speed,Off,Off,0.000000,FALSE,0,,,,,0.000000,0.000000
08:16:27.836 AM 04/14/2016,Teleop Enabled,9,FALSE,0,NO ERROR,-0.000000,-0.436332,-0.000000,0.044917,TRUE,FALSE,TRUE,FALSE,FALSE,FALSE,Disabled,0.000000,0.000000,0.000000,TRUE,-0.130005,0.061707,0.000000,-0.209503,0.006638,0.000000,0.045000,0.021000,0.069000,1.000000,-62.540000,0.150000,-61.247047,Hold,0.542236,0.000000,Hold,-175.000000,2.000000,LowGoal,2152.500000,-2181.818182,Speed,2145.000000,-2181.818182,Speed,Off,Off,0.000000,FALSE,0,,,,,0.000000,0.000000
08:16:27.937 AM 04/14/2016,Teleop Enabled,9,FALSE,0,NO ERROR,-0.000000,-0.436332,-0.000000,0.044917,TRUE,FALSE,TRUE,FALSE,FALSE,FALSE,Disabled,0.000000,0.000000,0.000000,TRUE,-0.135956,0.063522,0.000000,0.000000,0.070496,0.000000,0.042000,0.097000,0.053000,1.050000,-62.540000,0.280000,-61.226705,Hold,0.542236,0.000000,Hold,-175.000000,2.000000,LowGoal,2167.500000,-2181.818182,Speed,2137.500000,-2181.818182,Speed,Off,Off,0.000000,FALSE,0,,,,,0.000000,0.000000
08:16:28.038 AM 04/14/2016,Teleop Enabled,10,FALSE,0,NO ERROR,-0.000000,-0.436332,-0.000000,0.044917,TRUE,FALSE,TRUE,FALSE,FALSE,FALSE,Disabled,0.000000,0.000000,0.000000,TRUE,-0.134689,0.069916,0.000000,0.043488,0.154739,0.000000,0.000000,0.009000,-0.041000,1.080000,-62.540000,0.530000,-61.226285,Hold,0.542236,0.000000,Hold,-175.000000,2.000000,LowGoal,2152.500000,-2181.818182,Speed,2137.500000,-2181.818182,Speed,Off,Off,0.000000,FALSE,0,,,,,0.000000,0.000000
08:16:28.139 AM 04/14/2016,Teleop Enabled,11,FALSE,0,NO ERROR,-0.000000,-0.436332,-0.000000,0.044917,TRUE,FALSE,TRUE,FALSE,FALSE,FALSE,Disabled,0.000000,0.000000,0.000000,TRUE,-0.130539,0.079529,0.000000,0.099533,0.164902,0.000000,0.079000,0.051000,0.104000,0.980000,-62.540000,0.460000,-61.222904,Hold,0.542236,0.000000,Hold,-175.000000,2.000000,LowGoal,2145.000000,-2181.818182,Speed,2145.000000,-2181.818182,Speed,Off,Off,0.000000,FALSE,0,,,,,0.000000,0.000000
08:16:28.239 AM 04/14/2016,Teleop Enabled,10,FALSE,0,NO ERROR,-0.000000,-0.436332,-0.000000,0.044917,TRUE,FALSE,TRUE,FALSE,FALSE,FALSE,Disabled,0.000000,0.000000,0.000000,TRUE,-0.127960,0.088074,0.000000,0.014801,0.162430,0.000000,0.017000,-0.042000,0.155000,0.950000,-62.540000,0.470000,-61.216498,Hold,0.542236,0.000000,Hold,-175.000000,2.000000,LowGoal,2167.500000,-2181.818182,Speed,2137.500000,-2181.818182,Speed,Off,Off,0.000000,FALSE,0,,,,,0.000000,0.000000
08:16:28.340 AM 04/14/2016,Teleop Enabled,10,FALSE,0,NO ERROR,-0.000000,-0.436332,-0.000000,0.044917,TRUE,FALSE,TRUE,FALSE,FALSE,FALSE,Disabled,0.000000,0.000000,0.000000,TRUE,-0.126694,0.095215,0.000000,0.033951,0.123062,0.000000,0.039000,-0.072000,0.194000,1.060000,-62.540000,0.470000,-61.204993,Hold,0.542236,0.000000,Hold,-175.000000,2.000000,LowGoal,2167.500000,-2181.818182,Speed,2137.500000,-2181.818182,Speed,Off,Off,0.000000,FALSE,0,,,,,0.000000,0.000000
08:16:28.441 AM 04/14/2016,Teleop Enabled,10,FALSE,0,NO ERROR,-0.000000,-0.436332,-0.000000,0.044917,TRUE,FALSE,TRUE,FALSE,FALSE,FALSE,Disabled,0.000000,0.000000,0.000000,TRUE,-0.124283,0.099503,0.000000,0.063202,0.064453,0.000000,0.092000,0.030000,0.201000,1.130000,-62.530000,0.610000,-61.194445,Hold,0.542236,0.000000,Hold,-175.000000,2.000000,LowGoal,2167.500000,-2181.818182,Speed,2137.500000,-2181.818182,Speed,Off,Off,0.000000,FALSE,0,,,,,0.000000,0.000000
08:16:28.542 AM 04/14/2016,Teleop Enabled,11,FALSE,0,NO ERROR,-0.000000,-0.436332,-0.000000,0.044917,TRUE,FALSE,TRUE,FALSE,FALSE,FALSE,Disabled,0.000000,0.000000,0.000000,TRUE,-0.121841,0.102066,0.000000,-0.003021,0.048355,0.000000,-0.021000,-0.069000,0.133000,1.040000,-62.540000,0.730000,-61.206087,Hold,0.542236,0.000000,Hold,-175.000000,2.000000,LowGoal,2145.000000,-2181.818182,Speed,2137.500000,-2181.818182,Speed,Off,Off,0.000000,FALSE,0,,,,,0.000000,0.000000
08:16:28.642 AM 04/14/2016,Teleop Enabled,10,FALSE,0,NO ERROR,-0.000000,-0.436332,-0.000000,0.044917,TRUE,FALSE,TRUE,FALSE,FALSE,FALSE,Disabled,0.000000,0.000000,0.000000,TRUE,-0.123917,0.102692,0.000000,-0.074203,-0.020279,0.000000,-0.143000,-0.065000,0.066000,0.980000,-62.540000,0.500000,-61.201106,Hold,0.542236,0.000000,Hold,-175.000000,2.000000,LowGoal,2145.000000,-2181.818182,Speed,2137.500000,-2181.818182,Speed,Off,Off,0.000000,FALSE,0,,,,,0.000000,0.000000
08:16:28.743 AM 04/14/2016,Teleop Enabled,10,FALSE,0,NO ERROR,-0.000000,-0.436332,-0.000000,0.044917,TRUE,FALSE,TRUE,FALSE,FALSE,FALSE,Disabled,0.000000,0.000000,0.000000,TRUE,-0.130722,0.101318,0.000000,-0.155411,-0.004745,0.000000,-0.008000,0.108000,-0.142000,1.000000,-62.540000,0.390000,-61.197388,Hold,0.542236,0.000000,Hold,-175.000000,2.000000,LowGoal,2145.000000,-2181.818182,Speed,2137.500000,-2181.818182,Speed,Off,Off,0.000000,FALSE,0,,,,,0.000000,0.000000
08:16:28.844 AM 04/14/2016,Teleop Enabled,11,FALSE,0,NO ERROR,-0.000000,-0.436332,-0.000000,0.044917,TRUE,FALSE,TRUE,FALSE,FALSE,FALSE,Disabled,0.000000,0.000000,0.000000,TRUE,-0.130203,0.103333,0.000000,0.013199,0.054428,0.000000,-0.017000,0.013000,-0.256000,1.030000,-62.540000,0.650000,-61.190465,Hold,0.542236,0.000000,Hold,-175.000000,2.000000,LowGoal,2152.500000,-2181.818182,Speed,2137.500000,-2181.818182,Speed,Off,Off,0.000000,FALSE,0,,,,,0.000000,0.000000
08:16:28.945 AM 04/14/2016,Teleop Enabled,10,FALSE,0,NO ERROR,-0.000000,-0.436332,-0.000000,0.044917,TRUE,FALSE,TRUE,FALSE,FALSE,FALSE,Disabled,0.000000,0.000000,0.000000,TRUE,-0.130554,0.106445,0.000000,-0.025742,0.052307,0.000000,-0.025000,-0.061000,-0.229000,1.110000,-62.530000,0.700000,-61.186998,Hold,0.542236,0.000000,Hold,-175.000000,2.000000,LowGoal,2160.000000,-2181.818182,Speed,2145.000000,-2181.818182,Speed,Off,Off,0.000000,FALSE,0,,,,,0.000000,0.000000
08:16:29.046 AM 04/14/2016,Teleop Enabled,10,FALSE,0,NO ERROR,-0.000000,-0.436332,-0.000000,0.044917,TRUE,FALSE,TRUE,FALSE,FALSE,FALSE,Disabled,0.000000,0.000000,0.000000,TRUE,-0.133530,0.107834,0.000000,-0.059631,0.008499,0.000000,-0.046000,-0.025000,-0.279000,0.980000,-62.540000,0.690000,-61.185126,Hold,0.542236,0.000000,Hold,-175.000000,2.000000,LowGoal,2160.000000,-2181.818182,Speed,2137.500000,-2181.818182,Speed,Off,Off,0.000000,FALSE,0,,,,,0.000000,0.000000
08:16:29.147 AM 04/14/2016,Teleop Enabled,10,FALSE,0,NO ERROR,-0.000000,-0.436332,-0.000000,0.147583,TRUE,FALSE,TRUE,FALSE,FALSE,FALSE,Disabled,0.000000,0.000000,0.000000,TRUE,-0.136536,0.107971,0.000000,-0.076904,0.000000,0.000000,-0.043000,-0.034000,-0.187000,0.950000,-62.550000,0.550000,-61.181470,Hold,0.542236,0.000000,Hold,-175.000000,2.000000,LowGoal,2145.000000,-2181.818182,Speed,2137.500000,-2181.818182,Speed,Off,Off,0.000000,FALSE,0,,,,,0.000000,0.000000
08:16:29.248 AM 04/14/2016,Teleop Enabled,10,FALSE,0,NO ERROR,-0.000000,-0.436332,-0.000000,0.147583,TRUE,FALSE,TRUE,FALSE,FALSE,FALSE,Disabled,0.000000,0.000000,0.000000,TRUE,-0.142380,0.107559,0.000000,-0.140930,-0.001144,0.000000,0.043000,0.077000,-0.227000,1.040000,-62.540000,0.420000,-61.186186,Hold,0.542236,0.000000,Hold,-175.000000,2.000000,LowGoal,2167.500000,-2181.818182,Speed,2145.000000,-2181.818182,Speed,Off,Off,0.000000,FALSE,0,,,,,0.000000,0.000000
08:16:29.349 AM 04/14/2016,Teleop Enabled,10,FALSE,0,NO ERROR,-0.000000,-0.436332,-0.000000,0.147583,TRUE,FALSE,TRUE,FALSE,FALSE,FALSE,Disabled,0.000000,0.000000,0.000000,TRUE,-0.150055,0.109436,0.000000,-0.156754,0.070068,0.000000,0.023000,0.059000,-0.099000,1.090000,-62.550000,0.520000,-61.194042,Hold,0.542236,0.000000,Hold,-175.000000,2.000000,LowGoal,2167.500000,-2181.818182,Speed,2137.500000,-2181.818182,Speed,Off,Off,0.000000,FALSE,0,,,,,0.000000,0.000000
08:16:29.449 AM 04/14/2016,Teleop Enabled,11,FALSE,0,NO ERROR,-0.000000,-0.436332,-0.000000,0.147583,TRUE,FALSE,TRUE,FALSE,FALSE,FALSE,Disabled,0.000000,0.000000,0.000000,TRUE,-0.157455,0.115601,0.000000,-0.143280,0.162750,0.000000,-0.008000,0.025000,-0.007000,1.140000,-62.550000,0.710000,-61.189119,Hold,0.542236,0.000000,Hold,-175.000000,2.000000,LowGoal,2145.000000,-2181.818182,Speed,2137.500000,-2181.818182,Speed,Off,Off,0.000000,FALSE,0,,,,,0.000000,0.000000
08:16:29.549 AM 04/14/2016,Teleop Enabled,10,FALSE,0,NO ERROR,-0.000000,-0.436332,-0.000000,0.147583,TRUE,FALSE,TRUE,FALSE,FALSE,FALSE,Disabled,0.000000,0.000000,0.000000,TRUE,-0.163589,0.122284,0.000000,-0.164520,0.153915,0.000000,-0.029000,-0.045000,0.088000,1.110000,-62.550000,0.480000,-61.183924,Hold,0.542236,0.000000,Hold,-175.000000,2.000000,LowGoal,2152.500000,-2181.818182,Speed,2137.500000,-2181.818182,Speed,Off,Off,0.000000,FALSE,0,,,,,0.000000,0.000000
08:16:29.649 AM 04/14/2016,Teleop Enabled,11,FALSE,0,NO ERROR,-0.000000,-0.436332,-0.000000,0.147583,TRUE,FALSE,TRUE,FALSE,FALSE,FALSE,Disabled,0.000000,0.000000,0.000000,TRUE,-0.174820,0.130417,0.000000,-0.202972,0.153214,0.000000,-0.016000,0.123000,0.174000,1.020000,-62.550000,0.450000,-61.181738,Hold,0.542236,0.000000,Hold,-175.000000,2.000000,LowGoal,2152.500000,-2181.818182,Speed,2137.500000,-2181.818182,Speed,Off,Off,0.000000,FALSE,0,,,,,0.000000,0.000000
08:16:29.749 AM 04/14/2016,Teleop Enabled,10,FALSE,0,NO ERROR,-0.000000,-0.436332,-0.000000,0.154000,TRUE,FALSE,TRUE,FALSE,FALSE,FALSE,Disabled,0.000000,0.000000,0.000000,TRUE,-0.184906,0.140671,0.000000,-0.197388,0.214996,0.000000,-0.058000,-0.040000,0.312000,1.080000,-62.550000,0.570000,-61.185291,Hold,0.542236,0.000000,Hold,-175.000000,2.000000,LowGoal,2145.000000,-2181.818182,Speed,2137.500000,-2181.818182,Speed,Off,Off,0.000000,FALSE,0,,,,,0.000000,0.000000
08:16:29.849 AM 04/14/2016,Teleop Enabled,10,FALSE,0,NO ERROR,-0.000000,-0.436332,-0.000000,0.154000,TRUE,FALSE,TRUE,FALSE,FALSE,FALSE,Disabled,0.000000,0.000000,0.000000,TRUE,-0.194992,0.149872,0.000000,-0.189590,0.164978,0.000000,0.058000,-0.018000,0.232000,1.070000,-62.550000,0.470000,-61.185305,Hold,0.542236,0.000000,Hold,-175.000000,2.000000,LowGoal,2145.000000,-2181.818182,Speed,2137.500000,-2181.818182,Speed,Off,Off,0.000000,FALSE,0,,,,,0.000000,0.000000
08:16:29.949 AM 04/14/2016,Teleop Enabled,10,FALSE,0,NO ERROR,-0.000000,-0.436332,-0.000000,0.154000,TRUE,FALSE,TRUE,FALSE,FALSE,FALSE,Disabled,0.000000,0.000000,0.000000,TRUE,-0.201416,0.151016,0.000000,-0.073303,-0.028107,0.000000,0.117000,-0.075000,0.211000,0.950000,-62.540000,0.470000,-61.174292,Hold,0.542236,0.000000,Hold,-175.000000,2.000000,LowGoal,2152.500000,-2181.818182,Speed,2137.500000,-2181.818182,Speed,Off,Off,0.000000,FALSE,0,,,,,0.000000,0.000000
08:16:30.049 AM 04/14/2016,Teleop Enabled,10,FALSE,0,NO ERROR,-0.000000,-0.436332,-0.000000,0.154000,TRUE,FALSE,TRUE,FALSE,FALSE,FALSE,Disabled,0.000000,0.000000,0.000000,TRUE,-0.202271,0.148026,0.000000,0.003723,-0.075775,0.000000,0.058000,-0.049000,0.138000,0.990000,-62.540000,0.470000,-61.176994,Hold,0.542236,0.000000,Hold,-175.000000,2.000000,LowGoal,2152.500000,-2181.818182,Speed,2137.500000,-2181.818182,Speed,Off,Off,0.000000,FALSE,0,,,,,0.000000,0.000000
08:16:30.149 AM 04/14/2016,Teleop Enabled,10,FALSE,0,NO ERROR,-0.000000,-0.436332,-0.000000,0.154000,TRUE,FALSE,TRUE,FALSE,FALSE,FALSE,Disabled,0.000000,0.000000,0.000000,TRUE,-0.200699,0.143204,0.000000,0.045792,-0.103561,0.000000,0.022000,0.023000,0.047000,1.090000,-62.550000,0.540000,-61.169273,Hold,0.542236,0.000000,Hold,-175.000000,2.000000,LowGoal,2152.500000,-2181.818182,Speed,2137.500000,-2181.818182,Speed,Off,Off,0.000000,FALSE,0,,,,,0.000000,0.000000
08:16:30.249 AM 04/14/2016,Teleop Enabled,10,FALSE,0,NO ERROR,-0.000000,-0.436332,-0.000000,0.154000,TRUE,FALSE,TRUE,FALSE,FALSE,FALSE,Disabled,0.000000,0.000000,0.000000,TRUE,-0.197388,0.140732,0.000000,0.057373,-0.020615,0.000000,-0.085000,-0.112000,-0.198000,1.030000,-62.550000,0.600000,-61.175807,Hold,0.542236,0.000000,Hold,-175.000000,2.000000,LowGoal,2145.000000,-2181.818182,Speed,2137.500000,-2181.818182,Speed,Off,Off,0.000000,FALSE,0,,,,,0.000000,0.000000
08:16:30.349 AM 04/14/2016,Teleop Enabled,10,FALSE,0,NO ERROR,-0.000000,-0.436332,-0.000000,0.154000,TRUE,FALSE,TRUE,FALSE,FALSE,FALSE,Disabled,0.000000,0.000000,0.000000,TRUE,-0.196548,0.139221,0.000000,-0.008286,0.000000,0.000000,-0.014000,0.048000,-0.241000,1.020000,-62.550000,0.300000,-61.173059,Hold,0.542236,0.000000,Hold,-175.000000,2.000000,LowGoal,2152.500000,-2181.818182,Speed,2145.000000,-2181.818182,Speed,Off,Off,0.000000,FALSE,0,,,,,0.000000,0.000000
08:16:30.449 AM 04/14/2016,Teleop Enabled,11,FALSE,0,NO ERROR,-0.000000,-0.436332,-0.000000,0.154000,TRUE,FALSE,TRUE,FALSE,FALSE,FALSE,Disabled,0.000000,0.000000,0.000000,TRUE,-0.197449,0.141083,0.000000,0.000000,0.064621,0.000000,-0.034000,0.036000,-0.195000,1.050000,-62.550000,0.390000,-61.155220,Hold,0.542236,0.000000,Hold,-175.000000,2.000000,LowGoal,2152.500000,-2181.818182,Speed,2145.000000,-2181.818182,Speed,Off,Off,0.000000,FALSE,0,,,,,0.000000,0.000000
08:16:30.549 AM 04/14/2016,Teleop Enabled,10,FALSE,0,NO ERROR,-0.000000,-0.436332,-0.000000,0.154000,TRUE,FALSE,TRUE,FALSE,FALSE,FALSE,Disabled,0.000000,0.000000,0.000000,TRUE,-0.197937,0.145020,0.000000,-0.026459,0.071350,0.000000,-0.037000,0.006000,-0.082000,1.100000,-62.550000,0.520000,-61.125039,Hold,0.542236,0.000000,Hold,-175.000000,2.000000,LowGoal,2152.500000,-2181.818182,Speed,2137.500000,-2181.818182,Speed,Off,Off,0.000000,FALSE,0,,,,,0.000000,0.000000
08:16:30.649 AM 04/14/2016,Teleop Enabled,11,FALSE,0,NO ERROR,-0.000000,-0.436332,-0.000000,0.154000,TRUE,FALSE,TRUE,FALSE,FALSE,FALSE,Disabled,0.000000,0.000000,0.000000,TRUE,-0.201157,0.147934,0.000000,-0.092850,0.040146,0.000000,-0.041000,-0.037000,-0.071000,1.070000,-62.550000,0.320000,-61.123841,Hold,0.542236,0.000000,Hold,-175.000000,2.000000,LowGoal,2145.000000,-2181.818182,Speed,2137.500000,-2181.818182,Speed,Off,Off,0.000000,FALSE,0,,,,,0.000000,0.000000
08:16:30.749 AM 04/14/2016,Teleop Enabled,10,FALSE,0,NO ERROR,-0.000000,-0.436332,-0.000000,0.154000,TRUE,FALSE,TRUE,FALSE,FALSE,FALSE,Disabled,0.000000,0.000000,0.000000,TRUE,-0.207123,0.148239,0.000000,-0.129211,0.000000,0.000000,-0.108000,0.020000,-0.024000,0.920000,-62.550000,0.150000,-61.123225,Hold,0.542236,0.000000,Hold,-175.000000,2.000000,LowGoal,2152.500000,-2181.818182,Speed,2145.000000,-2181.818182,Speed,Off,Off,0.000000,FALSE,0,,,,,0.000000,0.000000
08:16:30.849 AM 04/14/2016,Teleop Enabled,10,FALSE,0,NO ERROR,-0.000000,-0.436332,-0.000000,0.154000,TRUE,FALSE,TRUE,FALSE,FALSE,FALSE,Disabled,0.000000,0.000000,0.000000,TRUE,-0.215714,0.149567,0.000000,-0.200516,0.051102,0.000000,-0.093000,0.014000,-0.006000,1.040000,-62.550000,0.290000,-61.122127,Hold,0.542236,0.000000,Hold,-175.000000,2.000000,LowGoal,2152.500000,-2181.818182,Speed,2145.000000,-2181.818182,Speed,Off,Off,0.000000,FALSE,0,,,,,0.000000,0.000000
08:16:30.949 AM 04/14/2016,Teleop Enabled,11,FALSE,0,NO ERROR,-0.000000,-0.436332,-0.000000,0.154000,TRUE,FALSE,TRUE,FALSE,FALSE,FALSE,Disabled,0.000000,0.000000,0.000000,TRUE,-0.227509,0.153137,0.000000,-0.250443,0.080322,0.000000,0.033000,0.065000,0.017000,1.140000,-62.550000,0.350000,-61.110278,Hold,0.542236,0.000000,Hold,-175.000000,2.000000,LowGoal,2152.500000,-2181.818182,Speed,2137.500000,-2181.818182,Speed,Off,Off,0.000000,FALSE,0,,,,,0.000000,0.000000
08:16:31.049 AM 04/14/2016,Teleop Enabled,11,FALSE,0,NO ERROR,-0.000000,-0.436332,-0.000000,0.154000,TRUE,FALSE,TRUE,FALSE,FALSE,FALSE,Disabled,0.000000,0.000000,0.000000,TRUE,-0.234558,0.156235,0.000000,0.011200,0.000000,0.000000,-0.020000,-0.024000,0.184000,0.980000,-62.550000,0.370000,-61.101344,Hold,0.542236,0.000000,Hold,-175.000000,2.000000,LowGoal,2152.500000,-2181.818182,Speed,2145.000000,-2181.818182,Speed,Off,Off,0.000000,FALSE,0,,,,,0.000000,0.000000
08:16:31.149 AM 04/14/2016,Teleop Enabled,11,FALSE,0,NO ERROR,-0.000000,-0.436332,-0.000000,0.154000,TRUE,FALSE,TRUE,FALSE,FALSE,FALSE,Disabled,0.000000,0.000000,0.000000,TRUE,-0.234314,0.155487,0.000000,-0.000717,-0.019501,0.000000,-0.052000,0.086000,0.137000,0.940000,-62.550000,0.190000,-61.097285,Hold,0.542236,0.000000,Hold,-175.000000,2.000000,LowGoal,2152.500000,-2181.818182,Speed,2145.000000,-2181.818182,Speed,Off,Off,0.000000,FALSE,0,,,,,0.000000,0.000000
08:16:31.249 AM 04/14/2016,Teleop Enabled,11,FALSE,0,NO ERROR,-0.000000,-0.436332,-0.000000,0.154000,TRUE,FALSE,TRUE,FALSE,FALSE,FALSE,Disabled,0.000000,0.000000,0.000000,TRUE,-0.234360,0.156586,0.000000,0.012527,0.045395,0.000000,0.000000,0.031000,0.191000,1.120000,-62.550000,0.200000,-61.109565,Hold,0.542236,0.000000,Hold,-175.000000,2.000000,LowGoal,2152.500000,-2181.818182,Speed,2145.000000,-2181.818182,Speed,Off,Off,0.000000,FALSE,0,,,,,0.000000,0.000000
08:16:31.349 AM 04/14/2016,Teleop Enabled,11,FALSE,0,NO ERROR,-0.000000,-0.436332,-0.000000,0.154000,TRUE,FALSE,TRUE,FALSE,FALSE,FALSE,Disabled,0.000000,0.000000,0.000000,TRUE,-0.233719,0.159622,0.000000,0.032181,0.071625,0.000000,0.070000,0.043000,-0.022000,1.120000,-62.550000,0.340000,-61.122719,Hold,0.542236,0.000000,Hold,-175.000000,2.000000,LowGoal,2152.500000,-2181.818182,Speed,2137.500000,-2181.818182,Speed,Off,Off,0.000000,FALSE,0,,,,,0.000000,0.000000
08:16:31.449 AM 04/14/2016,Teleop Enabled,10,FALSE,0,NO ERROR,-0.000000,-0.436332,-0.000000,0.154000,TRUE,FALSE,TRUE,FALSE,FALSE,FALSE,Disabled,0.000000,0.000000,0.000000,TRUE,-0.230438,0.164444,0.000000,0.083282,0.105530,0.000000,-0.020000,-0.104000,0.101000,1.000000,-62.550000,0.420000,-61.110697,Hold,0.542236,0.000000,Hold,-175.000000,2.000000,LowGoal,2152.500000,-2181.818182,Speed,2145.000000,-2181.818182,Speed,Off,Off,0.000000,FALSE,0,,,,,0.000000,0.000000
08:16:31.549 AM 04/14/2016,Teleop Enabled,11,FALSE,0,NO ERROR,-0.000000,-0.436332,-0.000000,0.154000,TRUE,FALSE,TRUE,FALSE,FALSE,FALSE,Disabled,0.000000,0.000000,0.000000,TRUE,-0.225632,0.167389,0.000000,0.109238,0.031113,0.000000,-0.073000,-0.038000,0.197000,1.010000,-62.550000,0.120000,-61.101977,Hold,0.542236,0.000000,Hold,-175.000000,2.000000,LowGoal,2160.000000,-2181.818182,Speed,2145.000000,-2181.818182,Speed,Off,Off,0.000000,FALSE,0,,,,,0.000000,0.000000
08:16:31.649 AM 04/14/2016,Teleop Enabled,10,FALSE,0,NO ERROR,-0.000000,-0.436332,-0.000000,0.154000,TRUE,FALSE,TRUE,FALSE,FALSE,FALSE,Disabled,0.000000,0.000000,0.000000,TRUE,-0.220276,0.167969,0.000000,0.124390,0.001297,0.000000,0.087000,0.072000,0.150000,1.100000,-62.550000,0.120000,-61.105265,Hold,0.542236,0.000000,Hold,-175.000000,2.000000,LowGoal,2152.500000,-2181.818182,Speed,2145.000000,-2181.818182,Speed,Off,Off,0.000000,FALSE,0,,,,,0.000000,0.000000
08:16:31.749 AM 04/14/2016,Teleop Enabled,9,FALSE,0,NO ERROR,-0.000000,-0.436332,-0.000000,0.154000,TRUE,FALSE,TRUE,FALSE,FALSE,FALSE,Disabled,0.000000,0.000000,0.000000,TRUE,-0.215759,0.169037,0.000000,0.000000,0.028809,0.000000,0.061000,-0.015000,0.085000,1.190000,-62.550000,0.470000,-61.104804,Hold,0.542236,0.000000,Hold,-175.000000,2.000000,LowGoal,2160.000000,-2181.818182,Speed,2137.500000,-2181.818182,Speed,Off,Off,0.000000,FALSE,0,,,,,0.000000,0.000000
08:16:31.849 AM 04/14/2016,Teleop Enabled,9,FALSE,0,NO ERROR,-0.000000,-0.436332,-0.000000,0.154000,TRUE,FALSE,TRUE,FALSE,FALSE,FALSE,Disabled,0.000000,0.000000,0.000000,TRUE,-0.215363,0.169357,0.000000,0.009247,-0.021393,0.000000,-0.007000,-0.121000,0.103000,1.130000,-62.550000,0.410000,-61.103816,Hold,0.542236,0.000000,Hold,-175.000000,2.000000,LowGoal,2152.500000,-2181.818182,Speed,2145.000000,-2181.818182,Speed,Off,Off,0.000000,FALSE,0,,,,,0.000000,0.000000
08:16:31.950 AM 04/14/2016,Teleop Enabled,10,FALSE,0,NO ERROR,-0.000000,-0.436332,-0.000000,0.154000,TRUE,FALSE,TRUE,FALSE,FALSE,FALSE,Disabled,0.000000,0.000000,0.000000,TRUE,-0.215057,0.165573,0.000000,0.005341,-0.094849,0.000000,-0.089000,0.016000,0.101000,0.960000,-62.550000,0.310000,-61.102508,Hold,0.542236,0.000000,Hold,-175.000000,2.000000,LowGoal,2145.000000,-2181.818182,Speed,2145.000000,-2181.818182,Speed,Off,Off,0.000000,FALSE,0,,,,,0.000000,0.000000
08:16:32.050 AM 04/14/2016,Teleop Enabled,10,FALSE,0,NO ERROR,-0.000000,-0.436332,-0.000000,0.154000,TRUE,FALSE,TRUE,FALSE,FALSE,FALSE,Disabled,0.000000,0.000000,0.000000,TRUE,-0.217224,0.162048,0.000000,-0.066727,-0.048264,0.000000,-0.066000,0.095000,-0.021000,1.070000,-62.550000,0.340000,-61.094332,Hold,0.542236,0.000000,Hold,-175.000000,2.000000,LowGoal,2152.500000,-2181.818182,Speed,2137.500000,-2181.818182,Speed,Off,Off,0.000000,FALSE,0,,,,,0.000000,0.000000
08:16:32.150 AM 04/14/2016,Teleop Enabled,9,FALSE,0,NO ERROR,-0.000000,-0.436332,-0.000000,0.154000,TRUE,FALSE,TRUE,FALSE,FALSE,FALSE,Disabled,0.000000,0.000000,0.000000,TRUE,-0.222641,0.160034,0.000000,-0.137268,-0.046188,0.000000,-0.016000,-0.030000,-0.174000,1.160000,-62.550000,0.340000,-61.078365,Hold,0.542236,0.000000,Hold,-175.000000,2.000000,LowGoal,2160.000000,-2181.818182,Speed,2145.000000,-2181.818182,Speed,Off,Off,0.000000,FALSE,0,,,,,0.000000,0.000000
08:16:32.251 AM 04/14/2016,Teleop Enabled,9,FALSE,0,NO ERROR,-0.000000,-0.436332,-0.000000,0.154000,TRUE,FALSE,TRUE,FALSE,FALSE,FALSE,Disabled,0.000000,0.000000,0.000000,TRUE,-0.227386,0.157501,0.000000,0.005661,-0.038651,0.000000,0.006000,-0.029000,-0.141000,1.070000,-62.550000,0.500000,-61.078155,Hold,0.542236,0.000000,Hold,-175.000000,2.000000,LowGoal,2152.500000,-2181.818182,Speed,2145.000000,-2181.818182,Speed,Off,Off,0.000000,FALSE,0,,,,,0.000000,0.000000
08:16:32.352 AM 04/14/2016,Teleop Enabled,10,FALSE,0,NO ERROR,-0.000000,-0.436332,-0.000000,0.154000,TRUE,FALSE,TRUE,FALSE,FALSE,FALSE,Disabled,0.000000,0.000000,0.000000,TRUE,-0.226837,0.154892,0.000000,0.000000,-0.062363,0.000000,-0.019000,-0.073000,-0.156000,0.990000,-62.550000,0.500000,-61.064409,Hold,0.542236,0.000000,Hold,-175.000000,2.000000,LowGoal,2152.500000,-2181.818182,Speed,2145.000000,-2181.818182,Speed,Off,Off,0.000000,FALSE,0,,,,,0.000000,0.000000
08:16:32.453 AM 04/14/2016,Teleop Enabled,10,FALSE,0,NO ERROR,-0.000000,-0.436332,-0.000000,0.154000,TRUE,FALSE,TRUE,FALSE,FALSE,FALSE,Disabled,0.000000,0.000000,0.000000,TRUE,-0.226715,0.149994,0.000000,-0.001877,-0.120148,0.000000,0.024000,-0.028000,-0.166000,1.030000,-62.550000,0.290000,-61.055224,Hold,0.542236,0.000000,Hold,-175.000000,2.000000,LowGoal,2160.000000,-2181.818182,Speed,2137.500000,-2181.818182,Speed,Off,Off,0.000000,FALSE,0,,,,,0.000000,0.000000
08:16:32.554 AM 04/14/2016,Teleop Enabled,10,FALSE,0,NO ERROR,-0.000000,-0.436332,-0.000000,0.154000,TRUE,FALSE,TRUE,FALSE,FALSE,FALSE,Disabled,0.000000,0.000000,0.000000,TRUE,-0.226913,0.143890,0.000000,-0.010162,-0.113876,0.000000,0.024000,-0.028000,-0.166000,0.980000,-62.550000,0.320000,-61.062688,Hold,0.542236,0.000000,Hold,-175.000000,2.000000,LowGoal,2175.000000,-2181.818182,Speed,2145.000000,-2181.818182,Speed,Off,Off,0.000000,FALSE,0,,,,,0.000000,0.000000
08:16:32.654 AM 04/14/2016,Teleop Enabled,10,FALSE,0,NO ERROR,-0.000000,-0.436332,-0.000000,0.154000,TRUE,FALSE,TRUE,FALSE,FALSE,FALSE,Disabled,0.000000,0.000000,0.000000,TRUE,-0.227661,0.139130,0.000000,-0.031540,-0.076035,0.000000,-0.005000,0.045000,-0.186000,1.030000,-62.550000,0.330000,-61.057331,Hold,0.542236,0.000000,Hold,-175.000000,2.000000,LowGoal,2160.000000,-2181.818182,Speed,2145.000000,-2181.818182,Speed,Off,Off,0.000000,FALSE,0,,,,,0.000000,0.000000
08:16:32.755 AM 04/14/2016,Teleop Enabled,8,FALSE,0,NO ERROR,-0.000000,-0.436332,-0.000000,0.154000,TRUE,FALSE,TRUE,FALSE,FALSE,FALSE,Disabled,0.000000,0.000000,0.000000,TRUE,-0.230316,0.137039,0.000000,-0.063293,0.000000,0.000000,-0.039000,0.010000,-0.093000,1.180000,-62.550000,0.350000,-61.048212,Hold,0.542236,0.000000,Hold,-175.000000,2.000000,LowGoal,2152.500000,-2181.818182,Speed,2145.000000,-2181.818182,Speed,Off,Off,0.000000,FALSE,0,,,,,0.000000,0.000000
08:16:32.856 AM 04/14/2016,Teleop Enabled,11,FALSE,0,NO ERROR,-0.000000,-0.436332,-0.000000,0.154000,TRUE,FALSE,TRUE,FALSE,FALSE,FALSE,Disabled,0.000000,0.000000,0.000000,TRUE,-0.232162,0.139648,0.000000,-0.010422,0.089996,0.000000,0.068000,0.083000,-0.074000,1.150000,-62.550000,0.490000,-61.038270,Hold,0.542236,0.000000,Hold,-175.000000,2.000000,LowGoal,2160.000000,-2181.818182,Speed,2145.000000,-2181.818182,Speed,Off,Off,0.000000,FALSE,0,,,,,0.000000,0.000000
08:16:32.956 AM 04/14/2016,Teleop Enabled,9,FALSE,0,NO ERROR,-0.000000,-0.436332,-0.000000,0.154000,TRUE,FALSE,TRUE,FALSE,FALSE,FALSE,Disabled,0.000000,0.000000,0.000000,TRUE,-0.231201,0.147552,0.000000,0.022293,0.140472,0.000000,0.068000,0.083000,-0.074000,1.030000,-62.550000,0.550000,-61.047809,Hold,0.542236,0.000000,Hold,-175.000000,2.000000,LowGoal,2167.500000,-2181.818182,Speed,2137.500000,-2181.818182,Speed,Off,Off,0.000000,FALSE,0,,,,,0.000000,0.000000
08:16:33.056 AM 04/14/2016,Teleop Enabled,14,FALSE,0,NO ERROR,-0.000000,-0.436332,-0.000000,0.154000,TRUE,FALSE,TRUE,FALSE,FALSE,FALSE,Disabled,0.000000,0.000000,0.000000,TRUE,-0.231750,0.150208,0.000000,-0.035263,-0.013672,0.000000,-0.013000,-0.026000,0.000000,0.950000,-62.550000,0.370000,-61.045578,Hold,0.542236,0.000000,Hold,-175.000000,2.000000,LowGoal,2160.000000,-2181.818182,Speed,2145.000000,-2181.818182,Speed,Off,Off,0.000000,FALSE,0,,,,,0.000000,0.000000
08:16:33.157 AM 04/14/2016,Teleop Enabled,10,FALSE,0,NO ERROR,-0.000000,-0.436332,-0.000000,0.154000,TRUE,FALSE,TRUE,FALSE,FALSE,FALSE,Disabled,0.000000,0.000000,0.000000,TRUE,-0.231750,0.150208,0.000000,-0.035263,-0.013672,0.000000,-0.110000,-0.034000,0.177000,0.950000,-62.550000,0.370000,-61.050219,Hold,0.542236,0.000000,Hold,-175.000000,2.000000,LowGoal,2160.000000,-2181.818182,Speed,2145.000000,-2181.818182,Speed,Off,Off,0.000000,FALSE,0,,,,,0.000000,0.000000
08:16:33.258 AM 04/14/2016,Teleop Enabled,9,FALSE,0,NO ERROR,-0.000000,-0.436332,-0.000000,0.154000,TRUE,FALSE,TRUE,FALSE,FALSE,FALSE,Disabled,0.000000,0.000000,0.000000,TRUE,-0.236359,0.153198,0.000000,-0.019836,0.088745,0.000000,-0.013000,0.137000,0.216000,0.930000,-62.550000,0.180000,-61.053919,Hold,0.542236,0.000000,Hold,-175.000000,2.000000,LowGoal,2152.500000,-2181.818182,Speed,2145.000000,-2181.818182,Speed,Off,Off,0.000000,FALSE,0,,,,,0.000000,0.000000
08:16:33.358 AM 04/14/2016,Teleop Enabled,9,FALSE,0,NO ERROR,-0.000000,-0.436332,-0.000000,0.154000,TRUE,FALSE,TRUE,FALSE,FALSE,FALSE,Disabled,0.000000,0.000000,0.000000,TRUE,-0.237457,0.156311,0.000000,-0.024567,0.036606,0.000000,-0.012000,0.005000,0.180000,0.990000,-62.550000,0.360000,-61.065762,Hold,0.542236,0.000000,Hold,-175.000000,2.000000,LowGoal,2160.000000,-2181.818182,Speed,2137.500000,-2181.818182,Speed,Off,Off,0.000000,FALSE,0,,,,,0.000000,0.000000
08:16:33.458 AM 04/14/2016,Teleop Enabled,10,FALSE,0,NO ERROR,-0.000000,-0.436332,-0.000000,0.154000,TRUE,FALSE,TRUE,FALSE,FALSE,FALSE,Disabled,0.000000,0.000000,0.000000,TRUE,-0.237457,0.156311,0.000000,-0.024567,0.036606,0.000000,0.085000,-0.039000,0.244000,1.050000,-62.550000,0.320000,-61.072034,Hold,0.542236,0.000000,Hold,-175.000000,2.000000,LowGoal,2160.000000,-2181.818182,Speed,2145.000000,-2181.818182,Speed,Off,Off,0.000000,FALSE,0,,,,,0.000000,0.000000
08:16:33.559 AM 04/14/2016,Teleop Enabled,10,FALSE,0,NO ERROR,-0.000000,-0.436332,-0.000000,0.154000,TRUE,FALSE,TRUE,FALSE,FALSE,FALSE,Disabled,0.000000,0.000000,0.000000,TRUE,-0.236832,0.157242,0.000000,0.035828,0.006073,0.000000,0.162000,-0.014000,0.182000,0.900000,-62.550000,0.310000,-61.072981,Hold,0.542236,0.000000,Hold,-175.000000,2.000000,LowGoal,2160.000000,-2181.818182,Speed,2145.000000,-2181.818182,Speed,Off,Off,0.000000,FALSE,0,,,,,0.000000,0.000000
08:16:33.660 AM 04/14/2016,Teleop Enabled,10,FALSE,0,NO ERROR,-0.000000,-0.436332,-0.000000,0.154000,TRUE,FALSE,TRUE,FALSE,FALSE,FALSE,Disabled,0.000000,0.000000,0.000000,TRUE,-0.218094,0.153336,0.000000,0.297134,-0.101242,0.000000,0.199000,-0.059000,0.123000,0.860000,-62.550000,0.120000,-61.073435,Hold,0.542236,0.000000,Hold,-175.000000,2.000000,LowGoal,2160.000000,-2181.818182,Speed,2145.000000,-2181.818182,Speed,Off,Off,0.000000,FALSE,0,,,,,0.000000,0.000000
08:16:33.761 AM 04/14/2016,Teleop Enabled,10,FALSE,0,NO ERROR,-0.000000,-0.436332,-0.000000,0.154000,TRUE,FALSE,TRUE,FALSE,FALSE,FALSE,Disabled,0.000000,0.000000,0.000000,TRUE,-0.199570,0.147644,0.000000,0.407471,0.000000,0.000000,0.212000,-0.078000,0.056000,0.860000,-62.550000,0.120000,-61.060185,Hold,0.542236,0.000000,Hold,-175.000000,2.000000,LowGoal,2160.000000,-2181.818182,Speed,2145.000000,-2181.818182,Speed,Off,Off,0.000000,FALSE,0,,,,,0.000000,0.000000
08:16:33.862 AM 04/14/2016,Teleop Enabled,10,FALSE,0,NO ERROR,-0.000000,-0.436332,-0.000000,0.154000,TRUE,FALSE,TRUE,FALSE,FALSE,FALSE,Disabled,0.000000,0.000000,0.000000,TRUE,-0.199570,0.147644,0.000000,0.407471,0.000000,0.000000,0.140000,-0.017000,-0.009000,0.880000,-62.550000,0.330000,-61.051565,Hold,0.542236,0.000000,Hold,-175.000000,2.000000,LowGoal,2160.000000,-2181.818182,Speed,2145.000000,-2181.818182,Speed,Off,Off,0.000000,FALSE,0,,,,,0.000000,0.000000
08:16:33.962 AM 04/14/2016,Teleop Enabled,12,FALSE,0,NO ERROR,-0.000000,-0.436332,-0.000000,0.154000,TRUE,FALSE,TRUE,FALSE,FALSE,FALSE,Disabled,0.000000,0.000000,0.000000,TRUE,-0.176758,0.147903,0.000000,0.481506,0.012054,0.000000,0.003000,0.028000,-0.032000,1.080000,-62.560000,0.430000,-61.062832,Hold,0.542236,0.000000,Hold,-175.000000,2.000000,LowGoal,2160.000000,-2181.818182,Speed,2145.000000,-2181.818182,Speed,Off,Off,0.000000,FALSE,0,,,,,0.000000,0.000000
08:16:34.064 AM 04/14/2016,Teleop Enabled,11,FALSE,0,NO ERROR,-0.000000,-0.436332,-0.000000,0.154000,TRUE,FALSE,TRUE,FALSE,FALSE,FALSE,Disabled,0.000000,0.000000,0.000000,TRUE,-0.128311,0.151505,0.000000,0.514496,0.054855,0.000000,0.059000,0.044000,-0.073000,1.080000,-62.560000,0.430000,-61.058316,Hold,0.542236,0.000000,Hold,-175.000000,2.000000,LowGoal,2160.000000,-2181.818182,Speed,2145.000000,-2181.818182,Speed,Off,Off,0.000000,FALSE,0,,,,,0.000000,0.000000
08:16:34.164 AM 04/14/2016,Teleop Enabled,13,FALSE,0,NO ERROR,-0.000000,-0.436332,-0.000000,0.154000,TRUE,FALSE,TRUE,FALSE,FALSE,FALSE,Disabled,0.000000,0.000000,0.000000,TRUE,-0.128311,0.151505,0.000000,0.514496,0.054855,0.000000,0.110000,-0.012000,-0.126000,1.000000,-62.560000,0.580000,-61.063276,Hold,0.542236,0.000000,Hold,-175.000000,2.000000,LowGoal,2160.000000,-2181.818182,Speed,2145.000000,-2181.818182,Speed,Off,Off,0.000000,FALSE,0,,,,,0.000000,0.000000
08:16:34.265 AM 04/14/2016,Teleop Enabled,11,FALSE,0,NO ERROR,-0.000000,-0.436332,-0.000000,0.154000,TRUE,FALSE,TRUE,FALSE,FALSE,FALSE,Disabled,0.000000,0.000000,0.000000,TRUE,-0.112411,0.152222,0.000000,-0.013428,-0.039795,0.000000,-0.017000,-0.129000,-0.150000,0.880000,-62.560000,0.610000,-61.046394,Hold,0.542236,0.000000,Hold,-175.000000,2.000000,LowGoal,2160.000000,-2181.818182,Speed,2152.500000,-2181.818182,Speed,Off,Off,0.000000,FALSE,0,,,,,0.000000,0.000000
08:16:34.366 AM 04/14/2016,Teleop Enabled,11,FALSE,0,NO ERROR,-0.000000,-0.436332,-0.000000,0.154000,TRUE,FALSE,TRUE,FALSE,FALSE,FALSE,Disabled,0.000000,0.000000,0.000000,TRUE,-0.112411,0.152222,0.000000,-0.013428,-0.039795,0.000000,-0.079000,-0.079000,-0.052000,0.820000,-62.550000,0.430000,-61.033354,Hold,0.542236,0.000000,Hold,-175.000000,2.000000,LowGoal,2160.000000,-2181.818182,Speed,2152.500000,-2181.818182,Speed,Off,Off,0.000000,FALSE,0,,,,,0.000000,0.000000
08:16:34.467 AM 04/14/2016,Teleop Enabled,11,FALSE,0,NO ERROR,-0.000000,-0.436332,-0.000000,0.154000,TRUE,FALSE,TRUE,FALSE,FALSE,FALSE,Disabled,0.000000,0.000000,0.000000,TRUE,-0.115875,0.148819,0.000000,-0.092697,-0.059784,0.000000,-0.075000,0.054000,0.006000,0.840000,-62.550000,0.210000,-61.033746,Hold,0.542236,0.000000,Hold,-175.000000,2.000000,LowGoal,2160.000000,-2181.818182,Speed,2152.500000,-2181.818182,Speed,Off,Off,0.000000,FALSE,0,,,,,0.000000,0.000000
08:16:34.569 AM 04/14/2016,Teleop Enabled,10,FALSE,0,NO ERROR,-0.000000,-0.436332,-0.000000,0.154000,TRUE,FALSE,TRUE,FALSE,FALSE,FALSE,Disabled,0.000000,0.000000,0.000000,TRUE,-0.122177,0.147522,0.000000,-0.141388,0.008820,0.000000,0.010000,0.080000,-0.049000,0.960000,-62.550000,0.110000,-61.033495,Hold,0.542236,0.000000,Hold,-175.000000,2.000000,LowGoal,2167.500000,-2181.818182,Speed,2152.500000,-2181.818182,Speed,Off,Off,0.000000,FALSE,0,,,,,0.000000,0.000000
08:16:34.668 AM 04/14/2016,Teleop Enabled,11,FALSE,0,NO ERROR,-0.000000,-0.436332,-0.000000,0.154000,TRUE,FALSE,TRUE,FALSE,FALSE,FALSE,Disabled,0.000000,0.000000,0.000000,TRUE,-0.130112,0.150497,0.000000,-0.173462,0.089554,0.000000,0.030000,0.087000,-0.170000,1.040000,-62.550000,0.400000,-61.033495,Hold,0.542236,0.000000,Hold,-175.000000,2.000000,LowGoal,2160.000000,-2181.818182,Speed,2145.000000,-2181.818182,Speed,Off,Off,0.000000,FALSE,0,,,,,0.000000,0.000000
08:16:34.769 AM 04/14/2016,Teleop Enabled,10,FALSE,0,NO ERROR,-0.000000,-0.436332,-0.000000,0.160416,TRUE,FALSE,TRUE,FALSE,FALSE,FALSE,Disabled,0.000000,0.000000,0.000000,TRUE,-0.139877,0.155563,0.000000,-0.218872,0.089630,0.000000,-0.104000,-0.099000,-0.067000,1.020000,-62.560000,0.600000,-61.028049,Hold,0.542236,0.000000,Hold,-175.000000,2.000000,LowGoal,2167.500000,-2181.818182,Speed,2145.000000,-2181.818182,Speed,Off,Off,0.000000,FALSE,0,,,,,0.000000,0.000000
08:16:34.870 AM 04/14/2016,Teleop Enabled,10,FALSE,0,NO ERROR,-0.000000,-0.436332,-0.000000,0.160416,TRUE,FALSE,TRUE,FALSE,FALSE,FALSE,Disabled,0.000000,0.000000,0.000000,TRUE,-0.153229,0.157730,0.000000,-0.296036,0.014236,0.000000,-0.055000,-0.053000,-0.113000,0.990000,-62.550000,0.450000,-61.021484,Hold,0.542236,0.000000,Hold,-175.000000,2.000000,LowGoal,2160.000000,-2181.818182,Speed,2145.000000,-2181.818182,Speed,Off,Off,0.000000,FALSE,0,,,,,0.000000,0.000000
08:16:34.974 AM 04/14/2016,Teleop Enabled,10,FALSE,0,NO ERROR,-0.000000,-0.436332,-0.000000,0.160416,TRUE,FALSE,TRUE,FALSE,FALSE,FALSE,Disabled,0.000000,0.000000,0.000000,TRUE,-0.168884,0.157578,0.000000,-0.307373,0.000000,0.000000,0.042000,0.018000,-0.171000,0.880000,-62.550000,0.400000,-61.024090,Hold,0.542236,0.000000,Hold,-175.000000,2.000000,LowGoal,2167.500000,-2181.818182,Speed,2145.000000,-2181.818182,Speed,Off,Off,0.000000,FALSE,0,,,,,0.000000,0.000000
08:16:35.076 AM 04/14/2016,Teleop Enabled,10,FALSE,0,NO ERROR,-0.000000,-0.436332,-0.000000,0.160416,TRUE,FALSE,TRUE,FALSE,FALSE,FALSE,Disabled,0.000000,0.000000,0.000000,TRUE,-0.180969,0.156693,0.000000,0.000000,-0.037979,0.000000,-0.019000,-0.054000,-0.175000,0.800000,-62.550000,0.370000,-61.027753,Hold,0.542236,0.000000,Hold,-175.000000,2.000000,LowGoal,2167.500000,-2181.818182,Speed,2145.000000,-2181.818182,Speed,Off,Off,0.000000,FALSE,0,,,,,0.000000,0.000000
08:16:35.175 AM 04/14/2016,Teleop Enabled,10,FALSE,0,NO ERROR,-0.000000,-0.436332,-0.000000,0.160416,TRUE,FALSE,TRUE,FALSE,FALSE,FALSE,Disabled,0.000000,0.000000,0.000000,TRUE,-0.181824,0.153198,0.000000,-0.033890,-0.086288,0.000000,-0.034000,-0.046000,-0.197000,0.770000,-62.540000,0.150000,-61.020978,Hold,0.542236,0.000000,Hold,-175.000000,2.000000,LowGoal,2175.000000,-2181.818182,Speed,2145.000000,-2181.818182,Speed,Off,Off,0.000000,FALSE,0,,,,,0.000000,0.000000
08:16:35.277 AM 04/14/2016,Teleop Enabled,9,FALSE,0,NO ERROR,-0.000000,-0.436332,-0.000000,0.160416,TRUE,FALSE,TRUE,FALSE,FALSE,FALSE,Disabled,0.000000,0.000000,0.000000,TRUE,-0.185364,0.146332,0.000000,-0.072922,-0.128387,0.000000,-0.036000,-0.014000,-0.221000,0.670000,-62.560000,0.110000,-61.014065,Hold,0.542236,0.000000,Hold,-175.000000,2.000000,LowGoal,2175.000000,-2181.818182,Speed,2145.000000,-2181.818182,Speed,Off,Off,0.000000,FALSE,0,,,,,0.000000,0.000000
08:16:35.378 AM 04/14/2016,Teleop Enabled,10,FALSE,0,NO ERROR,-0.000000,-0.436332,-0.000000,0.160416,TRUE,FALSE,TRUE,FALSE,FALSE,FALSE,Disabled,0.000000,0.000000,0.000000,TRUE,-0.190063,0.145096,0.000000,-0.109146,0.007172,0.000000,-0.090000,0.078000,-0.085000,0.690000,-62.550000,0.030000,-61.001417,Hold,0.542236,0.000000,Hold,-175.000000,2.000000,LowGoal,2160.000000,-2181.818182,Speed,2145.000000,-2181.818182,Speed,Off,Off,0.000000,FALSE,0,,,,,0.000000,0.000000
08:16:35.478 AM 04/14/2016,Teleop Enabled,9,FALSE,0,NO ERROR,-0.000000,-0.436332,-0.000000,0.160416,TRUE,FALSE,TRUE,FALSE,FALSE,FALSE,Disabled,0.000000,0.000000,0.000000,TRUE,-0.196930,0.147537,0.000000,-0.144531,0.085266,0.000000,0.018000,0.099000,-0.065000,0.860000,-62.540000,0.120000,-61.000498,Hold,0.542236,0.000000,Hold,-175.000000,2.000000,LowGoal,2160.000000,-2181.818182,Speed,2145.000000,-2181.818182,Speed,Off,Off,0.000000,FALSE,0,,,,,0.000000,0.000000
08:16:35.579 AM 04/14/2016,Teleop Enabled,10,FALSE,0,NO ERROR,-0.000000,-0.436332,-0.000000,0.160416,TRUE,FALSE,TRUE,FALSE,FALSE,FALSE,Disabled,0.000000,0.000000,0.000000,TRUE,-0.203476,0.155182,0.000000,-0.113770,0.205872,0.000000,0.040000,0.126000,-0.077000,0.870000,-62.550000,0.350000,-61.005889,Hold,0.542236,0.000000,Hold,-175.000000,2.000000,LowGoal,2160.000000,-2181.818182,Speed,2137.500000,-2181.818182,Speed,Off,Off,0.000000,FALSE,0,,,,,0.000000,0.000000
