Time,Robot Mode,Loop Time,Error Status,Error Code,Error Source,Left Motor Output,Left Motor Encoder,Right Motor Output,Right Motor Encoder,Is Level,Is Stalled,Ball Detector Photoeye,Vision Enabled,Vision Teleop Control,Vision Auto Control,Vision Current State,Vision X Output,Vision NavX Error,Vision NavX Target,NavX Connection Status,NavX Displacement X,NavX Displacement Y,NavX Displacement Z,NavX Velocity X,NavX Velocity Y,NavX Velocity Z,NavX Acceleration X,NavX Acceleration Y,NavX Acceleration Z,NavX Pitch,NavX Yaw,NavX Roll,Gyro Angle,Roller Arm State,Roller Arm Actual,Roller Arm Desired,Shooter Arm State,Shooter Arm Actual,Shooter Arm Desired,Shooter State,Actual RPM Left,Desired RPM Left,Control Mode Left,Actual RPM Right,Desired RPM Right,Control Mode Right,Ball Shooter Cylinder,Ball Halo Cylinder,Scaler Motor Output,Scaler Solenoid Fire,Auto To Run,Auto Current File,Auto File Status,Auto Current Command,Auto Trimmed Command,Shooter Amps Left,Shooter Amps Right
09:40:52.295 AM 04/14/2016,Teleop Enabled,11,FALSE,0,NO ERROR,-0.000000,0.000000,-0.000000,0.000000,FALSE,FALSE,TRUE,FALSE,FALSE,FALSE,Disabled,0.000000,0.000000,0.000000,TRUE,0.044479,-0.000580,0.000000,0.000000,0.000000,0.000000,0.001000,0.001000,-0.007000,1.360000,0.000000,-6.480000,-0.010775,ResetBack,-59.048828,-0.000049,ResetBack,114182.000000,-0.250000,Hold,0.000000,0.000000,Speed,0.000000,0.000000,Speed,Off,Off,0.000000,FALSE,0,,,,,0.000000,0.000000
09:40:52.395 AM 04/14/2016,Teleop Enabled,11,FALSE,0,NO ERROR,-0.000000,0.000000,-0.000000,0.000000,FALSE,FALSE,TRUE,FALSE,FALSE,FALSE,Disabled,0.000000,0.000000,0.000000,TRUE,0.044479,-0.000427,0.000000,0.000000,0.000000,0.000000,-0.003000,0.005000,0.043000,1.350000,0.000000,-6.540000,0.004854,ResetBack,-60.462646,-0.000049,ResetBack,119205.000000,-0.250000,Hold,0.000000,0.000000,Speed,0.000000,0.000000,Speed,Off,Off,0.000000,FALSE,0,,,,,0.000000,0.000000
09:40:52.496 AM 04/14/2016,Teleop Enabled,11,FALSE,0,NO ERROR,-0.000000,0.000000,-0.000000,0.000000,FALSE,FALSE,TRUE,FALSE,FALSE,FALSE,Disabled,0.000000,0.000000,0.000000,TRUE,0.044479,-0.000427,0.000000,0.000000,0.000000,0.000000,0.016000,0.015000,0.040000,1.350000,0.000000,-6.470000,0.015392,ResetBack,-60.591309,-0.000049,ResetBack,119205.000000,-0.250000,Hold,0.000000,0.000000,Speed,0.000000,0.000000,Speed,Off,Off,0.000000,FALSE,0,,,,,0.000000,0.000000
09:40:52.595 AM 04/14/2016,Teleop Enabled,12,FALSE,0,NO ERROR,-0.000000,0.000000,-0.000000,0.000000,FALSE,FALSE,TRUE,FALSE,FALSE,FALSE,Disabled,0.000000,0.000000,0.000000,TRUE,0.045074,-0.000519,0.000000,0.019165,-0.003159,0.000000,0.000000,0.015000,0.036000,1.340000,0.000000,-6.310000,0.008221,Reset,-60.591309,-0.000049,ResetBack,125103.000000,-0.250000,Hold,0.000000,0.000000,Speed,0.000000,0.000000,Speed,Off,Off,0.000000,FALSE,0,,,,,0.000000,0.000000
09:40:52.704 AM 04/14/2016,Teleop Enabled,10,FALSE,0,NO ERROR,-0.000000,0.000000,-0.000000,0.000000,FALSE,FALSE,TRUE,FALSE,FALSE,FALSE,Disabled,0.000000,0.000000,0.000000,TRUE,0.045074,-0.000473,0.000000,0.000000,-0.001480,0.000000,-0.012000,-0.001000,0.031000,1.360000,0.000000,-6.430000,0.023774,Hold,-60.591309,0.000000,ResetBack,131674.000000,-0.250000,Hold,0.000000,0.000000,Speed,0.000000,0.000000,Speed,Off,Off,0.000000,FALSE,0,,,,,0.000000,0.000000
09:40:52.804 AM 04/14/2016,Teleop Enabled,9,FALSE,0,NO ERROR,-0.000000,0.000000,-0.000000,0.000000,FALSE,FALSE,TRUE,FALSE,FALSE,FALSE,Disabled,0.000000,0.000000,0.000000,TRUE,0.045029,-0.000366,0.000000,-0.003922,0.003296,0.000000,0.007000,-0.032000,-0.041000,1.360000,0.000000,-6.390000,0.024673,Hold,0.007324,0.000000,ResetBack,138012.000000,-0.250000,Hold,0.000000,0.000000,Speed,0.000000,0.000000,Speed,Off,Off,0.000000,FALSE,0,,,,,0.000000,0.000000
09:40:52.905 AM 04/14/2016,Teleop Enabled,9,FALSE,0,NO ERROR,-0.000000,0.000000,-0.000000,0.000000,FALSE,FALSE,TRUE,FALSE,FALSE,FALSE,Disabled,0.000000,0.000000,0.000000,TRUE,0.044922,-0.000198,0.000000,0.000000,0.000000,0.000000,-0.004000,0.000000,0.005000,1.370000,0.000000,-6.340000,0.008376,Hold,0.007324,0.000000,ResetBack,144342.000000,-0.250000,Hold,0.000000,0.000000,Speed,0.000000,0.000000,Speed,Off,Off,0.000000,FALSE,0,,,,,0.000000,0.000000
09:40:53.005 AM 04/14/2016,Teleop Enabled,9,FALSE,0,NO ERROR,-0.000000,0.000000,-0.000000,0.000000,FALSE,FALSE,TRUE,FALSE,FALSE,FALSE,Disabled,0.000000,0.000000,0.000000,TRUE,0.045074,-0.000183,0.000000,0.000000,0.001968,0.000000,0.034000,-0.024000,-0.032000,1.360000,0.000000,-6.350000,0.007711,Hold,0.007324,0.000000,ResetBack,148867.000000,-0.250000,Hold,0.000000,0.000000,Speed,0.000000,0.000000,Speed,Off,Off,0.000000,FALSE,0,,,,,0.000000,0.000000
09:40:53.107 AM 04/14/2016,Teleop Enabled,6,FALSE,0,NO ERROR,-0.000000,0.000000,-0.000000,0.000000,FALSE,FALSE,TRUE,FALSE,FALSE,FALSE,Disabled,0.000000,0.000000,0.000000,TRUE,0.045517,-0.000259,0.000000,0.012680,-0.007629,0.000000,-0.011000,0.020000,0.015000,1.360000,0.000000,-6.360000,0.016369,Hold,0.007324,0.000000,ResetBack,148867.000000,-0.250000,Hold,0.000000,0.000000,Speed,0.000000,0.000000,Speed,Off,Off,0.000000,FALSE,0,,,,,0.000000,0.000000
09:40:53.207 AM 04/14/2016,Teleop Enabled,9,FALSE,0,NO ERROR,-0.000000,0.000000,-0.000000,0.000000,FALSE,FALSE,TRUE,FALSE,FALSE,FALSE,Disabled,0.000000,0.000000,0.000000,TRUE,0.045532,-0.000778,0.000000,-0.004501,-0.012833,0.000000,0.016000,-0.048000,-0.010000,1.370000,0.000000,-6.380000,0.015788,Hold,0.007324,0.000000,ResetBack,151522.000000,-0.250000,Hold,0.000000,0.000000,Speed,0.000000,0.000000,Speed,Off,Off,0.000000,FALSE,0,,,,,0.000000,0.000000
09:40:53.307 AM 04/14/2016,Teleop Enabled,10,FALSE,0,NO ERROR,-0.000000,0.000000,-0.000000,0.000000,FALSE,FALSE,TRUE,FALSE,FALSE,FALSE,Disabled,0.000000,0.000000,0.000000,TRUE,0.045532,-0.001526,0.000000,-0.000732,-0.013992,0.000000,0.016000,-0.032000,-0.014000,1.380000,0.000000,-6.330000,0.003536,Hold,0.007324,0.000000,ResetBack,151522.000000,-0.250000,LowGoal,0.000000,0.000000,Speed,0.000000,0.000000,Speed,Off,Off,0.000000,FALSE,0,,,,,0.000000,0.000000
09:40:53.410 AM 04/14/2016,Teleop Enabled,10,FALSE,0,NO ERROR,-0.000000,0.000000,-0.000000,0.000000,FALSE,FALSE,TRUE,FALSE,FALSE,FALSE,Disabled,0.000000,0.000000,0.000000,TRUE,0.045441,-0.002243,0.000000,-0.002838,-0.016479,0.000000,-0.039000,0.007000,-0.041000,1.390000,0.000000,-6.410000,0.004978,Hold,0.007568,0.000000,ResetBack,153076.000000,-0.250000,LowGoal,37.500000,-2181.818182,Speed,0.000000,-2181.818182,Speed,Off,Off,0.000000,FALSE,0,,,,,0.000000,0.000000
09:40:53.510 AM 04/14/2016,Teleop Enabled,9,FALSE,0,NO ERROR,-0.000000,0.000000,-0.000000,0.000000,FALSE,FALSE,TRUE,FALSE,FALSE,FALSE,Disabled,0.000000,0.000000,0.000000,TRUE,0.044617,-0.002777,0.000000,-0.024109,-0.015472,0.000000,0.022000,0.035000,0.023000,1.360000,0.000000,-6.480000,0.007701,Hold,0.007568,0.000000,Reset,153076.000000,2.000000,LowGoal,585.000000,-2181.818182,Speed,555.000000,-2181.818182,Speed,Off,Off,0.000000,FALSE,0,,,,,0.000000,0.000000
09:40:53.610 AM 04/14/2016,Teleop Enabled,9,FALSE,0,NO ERROR,-0.000000,0.000000,-0.000000,0.000000,FALSE,FALSE,TRUE,FALSE,FALSE,FALSE,Disabled,0.000000,0.000000,0.000000,TRUE,0.043839,-0.002594,0.000000,-0.011841,0.008499,0.000000,0.095000,-0.008000,0.123000,1.360000,0.000000,-6.510000,0.025919,Hold,0.007568,0.000000,Hold,-201.000000,2.000000,LowGoal,1117.500000,-2181.818182,Speed,1192.500000,-2181.818182,Speed,Off,Off,0.000000,FALSE,0,,,,,0.000000,0.000000
09:40:53.713 AM 04/14/2016,Teleop Enabled,10,FALSE,0,NO ERROR,-0.000000,0.000000,-0.000000,0.000000,FALSE,FALSE,TRUE,FALSE,FALSE,FALSE,Disabled,0.000000,0.000000,0.000000,TRUE,0.044434,-0.001663,0.000000,0.023315,0.017822,0.000000,0.020000,-0.002000,-0.094000,1.360000,0.000000,-6.430000,0.021413,Hold,0.007568,0.000000,Hold,-201.000000,2.000000,LowGoal,1777.500000,-2181.818182,Speed,1717.500000,-2181.818182,Speed,Off,Off,0.000000,FALSE,0,,,,,0.000000,0.000000
09:40:53.813 AM 04/14/2016,Teleop Enabled,10,FALSE,0,NO ERROR,-0.000000,0.000000,-0.000000,0.000000,FALSE,FALSE,TRUE,FALSE,FALSE,FALSE,Disabled,0.000000,0.000000,0.000000,TRUE,0.045532,-0.001556,0.000000,0.021973,0.011108,0.000000,-0.019000,0.008000,0.047000,1.390000,-0.010000,-6.370000,0.011694,Hold,0.007568,0.000000,Hold,-201.000000,2.000000,LowGoal,2107.500000,-2181.818182,Speed,2055.000000,-2181.818182,Speed,Off,Off,0.000000,FALSE,0,,,,,0.000000,0.000000
09:40:53.914 AM 04/14/2016,Teleop Enabled,12,FALSE,0,NO ERROR,-0.000000,0.000000,-0.000000,0.000000,FALSE,FALSE,TRUE,FALSE,FALSE,FALSE,Disabled,0.000000,0.000000,0.000000,TRUE,0.044693,0.000488,0.000000,-0.022217,0.073654,0.000000,0.038000,0.068000,-0.151000,1.380000,-0.010000,-6.380000,0.012025,Hold,0.007568,0.000000,Hold,-201.000000,2.000000,LowGoal,2257.500000,-2181.818182,Speed,2235.000000,-2181.818182,Speed,Off,Off,0.000000,FALSE,0,,,,,0.000000,0.000000
09:40:54.016 AM 04/14/2016,Teleop Enabled,12,FALSE,0,NO ERROR,-0.000000,0.000000,-0.000000,0.000000,FALSE,FALSE,TRUE,FALSE,FALSE,FALSE,Disabled,0.000000,0.000000,0.000000,TRUE,0.043915,0.006683,0.000000,-0.023727,0.154160,0.000000,0.035000,0.037000,-0.136000,1.300000,0.000000,-6.350000,0.021729,Hold,0.007568,0.000000,Hold,-197.000000,2.000000,LowGoal,2182.500000,-2181.818182,Speed,2182.500000,-2181.818182,Speed,Off,Off,0.000000,FALSE,0,,,,,0.000000,0.000000
09:40:54.115 AM 04/14/2016,Teleop Enabled,11,FALSE,0,NO ERROR,-0.000000,0.000000,-0.000000,0.000000,FALSE,FALSE,TRUE,FALSE,FALSE,FALSE,Disabled,0.000000,0.000000,0.000000,TRUE,0.043015,0.015945,0.000000,-0.016693,0.215332,0.000000,0.036000,0.114000,-0.001000,1.240000,-0.010000,-6.370000,0.001986,Hold,0.007568,0.000000,Hold,-197.000000,2.000000,LowGoal,2137.500000,-2181.818182,Speed,2130.000000,-2181.818182,Speed,Off,Off,0.000000,FALSE,0,,,,,0.000000,0.000000
09:40:54.216 AM 04/14/2016,Teleop Enabled,11,FALSE,0,NO ERROR,-0.000000,0.000000,-0.000000,0.000000,FALSE,FALSE,TRUE,FALSE,FALSE,FALSE,Disabled,0.000000,0.000000,0.000000,TRUE,0.040771,0.029678,0.000000,-0.074020,0.298965,0.000000,-0.069000,-0.006000,-0.064000,1.300000,0.000000,-6.360000,-0.015443,Hold,0.007568,0.000000,Hold,-196.000000,2.000000,LowGoal,2130.000000,-2181.818182,Speed,2122.500000,-2181.818182,Speed,Off,Off,0.000000,FALSE,0,,,,,0.000000,0.000000
09:40:54.316 AM 04/14/2016,Teleop Enabled,11,FALSE,0,NO ERROR,-0.000000,0.000000,-0.000000,0.000000,FALSE,FALSE,TRUE,FALSE,FALSE,FALSE,Disabled,0.000000,0.000000,0.000000,TRUE,0.034927,0.029343,0.000000,-0.138916,-0.011032,0.000000,0.020000,-0.050000,-0.120000,1.240000,-0.010000,-6.440000,-0.007825,Hold,0.007568,0.000000,Hold,-196.000000,2.000000,LowGoal,2145.000000,-2181.818182,Speed,2130.000000,-2181.818182,Speed,Off,Off,0.000000,FALSE,0,,,,,0.000000,0.000000
09:40:54.421 AM 04/14/2016,Teleop Enabled,11,FALSE,0,NO ERROR,-0.000000,0.000000,-0.000000,0.000000,FALSE,FALSE,TRUE,FALSE,FALSE,FALSE,Disabled,0.000000,0.000000,0.000000,TRUE,0.027115,0.028076,0.000000,-0.175247,-0.027695,0.000000,-0.052000,0.016000,-0.099000,1.280000,0.000000,-6.480000,-0.003029,Hold,0.007568,0.000000,Hold,-196.000000,2.000000,LowGoal,2145.000000,-2181.818182,Speed,2130.000000,-2181.818182,Speed,Off,Off,0.000000,FALSE,0,,,,,0.000000,0.000000
09:40:54.520 AM 04/14/2016,Teleop Enabled,11,FALSE,0,NO ERROR,-0.000000,-0.006417,-0.000000,0.000000,FALSE,FALSE,TRUE,FALSE,FALSE,FALSE,Disabled,0.000000,0.000000,0.000000,TRUE,0.021484,0.027206,0.000000,0.000000,-0.016449,0.000000,0.073000,-0.037000,-0.006000,1.320000,-0.010000,-6.560000,-0.010961,Hold,0.007568,0.000000,Hold,-196.000000,2.000000,LowGoal,2145.000000,-2181.818182,Speed,2137.500000,-2181.818182,Speed,Off,Off,0.000000,FALSE,0,,,,,0.000000,0.000000
09:40:54.621 AM 04/14/2016,Teleop Enabled,10,FALSE,0,NO ERROR,-0.000000,-0.006417,-0.000000,0.000000,FALSE,FALSE,TRUE,FALSE,FALSE,FALSE,Disabled,0.000000,0.000000,0.000000,TRUE,0.022781,0.025864,0.000000,0.039673,-0.023727,0.000000,0.006000,0.038000,-0.053000,1.300000,-0.010000,-6.490000,-0.011877,Hold,0.007568,0.000000,Hold,-196.000000,2.000000,LowGoal,2137.500000,-2181.818182,Speed,2130.000000,-2181.818182,Speed,Off,Off,0.000000,FALSE,0,,,,,0.000000,0.000000
09:40:54.723 AM 04/14/2016,Teleop Enabled,9,FALSE,0,NO ERROR,-0.000000,-0.006417,-0.000000,0.000000,FALSE,FALSE,TRUE,FALSE,FALSE,FALSE,Disabled,0.000000,0.000000,0.000000,TRUE,0.023788,0.025848,0.000000,0.009781,0.014099,0.000000,0.033000,-0.038000,0.068000,1.290000,-0.010000,-6.550000,-0.003952,Hold,0.007568,0.000000,Hold,-196.000000,2.000000,LowGoal,2145.000000,-2181.818182,Speed,2130.000000,-2181.818182,Speed,Off,Off,0.000000,FALSE,0,,,,,0.000000,0.000000
09:40:54.824 AM 04/14/2016,Teleop Enabled,9,FALSE,0,NO ERROR,-0.000000,-0.006417,-0.000000,0.000000,FALSE,FALSE,TRUE,FALSE,FALSE,FALSE,Disabled,0.000000,0.000000,0.000000,TRUE,0.025330,0.026062,0.000000,0.035919,-0.004807,0.000000,0.062000,-0.061000,0.062000,1.320000,-0.010000,-6.550000,-0.018676,Hold,0.007568,0.000000,Hold,-196.000000,2.000000,LowGoal,2145.000000,-2181.818182,Speed,2137.500000,-2181.818182,Speed,Off,Off,0.000000,FALSE,0,,,,,0.000000,0.000000
09:40:54.925 AM 04/14/2016,Teleop Enabled,9,FALSE,0,NO ERROR,-0.000000,-0.006417,-0.000000,0.000000,FALSE,FALSE,TRUE,FALSE,FALSE,FALSE,Disabled,0.000000,0.000000,0.000000,TRUE,0.026932,0.022186,0.000000,0.011444,-0.126328,0.000000,-0.017000,-0.157000,0.067000,1.310000,-0.010000,-6.580000,-0.007945,Hold,0.007568,0.000000,Hold,-196.000000,2.000000,LowGoal,2137.500000,-2181.818182,Speed,2137.500000,-2181.818182,Speed,Off,Off,0.000000,FALSE,0,,,,,0.000000,0.000000
09:40:55.025 AM 04/14/2016,Teleop Enabled,9,FALSE,0,NO ERROR,-0.000000,-0.006417,-0.000000,0.000000,FALSE,FALSE,TRUE,FALSE,FALSE,FALSE,Disabled,0.000000,0.000000,0.000000,TRUE,0.027679,0.012527,0.000000,0.028809,-0.234512,0.000000,0.075000,-0.039000,0.070000,1.260000,-0.010000,-6.610000,0.000888,Hold,0.007568,0.000000,Hold,-196.000000,2.000000,LowGoal,2137.500000,-2181.818182,Speed,2137.500000,-2181.818182,Speed,Off,Off,0.000000,FALSE,0,,,,,0.000000,0.000000
09:40:55.125 AM 04/14/2016,Teleop Enabled,10,FALSE,0,NO ERROR,-0.000000,-0.006417,-0.000000,0.000000,FALSE,FALSE,TRUE,FALSE,FALSE,FALSE,Disabled,0.000000,0.000000,0.000000,TRUE,0.029877,0.000259,0.000000,0.040573,-0.237015,0.000000,-0.030000,0.032000,0.037000,1.300000,-0.020000,-6.500000,0.020631,Hold,0.007568,0.000000,Hold,-195.000000,2.000000,LowGoal,2137.500000,-2181.818182,Speed,2130.000000,-2181.818182,Speed,Off,Off,0.000000,FALSE,0,,,,,0.000000,0.000000
09:40:55.225 AM 04/14/2016,Teleop Enabled,9,FALSE,0,NO ERROR,-0.000000,-0.006417,-0.000000,0.000000,FALSE,FALSE,TRUE,FALSE,FALSE,FALSE,Disabled,0.000000,0.000000,0.000000,TRUE,0.029968,-0.010437,0.000000,-0.023117,-0.196167,0.000000,-0.081000,0.077000,-0.034000,1.270000,-0.020000,-6.520000,0.014414,Hold,0.007568,0.000000,Hold,-195.000000,2.000000,LowGoal,2130.000000,-2181.818182,Speed,2130.000000,-2181.818182,Speed,Off,Off,0.000000,FALSE,0,,,,,0.000000,0.000000
09:40:55.325 AM 04/14/2016,Teleop Enabled,9,FALSE,0,NO ERROR,-0.000000,-0.006417,-0.000000,0.000000,FALSE,FALSE,TRUE,FALSE,FALSE,FALSE,Disabled,0.000000,0.000000,0.000000,TRUE,0.027481,-0.018097,0.000000,-0.061386,-0.123474,0.000000,0.034000,0.017000,-0.005000,1.270000,-0.020000,-6.520000,0.009877,Hold,0.007568,0.000000,Hold,-195.000000,2.000000,LowGoal,2145.000000,-2181.818182,Speed,2137.500000,-2181.818182,Speed,Off,Off,0.000000,FALSE,0,,,,,0.000000,0.000000
09:40:55.425 AM 04/14/2016,Teleop Enabled,9,FALSE,0,NO ERROR,-0.000000,-0.006417,-0.000000,0.000000,FALSE,FALSE,TRUE,FALSE,FALSE,FALSE,Disabled,0.000000,0.000000,0.000000,TRUE,0.023804,-0.022964,0.000000,-0.092300,-0.085922,0.000000,-0.104000,0.063000,-0.062000,1.290000,-0.020000,-6.410000,0.004355,Hold,0.007568,0.000000,Hold,-195.000000,2.000000,LowGoal,2145.000000,-2181.818182,Speed,2145.000000,-2181.818182,Speed,Off,Off,0.000000,FALSE,0,,,,,0.000000,0.000000
09:40:55.525 AM 04/14/2016,Teleop Enabled,12,FALSE,0,NO ERROR,-0.000000,-0.006417,-0.000000,0.000000,FALSE,FALSE,TRUE,FALSE,FALSE,FALSE,Disabled,0.000000,0.000000,0.000000,TRUE,0.020142,-0.026230,0.000000,-0.003616,-0.059525,0.000000,-0.006000,-0.030000,-0.129000,1.310000,-0.020000,-6.400000,-0.002520,Hold,0.007568,0.000000,Hold,-195.000000,2.000000,LowGoal,2137.500000,-2181.818182,Speed,2137.500000,-2181.818182,Speed,Off,Off,0.000000,FALSE,0,,,,,0.000000,0.000000
09:40:55.625 AM 04/14/2016,Teleop Enabled,10,FALSE,0,NO ERROR,-0.000000,-0.006417,-0.000000,0.000000,FALSE,FALSE,TRUE,FALSE,FALSE,FALSE,Disabled,0.000000,0.000000,0.000000,TRUE,0.020203,-0.030136,0.000000,0.002136,-0.093048,0.000000,-0.006000,-0.030000,-0.129000,1.310000,-0.020000,-6.480000,-0.017557,Hold,0.007568,0.000000,Hold,-195.000000,2.000000,LowGoal,2130.000000,-2181.818182,Speed,2137.500000,-2181.818182,Speed,Off,Off,0.000000,FALSE,0,,,,,0.000000,0.000000
09:40:55.725 AM 04/14/2016,Teleop Enabled,9,FALSE,0,NO ERROR,-0.000000,-0.006417,-0.000000,0.000000,FALSE,FALSE,TRUE,FALSE,FALSE,FALSE,Disabled,0.000000,0.000000,0.000000,TRUE,0.021591,-0.033646,0.000000,0.052094,-0.048889,0.000000,0.034000,0.061000,-0.081000,1.350000,-0.010000,-6.460000,-0.012899,Hold,0.007568,0.000000,Hold,-195.000000,2.000000,LowGoal,2137.500000,-2181.818182,Speed,2145.000000,-2181.818182,Speed,Off,Off,0.000000,FALSE,0,,,,,0.000000,0.000000
09:40:55.825 AM 04/14/2016,Teleop Enabled,10,FALSE,0,NO ERROR,-0.000000,-0.006417,-0.000000,0.000000,FALSE,FALSE,TRUE,FALSE,FALSE,FALSE,Disabled,0.000000,0.000000,0.000000,TRUE,0.025284,-0.034882,0.000000,0.086761,-0.012024,0.000000,0.058000,-0.005000,0.040000,1.350000,-0.020000,-6.490000,-0.006606,Hold,0.007568,0.000000,Hold,-195.000000,2.000000,LowGoal,2137.500000,-2181.818182,Speed,2145.000000,-2181.818182,Speed,Off,Off,0.000000,FALSE,0,,,,,0.000000,0.000000
09:40:55.925 AM 04/14/2016,Teleop Enabled,9,FALSE,0,NO ERROR,-0.000000,-0.006417,-0.000000,0.000000,FALSE,FALSE,TRUE,FALSE,FALSE,FALSE,Disabled,0.000000,0.000000,0.000000,TRUE,0.032654,-0.035339,0.000000,0.133301,-0.009872,0.000000,0.019000,-0.005000,0.051000,1.350000,-0.020000,-6.490000,-0.014053,Hold,0.007568,0.000000,Hold,-195.000000,2.000000,LowGoal,2137.500000,-2181.818182,Speed,2137.500000,-2181.818182,Speed,Off,Off,0.000000,FALSE,0,,,,,0.000000,0.000000
09:40:56.026 AM 04/14/2016,Teleop Enabled,9,FALSE,0,NO ERROR,-0.000000,-0.006417,-0.000000,0.000000,FALSE,FALSE,TRUE,FALSE,FALSE,FALSE,Disabled,0.000000,0.000000,0.000000,TRUE,0.032654,-0.035339,0.000000,0.133301,-0.009872,0.000000,0.019000,-0.005000,0.051000,1.350000,-0.020000,-6.510000,0.000578,Hold,0.007568,0.000000,Hold,-195.000000,2.000000,LowGoal,2137.500000,-2181.818182,Speed,2137.500000,-2181.818182,Speed,Off,Off,0.000000,FALSE,0,,,,,0.000000,0.000000
09:40:56.128 AM 04/14/2016,Teleop Enabled,10,FALSE,0,NO ERROR,-0.000000,-0.006417,-0.000000,0.000000,FALSE,FALSE,TRUE,FALSE,FALSE,FALSE,Disabled,0.000000,0.000000,0.000000,TRUE,0.049362,-0.044785,0.000000,0.196487,-0.160889,0.000000,-0.022000,-0.046000,0.015000,1.380000,-0.020000,-6.490000,0.002372,Hold,0.007568,0.000000,Hold,-195.000000,2.000000,LowGoal,2137.500000,-2181.818182,Speed,2145.000000,-2181.818182,Speed,Off,Off,0.000000,FALSE,0,,,,,0.000000,0.000000
09:40:56.228 AM 04/14/2016,Teleop Enabled,9,FALSE,0,NO ERROR,-0.000000,-0.006417,-0.000000,0.000000,FALSE,FALSE,TRUE,FALSE,FALSE,FALSE,Disabled,0.000000,0.000000,0.000000,TRUE,0.060638,-0.054245,0.000000,0.244995,-0.202255,0.000000,0.045000,-0.041000,0.085000,1.370000,-0.020000,-6.480000,-0.008648,Hold,0.007568,0.000000,Hold,-195.000000,2.000000,LowGoal,2137.500000,-2181.818182,Speed,2145.000000,-2181.818182,Speed,Off,Off,0.000000,FALSE,0,,,,,0.000000,0.000000
09:40:56.329 AM 04/14/2016,Teleop Enabled,9,FALSE,0,NO ERROR,-0.000000,-0.006417,-0.000000,0.000000,FALSE,FALSE,TRUE,FALSE,FALSE,FALSE,Disabled,0.000000,0.000000,0.000000,TRUE,0.071960,-0.062759,0.000000,0.202042,-0.134338,0.000000,0.022000,-0.035000,0.056000,1.350000,-0.020000,-6.340000,-0.017320,Hold,0.007568,0.000000,Hold,-195.000000,2.000000,LowGoal,2137.500000,-2181.818182,Speed,2137.500000,-2181.818182,Speed,Off,Off,0.000000,FALSE,0,,,,,0.000000,0.000000
09:40:56.431 AM 04/14/2016,Teleop Enabled,9,FALSE,0,NO ERROR,-0.000000,-0.006417,-0.000000,0.000000,FALSE,FALSE,TRUE,FALSE,FALSE,FALSE,Disabled,0.000000,0.000000,0.000000,TRUE,0.080444,-0.067291,0.000000,0.136505,-0.072250,0.000000,-0.019000,0.063000,-0.031000,1.420000,-0.030000,-6.290000,-0.016776,Hold,0.007568,0.000000,Hold,-195.000000,2.000000,LowGoal,2137.500000,-2181.818182,Speed,2145.000000,-2181.818182,Speed,Off,Off,0.000000,FALSE,0,,,,,0.000000,0.000000
09:40:56.533 AM 04/14/2016,Teleop Enabled,11,FALSE,0,NO ERROR,-0.000000,-0.006417,-0.000000,0.000000,FALSE,FALSE,TRUE,FALSE,FALSE,FALSE,Disabled,0.000000,0.000000,0.000000,TRUE,0.083267,-0.067413,0.000000,0.019470,-0.006317,0.000000,-0.174000,-0.002000,-0.032000,1.410000,-0.020000,-6.350000,-0.020710,Hold,0.007568,0.000000,Hold,-195.000000,2.000000,LowGoal,2145.000000,-2181.818182,Speed,2145.000000,-2181.818182,Speed,Off,Off,0.000000,FALSE,0,,,,,0.000000,0.000000
09:40:56.632 AM 04/14/2016,Teleop Enabled,9,FALSE,0,NO ERROR,-0.000000,-0.006417,-0.000000,0.000000,FALSE,FALSE,TRUE,FALSE,FALSE,FALSE,Disabled,0.000000,0.000000,0.000000,TRUE,0.083267,-0.067413,0.000000,0.019470,-0.006317,0.000000,-0.043000,-0.027000,-0.043000,1.330000,-0.020000,-6.380000,-0.020745,Hold,0.007568,0.000000,Hold,-195.000000,2.000000,LowGoal,2137.500000,-2181.818182,Speed,2145.000000,-2181.818182,Speed,Off,Off,0.000000,FALSE,0,,,,,0.000000,0.000000
09:40:56.733 AM 04/14/2016,Teleop Enabled,12,FALSE,0,NO ERROR,-0.000000,-0.006417,-0.000000,0.000000,FALSE,FALSE,TRUE,FALSE,FALSE,FALSE,Disabled,0.000000,0.000000,0.000000,TRUE,0.082489,-0.068298,0.000000,-0.039902,-0.008804,0.000000,-0.005000,0.036000,-0.057000,1.400000,-0.020000,-6.440000,-0.030119,Hold,0.007568,0.000000,Hold,-195.000000,2.000000,LowGoal,2137.500000,-2181.818182,Speed,2145.000000,-2181.818182,Speed,Off,Off,0.000000,FALSE,0,,,,,0.000000,0.000000
09:40:56.835 AM 04/14/2016,Teleop Enabled,10,FALSE,0,NO ERROR,-0.000000,-0.006417,-0.000000,0.000000,FALSE,FALSE,TRUE,FALSE,FALSE,FALSE,Disabled,0.000000,0.000000,0.000000,TRUE,0.082718,-0.068329,0.000000,0.037933,-0.003754,0.000000,0.065000,-0.051000,0.011000,1.420000,-0.020000,-6.410000,-0.034302,Hold,0.007568,0.000000,Hold,-195.000000,2.000000,LowGoal,2137.500000,-2181.818182,Speed,2145.000000,-2181.818182,Speed,Off,Off,0.000000,FALSE,0,,,,,0.000000,0.000000
09:40:56.935 AM 04/14/2016,Teleop Enabled,13,FALSE,0,NO ERROR,-0.000000,-0.006417,-0.000000,0.000000,FALSE,FALSE,TRUE,FALSE,FALSE,FALSE,Disabled,0.000000,0.000000,0.000000,TRUE,0.086151,-0.068771,0.000000,0.080734,0.000000,0.000000,-0.006000,0.007000,0.144000,1.340000,-0.020000,-6.410000,-0.034302,Hold,0.007568,0.000000,Hold,-195.000000,2.000000,LowGoal,2137.500000,-2181.818182,Speed,2145.000000,-2181.818182,Speed,Off,Off,0.000000,FALSE,0,,,,,0.000000,0.000000
09:40:57.035 AM 04/14/2016,Teleop Enabled,11,FALSE,0,NO ERROR,-0.000000,-0.006417,-0.000000,0.000000,FALSE,FALSE,TRUE,FALSE,FALSE,FALSE,Disabled,0.000000,0.000000,0.000000,TRUE,0.091049,-0.067795,0.000000,0.124344,0.037704,0.000000,0.109000,0.049000,0.145000,1.430000,-0.020000,-6.450000,-0.033555,Hold,0.007568,0.000000,Hold,-195.000000,2.000000,LowGoal,2137.500000,-2181.818182,Speed,2145.000000,-2181.818182,Speed,Off,Off,0.000000,FALSE,0,,,,,0.000000,0.000000
09:40:57.134 AM 04/14/2016,Teleop Enabled,11,FALSE,0,NO ERROR,-0.000000,-0.006417,-0.000000,0.000000,FALSE,FALSE,TRUE,FALSE,FALSE,FALSE,Disabled,0.000000,0.000000,0.000000,TRUE,0.098923,-0.067230,0.000000,0.160110,0.007462,0.000000,0.034000,-0.021000,0.078000,1.440000,-0.020000,-6.400000,-0.026821,Hold,0.007568,0.000000,Hold,-195.000000,2.000000,LowGoal,2137.500000,-2181.818182,Speed,2145.000000,-2181.818182,Speed,Off,Off,0.000000,FALSE,0,,,,,0.000000,0.000000
09:40:57.234 AM 04/14/2016,Teleop Enabled,11,FALSE,0,NO ERROR,-0.000000,-0.006417,-0.000000,0.000000,FALSE,FALSE,TRUE,FALSE,FALSE,FALSE,Disabled,0.000000,0.000000,0.000000,TRUE,0.108551,-0.068542,0.000000,0.219696,-0.048660,0.000000,0.002000,-0.069000,0.128000,1.370000,-0.020000,-6.360000,-0.022466,Hold,0.007568,0.000000,Hold,-195.000000,2.000000,LowGoal,2130.000000,-2181.818182,Speed,2145.000000,-2181.818182,Speed,Off,Off,0.000000,FALSE,0,,,,,0.000000,0.000000
09:40:57.335 AM 04/14/2016,Teleop Enabled,10,FALSE,0,NO ERROR,-0.000000,-0.006417,-0.000000,0.000000,FALSE,FALSE,TRUE,FALSE,FALSE,FALSE,Disabled,0.000000,0.000000,0.000000,TRUE,0.120270,-0.071869,0.000000,0.249023,-0.076462,0.000000,0.063000,-0.047000,-0.006000,1.450000,-0.020000,-6.400000,-0.028150,Hold,0.007568,0.000000,Hold,-195.000000,2.000000,LowGoal,2137.500000,-2181.818182,Speed,2145.000000,-2181.818182,Speed,Off,Off,0.000000,FALSE,0,,,,,0.000000,0.000000
09:40:57.436 AM 04/14/2016,Teleop Enabled,11,FALSE,0,NO ERROR,-0.000000,-0.006417,-0.000000,0.000000,FALSE,FALSE,TRUE,FALSE,FALSE,FALSE,Disabled,0.000000,0.000000,0.000000,TRUE,0.133926,-0.075821,0.000000,0.279083,0.000000,0.000000,0.033000,0.013000,-0.130000,1.370000,-0.020000,-6.350000,-0.016387,Hold,0.007568,0.000000,Hold,-195.000000,2.000000,LowGoal,2137.500000,-2181.818182,Speed,2145.000000,-2181.818182,Speed,Off,Off,0.000000,FALSE,0,,,,,0.000000,0.000000
09:40:57.538 AM 04/14/2016,Teleop Enabled,11,FALSE,0,NO ERROR,-0.000000,-0.006417,-0.000000,0.000000,FALSE,FALSE,TRUE,FALSE,FALSE,FALSE,Disabled,0.000000,0.000000,0.000000,TRUE,0.147827,-0.074951,0.000000,0.265518,0.040131,0.000000,-0.052000,0.127000,0.033000,1.320000,-0.020000,-6.410000,-0.019681,Hold,0.007568,0.000000,Hold,-195.000000,2.000000,LowGoal,2145.000000,-2181.818182,Speed,2145.000000,-2181.818182,Speed,Off,Off,0.000000,FALSE,0,,,,,0.000000,0.000000
09:40:57.638 AM 04/14/2016,Teleop Enabled,9,FALSE,0,NO ERROR,-0.000000,-0.006417,-0.000000,0.000000,FALSE,FALSE,TRUE,FALSE,FALSE,FALSE,Disabled,0.000000,0.000000,0.000000,TRUE,0.161835,-0.068405,0.000000,0.192734,0.152817,0.000000,-0.102000,0.094000,-0.125000,1.380000,-0.020000,-6.470000,-0.017932,Hold,0.007568,0.000000,Hold,-194.000000,2.000000,LowGoal,2137.500000,-2181.818182,Speed,2145.000000,-2181.818182,Speed,Off,Off,0.000000,FALSE,0,,,,,0.000000,0.000000
09:40:57.737 AM 04/14/2016,Teleop Enabled,11,FALSE,0,NO ERROR,-0.000000,-0.006417,-0.000000,0.000000,FALSE,FALSE,TRUE,FALSE,FALSE,FALSE,Disabled,0.000000,0.000000,0.000000,TRUE,0.168640,-0.059540,0.000000,0.113724,0.174774,0.000000,-0.013000,-0.046000,-0.073000,1.410000,-0.020000,-6.530000,-0.017512,Hold,0.007568,0.000000,Hold,-194.000000,2.000000,LowGoal,2145.000000,-2181.818182,Speed,2145.000000,-2181.818182,Speed,Off,Off,0.000000,FALSE,0,,,,,0.000000,0.000000
09:40:57.838 AM 04/14/2016,Teleop Enabled,10,FALSE,0,NO ERROR,-0.000000,-0.006417,-0.000000,0.000000,FALSE,FALSE,TRUE,FALSE,FALSE,FALSE,Disabled,0.000000,0.000000,0.000000,TRUE,0.167801,-0.052109,0.000000,-0.034973,0.133514,0.000000,-0.056000,-0.006000,-0.144000,1.350000,-0.020000,-6.510000,-0.010028,Hold,0.007568,0.000000,Hold,-194.000000,2.000000,LowGoal,2160.000000,-2181.818182,Speed,2145.000000,-2181.818182,Speed,Off,Off,0.000000,FALSE,0,,,,,0.000000,0.000000
09:40:57.938 AM 04/14/2016,Teleop Enabled,11,FALSE,0,NO ERROR,-0.000000,-0.006417,-0.000000,0.000000,FALSE,FALSE,TRUE,FALSE,FALSE,FALSE,Disabled,0.000000,0.000000,0.000000,TRUE,0.164932,-0.046112,0.000000,-0.066757,0.112686,0.000000,-0.050000,0.005000,-0.111000,1.380000,-0.010000,-6.500000,-0.006995,Hold,0.007568,0.000000,Hold,-194.000000,2.000000,LowGoal,2160.000000,-2181.818182,Speed,2145.000000,-2181.818182,Speed,Off,Off,0.000000,FALSE,0,,,,,0.000000,0.000000
09:40:58.038 AM 04/14/2016,Teleop Enabled,11,FALSE,0,NO ERROR,-0.000000,-0.006417,-0.000000,0.000000,FALSE,FALSE,TRUE,FALSE,FALSE,FALSE,Disabled,0.000000,0.000000,0.000000,TRUE,0.163437,-0.046082,0.000000,0.000000,0.003159,0.000000,0.019000,0.026000,-0.018000,1.510000,-0.020000,-6.520000,-0.015839,Hold,0.007568,0.000000,Hold,-194.000000,2.000000,LowGoal,2160.000000,-2181.818182,Speed,2152.500000,-2181.818182,Speed,Off,Off,0.000000,FALSE,0,,,,,0.000000,0.000000
09:40:58.138 AM 04/14/2016,Teleop Enabled,10,FALSE,0,NO ERROR,-0.000000,-0.006417,-0.000000,0.000000,FALSE,FALSE,TRUE,FALSE,FALSE,FALSE,Disabled,0.000000,0.000000,0.000000,TRUE,0.164993,-0.045074,0.000000,0.055832,0.024750,0.000000,0.099000,-0.050000,-0.036000,1.550000,-0.020000,-6.470000,-0.008441,Hold,0.007568,0.000000,Hold,-194.000000,2.000000,LowGoal,2160.000000,-2181.818182,Speed,2145.000000,-2181.818182,Speed,Off,Off,0.000000,FALSE,0,,,,,0.000000,0.000000
09:40:58.239 AM 04/14/2016,Teleop Enabled,11,FALSE,0,NO ERROR,-0.000000,-0.006417,-0.000000,0.000000,FALSE,FALSE,TRUE,FALSE,FALSE,FALSE,Disabled,0.000000,0.000000,0.000000,TRUE,0.169891,-0.045029,0.000000,0.121552,-0.011429,0.000000,0.077000,-0.045000,0.048000,1.430000,-0.020000,-6.390000,-0.003749,Hold,0.007568,0.000000,Hold,-194.000000,2.000000,LowGoal,2152.500000,-2181.818182,Speed,2145.000000,-2181.818182,Speed,Off,Off,0.000000,FALSE,0,,,,,0.000000,0.000000
09:40:58.339 AM 04/14/2016,Teleop Enabled,11,FALSE,0,NO ERROR,-0.000000,-0.006417,-0.000000,0.000000,FALSE,FALSE,TRUE,FALSE,FALSE,FALSE,Disabled,0.000000,0.000000,0.000000,TRUE,0.177887,-0.045776,0.000000,0.181427,-0.006882,0.000000,0.026000,0.030000,0.061000,1.390000,-0.030000,-6.410000,-0.005925,Hold,0.007568,0.000000,Hold,-194.000000,2.000000,LowGoal,2152.500000,-2181.818182,Speed,2145.000000,-2181.818182,Speed,Off,Off,0.000000,FALSE,0,,,,,0.000000,0.000000
09:40:58.439 AM 04/14/2016,Teleop Enabled,10,FALSE,0,NO ERROR,-0.000000,-0.006417,-0.000000,0.000000,FALSE,FALSE,TRUE,FALSE,FALSE,FALSE,Disabled,0.000000,0.000000,0.000000,TRUE,0.188553,-0.045151,0.000000,0.239471,0.018860,0.000000,0.059000,0.011000,0.110000,1.400000,-0.030000,-6.470000,0.004641,Hold,0.007568,0.000000,Hold,-194.000000,2.000000,LowGoal,2152.500000,-2181.818182,Speed,2145.000000,-2181.818182,Speed,Off,Off,0.000000,FALSE,0,,,,,0.000000,0.000000
09:40:58.539 AM 04/14/2016,Teleop Enabled,11,FALSE,0,NO ERROR,-0.000000,-0.006417,-0.000000,0.000000,FALSE,FALSE,TRUE,FALSE,FALSE,FALSE,Disabled,0.000000,0.000000,0.000000,TRUE,0.202011,-0.044983,0.000000,0.288620,-0.002930,0.000000,0.038000,-0.048000,0.030000,1.400000,-0.030000,-6.470000,0.005484,Hold,0.007568,0.000000,Hold,-194.000000,2.000000,LowGoal,2152.500000,-2181.818182,Speed,2145.000000,-2181.818182,Speed,Off,Off,0.000000,FALSE,0,,,,,0.000000,0.000000
09:40:58.639 AM 04/14/2016,Teleop Enabled,11,FALSE,0,NO ERROR,-0.000000,-0.006417,-0.000000,0.000000,FALSE,FALSE,TRUE,FALSE,FALSE,FALSE,Disabled,0.000000,0.000000,0.000000,TRUE,0.221191,-0.047073,0.000000,0.335007,-0.057861,0.000000,0.000000,-0.088000,0.059000,1.430000,-0.030000,-6.390000,0.016115,Hold,0.007568,0.000000,Hold,-194.000000,2.000000,LowGoal,2152.500000,-2181.818182,Speed,2145.000000,-2181.818182,Speed,Off,Off,0.000000,FALSE,0,,,,,0.000000,0.000000
09:40:58.740 AM 04/14/2016,Teleop Enabled,10,FALSE,0,NO ERROR,-0.000000,-0.006417,-0.000000,0.000000,FALSE,FALSE,TRUE,FALSE,FALSE,FALSE,Disabled,0.000000,0.000000,0.000000,TRUE,0.238251,-0.052475,0.000000,0.342224,-0.146347,0.000000,0.053000,-0.100000,0.049000,1.420000,-0.030000,-6.430000,0.015626,Hold,0.007568,0.000000,Hold,-194.000000,2.000000,LowGoal,2160.000000,-2181.818182,Speed,2145.000000,-2181.818182,Speed,Off,Off,0.000000,FALSE,0,,,,,0.000000,0.000000
09:40:58.840 AM 04/14/2016,Teleop Enabled,11,FALSE,0,NO ERROR,-0.000000,-0.006417,-0.000000,0.000000,FALSE,FALSE,TRUE,FALSE,FALSE,FALSE,Disabled,0.000000,0.000000,0.000000,TRUE,0.249176,-0.062820,0.000000,0.008484,-0.244934,0.000000,0.083000,-0.081000,0.112000,1.370000,-0.030000,-6.480000,0.011863,Hold,0.007568,0.000000,Hold,-194.000000,2.000000,LowGoal,2152.500000,-2181.818182,Speed,2145.000000,-2181.818182,Speed,Off,Off,0.000000,FALSE,0,,,,,0.000000,0.000000
09:40:58.939 AM 04/14/2016,Teleop Enabled,10,FALSE,0,NO ERROR,-0.000000,-0.006417,-0.000000,0.000000,FALSE,FALSE,TRUE,FALSE,FALSE,FALSE,Disabled,0.000000,0.000000,0.000000,TRUE,0.250717,-0.079987,0.000000,0.019882,-0.304428,0.000000,-0.051000,-0.003000,0.107000,1.400000,-0.030000,-6.380000,0.007673,Hold,0.007568,0.000000,Hold,-194.000000,2.000000,LowGoal,2160.000000,-2181.818182,Speed,2145.000000,-2181.818182,Speed,Off,Off,0.000000,FALSE,0,,,,,0.000000,0.000000
09:40:59.040 AM 04/14/2016,Teleop Enabled,11,FALSE,0,NO ERROR,-0.000000,-0.006417,-0.000000,0.000000,FALSE,FALSE,TRUE,FALSE,FALSE,FALSE,Disabled,0.000000,0.000000,0.000000,TRUE,0.250916,-0.083359,0.000000,-0.001785,-0.021545,0.000000,-0.060000,-0.046000,0.140000,1.440000,-0.030000,-6.350000,0.002420,Hold,0.007568,0.000000,Hold,-194.000000,2.000000,LowGoal,2160.000000,-2181.818182,Speed,2145.000000,-2181.818182,Speed,Off,Off,0.000000,FALSE,0,,,,,0.000000,0.000000
09:40:59.140 AM 04/14/2016,Teleop Enabled,10,FALSE,0,NO ERROR,-0.000000,-0.006417,-0.000000,0.000000,FALSE,FALSE,TRUE,FALSE,FALSE,FALSE,Disabled,0.000000,0.000000,0.000000,TRUE,0.250504,-0.086075,0.000000,-0.005997,-0.071411,0.000000,0.069000,-0.002000,0.058000,1.420000,-0.030000,-6.330000,0.003264,Hold,0.007568,0.000000,Hold,-194.000000,2.000000,LowGoal,2160.000000,-2181.818182,Speed,2145.000000,-2181.818182,Speed,Off,Off,0.000000,FALSE,0,,,,,0.000000,0.000000
09:40:59.239 AM 04/14/2016,Teleop Enabled,13,FALSE,0,NO ERROR,-0.000000,-0.006417,-0.000000,0.000000,FALSE,FALSE,TRUE,FALSE,FALSE,FALSE,Disabled,0.000000,0.000000,0.000000,TRUE,0.250504,-0.089828,0.000000,-0.006363,-0.070267,0.000000,-0.045000,0.046000,0.006000,1.390000,-0.040000,-6.230000,-0.003377,Hold,0.007568,0.000000,Hold,-194.000000,2.000000,LowGoal,2152.500000,-2181.818182,Speed,2145.000000,-2181.818182,Speed,Off,Off,0.000000,FALSE,0,,,,,0.000000,0.000000
09:40:59.340 AM 04/14/2016,Teleop Enabled,11,FALSE,0,NO ERROR,-0.000000,-0.006417,-0.000000,0.000000,FALSE,FALSE,TRUE,FALSE,FALSE,FALSE,Disabled,0.000000,0.000000,0.000000,TRUE,0.248825,-0.091644,0.000000,-0.056702,-0.005997,0.000000,-0.069000,0.080000,-0.006000,1.410000,-0.040000,-6.200000,-0.003012,Hold,0.007568,0.000000,Hold,-194.000000,2.000000,LowGoal,2160.000000,-2181.818182,Speed,2145.000000,-2181.818182,Speed,Off,Off,0.000000,FALSE,0,,,,,0.000000,0.000000
09:40:59.439 AM 04/14/2016,Teleop Enabled,9,FALSE,0,NO ERROR,-0.000000,-0.006417,-0.000000,0.000000,FALSE,FALSE,TRUE,FALSE,FALSE,FALSE,Disabled,0.000000,0.000000,0.000000,TRUE,0.244003,-0.088715,0.000000,-0.118546,0.105164,0.000000,-0.063000,0.147000,-0.045000,1.390000,-0.040000,-6.320000,0.001573,Hold,0.007568,0.000000,Hold,-194.000000,2.000000,LowGoal,2152.500000,-2181.818182,Speed,2145.000000,-2181.818182,Speed,Off,Off,0.000000,FALSE,0,,,,,0.000000,0.000000
09:40:59.540 AM 04/14/2016,Teleop Enabled,12,FALSE,0,NO ERROR,-0.000000,-0.006417,-0.000000,0.000000,FALSE,FALSE,TRUE,FALSE,FALSE,FALSE,Disabled,0.000000,0.000000,0.000000,TRUE,0.239899,-0.080338,0.000000,-0.007263,0.200684,0.000000,-0.074000,0.073000,-0.097000,1.350000,-0.040000,-6.300000,0.002609,Hold,0.007568,0.000000,Hold,-193.000000,2.000000,LowGoal,2152.500000,-2181.818182,Speed,2152.500000,-2181.818182,Speed,Off,Off,0.000000,FALSE,0,,,,,0.000000,0.000000
09:40:59.640 AM 04/14/2016,Teleop Enabled,11,FALSE,0,NO ERROR,-0.000000,-0.006417,-0.000000,0.000000,FALSE,FALSE,TRUE,FALSE,FALSE,FALSE,Disabled,0.000000,0.000000,0.000000,TRUE,0.237534,-0.065063,0.000000,-0.067764,0.287552,0.000000,-0.036000,0.047000,-0.086000,1.370000,-0.040000,-6.190000,-0.013347,Hold,0.007568,0.000000,Hold,-193.000000,2.000000,LowGoal,2152.500000,-2181.818182,Speed,2152.500000,-2181.818182,Speed,Off,Off,0.000000,FALSE,0,,,,,0.000000,0.000000
09:40:59.740 AM 04/14/2016,Teleop Enabled,9,FALSE,0,NO ERROR,-0.000000,-0.006417,-0.000000,0.000000,FALSE,FALSE,TRUE,FALSE,FALSE,FALSE,Disabled,0.000000,0.000000,0.000000,TRUE,0.232681,-0.048767,0.000000,-0.105698,0.350662,0.000000,-0.042000,0.046000,-0.153000,1.380000,-0.040000,-6.190000,-0.018858,Hold,0.007568,0.000000,Hold,-193.000000,2.000000,LowGoal,2152.500000,-2181.818182,Speed,2145.000000,-2181.818182,Speed,Off,Off,0.000000,FALSE,0,,,,,0.000000,0.000000
09:40:59.840 AM 04/14/2016,Teleop Enabled,13,FALSE,0,NO ERROR,-0.000000,-0.006417,-0.000000,0.000000,FALSE,FALSE,TRUE,FALSE,FALSE,FALSE,Disabled,0.000000,0.000000,0.000000,TRUE,0.230179,-0.030823,0.000000,-0.020950,0.353973,0.000000,-0.103000,-0.043000,-0.090000,1.350000,-0.040000,-6.230000,-0.025189,Hold,0.007568,0.000000,Hold,-193.000000,2.000000,LowGoal,2160.000000,-2181.818182,Speed,2152.500000,-2181.818182,Speed,Off,Off,0.000000,FALSE,0,,,,,0.000000,0.000000
09:40:59.939 AM 04/14/2016,Teleop Enabled,11,FALSE,0,NO ERROR,-0.000000,-0.006417,-0.000000,0.000000,FALSE,FALSE,TRUE,FALSE,FALSE,FALSE,Disabled,0.000000,0.000000,0.000000,TRUE,0.228043,-0.014145,0.000000,-0.047638,0.322510,0.000000,0.073000,-0.038000,-0.169000,1.300000,-0.050000,-6.300000,-0.033042,Hold,0.007568,0.000000,Hold,-193.000000,2.000000,LowGoal,2160.000000,-2181.818182,Speed,2152.500000,-2181.818182,Speed,Off,Off,0.000000,FALSE,0,,,,,0.000000,0.000000
09:41:00.040 AM 04/14/2016,Teleop Enabled,11,FALSE,0,NO ERROR,-0.000000,-0.006417,-0.000000,0.000000,FALSE,FALSE,TRUE,FALSE,FALSE,FALSE,Disabled,0.000000,0.000000,0.000000,TRUE,0.228012,0.001343,0.000000,0.042969,0.302567,0.000000,0.173000,-0.002000,-0.132000,1.370000,-0.040000,-6.260000,-0.042746,Hold,0.007568,0.000000,Hold,-193.000000,2.000000,LowGoal,2152.500000,-2181.818182,Speed,2145.000000,-2181.818182,Speed,Off,Off,0.000000,FALSE,0,,,,,0.000000,0.000000
09:41:00.139 AM 04/14/2016,Teleop Enabled,11,FALSE,0,NO ERROR,-0.000000,-0.006417,-0.000000,0.000000,FALSE,FALSE,TRUE,FALSE,FALSE,FALSE,Disabled,0.000000,0.000000,0.000000,TRUE,0.234222,0.000900,0.000000,0.179581,-0.018295,0.000000,0.154000,-0.068000,-0.078000,1.480000,-0.050000,-6.140000,-0.047349,Hold,0.007568,0.000000,Hold,-193.000000,2.000000,LowGoal,2160.000000,-2181.818182,Speed,2145.000000,-2181.818182,Speed,Off,Off,0.000000,FALSE,0,,,,,0.000000,0.000000
09:41:00.239 AM 04/14/2016,Teleop Enabled,11,FALSE,0,NO ERROR,-0.000000,-0.006417,-0.000000,0.000000,FALSE,FALSE,TRUE,FALSE,FALSE,FALSE,Disabled,0.000000,0.000000,0.000000,TRUE,0.247330,-0.001190,0.000000,0.308182,-0.051407,0.000000,0.121000,0.029000,0.028000,1.410000,-0.040000,-6.080000,-0.045872,Hold,0.007568,0.000000,Hold,-193.000000,2.000000,LowGoal,2160.000000,-2181.818182,Speed,2145.000000,-2181.818182,Speed,Off,Off,0.000000,FALSE,0,,,,,0.000000,0.000000
09:41:00.340 AM 04/14/2016,Teleop Enabled,11,FALSE,0,NO ERROR,-0.000000,-0.006417,-0.000000,0.000000,FALSE,FALSE,TRUE,FALSE,FALSE,FALSE,Disabled,0.000000,0.000000,0.000000,TRUE,0.265213,-0.002518,0.000000,0.379242,0.008377,0.000000,0.026000,0.049000,0.059000,1.350000,-0.050000,-6.120000,-0.046450,Hold,0.007568,0.000000,Hold,-192.000000,2.000000,LowGoal,2160.000000,-2181.818182,Speed,2145.000000,-2181.818182,Speed,Off,Off,0.000000,FALSE,0,,,,,0.000000,0.000000
09:41:00.441 AM 04/14/2016,Teleop Enabled,11,FALSE,0,NO ERROR,-0.000000,-0.006417,-0.000000,0.000000,FALSE,FALSE,TRUE,FALSE,FALSE,FALSE,Disabled,0.000000,0.000000,0.000000,TRUE,0.272873,-0.000397,0.000000,-0.007095,0.064957,0.000000,0.004000,0.007000,0.026000,1.380000,-0.040000,-6.190000,-0.059315,Hold,0.007568,0.000000,Hold,-192.000000,2.000000,LowGoal,2152.500000,-2181.818182,Speed,2152.500000,-2181.818182,Speed,Off,Off,0.000000,FALSE,0,,,,,0.000000,0.000000
09:41:00.542 AM 04/14/2016,Teleop Enabled,9,FALSE,0,NO ERROR,-0.000000,-0.006417,-0.000000,0.000000,FALSE,FALSE,TRUE,FALSE,FALSE,FALSE,Disabled,0.000000,0.000000,0.000000,TRUE,0.272507,-0.000351,0.000000,-0.005768,-0.030014,0.000000,0.008000,-0.042000,0.042000,1.420000,-0.040000,-6.280000,-0.043924,Hold,0.007568,0.000000,Hold,-192.000000,2.000000,LowGoal,2160.000000,-2181.818182,Speed,2152.500000,-2181.818182,Speed,Off,Off,0.000000,FALSE,0,,,,,0.000000,0.000000
09:41:00.643 AM 04/14/2016,Teleop Enabled,9,FALSE,0,NO ERROR,-0.000000,-0.006417,-0.000000,0.000000,FALSE,FALSE,TRUE,FALSE,FALSE,FALSE,Disabled,0.000000,0.000000,0.000000,TRUE,0.271790,-0.003632,0.000000,-0.022034,-0.093262,0.000000,0.008000,-0.042000,0.042000,1.460000,-0.040000,-6.210000,-0.050977,Hold,0.007568,0.000000,Hold,-192.000000,2.000000,LowGoal,2160.000000,-2181.818182,Speed,2145.000000,-2181.818182,Speed,Off,Off,0.000000,FALSE,0,,,,,0.000000,0.000000
09:41:00.744 AM 04/14/2016,Teleop Enabled,9,FALSE,0,NO ERROR,-0.000000,-0.006417,-0.000000,0.000000,FALSE,FALSE,TRUE,FALSE,FALSE,FALSE,Disabled,0.000000,0.000000,0.000000,TRUE,0.270981,-0.009796,0.000000,-0.016739,-0.147827,0.000000,0.033000,-0.062000,0.126000,1.480000,-0.050000,-6.010000,-0.055986,Hold,0.007568,0.000000,Hold,-192.000000,2.000000,LowGoal,2160.000000,-2181.818182,Speed,2152.500000,-2181.818182,Speed,Off,Off,0.000000,FALSE,0,,,,,0.000000,0.000000
09:41:00.844 AM 04/14/2016,Teleop Enabled,10,FALSE,0,NO ERROR,-0.000000,-0.006417,-0.000000,0.000000,FALSE,FALSE,TRUE,FALSE,FALSE,FALSE,Disabled,0.000000,0.000000,0.000000,TRUE,0.270020,-0.018890,0.000000,-0.020782,-0.203674,0.000000,0.049000,-0.065000,0.152000,1.490000,-0.050000,-6.010000,-0.056888,Hold,0.007568,0.000000,Hold,-192.000000,2.000000,LowGoal,2160.000000,-2181.818182,Speed,2145.000000,-2181.818182,Speed,Off,Off,0.000000,FALSE,0,,,,,0.000000,0.000000
09:41:00.946 AM 04/14/2016,Teleop Enabled,9,FALSE,0,NO ERROR,-0.000000,-0.006417,-0.000000,0.000000,FALSE,FALSE,TRUE,FALSE,FALSE,FALSE,Disabled,0.000000,0.000000,0.000000,TRUE,0.268646,-0.030975,0.000000,-0.028061,-0.271988,0.000000,-0.051000,-0.050000,0.042000,1.450000,-0.050000,-6.060000,-0.049573,Hold,0.007568,0.000000,Hold,-192.000000,2.000000,LowGoal,2160.000000,-2181.818182,Speed,2152.500000,-2181.818182,Speed,Off,Off,0.000000,FALSE,0,,,,,0.000000,0.000000
09:41:01.047 AM 04/14/2016,Teleop Enabled,9,FALSE,0,NO ERROR,-0.000000,-0.006417,-0.000000,0.000000,FALSE,FALSE,TRUE,FALSE,FALSE,FALSE,Disabled,0.000000,0.000000,0.000000,TRUE,0.266327,-0.046295,0.000000,-0.052795,-0.329285,0.000000,0.015000,-0.061000,0.103000,1.390000,-0.050000,-6.160000,-0.069870,Hold,0.007568,0.000000,Hold,-192.000000,2.000000,LowGoal,2152.500000,-2181.818182,Speed,2152.500000,-2181.818182,Speed,Off,Off,0.000000,FALSE,0,,,,,0.000000,0.000000
09:41:01.147 AM 04/14/2016,Teleop Enabled,9,FALSE,0,NO ERROR,-0.000000,-0.006417,-0.000000,0.000000,FALSE,FALSE,TRUE,FALSE,FALSE,FALSE,Disabled,0.000000,0.000000,0.000000,TRUE,0.262665,-0.060349,0.000000,-0.096741,0.000000,0.000000,-0.014000,0.060000,0.025000,1.380000,-0.040000,-6.190000,-0.072979,Hold,0.007568,0.000000,Hold,-192.000000,2.000000,LowGoal,2152.500000,-2181.818182,Speed,2145.000000,-2181.818182,Speed,Off,Off,0.000000,FALSE,0,,,,,0.000000,0.000000
09:41:01.247 AM 04/14/2016,Teleop Enabled,10,FALSE,0,NO ERROR,-0.000000,-0.006417,-0.000000,0.000000,FALSE,FALSE,TRUE,FALSE,FALSE,FALSE,Disabled,0.000000,0.000000,0.000000,TRUE,0.261810,-0.059921,0.000000,0.008591,0.013321,0.000000,-0.054000,0.042000,0.028000,1.390000,-0.050000,-6.140000,-0.077454,Hold,0.007568,0.000000,Hold,-192.000000,2.000000,LowGoal,2160.000000,-2181.818182,Speed,2145.000000,-2181.818182,Speed,Off,Off,0.000000,FALSE,0,,,,,0.000000,0.000000
09:41:01.347 AM 04/14/2016,Teleop Enabled,10,FALSE,0,NO ERROR,-0.000000,-0.006417,-0.000000,0.000000,FALSE,FALSE,TRUE,FALSE,FALSE,FALSE,Disabled,0.000000,0.000000,0.000000,TRUE,0.260681,-0.057709,0.000000,-0.052963,0.061737,0.000000,-0.099000,-0.020000,-0.036000,1.360000,-0.050000,-6.220000,-0.068459,Hold,0.007568,0.000000,Hold,-192.000000,2.000000,LowGoal,2160.000000,-2181.818182,Speed,2145.000000,-2181.818182,Speed,Off,Off,0.000000,FALSE,0,,,,,0.000000,0.000000
09:41:01.449 AM 04/14/2016,Teleop Enabled,9,FALSE,0,NO ERROR,-0.000000,-0.006417,-0.000000,0.000000,FALSE,FALSE,TRUE,FALSE,FALSE,FALSE,Disabled,0.000000,0.000000,0.000000,TRUE,0.253281,-0.052414,0.000000,-0.162949,0.116165,0.000000,-0.099000,-0.020000,-0.036000,1.360000,-0.050000,-6.220000,-0.080470,Hold,0.007568,0.000000,Hold,-192.000000,2.000000,LowGoal,2160.000000,-2181.818182,Speed,2152.500000,-2181.818182,Speed,Off,Off,0.000000,FALSE,0,,,,,0.000000,0.000000
09:41:01.549 AM 04/14/2016,Teleop Enabled,9,FALSE,0,NO ERROR,-0.000000,-0.006417,-0.000000,0.000000,FALSE,FALSE,TRUE,FALSE,FALSE,FALSE,Disabled,0.000000,0.000000,0.000000,TRUE,0.250000,-0.044632,0.000000,0.000000,0.176727,0.000000,0.028000,0.096000,-0.101000,1.410000,-0.050000,-6.210000,-0.075420,Hold,0.007568,0.000000,Hold,-192.000000,2.000000,LowGoal,2152.500000,-2181.818182,Speed,2145.000000,-2181.818182,Speed,Off,Off,0.000000,FALSE,0,,,,,0.000000,0.000000
09:41:01.651 AM 04/14/2016,Teleop Enabled,10,FALSE,0,NO ERROR,-0.000000,-0.006417,-0.000000,0.000000,FALSE,FALSE,TRUE,FALSE,FALSE,FALSE,Disabled,0.000000,0.000000,0.000000,TRUE,0.249313,-0.034515,0.000000,-0.028259,0.220291,0.000000,0.017000,0.061000,-0.041000,1.420000,-0.060000,-6.200000,-0.074194,Hold,0.007568,0.000000,Hold,-192.000000,2.000000,LowGoal,2160.000000,-2181.818182,Speed,2152.500000,-2181.818182,Speed,Off,Off,0.000000,FALSE,0,,,,,0.000000,0.000000
09:41:01.752 AM 04/14/2016,Teleop Enabled,9,FALSE,0,NO ERROR,-0.000000,-0.006417,-0.000000,0.000000,FALSE,FALSE,TRUE,FALSE,FALSE,FALSE,Disabled,0.000000,0.000000,0.000000,TRUE,0.246384,-0.022415,0.000000,-0.076385,0.259338,0.000000,-0.045000,0.027000,-0.079000,1.420000,-0.060000,-6.200000,-0.077551,Hold,0.007568,0.000000,Hold,-192.000000,2.000000,LowGoal,2152.500000,-2181.818182,Speed,2152.500000,-2181.818182,Speed,Off,Off,0.000000,FALSE,0,,,,,0.000000,0.000000
09:41:01.853 AM 04/14/2016,Teleop Enabled,10,FALSE,0,NO ERROR,-0.000000,-0.006417,-0.000000,0.000000,FALSE,FALSE,TRUE,FALSE,FALSE,FALSE,Disabled,0.000000,0.000000,0.000000,TRUE,0.242157,-0.008041,0.000000,-0.089737,0.299057,0.000000,-0.027000,0.054000,-0.137000,1.360000,-0.050000,-6.220000,-0.083678,Hold,0.007568,0.000000,Hold,-192.000000,2.000000,LowGoal,2152.500000,-2181.818182,Speed,2145.000000,-2181.818182,Speed,Off,Off,0.000000,FALSE,0,,,,,0.000000,0.000000
09:41:01.954 AM 04/14/2016,Teleop Enabled,11,FALSE,0,NO ERROR,-0.000000,-0.006417,-0.000000,0.000000,FALSE,FALSE,TRUE,FALSE,FALSE,FALSE,Disabled,0.000000,0.000000,0.000000,TRUE,0.240829,0.008072,0.000000,-0.024887,0.338577,0.000000,-0.001000,0.057000,-0.002000,1.290000,-0.060000,-6.180000,-0.070039,Hold,0.007568,0.000000,Hold,-192.000000,2.000000,LowGoal,2152.500000,-2181.818182,Speed,2152.500000,-2181.818182,Speed,Off,Off,0.000000,FALSE,0,,,,,0.000000,0.000000
09:41:02.055 AM 04/14/2016,Teleop Enabled,9,FALSE,0,NO ERROR,-0.000000,-0.006417,-0.000000,0.000000,FALSE,FALSE,TRUE,FALSE,FALSE,FALSE,Disabled,0.000000,0.000000,0.000000,TRUE,0.238785,0.014832,0.000000,-0.053345,-0.008041,0.000000,0.023000,0.008000,-0.140000,1.360000,-0.060000,-6.170000,-0.075650,Hold,0.007568,0.000000,Hold,-192.000000,2.000000,LowGoal,2152.500000,-2181.818182,Speed,2152.500000,-2181.818182,Speed,Off,Off,0.000000,FALSE,0,,,,,0.000000,0.000000
09:41:02.156 AM 04/14/2016,Teleop Enabled,10,FALSE,0,NO ERROR,-0.000000,-0.006417,-0.000000,0.000000,FALSE,FALSE,TRUE,FALSE,FALSE,FALSE,Disabled,0.000000,0.000000,0.000000,TRUE,0.236816,0.013062,0.000000,0.000000,-0.050430,0.000000,-0.051000,-0.077000,-0.140000,1.390000,-0.060000,-6.150000,-0.082546,Hold,0.007568,0.000000,Hold,-192.000000,2.000000,LowGoal,2152.500000,-2181.818182,Speed,2152.500000,-2181.818182,Speed,Off,Off,0.000000,FALSE,0,,,,,0.000000,0.000000
09:41:02.255 AM 04/14/2016,Teleop Enabled,11,FALSE,0,NO ERROR,-0.000000,-0.006417,-0.000000,0.000000,FALSE,FALSE,TRUE,FALSE,FALSE,FALSE,Disabled,0.000000,0.000000,0.000000,TRUE,0.236816,0.013062,0.000000,0.000000,-0.050430,0.000000,-0.026000,-0.028000,0.081000,1.350000,-0.060000,-6.180000,-0.092095,Hold,0.007568,0.000000,Hold,-192.000000,2.000000,LowGoal,2152.500000,-2181.818182,Speed,2152.500000,-2181.818182,Speed,Off,Off,0.000000,FALSE,0,,,,,0.000000,0.000000
09:41:02.356 AM 04/14/2016,Teleop Enabled,9,FALSE,0,NO ERROR,-0.000000,-0.006417,-0.000000,0.000000,FALSE,FALSE,TRUE,FALSE,FALSE,FALSE,Disabled,0.000000,0.000000,0.000000,TRUE,0.237076,0.010803,0.000000,0.013611,-0.029312,0.000000,-0.019000,-0.018000,0.094000,1.370000,-0.060000,-6.280000,-0.102888,Hold,0.007568,0.000000,Hold,-191.000000,2.000000,LowGoal,2152.500000,-2181.818182,Speed,2152.500000,-2181.818182,Speed,Off,Off,0.000000,FALSE,0,,,,,0.000000,0.000000
09:41:02.455 AM 04/14/2016,Teleop Enabled,11,FALSE,0,NO ERROR,-0.000000,-0.006417,-0.000000,0.000000,FALSE,FALSE,TRUE,FALSE,FALSE,FALSE,Disabled,0.000000,0.000000,0.000000,TRUE,0.237076,0.010803,0.000000,0.013611,-0.029312,0.000000,0.072000,0.040000,-0.007000,1.370000,-0.060000,-6.280000,-0.116765,Hold,0.007568,0.000000,Hold,-190.000000,2.000000,LowGoal,2137.500000,-2181.818182,Speed,2152.500000,-2181.818182,Speed,Off,Off,0.000000,FALSE,0,,,,,0.000000,0.000000
09:41:02.555 AM 04/14/2016,Teleop Enabled,11,FALSE,0,NO ERROR,-0.000000,-0.006417,-0.000000,0.000000,FALSE,FALSE,TRUE,FALSE,FALSE,FALSE,Disabled,0.000000,0.000000,0.000000,TRUE,0.240173,0.010284,0.000000,0.087173,-0.002655,0.000000,-0.022000,-0.010000,0.131000,1.350000,-0.060000,-6.250000,-0.099548,Hold,0.007568,0.000000,Hold,-190.000000,2.000000,LowGoal,2137.500000,-2181.818182,Speed,2145.000000,-2181.818182,Speed,Off,Off,0.000000,FALSE,0,,,,,0.000000,0.000000
09:41:02.656 AM 04/14/2016,Teleop Enabled,11,FALSE,0,NO ERROR,-0.000000,-0.006417,-0.000000,0.000000,FALSE,FALSE,TRUE,FALSE,FALSE,FALSE,Disabled,0.000000,0.000000,0.000000,TRUE,0.245163,0.009094,0.000000,0.117172,-0.049438,0.000000,0.009000,-0.077000,0.115000,1.350000,-0.060000,-6.250000,-0.112878,Hold,0.007568,0.000000,Hold,-189.000000,2.000000,LowGoal,2137.500000,-2181.818182,Speed,2152.500000,-2181.818182,Speed,Off,Off,0.000000,FALSE,0,,,,,0.000000,0.000000
09:41:02.756 AM 04/14/2016,Teleop Enabled,9,FALSE,0,NO ERROR,-0.000000,-0.006417,-0.000000,0.000000,FALSE,FALSE,TRUE,FALSE,FALSE,FALSE,Disabled,0.000000,0.000000,0.000000,TRUE,0.251038,0.004868,0.000000,0.103378,-0.099136,0.000000,0.024000,-0.023000,0.004000,1.340000,-0.060000,-6.270000,-0.115515,Hold,0.007568,0.000000,Hold,-189.000000,2.000000,LowGoal,2130.000000,-2181.818182,Speed,2152.500000,-2181.818182,Speed,Off,Off,0.000000,FALSE,0,,,,,0.000000,0.000000
09:41:02.855 AM 04/14/2016,Teleop Enabled,11,FALSE,0,NO ERROR,-0.000000,-0.006417,-0.000000,0.000000,FALSE,FALSE,TRUE,FALSE,FALSE,FALSE,Disabled,0.000000,0.000000,0.000000,TRUE,0.255127,-0.000168,0.000000,0.000000,-0.089890,0.000000,-0.046000,0.029000,-0.037000,1.350000,-0.060000,-6.290000,-0.105036,Hold,0.007568,0.000000,Hold,-189.000000,2.000000,LowGoal,2137.500000,-2181.818182,Speed,2145.000000,-2181.818182,Speed,Off,Off,0.000000,FALSE,0,,,,,0.000000,0.000000
09:41:02.956 AM 04/14/2016,Teleop Enabled,11,FALSE,0,NO ERROR,-0.000000,-0.006417,-0.000000,0.000000,FALSE,FALSE,TRUE,FALSE,FALSE,FALSE,Disabled,0.000000,0.000000,0.000000,TRUE,0.253052,-0.003876,0.000000,-0.077148,-0.069992,0.000000,-0.092000,0.111000,-0.107000,1.290000,-0.050000,-6.330000,-0.105036,Hold,0.007568,0.000000,Hold,-189.000000,2.000000,LowGoal,2137.500000,-2181.818182,Speed,2152.500000,-2181.818182,Speed,Off,Off,0.000000,FALSE,0,,,,,0.000000,0.000000
09:41:03.055 AM 04/14/2016,Teleop Enabled,11,FALSE,0,NO ERROR,-0.000000,-0.006417,-0.000000,0.000000,FALSE,FALSE,TRUE,FALSE,FALSE,FALSE,Disabled,0.000000,0.000000,0.000000,TRUE,0.246536,-0.004807,0.000000,-0.156708,0.015793,0.000000,-0.122000,-0.006000,-0.128000,1.280000,-0.050000,-6.380000,-0.113381,Hold,0.007568,0.000000,Hold,-189.000000,2.000000,LowGoal,2137.500000,-2181.818182,Speed,2152.500000,-2181.818182,Speed,Off,Off,0.000000,FALSE,0,,,,,0.000000,0.000000
09:41:03.155 AM 04/14/2016,Teleop Enabled,11,FALSE,0,NO ERROR,-0.000000,-0.006417,-0.000000,0.000000,FALSE,FALSE,TRUE,FALSE,FALSE,FALSE,Disabled,0.000000,0.000000,0.000000,TRUE,0.240906,-0.003311,0.000000,0.000000,0.043457,0.000000,-0.034000,0.008000,-0.059000,1.320000,-0.050000,-6.340000,-0.109002,Hold,0.007568,0.000000,Hold,-189.000000,2.000000,LowGoal,2145.000000,-2181.818182,Speed,2152.500000,-2181.818182,Speed,Off,Off,0.000000,FALSE,0,,,,,0.000000,0.000000
09:41:03.255 AM 04/14/2016,Teleop Enabled,11,FALSE,0,NO ERROR,-0.000000,-0.006417,-0.000000,0.000000,FALSE,FALSE,TRUE,FALSE,FALSE,FALSE,Disabled,0.000000,0.000000,0.000000,TRUE,0.240952,-0.003311,0.000000,0.006409,-0.008026,0.000000,0.041000,-0.044000,-0.151000,1.340000,-0.060000,-6.270000,-0.106210,Hold,0.007568,0.000000,Hold,-189.000000,2.000000,LowGoal,2160.000000,-2181.818182,Speed,2145.000000,-2181.818182,Speed,Off,Off,0.000000,FALSE,0,,,,,0.000000,0.000000
09:41:03.355 AM 04/14/2016,Teleop Enabled,11,FALSE,0,NO ERROR,-0.000000,-0.006417,-0.000000,0.000000,FALSE,FALSE,TRUE,FALSE,FALSE,FALSE,Disabled,0.000000,0.000000,0.000000,TRUE,0.241867,-0.005844,0.000000,0.000000,-0.064041,0.000000,-0.054000,-0.010000,-0.002000,1.310000,-0.060000,-6.330000,-0.115804,Hold,0.007568,0.000000,Hold,-189.000000,2.000000,LowGoal,2160.000000,-2181.818182,Speed,2152.500000,-2181.818182,Speed,Off,Off,0.000000,FALSE,0,,,,,0.000000,0.000000
09:41:03.456 AM 04/14/2016,Teleop Enabled,10,FALSE,0,NO ERROR,-0.000000,-0.006417,-0.000000,0.000000,FALSE,FALSE,TRUE,FALSE,FALSE,FALSE,Disabled,0.000000,0.000000,0.000000,TRUE,0.241913,-0.009781,0.000000,0.015930,-0.089600,0.000000,0.021000,-0.043000,0.026000,1.290000,-0.060000,-6.310000,-0.120916,Hold,0.007568,0.000000,Hold,-189.000000,2.000000,LowGoal,2137.500000,-2181.818182,Speed,2152.500000,-2181.818182,Speed,Off,Off,0.000000,FALSE,0,,,,,0.000000,0.000000
09:41:03.556 AM 04/14/2016,Teleop Enabled,10,FALSE,0,NO ERROR,-0.000000,-0.006417,-0.000000,0.000000,FALSE,FALSE,TRUE,FALSE,FALSE,FALSE,Disabled,0.000000,0.000000,0.000000,TRUE,0.243362,-0.013214,0.000000,0.053452,-0.076569,0.000000,0.001000,0.058000,0.114000,1.320000,-0.060000,-6.320000,-0.122104,Hold,0.007568,0.000000,Hold,-189.000000,2.000000,LowGoal,2137.500000,-2181.818182,Speed,2152.500000,-2181.818182,Speed,Off,Off,0.000000,FALSE,0,,,,,0.000000,0.000000
09:41:03.655 AM 04/14/2016,Teleop Enabled,10,FALSE,0,NO ERROR,-0.000000,-0.006417,-0.000000,0.000000,FALSE,FALSE,TRUE,FALSE,FALSE,FALSE,Disabled,0.000000,0.000000,0.000000,TRUE,0.246643,-0.015747,0.000000,0.068344,-0.033478,0.000000,0.048000,-0.026000,0.109000,1.350000,-0.060000,-6.440000,-0.118211,Hold,0.007568,0.000000,Hold,-189.000000,2.000000,LowGoal,2137.500000,-2181.818182,Speed,2145.000000,-2181.818182,Speed,Off,Off,0.000000,FALSE,0,,,,,0.000000,0.000000
09:41:03.756 AM 04/14/2016,Teleop Enabled,10,FALSE,0,NO ERROR,-0.000000,-0.006417,-0.000000,0.000000,FALSE,FALSE,TRUE,FALSE,FALSE,FALSE,Disabled,0.000000,0.000000,0.000000,TRUE,0.252304,-0.018219,0.000000,0.106995,-0.052063,0.000000,-0.094000,-0.036000,0.091000,1.360000,-0.060000,-6.370000,-0.122386,Hold,0.007568,0.000000,Hold,-188.000000,2.000000,LowGoal,2137.500000,-2181.818182,Speed,2152.500000,-2181.818182,Speed,Off,Off,0.000000,FALSE,0,,,,,0.000000,0.000000
09:41:03.855 AM 04/14/2016,Teleop Enabled,11,FALSE,0,NO ERROR,-0.000000,-0.006417,-0.000000,0.000000,FALSE,FALSE,TRUE,FALSE,FALSE,FALSE,Disabled,0.000000,0.000000,0.000000,TRUE,0.255981,-0.022079,0.000000,0.058762,-0.101669,0.000000,-0.036000,-0.082000,0.092000,1.280000,-0.060000,-6.350000,-0.118135,Hold,0.007568,0.000000,Hold,-188.000000,2.000000,LowGoal,2137.500000,-2181.818182,Speed,2152.500000,-2181.818182,Speed,Off,Off,0.000000,FALSE,0,,,,,0.000000,0.000000
09:41:03.956 AM 04/14/2016,Teleop Enabled,11,FALSE,0,NO ERROR,-0.000000,-0.006417,-0.000000,0.000000,FALSE,FALSE,TRUE,FALSE,FALSE,FALSE,Disabled,0.000000,0.000000,0.000000,TRUE,0.257904,-0.029282,0.000000,0.023148,-0.168716,0.000000,-0.054000,0.025000,0.130000,1.340000,-0.060000,-6.440000,-0.118114,Hold,0.007568,0.000000,Hold,-188.000000,2.000000,LowGoal,2137.500000,-2181.818182,Speed,2145.000000,-2181.818182,Speed,Off,Off,0.000000,FALSE,0,,,,,0.000000,0.000000
09:41:04.057 AM 04/14/2016,Teleop Enabled,11,FALSE,0,NO ERROR,-0.000000,-0.006417,-0.000000,0.000000,FALSE,FALSE,TRUE,FALSE,FALSE,FALSE,Disabled,0.000000,0.000000,0.000000,TRUE,0.258286,-0.037186,0.000000,0.001465,-0.141647,0.000000,0.056000,0.105000,0.011000,1.400000,-0.060000,-6.310000,-0.116389,Hold,0.007568,0.000000,Hold,-188.000000,2.000000,LowGoal,2137.500000,-2181.818182,Speed,2152.500000,-2181.818182,Speed,Off,Off,0.000000,FALSE,0,,,,,0.000000,0.000000
09:41:04.158 AM 04/14/2016,Teleop Enabled,11,FALSE,0,NO ERROR,-0.000000,-0.006417,-0.000000,0.000000,FALSE,FALSE,TRUE,FALSE,FALSE,FALSE,Disabled,0.000000,0.000000,0.000000,TRUE,0.258011,-0.041824,0.000000,-0.029663,-0.066345,0.000000,-0.057000,0.050000,-0.079000,1.310000,-0.070000,-6.310000,-0.127867,Hold,0.007568,0.000000,Hold,-188.000000,2.000000,LowGoal,2137.500000,-2181.818182,Speed,2152.500000,-2181.818182,Speed,Off,Off,0.000000,FALSE,0,,,,,0.000000,0.000000
09:41:04.258 AM 04/14/2016,Teleop Enabled,11,FALSE,0,NO ERROR,-0.000000,-0.006417,-0.000000,0.000000,FALSE,FALSE,TRUE,FALSE,FALSE,FALSE,Disabled,0.000000,0.000000,0.000000,TRUE,0.255539,-0.042969,0.000000,0.000000,0.006516,0.000000,-0.014000,0.131000,-0.146000,1.260000,-0.060000,-6.380000,-0.132504,Hold,0.007568,0.000000,Hold,-188.000000,2.000000,LowGoal,2145.000000,-2181.818182,Speed,2152.500000,-2181.818182,Speed,Off,Off,0.000000,FALSE,0,,,,,0.000000,0.000000
09:41:04.357 AM 04/14/2016,Teleop Enabled,11,FALSE,0,NO ERROR,-0.000000,-0.006417,-0.000000,0.000000,FALSE,FALSE,TRUE,FALSE,FALSE,FALSE,Disabled,0.000000,0.000000,0.000000,TRUE,0.254395,-0.039322,0.000000,-0.041000,0.085007,0.000000,0.013000,0.039000,-0.103000,1.370000,-0.060000,-6.320000,-0.133458,Hold,0.007568,0.000000,Hold,-188.000000,2.000000,LowGoal,2145.000000,-2181.818182,Speed,2152.500000,-2181.818182,Speed,Off,Off,0.000000,FALSE,0,,,,,0.000000,0.000000
09:41:04.458 AM 04/14/2016,Teleop Enabled,10,FALSE,0,NO ERROR,-0.000000,-0.006417,-0.000000,0.000000,FALSE,FALSE,TRUE,FALSE,FALSE,FALSE,Disabled,0.000000,0.000000,0.000000,TRUE,0.252151,-0.034103,0.000000,-0.051788,0.113159,0.000000,0.016000,0.009000,-0.099000,1.380000,-0.060000,-6.380000,-0.135761,Hold,0.007568,0.000000,Hold,-188.000000,2.000000,LowGoal,2145.000000,-2181.818182,Speed,2152.500000,-2181.818182,Speed,Off,Off,0.000000,FALSE,0,,,,,0.000000,0.000000
09:41:04.557 AM 04/14/2016,Teleop Enabled,10,FALSE,0,NO ERROR,-0.000000,-0.006417,-0.000000,0.000000,FALSE,FALSE,TRUE,FALSE,FALSE,FALSE,Disabled,0.000000,0.000000,0.000000,TRUE,0.251236,-0.034424,0.000000,-0.018860,-0.016312,0.000000,0.043000,-0.018000,-0.153000,1.350000,-0.070000,-6.410000,-0.128390,Hold,0.007568,0.000000,Hold,-188.000000,2.000000,LowGoal,2137.500000,-2181.818182,Speed,2152.500000,-2181.818182,Speed,Off,Off,0.000000,FALSE,0,,,,,0.000000,0.000000
09:41:04.657 AM 04/14/2016,Teleop Enabled,11,FALSE,0,NO ERROR,-0.000000,-0.006417,-0.000000,0.000000,FALSE,FALSE,TRUE,FALSE,FALSE,FALSE,Disabled,0.000000,0.000000,0.000000,TRUE,0.252457,-0.034988,0.000000,0.073029,-0.007965,0.000000,0.142000,-0.004000,0.025000,1.340000,-0.070000,-6.250000,-0.122593,Hold,0.007568,0.000000,Hold,-188.000000,2.000000,LowGoal,2145.000000,-2181.818182,Speed,2152.500000,-2181.818182,Speed,Off,Off,0.000000,FALSE,0,,,,,0.000000,0.000000
09:41:04.758 AM 04/14/2016,Teleop Enabled,10,FALSE,0,NO ERROR,-0.000000,-0.006417,-0.000000,0.000000,FALSE,FALSE,TRUE,FALSE,FALSE,FALSE,Disabled,0.000000,0.000000,0.000000,TRUE,0.259827,-0.036331,0.000000,0.188110,-0.040268,0.000000,0.031000,-0.009000,0.067000,1.340000,-0.070000,-6.270000,-0.123278,Hold,0.007568,0.000000,Hold,-188.000000,2.000000,LowGoal,2145.000000,-2181.818182,Speed,2152.500000,-2181.818182,Speed,Off,Off,0.000000,FALSE,0,,,,,0.000000,0.000000
09:41:04.858 AM 04/14/2016,Teleop Enabled,11,FALSE,0,NO ERROR,-0.000000,-0.006417,-0.000000,0.019250,FALSE,FALSE,TRUE,FALSE,FALSE,FALSE,Disabled,0.000000,0.000000,0.000000,TRUE,0.270798,-0.038971,0.000000,0.242294,-0.067383,0.000000,0.005000,-0.034000,-0.035000,1.370000,-0.090000,-6.370000,-0.160977,Hold,0.007568,0.000000,Hold,-188.000000,2.000000,LowGoal,2137.500000,-2181.818182,Speed,2152.500000,-2181.818182,Speed,Off,Off,0.000000,FALSE,0,,,,,0.000000,0.000000
