Time,Robot Mode,Loop Time,Error Status,Error Code,Error Source,Left Motor Output,Left Motor Encoder,Right Motor Output,Right Motor Encoder,Is Level,Is Stalled,Ball Detector Photoeye,Vision Enabled,Vision Teleop Control,Vision Auto Control,Vision Current State,Vision X Output,Vision NavX Error,Vision NavX Target,NavX Connection Status,NavX Displacement X,NavX Displacement Y,NavX Displacement Z,NavX Velocity X,NavX Velocity Y,NavX Velocity Z,NavX Acceleration X,NavX Acceleration Y,NavX Acceleration Z,NavX Pitch,NavX Yaw,NavX Roll,Gyro Angle,Roller Arm State,Roller Arm Actual,Roller Arm Desired,Shooter Arm State,Shooter Arm Actual,Shooter Arm Desired,Shooter State,Actual RPM Left,Desired RPM Left,Control Mode Left,Actual RPM Right,Desired RPM Right,Control Mode Right,Ball Shooter Cylinder,Ball Halo Cylinder,Scaler Motor Output,Scaler Solenoid Fire,Auto To Run,Auto Current File,Auto File Status,Auto Current Command,Auto Trimmed Command,Shooter Amps Left,Shooter Amps Right
09:32:54.806 AM 04/14/2016,Teleop Enabled,12,FALSE,0,NO ERROR,-0.000000,-3.843574,-0.000000,4.003991,FALSE,FALSE,TRUE,FALSE,FALSE,FALSE,Disabled,0.000000,0.000000,0.000000,TRUE,-3.459915,8.500168,0.000000,0.000000,0.000000,0.000000,-0.009000,0.000000,0.014000,1.330000,-2.460000,-6.230000,-6.106131,ResetBack,2.395264,-0.000049,ResetBack,-37778.000000,-0.250000,LowGoal,45.000000,-2181.818182,Speed,37.500000,-2181.818182,Speed,Off,Off,0.000000,FALSE,0,,,,,0.000000,0.000000
09:32:54.906 AM 04/14/2016,Teleop Enabled,9,FALSE,0,NO ERROR,-0.000000,-3.843574,-0.000000,4.003991,FALSE,FALSE,TRUE,FALSE,FALSE,FALSE,Disabled,0.000000,0.000000,0.000000,TRUE,-3.460159,8.500092,0.000000,-0.004715,0.000916,0.000000,-0.060000,-0.021000,-0.008000,1.320000,-2.460000,-6.310000,-6.118252,ResetBack,1.821777,-0.000049,ResetBack,-37027.000000,-0.250000,LowGoal,412.500000,-2181.818182,Speed,390.000000,-2181.818182,Speed,Off,Off,0.000000,FALSE,0,,,,,0.000000,0.000000
09:32:55.006 AM 04/14/2016,Teleop Enabled,8,FALSE,0,NO ERROR,-0.000000,-3.843574,-0.000000,4.003991,FALSE,FALSE,TRUE,FALSE,FALSE,FALSE,Disabled,0.000000,0.000000,0.000000,TRUE,-3.461151,8.499878,0.000000,-0.023727,-0.009659,0.000000,0.026000,0.015000,-0.031000,1.290000,-2.460000,-6.310000,-6.135726,ResetBack,1.561035,-0.000049,ResetBack,-36328.000000,-0.250000,LowGoal,825.000000,-2181.818182,Speed,780.000000,-2181.818182,Speed,Off,Off,0.000000,FALSE,0,,,,,0.000000,0.000000
09:32:55.106 AM 04/14/2016,Teleop Enabled,11,FALSE,0,NO ERROR,-0.000000,-3.843574,-0.000000,4.003991,FALSE,FALSE,TRUE,FALSE,FALSE,FALSE,Disabled,0.000000,0.000000,0.000000,TRUE,-3.463715,8.499176,0.000000,-0.057053,-0.022827,0.000000,0.042000,0.018000,0.101000,1.320000,-2.460000,-6.340000,-6.138894,Reset,1.561035,-0.000049,ResetBack,-36328.000000,-0.250000,LowGoal,825.000000,-2181.818182,Speed,1065.000000,-2181.818182,Speed,Off,Off,0.000000,FALSE,0,,,,,0.000000,0.000000
09:32:55.206 AM 04/14/2016,Teleop Enabled,10,FALSE,0,NO ERROR,-0.000000,-3.849991,-0.000000,4.003991,FALSE,FALSE,TRUE,FALSE,FALSE,FALSE,Disabled,0.000000,0.000000,0.000000,TRUE,-3.465607,8.499008,0.000000,-0.013306,0.005219,0.000000,-0.068000,0.019000,-0.026000,1.340000,-2.460000,-6.250000,-6.150199,Hold,0.831543,0.000000,ResetBack,-35614.000000,-0.250000,LowGoal,1485.000000,-2181.818182,Speed,1365.000000,-2181.818182,Speed,Off,Off,0.000000,FALSE,0,,,,,0.000000,0.000000
09:32:55.306 AM 04/14/2016,Teleop Enabled,9,FALSE,0,NO ERROR,-0.000000,-3.856408,-0.000000,4.003991,FALSE,FALSE,TRUE,FALSE,FALSE,FALSE,Disabled,0.000000,0.000000,0.000000,TRUE,-3.466507,8.499161,0.000000,-0.021622,0.000000,0.000000,0.089000,-0.018000,-0.052000,1.350000,-2.450000,-6.200000,-6.153920,Hold,-0.019531,0.000000,ResetBack,-35614.000000,-0.250000,LowGoal,1485.000000,-2181.818182,Speed,1365.000000,-2181.818182,Speed,Off,Off,0.000000,FALSE,0,,,,,0.000000,0.000000
09:32:55.407 AM 04/14/2016,Teleop Enabled,9,FALSE,0,NO ERROR,-0.000000,-3.888491,-0.000000,4.003991,FALSE,FALSE,TRUE,FALSE,FALSE,FALSE,Disabled,0.000000,0.000000,0.000000,TRUE,-3.466003,8.499100,0.000000,0.013626,0.007339,0.000000,-0.026000,0.002000,-0.088000,1.330000,-2.420000,-6.030000,-6.120269,Hold,-0.019531,0.000000,ResetBack,-34147.000000,-0.250000,LowGoal,1965.000000,-2181.818182,Speed,1627.500000,-2181.818182,Speed,Off,Off,0.000000,FALSE,0,,,,,0.000000,0.000000
09:32:55.508 AM 04/14/2016,Teleop Enabled,11,FALSE,0,NO ERROR,-0.000000,-3.888491,-0.000000,4.016824,FALSE,FALSE,TRUE,FALSE,FALSE,FALSE,Disabled,0.000000,0.000000,0.000000,TRUE,-3.465164,8.498444,0.000000,0.046021,-0.040741,0.000000,0.069000,-0.073000,0.077000,1.360000,-2.430000,-6.090000,-6.153490,Hold,-0.019531,0.000000,ResetBack,-32147.000000,-0.250000,LowGoal,1965.000000,-2181.818182,Speed,1995.000000,-2181.818182,Speed,Off,Off,0.000000,FALSE,0,,,,,0.000000,0.000000
09:32:55.608 AM 04/14/2016,Teleop Enabled,10,FALSE,0,NO ERROR,-0.000000,-3.888491,-0.000000,4.042491,FALSE,FALSE,TRUE,FALSE,FALSE,FALSE,Disabled,0.000000,0.000000,0.000000,TRUE,-3.462967,8.496048,0.000000,0.032394,-0.021347,0.000000,-0.111000,0.076000,0.000000,1.320000,-2.480000,-6.080000,-6.217077,Hold,-0.019531,0.000000,ResetBack,-29468.000000,-0.250000,LowGoal,2032.500000,-2181.818182,Speed,2032.500000,-2181.818182,Speed,Off,Off,0.000000,FALSE,0,,,,,0.000000,0.000000
09:32:55.708 AM 04/14/2016,Teleop Enabled,10,FALSE,0,NO ERROR,-0.000000,-3.894908,-0.000000,4.042491,FALSE,FALSE,TRUE,FALSE,FALSE,FALSE,Disabled,0.000000,0.000000,0.000000,TRUE,-3.462967,8.496887,0.000000,-0.013153,0.026550,0.000000,-0.009000,-0.029000,-0.090000,1.320000,-2.480000,-6.040000,-6.206189,Hold,-0.019531,0.000000,ResetBack,-26443.000000,-0.250000,LowGoal,2025.000000,-2181.818182,Speed,2032.500000,-2181.818182,Speed,Off,Off,0.000000,FALSE,0,,,,,0.000000,0.000000
09:32:55.809 AM 04/14/2016,Teleop Enabled,9,FALSE,0,NO ERROR,-0.000000,-3.894908,-0.000000,4.042491,FALSE,FALSE,TRUE,FALSE,FALSE,FALSE,Disabled,0.000000,0.000000,0.000000,TRUE,-3.463074,8.496811,0.000000,0.011108,-0.030594,0.000000,0.009000,-0.095000,-0.121000,1.340000,-2.480000,-6.030000,-6.208922,Hold,-0.019531,0.000000,ResetBack,-23110.000000,-0.250000,LowGoal,2017.500000,-2181.818182,Speed,2025.000000,-2181.818182,Speed,Off,Off,0.000000,FALSE,0,,,,,0.000000,0.000000
09:32:55.909 AM 04/14/2016,Teleop Enabled,9,FALSE,0,NO ERROR,-0.000000,-3.894908,-0.000000,4.042491,FALSE,FALSE,TRUE,FALSE,FALSE,FALSE,Disabled,0.000000,0.000000,0.000000,TRUE,-3.462860,8.494049,0.000000,0.004242,-0.052322,0.000000,-0.044000,0.060000,-0.136000,1.330000,-2.470000,-5.980000,-6.219814,Hold,-0.019531,0.000000,ResetBack,-23110.000000,-0.250000,LowGoal,2017.500000,-2181.818182,Speed,2017.500000,-2181.818182,Speed,Off,Off,0.000000,FALSE,0,,,,,0.000000,0.000000
09:32:56.011 AM 04/14/2016,Teleop Enabled,9,FALSE,0,NO ERROR,-0.000000,-3.894908,-0.000000,4.042491,FALSE,FALSE,TRUE,FALSE,FALSE,FALSE,Disabled,0.000000,0.000000,0.000000,TRUE,-3.463303,8.492615,0.000000,-0.010727,-0.022247,0.000000,0.081000,-0.026000,0.059000,1.350000,-2.480000,-5.970000,-6.218954,Hold,-0.019531,0.000000,Reset,-19241.000000,2.000000,LowGoal,2017.500000,-2181.818182,Speed,2017.500000,-2181.818182,Speed,Off,Off,0.000000,FALSE,0,,,,,0.000000,0.000000
09:32:56.112 AM 04/14/2016,Teleop Enabled,9,FALSE,0,NO ERROR,-0.000000,-3.894908,-0.000000,4.042491,FALSE,FALSE,TRUE,FALSE,FALSE,FALSE,Disabled,0.000000,0.000000,0.000000,TRUE,-3.462555,8.490799,0.000000,0.027039,-0.046844,0.000000,-0.080000,0.100000,0.176000,1.350000,-2.470000,-5.970000,-6.224097,Hold,-0.019531,0.000000,Hold,-15396.000000,2.000000,LowGoal,2025.000000,-2181.818182,Speed,2025.000000,-2181.818182,Speed,Off,Off,0.000000,FALSE,0,,,,,0.000000,0.000000
09:32:56.215 AM 04/14/2016,Teleop Enabled,13,FALSE,0,NO ERROR,-0.000000,-3.894908,-0.000000,4.042491,FALSE,FALSE,TRUE,FALSE,FALSE,FALSE,Disabled,0.000000,0.000000,0.000000,TRUE,-3.462524,8.490891,0.000000,-0.014832,0.044342,0.000000,0.000000,0.073000,0.020000,1.320000,-2.480000,-5.940000,-6.232331,Hold,-0.019531,0.000000,Hold,-369.000000,2.000000,LowGoal,2025.000000,-2181.818182,Speed,2025.000000,-2181.818182,Speed,Off,Off,0.000000,FALSE,0,,,,,0.000000,0.000000
09:32:56.317 AM 04/14/2016,Teleop Enabled,10,FALSE,0,NO ERROR,-0.000000,-3.894908,-0.000000,4.042491,FALSE,FALSE,TRUE,FALSE,FALSE,FALSE,Disabled,0.000000,0.000000,0.000000,TRUE,-3.464249,8.491943,0.000000,-0.049942,-0.018753,0.000000,0.063000,-0.093000,-0.037000,1.330000,-2.480000,-6.170000,-6.239995,Hold,-0.019531,0.000000,Hold,-66.000000,2.000000,LowGoal,2025.000000,-2181.818182,Speed,2025.000000,-2181.818182,Speed,Off,Off,0.000000,FALSE,0,,,,,0.000000,0.000000
09:32:56.418 AM 04/14/2016,Teleop Enabled,11,FALSE,0,NO ERROR,-0.000000,-3.894908,-0.000000,4.042491,FALSE,FALSE,TRUE,FALSE,FALSE,FALSE,Disabled,0.000000,0.000000,0.000000,TRUE,-3.466675,8.487167,0.000000,-0.055450,-0.111053,0.000000,0.039000,-0.026000,-0.131000,1.330000,-2.480000,-6.180000,-6.255786,Hold,-0.019531,0.000000,Hold,-66.000000,2.000000,LowGoal,2032.500000,-2181.818182,Speed,2032.500000,-2181.818182,Speed,Off,Off,0.000000,FALSE,0,,,,,0.000000,0.000000
09:32:56.518 AM 04/14/2016,Teleop Enabled,10,FALSE,0,NO ERROR,-0.000000,-3.894908,-0.000000,4.042491,FALSE,FALSE,TRUE,FALSE,FALSE,FALSE,Disabled,0.000000,0.000000,0.000000,TRUE,-3.469772,8.482086,0.000000,-0.066681,-0.090225,0.000000,0.010000,-0.013000,-0.109000,1.320000,-2.480000,-6.100000,-6.276740,Hold,-0.019531,0.000000,Hold,-66.000000,2.000000,LowGoal,2025.000000,-2181.818182,Speed,2032.500000,-2181.818182,Speed,Off,Off,0.000000,FALSE,0,,,,,0.000000,0.000000
09:32:56.618 AM 04/14/2016,Teleop Enabled,11,FALSE,0,NO ERROR,-0.000000,-3.894908,-0.000000,4.042491,FALSE,FALSE,TRUE,FALSE,FALSE,FALSE,Disabled,0.000000,0.000000,0.000000,TRUE,-3.472107,8.477142,0.000000,-0.019882,-0.111511,0.000000,0.014000,0.014000,0.197000,1.340000,-2.480000,-6.200000,-6.280806,Hold,-0.019531,0.000000,Hold,-66.000000,2.000000,LowGoal,2032.500000,-2181.818182,Speed,2032.500000,-2181.818182,Speed,Off,Off,0.000000,FALSE,0,,,,,0.000000,0.000000
09:32:56.718 AM 04/14/2016,Teleop Enabled,10,FALSE,0,NO ERROR,-0.000000,-3.894908,-0.000000,4.042491,FALSE,FALSE,TRUE,FALSE,FALSE,FALSE,Disabled,0.000000,0.000000,0.000000,TRUE,-3.472076,8.470367,0.000000,-0.000168,-0.096741,0.000000,-0.036000,0.163000,0.187000,1.310000,-2.480000,-6.070000,-6.285185,Hold,-0.019531,0.000000,Hold,-66.000000,2.000000,LowGoal,2025.000000,-2181.818182,Speed,2025.000000,-2181.818182,Speed,Off,Off,0.000000,FALSE,0,,,,,0.000000,0.000000
09:32:56.818 AM 04/14/2016,Teleop Enabled,10,FALSE,0,NO ERROR,-0.000000,-3.894908,-0.000000,4.042491,FALSE,FALSE,TRUE,FALSE,FALSE,FALSE,Disabled,0.000000,0.000000,0.000000,TRUE,-3.472763,8.468430,0.000000,-0.020294,-0.016922,0.000000,-0.070000,-0.009000,0.029000,1.290000,-2.490000,-5.980000,-6.297203,Hold,-0.019531,0.000000,Hold,-66.000000,2.000000,LowGoal,2025.000000,-2181.818182,Speed,2032.500000,-2181.818182,Speed,Off,Off,0.000000,FALSE,0,,,,,0.000000,0.000000
09:32:56.918 AM 04/14/2016,Teleop Enabled,11,FALSE,0,NO ERROR,0.275591,-3.894908,-0.275591,4.023241,FALSE,FALSE,TRUE,FALSE,FALSE,FALSE,Disabled,0.000000,0.000000,0.000000,TRUE,-3.473495,8.467224,0.000000,-0.006134,-0.047470,0.000000,-0.087000,-0.077000,0.005000,1.320000,-2.490000,-6.170000,-6.308935,Hold,-0.019531,0.000000,Hold,-66.000000,2.000000,LowGoal,2025.000000,-2181.818182,Speed,2025.000000,-2181.818182,Speed,Off,Off,0.000000,FALSE,0,,,,,0.000000,0.000000
09:32:57.018 AM 04/14/2016,Teleop Enabled,11,FALSE,0,NO ERROR,0.275591,-3.561242,-0.275591,3.625408,FALSE,FALSE,TRUE,FALSE,FALSE,FALSE,Disabled,0.000000,0.000000,0.000000,TRUE,-3.476791,8.463150,0.000000,-0.108017,-0.086243,0.000000,-0.128000,0.086000,-0.130000,1.320000,-2.490000,-6.170000,-6.287967,Hold,-0.019531,0.000000,Hold,-66.000000,2.000000,LowGoal,2017.500000,-2181.818182,Speed,2032.500000,-2181.818182,Speed,Off,Off,0.000000,FALSE,0,,,,,0.000000,0.000000
09:32:57.118 AM 04/14/2016,Teleop Enabled,10,FALSE,0,NO ERROR,0.283465,-3.015826,-0.283465,3.092826,FALSE,FALSE,TRUE,FALSE,FALSE,FALSE,Disabled,0.000000,0.000000,0.000000,TRUE,-3.487030,8.460342,0.000000,-0.194839,-0.031204,0.000000,0.021000,-0.033000,0.176000,1.330000,-2.480000,-6.650000,-6.321229,Hold,-0.019531,0.000000,Hold,-66.000000,2.000000,LowGoal,2017.500000,-2181.818182,Speed,2017.500000,-2181.818182,Speed,Off,Off,0.000000,FALSE,0,,,,,0.000000,0.000000
09:32:57.218 AM 04/14/2016,Teleop Enabled,11,FALSE,0,NO ERROR,0.275591,-2.239411,-0.275591,2.303578,FALSE,FALSE,TRUE,FALSE,FALSE,FALSE,Disabled,0.000000,0.000000,0.000000,TRUE,-3.495667,8.457153,0.000000,-0.151581,-0.091171,0.000000,-0.007000,-0.033000,-0.250000,1.320000,-2.450000,-6.600000,-6.314905,Hold,-0.019531,0.000000,Hold,-66.000000,2.000000,LowGoal,2010.000000,-2181.818182,Speed,2002.500000,-2181.818182,Speed,Off,Off,0.000000,FALSE,0,,,,,0.000000,0.000000
09:32:57.318 AM 04/14/2016,Teleop Enabled,10,FALSE,0,NO ERROR,0.275591,-1.411663,-0.275591,1.520746,FALSE,FALSE,TRUE,FALSE,FALSE,FALSE,Disabled,0.000000,0.000000,0.000000,TRUE,-3.497375,8.457047,0.000000,-0.013580,0.043625,0.000000,-0.007000,-0.033000,-0.250000,1.240000,-2.450000,-6.510000,-6.319797,Hold,-0.019531,0.000000,Hold,-66.000000,2.000000,LowGoal,2002.500000,-2181.818182,Speed,2002.500000,-2181.818182,Speed,Off,Off,0.000000,FALSE,0,,,,,0.000000,0.000000
09:32:57.419 AM 04/14/2016,Teleop Enabled,11,FALSE,0,NO ERROR,0.275591,-0.564665,-0.275591,0.667332,FALSE,FALSE,TRUE,FALSE,FALSE,FALSE,Disabled,0.000000,0.000000,0.000000,TRUE,-3.498367,8.460007,0.000000,-0.007751,0.048965,0.000000,-0.038000,0.054000,0.011000,1.290000,-2.430000,-6.550000,-6.308650,Hold,-0.019531,0.000000,Hold,-66.000000,2.000000,LowGoal,2017.500000,-2181.818182,Speed,2010.000000,-2181.818182,Speed,Off,Off,0.000000,FALSE,0,,,,,0.000000,0.000000
09:32:57.520 AM 04/14/2016,Teleop Enabled,10,FALSE,0,NO ERROR,-0.000000,0.205333,-0.000000,-0.070583,FALSE,FALSE,TRUE,FALSE,FALSE,FALSE,Disabled,0.000000,0.000000,0.000000,TRUE,-3.497955,8.461075,0.000000,0.021072,0.000000,0.000000,-0.014000,-0.058000,0.050000,1.290000,-2.430000,-6.550000,-6.335915,Hold,-0.019531,0.000000,Hold,-66.000000,2.000000,LowGoal,2010.000000,-2181.818182,Speed,2010.000000,-2181.818182,Speed,Off,Off,0.000000,FALSE,0,,,,,0.000000,0.000000
09:32:57.621 AM 04/14/2016,Teleop Enabled,11,FALSE,0,NO ERROR,-0.000000,0.384999,-0.000000,-0.230999,FALSE,FALSE,TRUE,FALSE,FALSE,FALSE,Disabled,0.000000,0.000000,0.000000,TRUE,-3.493103,8.463013,0.000000,0.145050,0.058685,0.000000,0.160000,0.096000,0.047000,1.250000,-2.420000,-5.600000,-6.311731,Hold,-0.019531,0.000000,Hold,-66.000000,2.000000,LowGoal,2017.500000,-2181.818182,Speed,2017.500000,-2181.818182,Speed,Off,Off,0.000000,FALSE,0,,,,,0.000000,0.000000
09:32:57.721 AM 04/14/2016,Teleop Enabled,11,FALSE,0,NO ERROR,-0.000000,0.384999,-0.000000,-0.243833,FALSE,FALSE,TRUE,FALSE,FALSE,FALSE,Disabled,0.000000,0.000000,0.000000,TRUE,-3.480484,8.462662,0.000000,0.312469,-0.021149,0.000000,0.166000,-0.005000,-0.003000,1.240000,-2.430000,-5.080000,-6.322661,Hold,-0.019531,0.000000,Hold,-66.000000,2.000000,LowGoal,2025.000000,-2181.818182,Speed,2025.000000,-2181.818182,Speed,Off,Off,0.000000,FALSE,0,,,,,0.000000,0.000000
09:32:57.821 AM 04/14/2016,Teleop Enabled,11,FALSE,0,NO ERROR,0.236220,0.179666,-0.236220,-0.019250,FALSE,FALSE,TRUE,FALSE,FALSE,FALSE,Disabled,0.000000,0.000000,0.000000,TRUE,-3.462753,8.459641,0.000000,0.343994,-0.063446,0.000000,0.122000,-0.141000,-0.167000,1.240000,-2.430000,-5.080000,-6.334744,Hold,-0.019531,0.000000,Hold,-66.000000,2.000000,LowGoal,2025.000000,-2181.818182,Speed,2032.500000,-2181.818182,Speed,Off,Off,0.000000,FALSE,0,,,,,0.000000,0.000000
09:32:57.921 AM 04/14/2016,Teleop Enabled,10,FALSE,0,NO ERROR,0.251969,0.179666,-0.251969,-0.096250,FALSE,FALSE,TRUE,FALSE,FALSE,FALSE,Disabled,0.000000,0.000000,0.000000,TRUE,-3.451309,8.457718,0.000000,0.157684,-0.029312,0.000000,-0.089000,-0.029000,0.034000,1.280000,-2.420000,-6.310000,-6.312870,Hold,-0.019531,0.000000,Hold,-66.000000,2.000000,LowGoal,2032.500000,-2181.818182,Speed,2032.500000,-2181.818182,Speed,Off,Off,0.000000,FALSE,0,,,,,0.000000,0.000000
09:32:58.021 AM 04/14/2016,Teleop Enabled,10,FALSE,0,NO ERROR,0.251969,0.590332,-0.251969,-0.519749,FALSE,FALSE,TRUE,FALSE,FALSE,FALSE,Disabled,0.000000,0.000000,0.000000,TRUE,-3.445068,8.455292,0.000000,0.115280,-0.067245,0.000000,-0.089000,-0.029000,0.034000,1.280000,-2.420000,-6.310000,-6.282149,Hold,-0.019531,0.000000,Hold,-66.000000,2.000000,LowGoal,2017.500000,-2181.818182,Speed,2017.500000,-2181.818182,Speed,Off,Off,0.000000,FALSE,0,,,,,0.000000,0.000000
09:32:58.121 AM 04/14/2016,Teleop Enabled,10,FALSE,0,NO ERROR,0.259843,1.264080,-0.259843,-1.161414,FALSE,FALSE,TRUE,FALSE,FALSE,FALSE,Disabled,0.000000,0.000000,0.000000,TRUE,-3.440704,8.453766,0.000000,0.063202,0.013626,0.000000,-0.028000,-0.046000,-0.124000,1.260000,-2.360000,-6.270000,-6.327188,Hold,-0.019531,0.000000,Hold,-66.000000,2.000000,LowGoal,2010.000000,-2181.818182,Speed,2010.000000,-2181.818182,Speed,Off,Off,0.000000,FALSE,0,,,,,0.000000,0.000000
09:32:58.221 AM 04/14/2016,Teleop Enabled,11,FALSE,0,NO ERROR,0.259843,1.976329,-0.259843,-1.899329,FALSE,FALSE,TRUE,FALSE,FALSE,FALSE,Disabled,0.000000,0.000000,0.000000,TRUE,-3.437805,8.455154,0.000000,0.067444,0.025009,0.000000,0.024000,0.079000,-0.029000,1.220000,-2.390000,-6.360000,-6.314213,Hold,-0.019531,0.000000,Hold,-66.000000,2.000000,LowGoal,2010.000000,-2181.818182,Speed,2010.000000,-2181.818182,Speed,Off,Off,0.000000,FALSE,0,,,,,0.000000,0.000000
09:32:58.323 AM 04/14/2016,Teleop Enabled,10,FALSE,0,NO ERROR,0.259843,2.746327,-0.259843,-2.662910,FALSE,FALSE,TRUE,FALSE,FALSE,FALSE,Disabled,0.000000,0.000000,0.000000,TRUE,-3.437805,8.455154,0.000000,0.067444,0.025009,0.000000,0.056000,-0.018000,0.164000,1.260000,-2.390000,-6.480000,-6.298787,Hold,-0.019531,0.000000,Hold,-66.000000,2.000000,LowGoal,2017.500000,-2181.818182,Speed,2010.000000,-2181.818182,Speed,Off,Off,0.000000,FALSE,0,,,,,0.000000,0.000000
09:32:58.423 AM 04/14/2016,Teleop Enabled,9,FALSE,0,NO ERROR,0.259843,3.529158,-0.259843,-3.471409,FALSE,FALSE,TRUE,FALSE,FALSE,FALSE,Disabled,0.000000,0.000000,0.000000,TRUE,-3.432693,8.454880,0.000000,0.109894,-0.029327,0.000000,0.046000,-0.018000,-0.029000,1.230000,-2.350000,-6.530000,-6.296521,Hold,-0.019531,0.000000,Hold,-66.000000,2.000000,LowGoal,2017.500000,-2181.818182,Speed,2017.500000,-2181.818182,Speed,Off,Off,0.000000,FALSE,0,,,,,0.000000,0.000000
09:32:58.523 AM 04/14/2016,Teleop Enabled,9,FALSE,0,NO ERROR,0.259843,4.305573,-0.259843,-4.273490,FALSE,FALSE,TRUE,FALSE,FALSE,FALSE,Disabled,0.000000,0.000000,0.000000,TRUE,-3.427612,8.454758,0.000000,0.000000,0.028687,0.000000,0.020000,0.004000,0.027000,1.230000,-2.350000,-6.650000,-6.279092,Hold,-0.019531,0.000000,Hold,-66.000000,2.000000,LowGoal,2017.500000,-2181.818182,Speed,2017.500000,-2181.818182,Speed,Off,Off,0.000000,FALSE,0,,,,,0.000000,0.000000
09:32:58.624 AM 04/14/2016,Teleop Enabled,11,FALSE,0,NO ERROR,0.259843,4.305573,-0.259843,-4.273490,FALSE,FALSE,TRUE,FALSE,FALSE,FALSE,Disabled,0.000000,0.000000,0.000000,TRUE,-3.427429,8.456070,0.000000,0.013809,0.012695,0.000000,0.048000,-0.109000,-0.127000,1.260000,-2.340000,-6.760000,-6.279092,Hold,-0.019531,0.000000,Hold,-66.000000,2.000000,LowGoal,2017.500000,-2181.818182,Speed,2010.000000,-2181.818182,Speed,Off,Off,0.000000,FALSE,0,,,,,0.000000,0.000000
09:32:58.724 AM 04/14/2016,Teleop Enabled,9,FALSE,0,NO ERROR,0.259843,5.107655,-0.259843,-5.056322,FALSE,FALSE,TRUE,FALSE,FALSE,FALSE,Disabled,0.000000,0.000000,0.000000,TRUE,-3.426208,8.455276,0.000000,0.025208,-0.004410,0.000000,-0.069000,0.078000,-0.025000,1.260000,-2.300000,-6.750000,-6.257521,Hold,-0.019531,0.000000,Hold,-66.000000,2.000000,LowGoal,2017.500000,-2181.818182,Speed,2017.500000,-2181.818182,Speed,Off,Off,0.000000,FALSE,0,,,,,0.000000,0.000000
09:32:58.824 AM 04/14/2016,Teleop Enabled,9,FALSE,0,NO ERROR,0.236220,5.877653,-0.236220,-5.819903,FALSE,FALSE,TRUE,FALSE,FALSE,FALSE,Disabled,0.000000,0.000000,0.000000,TRUE,-3.426086,8.456970,0.000000,-0.009308,0.042252,0.000000,0.162000,-0.044000,0.022000,1.260000,-2.300000,-6.750000,-6.262516,Hold,-0.019531,0.000000,Hold,-66.000000,2.000000,LowGoal,2017.500000,-2181.818182,Speed,2017.500000,-2181.818182,Speed,Off,Off,0.000000,FALSE,0,,,,,0.000000,0.000000
09:32:58.924 AM 04/14/2016,Teleop Enabled,9,FALSE,0,NO ERROR,0.212598,6.602735,-0.212598,-6.577068,FALSE,FALSE,TRUE,FALSE,FALSE,FALSE,Disabled,0.000000,0.000000,0.000000,TRUE,-3.424957,8.457550,0.000000,0.024246,-0.017639,0.000000,-0.070000,0.035000,-0.095000,1.290000,-2.270000,-6.900000,-6.270792,Hold,-0.019531,0.000000,Hold,-66.000000,2.000000,LowGoal,2017.500000,-2181.818182,Speed,2017.500000,-2181.818182,Speed,Off,Off,0.000000,FALSE,0,,,,,0.000000,0.000000
09:32:59.024 AM 04/14/2016,Teleop Enabled,9,FALSE,0,NO ERROR,0.212598,7.295733,-0.212598,-7.257233,FALSE,FALSE,TRUE,FALSE,FALSE,FALSE,Disabled,0.000000,0.000000,0.000000,TRUE,-3.423965,8.458588,0.000000,0.013031,0.055374,0.000000,0.075000,0.043000,0.041000,1.290000,-2.280000,-6.870000,-6.277732,Hold,-0.019531,45.000000,Hold,-66.000000,139264.000000,LowGoal,2017.500000,-2181.818182,Speed,2017.500000,-2181.818182,Speed,Off,Off,0.000000,FALSE,0,,,,,0.000000,0.000000
09:32:59.124 AM 04/14/2016,Teleop Enabled,9,FALSE,0,NO ERROR,-0.000000,7.918148,-0.000000,-7.796232,FALSE,FALSE,TRUE,FALSE,FALSE,FALSE,Disabled,0.000000,0.000000,0.000000,TRUE,-3.423050,8.458786,0.000000,0.040619,-0.023682,0.000000,0.158000,-0.146000,-0.136000,1.270000,-2.280000,-6.850000,-6.280520,Hold,1.554932,45.000000,Hold,-6873.000000,139264.000000,LowGoal,2017.500000,-2181.818182,Speed,2017.500000,-2181.818182,Speed,Off,Off,0.000000,FALSE,0,,,,,0.000000,0.000000
09:32:59.225 AM 04/14/2016,Teleop Enabled,9,FALSE,0,NO ERROR,-0.000000,7.982315,-0.000000,-7.937398,FALSE,FALSE,TRUE,FALSE,FALSE,FALSE,Disabled,0.000000,0.000000,0.000000,TRUE,-3.415710,8.454971,0.000000,0.187943,-0.048767,0.000000,0.103000,0.087000,0.015000,1.240000,-2.290000,-6.160000,-6.295206,Hold,3.010254,45.000000,Hold,-6873.000000,139264.000000,LowGoal,2017.500000,-2181.818182,Speed,2010.000000,-2181.818182,Speed,Off,Off,0.000000,FALSE,0,,,,,0.000000,0.000000
09:32:59.326 AM 04/14/2016,Teleop Enabled,9,FALSE,0,NO ERROR,-0.000000,7.982315,-0.000000,-7.905315,FALSE,FALSE,TRUE,FALSE,FALSE,FALSE,Disabled,0.000000,0.000000,0.000000,TRUE,-3.407349,8.454300,0.000000,0.234985,-0.004715,0.000000,-0.140000,0.001000,0.165000,1.230000,-2.300000,-5.980000,-6.305138,Hold,4.127441,45.000000,Hold,-19323.000000,139264.000000,LowGoal,2017.500000,-2181.818182,Speed,2017.500000,-2181.818182,Speed,Off,Off,0.000000,FALSE,0,,,,,0.000000,0.000000
09:32:59.426 AM 04/14/2016,Teleop Enabled,9,FALSE,0,NO ERROR,-0.000000,7.802648,-0.000000,-7.642232,FALSE,FALSE,TRUE,FALSE,FALSE,FALSE,Disabled,0.000000,0.000000,0.000000,TRUE,-3.395874,8.452759,0.000000,0.233032,-0.066940,0.000000,0.009000,-0.039000,0.066000,1.240000,-2.320000,-6.060000,-6.324778,Hold,5.887695,45.000000,Hold,-32116.000000,139264.000000,LowGoal,2017.500000,-2181.818182,Speed,2017.500000,-2181.818182,Speed,Off,Off,0.000000,FALSE,0,,,,,0.000000,0.000000
09:32:59.526 AM 04/14/2016,Teleop Enabled,9,FALSE,0,NO ERROR,-0.000000,7.622982,-0.000000,-7.501066,FALSE,FALSE,TRUE,FALSE,FALSE,FALSE,Disabled,0.000000,0.000000,0.000000,TRUE,-3.396835,8.450058,0.000000,-0.047073,-0.011673,0.000000,-0.073000,0.116000,-0.119000,1.270000,-2.290000,-6.270000,-6.290311,Hold,7.975342,45.000000,Hold,-45037.000000,139264.000000,LowGoal,2032.500000,-2181.818182,Speed,2010.000000,-2181.818182,Speed,Off,Off,0.000000,FALSE,0,,,,,0.000000,0.000000
09:32:59.626 AM 04/14/2016,Teleop Enabled,9,FALSE,0,NO ERROR,-0.000000,7.462566,-0.000000,-7.321400,FALSE,FALSE,TRUE,FALSE,FALSE,FALSE,Disabled,0.000000,0.000000,0.000000,TRUE,-3.400528,8.451691,0.000000,-0.064438,0.044312,0.000000,-0.038000,-0.126000,0.052000,1.260000,-2.320000,-6.490000,-6.330035,Hold,9.800049,45.000000,Hold,-61247.000000,139264.000000,LowGoal,2017.500000,-2181.818182,Speed,2017.500000,-2181.818182,Speed,Off,Off,0.000000,FALSE,0,,,,,0.000000,0.000000
09:32:59.726 AM 04/14/2016,Teleop Enabled,9,FALSE,0,NO ERROR,0.362205,7.128900,-0.362205,-6.994150,FALSE,FALSE,TRUE,FALSE,FALSE,FALSE,Disabled,0.000000,0.000000,0.000000,TRUE,-3.402664,8.450607,0.000000,-0.031982,-0.072937,0.000000,0.004000,-0.113000,0.122000,1.280000,-2.340000,-6.190000,-6.366949,Hold,13.279541,45.000000,Hold,-79308.000000,139264.000000,LowGoal,2017.500000,-2181.818182,Speed,2025.000000,-2181.818182,Speed,Off,Off,0.000000,FALSE,0,,,,,0.000000,0.000000
09:32:59.827 AM 04/14/2016,Teleop Enabled,9,FALSE,0,NO ERROR,-0.000000,7.205900,-0.000000,-7.199483,FALSE,FALSE,TRUE,FALSE,FALSE,FALSE,Disabled,0.000000,0.000000,0.000000,TRUE,-3.409149,8.444824,0.000000,-0.197784,-0.071503,0.000000,-0.243000,0.057000,-0.085000,1.220000,-2.240000,-7.230000,-6.280655,Hold,16.238770,45.000000,Hold,-79308.000000,139264.000000,LowGoal,2025.000000,-2181.818182,Speed,2017.500000,-2181.818182,Speed,Off,Off,0.000000,FALSE,0,,,,,0.000000,0.000000
09:32:59.927 AM 04/14/2016,Teleop Enabled,10,FALSE,0,NO ERROR,-0.000000,7.828315,-0.000000,-7.757732,FALSE,FALSE,TRUE,FALSE,FALSE,FALSE,Disabled,0.000000,0.000000,0.000000,TRUE,-3.420700,8.442398,0.000000,-0.316299,-0.063049,0.000000,0.319000,0.048000,0.024000,1.270000,-2.280000,-7.640000,-6.345981,Hold,20.596924,45.000000,Hold,-96647.000000,139264.000000,LowGoal,2002.500000,-2181.818182,Speed,1995.000000,-2181.818182,Speed,Off,Off,0.000000,FALSE,0,,,,,0.000000,0.000000
09:33:00.027 AM 04/14/2016,Teleop Enabled,7,FALSE,0,NO ERROR,-0.000000,8.014398,-0.000000,-7.950231,FALSE,FALSE,TRUE,FALSE,FALSE,FALSE,Disabled,0.000000,0.000000,0.000000,TRUE,-3.433090,8.440140,0.000000,-0.133591,0.000000,0.000000,0.236000,0.133000,-0.152000,1.240000,-2.310000,-6.590000,-6.338824,Hold,25.411865,45.000000,Hold,-114388.000000,139264.000000,LowGoal,2010.000000,-2181.818182,Speed,2002.500000,-2181.818182,Speed,Off,Off,0.000000,FALSE,0,,,,,0.000000,0.000000
09:33:00.127 AM 04/14/2016,Teleop Enabled,9,FALSE,0,NO ERROR,-0.000000,7.995148,-0.000000,-7.873232,FALSE,FALSE,TRUE,FALSE,FALSE,FALSE,Disabled,0.000000,0.000000,0.000000,TRUE,-3.434036,8.442245,0.000000,0.025116,0.075394,0.000000,-0.044000,0.013000,-0.003000,1.250000,-2.320000,-5.940000,-6.362130,Hold,31.757080,45.000000,Hold,-131025.000000,139264.000000,LowGoal,2025.000000,-2181.818182,Speed,2025.000000,-2181.818182,Speed,Off,Off,0.000000,FALSE,0,,,,,0.000000,0.000000
09:33:00.228 AM 04/14/2016,Teleop Enabled,9,FALSE,0,NO ERROR,-0.000000,7.693565,-0.000000,-7.552399,FALSE,FALSE,TRUE,FALSE,FALSE,FALSE,Disabled,0.000000,0.000000,0.000000,TRUE,-3.433258,8.447952,0.000000,-0.015488,0.123932,0.000000,0.064000,-0.049000,0.097000,1.210000,-2.320000,-6.200000,-6.335071,Hold,39.353760,45.000000,Hold,-139249.000000,139264.000000,LowGoal,2032.500000,-2181.818182,Speed,2025.000000,-2181.818182,Speed,Off,Off,0.000000,FALSE,0,,,,,0.000000,0.000000
09:33:00.328 AM 04/14/2016,Teleop Enabled,9,FALSE,0,NO ERROR,-0.000000,7.391983,-0.000000,-7.237983,FALSE,FALSE,TRUE,FALSE,FALSE,FALSE,Disabled,0.000000,0.000000,0.000000,TRUE,-3.434296,8.453705,0.000000,-0.021088,0.118027,0.000000,0.110000,-0.014000,-0.087000,1.270000,-2.340000,-6.170000,-6.409775,Hold,46.572266,45.000000,Hold,-139520.000000,139264.000000,LowGoal,2025.000000,-2181.818182,Speed,2017.500000,-2181.818182,Speed,Off,Off,0.000000,FALSE,0,,,,,0.000000,0.000000
09:33:00.428 AM 04/14/2016,Teleop Enabled,9,FALSE,0,NO ERROR,-0.000000,7.122483,-0.000000,-6.968484,FALSE,FALSE,TRUE,FALSE,FALSE,FALSE,Disabled,0.000000,0.000000,0.000000,TRUE,-3.437363,8.453690,0.000000,-0.087662,-0.009415,0.000000,0.132000,0.027000,0.071000,1.240000,-2.340000,-6.370000,-6.425762,Hold,49.896240,45.000000,Hold,-139277.000000,139264.000000,LowGoal,2025.000000,-2181.818182,Speed,2017.500000,-2181.818182,Speed,Off,Off,0.000000,FALSE,0,,,,,0.000000,0.000000
09:33:00.528 AM 04/14/2016,Teleop Enabled,9,FALSE,0,NO ERROR,-0.000000,6.910734,-0.000000,-6.769568,FALSE,FALSE,TRUE,FALSE,FALSE,FALSE,Disabled,0.000000,0.000000,0.000000,TRUE,-3.441315,8.451950,0.000000,-0.078918,-0.050674,0.000000,-0.090000,0.050000,0.187000,1.210000,-2.320000,-6.380000,-6.395085,Hold,50.782715,45.000000,Hold,-139277.000000,139264.000000,LowGoal,2025.000000,-2181.818182,Speed,2017.500000,-2181.818182,Speed,Off,Off,0.000000,FALSE,0,,,,,0.000000,0.000000
09:33:00.628 AM 04/14/2016,Teleop Enabled,9,FALSE,0,NO ERROR,-0.000000,6.763151,-0.000000,-6.615568,FALSE,FALSE,TRUE,FALSE,FALSE,FALSE,Disabled,0.000000,0.000000,0.000000,TRUE,-3.446426,8.450104,0.000000,-0.107925,-0.026382,0.000000,-0.070000,0.069000,-0.068000,1.240000,-2.340000,-6.420000,-6.445168,Hold,50.782715,45.000000,Hold,-139277.000000,139264.000000,LowGoal,2025.000000,-2181.818182,Speed,2017.500000,-2181.818182,Speed,Off,Off,0.000000,FALSE,0,,,,,0.000000,0.000000
09:33:00.728 AM 04/14/2016,Teleop Enabled,9,FALSE,0,NO ERROR,-0.000000,6.647651,-0.000000,-6.519318,FALSE,FALSE,TRUE,FALSE,FALSE,FALSE,Disabled,0.000000,0.000000,0.000000,TRUE,-3.452698,8.449631,0.000000,-0.138367,-0.026810,0.000000,0.060000,-0.003000,-0.053000,1.230000,-2.330000,-6.530000,-6.434651,Hold,50.782715,45.000000,Hold,-139277.000000,139264.000000,LowGoal,2032.500000,-2181.818182,Speed,2017.500000,-2181.818182,Speed,Off,Off,0.000000,FALSE,0,,,,,0.000000,0.000000
09:33:00.829 AM 04/14/2016,Teleop Enabled,9,FALSE,0,NO ERROR,-0.000000,6.564235,-0.000000,-6.423068,FALSE,FALSE,TRUE,FALSE,FALSE,FALSE,Disabled,0.000000,0.000000,0.000000,TRUE,-3.460678,8.449005,0.000000,-0.136902,-0.012482,0.000000,-0.085000,0.020000,-0.027000,1.280000,-2.340000,-6.530000,-6.454621,Hold,50.782715,45.000000,Hold,-139277.000000,139264.000000,LowGoal,2025.000000,-2181.818182,Speed,2025.000000,-2181.818182,Speed,Off,Off,0.000000,FALSE,0,,,,,0.000000,0.000000
09:33:00.929 AM 04/14/2016,Teleop Enabled,9,FALSE,0,NO ERROR,0.299213,6.519318,-0.299213,-6.384568,FALSE,FALSE,TRUE,FALSE,FALSE,FALSE,Disabled,0.000000,0.000000,0.000000,TRUE,-3.466263,8.449173,0.000000,-0.128708,0.018753,0.000000,-0.144000,0.018000,0.006000,1.310000,-2.350000,-6.710000,-6.487948,Hold,50.782715,45.000000,Hold,-139277.000000,139264.000000,LowGoal,2032.500000,-2181.818182,Speed,2025.000000,-2181.818182,Speed,Off,Off,0.000000,FALSE,0,,,,,0.000000,0.000000
09:33:01.029 AM 04/14/2016,Teleop Enabled,9,FALSE,0,NO ERROR,-0.000000,6.827317,-0.000000,-6.750318,FALSE,FALSE,TRUE,FALSE,FALSE,FALSE,Disabled,0.000000,0.000000,0.000000,TRUE,-3.480515,8.449493,0.000000,-0.302399,-0.012070,0.000000,-0.011000,0.041000,0.169000,1.310000,-2.290000,-7.280000,-6.440334,Hold,50.782715,45.000000,Hold,-139277.000000,139264.000000,LowGoal,2017.500000,-2181.818182,Speed,2010.000000,-2181.818182,Speed,Off,Off,0.000000,FALSE,0,,,,,0.000000,0.000000
09:33:01.131 AM 04/14/2016,Teleop Enabled,9,FALSE,0,NO ERROR,-0.000000,7.006984,-0.000000,-6.968484,FALSE,FALSE,TRUE,FALSE,FALSE,FALSE,Disabled,0.000000,0.000000,0.000000,TRUE,-3.496445,8.449356,0.000000,-0.202362,-0.003983,0.000000,0.150000,0.055000,-0.071000,1.270000,-2.300000,-6.660000,-6.450187,Hold,50.782715,45.000000,Hold,-139277.000000,139264.000000,LowGoal,2010.000000,-2181.818182,Speed,2002.500000,-2181.818182,Speed,Off,Off,0.000000,FALSE,0,,,,,0.000000,0.000000
09:33:01.233 AM 04/14/2016,Teleop Enabled,10,FALSE,0,NO ERROR,-0.000000,7.013400,-0.000000,-6.968484,FALSE,FALSE,TRUE,FALSE,FALSE,FALSE,Disabled,0.000000,0.000000,0.000000,TRUE,-3.502380,8.449738,0.000000,-0.129257,0.009857,0.000000,-0.001000,-0.018000,-0.037000,1.270000,-2.310000,-6.430000,-6.461372,Hold,50.782715,45.000000,Hold,-139277.000000,139264.000000,LowGoal,2017.500000,-2181.818182,Speed,2010.000000,-2181.818182,Speed,Off,Off,0.000000,FALSE,0,,,,,0.000000,0.000000
09:33:01.333 AM 04/14/2016,Teleop Enabled,11,FALSE,0,NO ERROR,0.236220,6.891484,-0.236220,-6.763151,FALSE,FALSE,TRUE,FALSE,FALSE,FALSE,Disabled,0.000000,0.000000,0.000000,TRUE,-3.510269,8.450409,0.000000,-0.125504,-0.002060,0.000000,-0.142000,0.004000,0.051000,1.290000,-2.310000,-6.430000,-6.477655,Hold,50.782715,45.000000,Hold,-139277.000000,139264.000000,LowGoal,2025.000000,-2181.818182,Speed,2025.000000,-2181.818182,Speed,Off,Off,0.000000,FALSE,0,,,,,0.000000,0.000000
09:33:01.436 AM 04/14/2016,Teleop Enabled,10,FALSE,0,NO ERROR,-0.000000,6.878651,-0.000000,-6.820901,FALSE,FALSE,TRUE,FALSE,FALSE,FALSE,Disabled,0.000000,0.000000,0.000000,TRUE,-3.517441,8.450241,0.000000,-0.196121,-0.005692,0.000000,-0.146000,-0.005000,-0.028000,1.300000,-2.290000,-7.040000,-6.476763,Hold,50.782715,45.000000,Hold,-139277.000000,139264.000000,LowGoal,2017.500000,-2181.818182,Speed,2017.500000,-2181.818182,Speed,Off,Off,0.000000,FALSE,0,,,,,0.000000,0.000000
09:33:01.536 AM 04/14/2016,Teleop Enabled,11,FALSE,0,NO ERROR,-0.000000,6.885067,-0.000000,-6.820901,FALSE,FALSE,TRUE,FALSE,FALSE,FALSE,Disabled,0.000000,0.000000,0.000000,TRUE,-3.528549,8.449997,0.000000,-0.130341,-0.005249,0.000000,0.096000,-0.062000,0.004000,1.280000,-2.310000,-6.490000,-6.509595,Hold,50.782715,45.000000,Hold,-139277.000000,139264.000000,LowGoal,2017.500000,-2181.818182,Speed,2010.000000,-2181.818182,Speed,Off,Off,0.000000,FALSE,0,,,,,0.000000,0.000000
09:33:01.636 AM 04/14/2016,Teleop Enabled,11,FALSE,0,NO ERROR,-0.000000,6.885067,-0.000000,-6.801651,FALSE,FALSE,TRUE,FALSE,FALSE,FALSE,Disabled,0.000000,0.000000,0.000000,TRUE,-3.530136,8.449692,0.000000,-0.027863,-0.002518,0.000000,-0.023000,-0.041000,0.107000,1.290000,-2.310000,-6.710000,-6.512945,Hold,50.782715,45.000000,Hold,-139277.000000,139264.000000,LowGoal,2025.000000,-2181.818182,Speed,2017.500000,-2181.818182,Speed,Off,Off,0.000000,FALSE,0,,,,,0.000000,0.000000
09:33:01.737 AM 04/14/2016,Teleop Enabled,10,FALSE,0,NO ERROR,-0.000000,6.885067,-0.000000,-6.795234,FALSE,FALSE,TRUE,FALSE,FALSE,FALSE,Disabled,0.000000,0.000000,0.000000,TRUE,-3.531738,8.448471,0.000000,-0.003372,-0.019821,0.000000,-0.005000,0.032000,0.067000,1.270000,-2.290000,-6.590000,-6.489480,Hold,50.782715,45.000000,Hold,-139277.000000,139264.000000,LowGoal,2032.500000,-2181.818182,Speed,2025.000000,-2181.818182,Speed,Off,Off,0.000000,FALSE,0,,,,,0.000000,0.000000
09:33:01.837 AM 04/14/2016,Teleop Enabled,11,FALSE,0,NO ERROR,-0.000000,6.885067,-0.000000,-6.795234,FALSE,FALSE,TRUE,FALSE,FALSE,FALSE,Disabled,0.000000,0.000000,0.000000,TRUE,-3.532135,8.447937,0.000000,-0.009491,-0.008652,0.000000,-0.006000,0.022000,-0.047000,1.250000,-2.290000,-6.660000,-6.491804,Hold,50.782715,45.000000,Hold,-139277.000000,139264.000000,LowGoal,2032.500000,-2181.818182,Speed,2025.000000,-2181.818182,Speed,Off,Off,0.000000,FALSE,0,,,,,0.000000,0.000000
09:33:01.937 AM 04/14/2016,Teleop Enabled,10,FALSE,0,NO ERROR,-0.000000,6.885067,-0.000000,-6.795234,FALSE,FALSE,TRUE,FALSE,FALSE,FALSE,Disabled,0.000000,0.000000,0.000000,TRUE,-3.533127,8.447632,0.000000,-0.019501,-0.014709,0.000000,0.044000,-0.034000,-0.009000,1.290000,-2.280000,-6.600000,-6.493281,Hold,50.782715,45.000000,Hold,-139277.000000,139264.000000,LowGoal,2032.500000,-2181.818182,Speed,2025.000000,-2181.818182,Speed,Off,Off,0.000000,FALSE,0,,,,,0.000000,0.000000
09:33:02.037 AM 04/14/2016,Teleop Enabled,11,FALSE,0,NO ERROR,-0.000000,6.885067,-0.000000,-6.795234,FALSE,FALSE,TRUE,FALSE,FALSE,FALSE,Disabled,0.000000,0.000000,0.000000,TRUE,-3.533340,8.447021,0.000000,0.002075,-0.006134,0.000000,-0.139000,-0.023000,0.035000,1.260000,-2.280000,-6.640000,-6.506607,Hold,50.782715,45.000000,Hold,-139277.000000,139264.000000,LowGoal,2032.500000,-2181.818182,Speed,2025.000000,-2181.818182,Speed,Off,Off,0.000000,FALSE,0,,,,,0.000000,0.000000
09:33:02.138 AM 04/14/2016,Teleop Enabled,10,FALSE,0,NO ERROR,-0.000000,6.885067,-0.000000,-6.795234,FALSE,FALSE,TRUE,FALSE,FALSE,FALSE,Disabled,0.000000,0.000000,0.000000,TRUE,-3.534470,8.446564,0.000000,-0.030731,-0.002869,0.000000,0.011000,-0.022000,-0.020000,1.270000,-2.280000,-6.740000,-6.509013,Hold,50.782715,45.000000,Hold,-139277.000000,139264.000000,LowGoal,2032.500000,-2181.818182,Speed,2025.000000,-2181.818182,Speed,Off,Off,0.000000,FALSE,0,,,,,0.000000,0.000000
09:33:02.238 AM 04/14/2016,Teleop Enabled,11,FALSE,0,NO ERROR,-0.000000,6.885067,-0.000000,-6.795234,FALSE,FALSE,TRUE,FALSE,FALSE,FALSE,Disabled,0.000000,0.000000,0.000000,TRUE,-3.535126,8.446350,0.000000,-0.006668,-0.010223,0.000000,-0.010000,-0.024000,0.079000,1.270000,-2.270000,-6.760000,-6.527706,Hold,50.782715,45.000000,Hold,-139277.000000,139264.000000,LowGoal,2040.000000,-2181.818182,Speed,2025.000000,-2181.818182,Speed,Off,Off,0.000000,FALSE,0,,,,,0.000000,0.000000
09:33:02.338 AM 04/14/2016,Teleop Enabled,10,FALSE,0,NO ERROR,-0.000000,6.885067,-0.000000,-6.795234,FALSE,FALSE,TRUE,FALSE,FALSE,FALSE,Disabled,0.000000,0.000000,0.000000,TRUE,-3.535446,8.445419,0.000000,-0.012802,-0.016525,0.000000,-0.033000,0.022000,0.061000,1.260000,-2.280000,-6.860000,-6.544830,Hold,50.782715,45.000000,Hold,-139277.000000,139264.000000,LowGoal,2032.500000,-2181.818182,Speed,2025.000000,-2181.818182,Speed,Off,Off,0.000000,FALSE,0,,,,,0.000000,0.000000
09:33:02.438 AM 04/14/2016,Teleop Enabled,10,FALSE,0,NO ERROR,-0.000000,6.885067,-0.000000,-6.795234,FALSE,FALSE,TRUE,FALSE,FALSE,FALSE,Disabled,0.000000,0.000000,0.000000,TRUE,-3.536972,8.444809,0.000000,-0.036850,-0.007278,0.000000,0.010000,-0.059000,-0.077000,1.270000,-2.270000,-6.800000,-6.554507,Hold,50.782715,45.000000,Hold,-139277.000000,139264.000000,LowGoal,2032.500000,-2181.818182,Speed,2025.000000,-2181.818182,Speed,Off,Off,0.929134,FALSE,0,,,,,0.000000,0.000000
09:33:02.538 AM 04/14/2016,Teleop Enabled,11,FALSE,0,NO ERROR,-0.000000,6.885067,-0.000000,-6.795234,FALSE,FALSE,TRUE,FALSE,FALSE,FALSE,Disabled,0.000000,0.000000,0.000000,TRUE,-3.537048,8.443817,0.000000,0.020905,-0.015625,0.000000,0.092000,-0.031000,0.115000,1.270000,-2.270000,-6.780000,-6.560583,Hold,50.782715,45.000000,Hold,-139277.000000,139264.000000,LowGoal,2032.500000,-2181.818182,Speed,2017.500000,-2181.818182,Speed,Off,Off,1.000000,FALSE,0,,,,,0.000000,0.000000
09:33:02.638 AM 04/14/2016,Teleop Enabled,11,FALSE,0,NO ERROR,-0.000000,6.885067,-0.000000,-6.795234,FALSE,FALSE,TRUE,FALSE,FALSE,FALSE,Disabled,0.000000,0.000000,0.000000,TRUE,-3.537048,8.443924,0.000000,0.000000,0.013702,0.000000,0.092000,-0.031000,0.115000,1.270000,-2.270000,-6.780000,-6.546720,Hold,50.782715,45.000000,Hold,-139277.000000,139264.000000,LowGoal,2010.000000,-2181.818182,Speed,1995.000000,-2181.818182,Speed,Off,Off,1.000000,FALSE,0,,,,,0.000000,0.000000
09:33:02.738 AM 04/14/2016,Teleop Enabled,14,FALSE,0,NO ERROR,-0.000000,6.885067,-0.000000,-6.795234,FALSE,FALSE,TRUE,FALSE,FALSE,FALSE,Disabled,0.000000,0.000000,0.000000,TRUE,-3.537308,8.444351,0.000000,-0.007767,0.005798,0.000000,0.030000,-0.007000,-0.050000,1.250000,-2.270000,-6.800000,-6.543384,Hold,50.782715,45.000000,Hold,-139277.000000,139264.000000,LowGoal,1972.500000,-2181.818182,Speed,1965.000000,-2181.818182,Speed,Off,Off,1.000000,FALSE,0,,,,,0.000000,0.000000
09:33:02.838 AM 04/14/2016,Teleop Enabled,11,FALSE,0,NO ERROR,-0.000000,6.885067,-0.000000,-6.795234,FALSE,FALSE,TRUE,FALSE,FALSE,FALSE,Disabled,0.000000,0.000000,0.000000,TRUE,-3.537628,8.444519,0.000000,-0.005737,0.001663,0.000000,-0.024000,-0.021000,0.126000,1.260000,-2.260000,-6.840000,-6.543945,Hold,50.782715,45.000000,Hold,-139277.000000,139264.000000,LowGoal,1965.000000,-2181.818182,Speed,1957.500000,-2181.818182,Speed,Off,Off,1.000000,FALSE,0,,,,,0.000000,0.000000
09:33:02.938 AM 04/14/2016,Teleop Enabled,11,FALSE,0,NO ERROR,-0.000000,6.885067,-0.000000,-6.795234,FALSE,FALSE,TRUE,FALSE,FALSE,FALSE,Disabled,0.000000,0.000000,0.000000,TRUE,-3.537979,8.444687,0.000000,-0.006378,0.005524,0.000000,-0.027000,-0.016000,-0.018000,1.260000,-2.260000,-6.850000,-6.550324,Hold,50.782715,45.000000,Hold,-139277.000000,139264.000000,LowGoal,1965.000000,-2181.818182,Speed,1957.500000,-2181.818182,Speed,Off,Off,0.000000,FALSE,0,,,,,0.000000,0.000000
09:33:03.038 AM 04/14/2016,Teleop Enabled,11,FALSE,0,NO ERROR,-0.000000,6.885067,-0.000000,-6.795234,FALSE,FALSE,TRUE,FALSE,FALSE,FALSE,Disabled,0.000000,0.000000,0.000000,TRUE,-3.538544,8.445160,0.000000,-0.016052,0.003098,0.000000,0.004000,0.038000,0.074000,1.300000,-2.260000,-6.840000,-6.559843,Hold,50.782715,45.000000,Hold,-139277.000000,139264.000000,LowGoal,1987.500000,-2181.818182,Speed,1957.500000,-2181.818182,Speed,Off,Off,0.000000,FALSE,0,,,,,0.000000,0.000000
09:33:03.139 AM 04/14/2016,Teleop Enabled,11,FALSE,0,NO ERROR,-0.000000,6.885067,-0.000000,-6.737484,FALSE,FALSE,TRUE,FALSE,FALSE,FALSE,Disabled,0.000000,0.000000,0.000000,TRUE,-3.540070,8.444351,0.000000,-0.040894,-0.027557,0.000000,-0.112000,0.056000,-0.067000,1.230000,-2.280000,-6.760000,-6.658672,Hold,50.782715,45.000000,Hold,-139277.000000,139264.000000,LowGoal,2010.000000,-2181.818182,Speed,1980.000000,-2181.818182,Speed,Off,Off,0.000000,FALSE,0,,,,,0.000000,0.000000
09:33:03.240 AM 04/14/2016,Teleop Enabled,11,FALSE,0,NO ERROR,-0.000000,6.865817,-0.000000,-6.724651,FALSE,FALSE,TRUE,FALSE,FALSE,FALSE,Disabled,0.000000,0.000000,0.000000,TRUE,-3.541458,8.441940,0.000000,-0.050110,-0.053207,0.000000,0.130000,-0.138000,-0.284000,1.560000,-2.320000,-6.760000,-6.623854,Hold,50.781982,45.000000,Hold,-139277.000000,139264.000000,LowGoal,2032.500000,-2181.818182,Speed,2002.500000,-2181.818182,Speed,Off,Off,0.000000,FALSE,0,,,,,0.000000,0.000000
09:33:03.342 AM 04/14/2016,Teleop Enabled,11,FALSE,0,NO ERROR,-0.000000,6.852984,-0.000000,-6.724651,FALSE,FALSE,TRUE,FALSE,FALSE,FALSE,Disabled,0.000000,0.000000,0.000000,TRUE,-3.542389,8.439804,0.000000,0.002930,-0.026825,0.000000,0.006000,0.009000,0.034000,1.380000,-2.300000,-6.770000,-6.597508,Hold,50.794189,45.000000,Hold,-139277.000000,139264.000000,LowGoal,2025.000000,-2181.818182,Speed,2017.500000,-2181.818182,Speed,Off,Off,0.000000,FALSE,0,,,,,0.000000,0.000000
09:33:03.442 AM 04/14/2016,Teleop Enabled,11,FALSE,0,NO ERROR,-0.000000,6.852984,-0.000000,-6.724651,FALSE,FALSE,TRUE,FALSE,FALSE,FALSE,Disabled,0.000000,0.000000,0.000000,TRUE,-3.542389,8.439804,0.000000,0.002930,-0.026825,0.000000,-0.002000,-0.023000,-0.112000,1.370000,-2.280000,-6.540000,-6.619519,Hold,50.794189,45.000000,Hold,-139277.000000,139264.000000,LowGoal,2025.000000,-2181.818182,Speed,2017.500000,-2181.818182,Speed,Off,Off,0.000000,FALSE,0,,,,,0.000000,0.000000
09:33:03.544 AM 04/14/2016,Teleop Enabled,11,FALSE,0,NO ERROR,-0.000000,6.846567,-0.000000,-6.724651,FALSE,FALSE,TRUE,FALSE,FALSE,FALSE,Disabled,0.000000,0.000000,0.000000,TRUE,-3.542404,8.437363,0.000000,0.005463,-0.033203,0.000000,-0.046000,0.066000,0.172000,1.400000,-2.290000,-6.600000,-6.607291,Hold,50.794189,45.000000,Hold,-139277.000000,139264.000000,LowGoal,2025.000000,-2181.818182,Speed,2025.000000,-2181.818182,Speed,Off,Off,0.000000,FALSE,0,,,,,0.000000,0.000000
09:33:03.645 AM 04/14/2016,Teleop Enabled,9,FALSE,0,NO ERROR,-0.000000,6.846567,-0.000000,-6.724651,FALSE,FALSE,TRUE,FALSE,FALSE,FALSE,Disabled,0.000000,0.000000,0.000000,TRUE,-3.542572,8.435883,0.000000,-0.010635,-0.045593,0.000000,0.038000,-0.036000,-0.077000,1.380000,-2.290000,-6.610000,-6.582429,Hold,50.794189,45.000000,Hold,-139277.000000,139264.000000,LowGoal,2025.000000,-2181.818182,Speed,2017.500000,-2181.818182,Speed,Off,Off,0.000000,FALSE,0,,,,,0.000000,0.000000
09:33:03.746 AM 04/14/2016,Teleop Enabled,9,FALSE,0,NO ERROR,-0.000000,6.846567,-0.000000,-6.724651,FALSE,FALSE,TRUE,FALSE,FALSE,FALSE,Disabled,0.000000,0.000000,0.000000,TRUE,-3.542725,8.431976,0.000000,-0.009521,-0.070679,0.000000,-0.051000,0.024000,0.008000,1.350000,-2.280000,-6.610000,-6.582722,Hold,50.794189,45.000000,Hold,-139277.000000,139264.000000,LowGoal,2025.000000,-2181.818182,Speed,2010.000000,-2181.818182,Speed,Off,Off,0.000000,FALSE,0,,,,,0.000000,0.000000
09:33:03.852 AM 04/14/2016,Teleop Enabled,11,FALSE,0,NO ERROR,-0.000000,6.846567,-0.000000,-6.724651,FALSE,FALSE,TRUE,FALSE,FALSE,FALSE,Disabled,0.000000,0.000000,0.000000,TRUE,-3.544067,8.429230,0.000000,-0.029419,-0.049988,0.000000,0.000000,-0.054000,-0.074000,1.350000,-2.280000,-6.680000,-6.588753,Hold,50.794189,45.000000,Hold,-139277.000000,139264.000000,LowGoal,2025.000000,-2181.818182,Speed,2017.500000,-2181.818182,Speed,Off,Off,0.000000,FALSE,0,,,,,0.000000,0.000000
09:33:03.957 AM 04/14/2016,Teleop Enabled,14,FALSE,0,NO ERROR,-0.000000,6.846567,-0.000000,-6.724651,FALSE,FALSE,TRUE,FALSE,FALSE,FALSE,Disabled,0.000000,0.000000,0.000000,TRUE,-3.545166,8.426147,0.000000,-0.013367,-0.059769,0.000000,-0.031000,0.001000,0.061000,1.350000,-2.280000,-6.700000,-6.586419,Hold,50.794189,45.000000,Hold,-139277.000000,139264.000000,LowGoal,2017.500000,-2181.818182,Speed,2010.000000,-2181.818182,Speed,Off,Off,0.000000,TRUE,0,,,,,0.000000,0.000000
09:33:04.058 AM 04/14/2016,Teleop Enabled,16,FALSE,0,NO ERROR,-0.000000,6.846567,-0.000000,-6.724651,FALSE,FALSE,TRUE,FALSE,FALSE,FALSE,Disabled,0.000000,0.000000,0.000000,TRUE,-3.546967,8.421112,0.000000,-0.009903,-0.054337,0.000000,0.120000,-0.029000,-0.028000,1.340000,-2.280000,-6.660000,-6.615468,Hold,50.794189,45.000000,Hold,-139277.000000,139264.000000,LowGoal,2017.500000,-2181.818182,Speed,2010.000000,-2181.818182,Speed,Off,Off,0.000000,TRUE,0,,,,,0.000000,0.000000
09:33:04.162 AM 04/14/2016,Teleop Enabled,11,FALSE,0,NO ERROR,-0.000000,6.846567,-0.000000,-6.724651,FALSE,FALSE,TRUE,FALSE,FALSE,FALSE,Disabled,0.000000,0.000000,0.000000,TRUE,-3.546967,8.421112,0.000000,-0.009903,-0.054337,0.000000,0.014000,0.011000,0.175000,1.350000,-2.280000,-6.660000,-6.614741,Hold,50.794189,45.000000,Hold,-139277.000000,139264.000000,LowGoal,2025.000000,-2181.818182,Speed,2017.500000,-2181.818182,Speed,Off,Off,0.000000,TRUE,0,,,,,0.000000,0.000000
09:33:04.260 AM 04/14/2016,Teleop Enabled,11,FALSE,0,NO ERROR,-0.000000,6.846567,-0.000000,-6.724651,FALSE,FALSE,TRUE,FALSE,FALSE,FALSE,Disabled,0.000000,0.000000,0.000000,TRUE,-3.548080,8.419662,0.000000,-0.019211,-0.023819,0.000000,-0.043000,-0.014000,-0.025000,1.350000,-2.280000,-6.670000,-6.610830,Hold,50.794189,45.000000,Hold,-139277.000000,139264.000000,LowGoal,2025.000000,-2181.818182,Speed,2017.500000,-2181.818182,Speed,Off,Off,0.000000,TRUE,0,,,,,0.000000,0.000000
09:33:04.360 AM 04/14/2016,Teleop Enabled,12,FALSE,0,NO ERROR,-0.000000,6.846567,-0.000000,-6.724651,FALSE,FALSE,TRUE,FALSE,FALSE,FALSE,Disabled,0.000000,0.000000,0.000000,TRUE,-3.548080,8.419662,0.000000,-0.019211,-0.023819,0.000000,0.021000,0.094000,0.116000,1.340000,-2.280000,-6.680000,-6.602007,Hold,50.794189,45.000000,Hold,-139277.000000,139264.000000,LowGoal,2032.500000,-2181.818182,Speed,2017.500000,-2181.818182,Speed,Off,Off,0.000000,TRUE,0,,,,,0.000000,0.000000
09:33:04.461 AM 04/14/2016,Teleop Enabled,10,FALSE,0,NO ERROR,-0.000000,6.846567,-0.000000,-6.724651,FALSE,FALSE,TRUE,FALSE,FALSE,FALSE,Disabled,0.000000,0.000000,0.000000,TRUE,-3.548996,8.419510,0.000000,-0.016251,-0.016235,0.000000,0.047000,-0.024000,0.015000,1.330000,-2.270000,-6.710000,-6.606458,Hold,50.794189,45.000000,Hold,-139277.000000,139264.000000,LowGoal,2025.000000,-2181.818182,Speed,2017.500000,-2181.818182,Speed,Off,Off,0.000000,TRUE,0,,,,,0.000000,0.000000
09:33:04.565 AM 04/14/2016,Teleop Enabled,13,FALSE,0,NO ERROR,-0.000000,6.846567,-0.000000,-6.724651,FALSE,FALSE,TRUE,FALSE,FALSE,FALSE,Disabled,0.000000,0.000000,0.000000,TRUE,-3.549225,8.419022,0.000000,-0.013947,0.005966,0.000000,0.013000,-0.003000,0.093000,1.330000,-2.280000,-6.730000,-6.634219,Hold,50.794189,45.000000,Hold,-139277.000000,139264.000000,LowGoal,2032.500000,-2181.818182,Speed,2017.500000,-2181.818182,Speed,Off,Off,0.000000,TRUE,0,,,,,0.000000,0.000000
09:33:04.669 AM 04/14/2016,Teleop Enabled,12,FALSE,0,NO ERROR,-0.000000,6.846567,-0.000000,-6.724651,FALSE,FALSE,TRUE,FALSE,FALSE,FALSE,Disabled,0.000000,0.000000,0.000000,TRUE,-3.550491,8.419632,0.000000,-0.035751,0.011200,0.000000,0.061000,-0.029000,-0.041000,1.320000,-2.280000,-6.730000,-6.631799,Hold,50.794189,45.000000,Hold,-139277.000000,139264.000000,LowGoal,2032.500000,-2181.818182,Speed,2017.500000,-2181.818182,Speed,Off,Off,0.000000,TRUE,0,,,,,0.000000,0.000000
09:33:04.770 AM 04/14/2016,Teleop Enabled,12,FALSE,0,NO ERROR,-0.000000,6.846567,-0.000000,-6.724651,FALSE,FALSE,TRUE,FALSE,FALSE,FALSE,Disabled,0.000000,0.000000,0.000000,TRUE,-3.551132,8.419785,0.000000,0.000000,0.000656,0.000000,0.033000,0.001000,0.153000,1.330000,-2.280000,-6.790000,-6.630773,Hold,50.794189,45.000000,Hold,-139277.000000,139264.000000,LowGoal,2025.000000,-2181.818182,Speed,2017.500000,-2181.818182,Speed,Off,Off,0.000000,TRUE,0,,,,,0.000000,0.000000
09:33:04.871 AM 04/14/2016,Teleop Enabled,10,FALSE,0,NO ERROR,-0.000000,6.846567,-0.000000,-6.724651,FALSE,FALSE,TRUE,FALSE,FALSE,FALSE,Disabled,0.000000,0.000000,0.000000,TRUE,-3.551270,8.420212,0.000000,-0.020309,0.008194,0.000000,0.058000,-0.013000,0.009000,1.290000,-2.280000,-6.810000,-6.646836,Hold,50.794189,45.000000,Hold,-139277.000000,139264.000000,LowGoal,2025.000000,-2181.818182,Speed,2010.000000,-2181.818182,Speed,Off,Off,0.000000,TRUE,0,,,,,0.000000,0.000000
09:33:04.975 AM 04/14/2016,Teleop Enabled,12,FALSE,0,NO ERROR,-0.000000,6.846567,-0.000000,-6.724651,FALSE,FALSE,TRUE,FALSE,FALSE,FALSE,Disabled,0.000000,0.000000,0.000000,TRUE,-3.552048,8.420212,0.000000,-0.015778,0.000000,0.000000,0.034000,0.010000,0.084000,1.320000,-2.280000,-6.720000,-6.665863,Hold,50.794189,45.000000,Hold,-139277.000000,139264.000000,LowGoal,2025.000000,-2181.818182,Speed,2017.500000,-2181.818182,Speed,Off,Off,0.000000,TRUE,0,,,,,0.000000,0.000000
09:33:05.075 AM 04/14/2016,Teleop Enabled,13,FALSE,0,NO ERROR,-0.000000,6.846567,-0.000000,-6.724651,FALSE,FALSE,TRUE,FALSE,FALSE,FALSE,Disabled,0.000000,0.000000,0.000000,TRUE,-3.552032,8.420074,0.000000,0.000000,-0.017929,0.000000,-0.002000,-0.059000,-0.026000,1.320000,-2.280000,-6.710000,-6.688343,Hold,50.794189,45.000000,Hold,-139277.000000,139264.000000,LowGoal,2025.000000,-2181.818182,Speed,2017.500000,-2181.818182,Speed,Off,Off,0.000000,TRUE,0,,,,,0.000000,0.000000
09:33:05.177 AM 04/14/2016,Teleop Enabled,13,FALSE,0,NO ERROR,-0.000000,6.846567,-0.000000,-6.724651,FALSE,FALSE,TRUE,FALSE,FALSE,FALSE,Disabled,0.000000,0.000000,0.000000,TRUE,-3.551575,8.419357,0.000000,0.005646,0.000000,0.000000,0.033000,0.002000,-0.009000,1.320000,-2.280000,-6.680000,-6.698254,Hold,50.794189,45.000000,Hold,-139277.000000,139264.000000,LowGoal,2025.000000,-2181.818182,Speed,2017.500000,-2181.818182,Speed,Off,Off,0.000000,FALSE,0,,,,,0.000000,0.000000
09:33:05.277 AM 04/14/2016,Teleop Enabled,12,FALSE,0,NO ERROR,-0.000000,6.846567,-0.000000,-6.724651,FALSE,FALSE,TRUE,FALSE,FALSE,FALSE,Disabled,0.000000,0.000000,0.000000,TRUE,-3.550308,8.419144,0.000000,0.031845,-0.008896,0.000000,0.050000,-0.004000,0.169000,1.320000,-2.280000,-6.680000,-6.725967,Hold,50.794189,45.000000,Hold,-139277.000000,139264.000000,LowGoal,2025.000000,-2181.818182,Speed,2017.500000,-2181.818182,Speed,Off,Off,0.000000,FALSE,0,,,,,0.000000,0.000000
09:33:05.378 AM 04/14/2016,Teleop Enabled,11,FALSE,0,NO ERROR,-0.000000,6.846567,-0.000000,-6.724651,FALSE,FALSE,TRUE,FALSE,FALSE,FALSE,Disabled,0.000000,0.000000,0.000000,TRUE,-3.550308,8.419144,0.000000,0.031845,-0.008896,0.000000,0.016000,0.057000,0.002000,1.280000,-2.280000,-6.700000,-6.741703,Hold,50.794189,45.000000,Hold,-139277.000000,139264.000000,LowGoal,2025.000000,-2181.818182,Speed,2010.000000,-2181.818182,Speed,Off,Off,0.000000,FALSE,0,,,,,0.000000,0.000000
09:33:05.478 AM 04/14/2016,Teleop Enabled,11,FALSE,0,NO ERROR,-0.000000,6.846567,-0.000000,-6.724651,FALSE,FALSE,TRUE,FALSE,FALSE,FALSE,Disabled,0.000000,0.000000,0.000000,TRUE,-3.548553,8.419312,0.000000,0.017960,0.000000,0.000000,-0.086000,-0.003000,0.045000,1.290000,-2.280000,-6.740000,-6.749473,Hold,50.794189,45.000000,Hold,-139277.000000,139264.000000,LowGoal,2025.000000,-2181.818182,Speed,2010.000000,-2181.818182,Speed,Off,Off,0.000000,FALSE,0,,,,,0.000000,0.000000
09:33:05.580 AM 04/14/2016,Teleop Enabled,11,FALSE,0,NO ERROR,-0.000000,6.846567,-0.000000,-6.724651,FALSE,FALSE,TRUE,FALSE,FALSE,FALSE,Disabled,0.000000,0.000000,0.000000,TRUE,-3.547882,8.419800,0.000000,0.013123,0.017090,0.000000,0.050000,-0.038000,-0.007000,1.290000,-2.280000,-6.740000,-6.753776,Hold,50.794189,45.000000,Hold,-139277.000000,139264.000000,LowGoal,2025.000000,-2181.818182,Speed,2017.500000,-2181.818182,Speed,Off,Off,0.000000,FALSE,0,,,,,0.000000,0.000000
09:33:05.681 AM 04/14/2016,Teleop Enabled,10,FALSE,0,NO ERROR,-0.000000,6.846567,-0.000000,-6.724651,FALSE,FALSE,TRUE,FALSE,FALSE,FALSE,Disabled,0.000000,0.000000,0.000000,TRUE,-3.546692,8.419785,0.000000,0.021011,-0.004730,0.000000,0.017000,0.044000,0.059000,1.310000,-2.270000,-6.680000,-6.750702,Hold,50.794189,45.000000,Hold,-139277.000000,139264.000000,LowGoal,2032.500000,-2181.818182,Speed,2017.500000,-2181.818182,Speed,Off,Off,0.000000,FALSE,0,,,,,0.000000,0.000000
09:33:05.785 AM 04/14/2016,Teleop Enabled,11,FALSE,0,NO ERROR,-0.000000,6.846567,-0.000000,-6.724651,FALSE,FALSE,TRUE,FALSE,FALSE,FALSE,Disabled,0.000000,0.000000,0.000000,TRUE,-3.546494,8.420578,0.000000,-0.014206,0.024414,0.000000,0.041000,-0.056000,-0.126000,1.300000,-2.270000,-6.710000,-6.758544,Hold,50.794189,45.000000,Hold,-139277.000000,139264.000000,LowGoal,2040.000000,-2181.818182,Speed,2017.500000,-2181.818182,Speed,Off,Off,0.000000,FALSE,0,,,,,0.000000,0.000000
09:33:05.885 AM 04/14/2016,Teleop Enabled,13,FALSE,0,NO ERROR,-0.000000,6.846567,-0.000000,-6.724651,FALSE,FALSE,TRUE,FALSE,FALSE,FALSE,Disabled,0.000000,0.000000,0.000000,TRUE,-3.546448,8.420776,0.000000,0.010406,-0.005585,0.000000,-0.074000,-0.014000,0.097000,1.290000,-2.270000,-6.700000,-6.758833,Hold,50.794189,45.000000,Hold,-139277.000000,139264.000000,LowGoal,2032.500000,-2181.818182,Speed,2017.500000,-2181.818182,Speed,Off,Off,0.000000,FALSE,0,,,,,0.000000,0.000000
09:33:05.986 AM 04/14/2016,Teleop Enabled,9,FALSE,0,NO ERROR,-0.000000,6.846567,-0.000000,-6.724651,FALSE,FALSE,TRUE,FALSE,FALSE,FALSE,Disabled,0.000000,0.000000,0.000000,TRUE,-3.546631,8.420395,0.000000,-0.005920,-0.010559,0.000000,0.023000,0.038000,-0.074000,1.260000,-2.270000,-6.740000,-6.772441,Hold,50.794189,45.000000,Hold,-139277.000000,139264.000000,LowGoal,2032.500000,-2181.818182,Speed,2017.500000,-2181.818182,Speed,Off,Off,0.000000,FALSE,0,,,,,0.000000,0.000000
09:33:06.086 AM 04/14/2016,Teleop Enabled,11,FALSE,0,NO ERROR,-0.000000,6.846567,-0.000000,-6.724651,FALSE,FALSE,TRUE,FALSE,FALSE,FALSE,Disabled,0.000000,0.000000,0.000000,TRUE,-3.547058,8.420349,0.000000,-0.002472,0.012207,0.000000,-0.057000,0.003000,0.014000,1.290000,-2.270000,-6.700000,-6.772441,Hold,50.794189,45.000000,Hold,-139277.000000,139264.000000,LowGoal,2032.500000,-2181.818182,Speed,2017.500000,-2181.818182,Speed,Off,Off,0.000000,FALSE,0,,,,,0.000000,0.000000
09:33:06.187 AM 04/14/2016,Teleop Enabled,9,FALSE,0,NO ERROR,-0.000000,6.846567,-0.000000,-6.724651,FALSE,FALSE,TRUE,FALSE,FALSE,FALSE,Disabled,0.000000,0.000000,0.000000,TRUE,-3.546906,8.420135,0.000000,0.000671,-0.016312,0.000000,0.046000,0.005000,0.002000,1.290000,-2.270000,-6.710000,-6.784983,Hold,50.794189,45.000000,Hold,-139277.000000,139264.000000,LowGoal,2025.000000,-2181.818182,Speed,2017.500000,-2181.818182,Speed,Off,Off,0.000000,FALSE,0,,,,,0.000000,0.000000
09:33:06.288 AM 04/14/2016,Teleop Enabled,7,FALSE,0,NO ERROR,-0.000000,6.846567,-0.000000,-6.724651,FALSE,FALSE,TRUE,FALSE,FALSE,FALSE,Disabled,0.000000,0.000000,0.000000,TRUE,-3.546402,8.420578,0.000000,0.008087,0.023224,0.000000,-0.101000,-0.039000,-0.064000,1.290000,-2.270000,-6.670000,-6.776001,Hold,50.794189,45.000000,Hold,-139277.000000,139264.000000,LowGoal,2025.000000,-2181.818182,Speed,2017.500000,-2181.818182,Speed,Off,Off,0.000000,FALSE,0,,,,,0.000000,0.000000
09:33:06.394 AM 04/14/2016,Teleop Enabled,10,FALSE,0,NO ERROR,-0.000000,6.840151,-0.000000,-6.724651,FALSE,FALSE,TRUE,FALSE,FALSE,FALSE,Disabled,0.000000,0.000000,0.000000,TRUE,-3.546936,8.420792,0.000000,-0.018478,-0.010544,0.000000,-0.041000,-0.031000,0.028000,1.320000,-2.240000,-6.760000,-6.799059,Hold,50.794189,45.000000,Hold,-139277.000000,139264.000000,LowGoal,2025.000000,-2181.818182,Speed,2017.500000,-2181.818182,Speed,Off,Off,0.000000,FALSE,0,,,,,0.000000,0.000000
09:33:06.494 AM 04/14/2016,Teleop Enabled,11,FALSE,0,NO ERROR,-0.000000,6.840151,-0.000000,-6.724651,FALSE,FALSE,TRUE,FALSE,FALSE,FALSE,Disabled,0.000000,0.000000,0.000000,TRUE,-3.548035,8.420532,0.000000,-0.014694,0.007690,0.000000,0.004000,0.011000,-0.062000,1.290000,-2.250000,-6.720000,-6.799059,Hold,50.794189,45.000000,Hold,-139277.000000,139264.000000,LowGoal,2025.000000,-2181.818182,Speed,2025.000000,-2181.818182,Speed,Off,Off,0.000000,FALSE,0,,,,,0.000000,0.000000
09:33:06.594 AM 04/14/2016,Teleop Enabled,10,FALSE,0,NO ERROR,-0.000000,6.840151,-0.000000,-6.724651,FALSE,FALSE,TRUE,FALSE,FALSE,FALSE,Disabled,0.000000,0.000000,0.000000,TRUE,-3.548889,8.420654,0.000000,-0.021759,0.007706,0.000000,0.078000,0.002000,-0.015000,1.320000,-2.260000,-6.730000,-6.797486,Hold,50.794189,45.000000,Hold,-139277.000000,139264.000000,LowGoal,2025.000000,-2181.818182,Speed,2017.500000,-2181.818182,Speed,Off,Off,0.000000,FALSE,0,,,,,0.000000,0.000000
09:33:06.695 AM 04/14/2016,Teleop Enabled,11,FALSE,0,NO ERROR,-0.000000,6.840151,-0.000000,-6.724651,FALSE,FALSE,TRUE,FALSE,FALSE,FALSE,Disabled,0.000000,0.000000,0.000000,TRUE,-3.549789,8.421249,0.000000,-0.019760,0.010529,0.000000,-0.018000,-0.014000,-0.051000,1.320000,-2.260000,-6.680000,-6.806399,Hold,50.794189,45.000000,Hold,-139277.000000,139264.000000,LowGoal,2032.500000,-2181.818182,Speed,2017.500000,-2181.818182,Speed,Off,Off,0.000000,FALSE,0,,,,,0.000000,0.000000
09:33:06.795 AM 04/14/2016,Teleop Enabled,11,FALSE,0,NO ERROR,-0.000000,6.840151,-0.000000,-6.724651,FALSE,FALSE,TRUE,FALSE,FALSE,FALSE,Disabled,0.000000,0.000000,0.000000,TRUE,-3.549088,8.421783,0.000000,0.030258,0.020554,0.000000,-0.032000,0.020000,0.014000,1.310000,-2.260000,-6.640000,-6.806134,Hold,50.794189,45.000000,Hold,-139277.000000,139264.000000,LowGoal,2032.500000,-2181.818182,Speed,2025.000000,-2181.818182,Speed,Off,Off,0.000000,FALSE,0,,,,,0.000000,0.000000
09:33:06.895 AM 04/14/2016,Teleop Enabled,11,FALSE,0,NO ERROR,-0.000000,6.840151,-0.000000,-6.724651,FALSE,FALSE,TRUE,FALSE,FALSE,FALSE,Disabled,0.000000,0.000000,0.000000,TRUE,-3.547974,8.422272,0.000000,0.015823,-0.006592,0.000000,0.006000,-0.016000,-0.080000,1.320000,-2.260000,-6.590000,-6.820654,Hold,50.794189,45.000000,Hold,-139277.000000,139264.000000,LowGoal,2032.500000,-2181.818182,Speed,2017.500000,-2181.818182,Speed,Off,Off,0.000000,FALSE,0,,,,,0.000000,0.000000
09:33:06.995 AM 04/14/2016,Teleop Enabled,11,FALSE,0,NO ERROR,-0.000000,6.840151,-0.000000,-6.724651,FALSE,FALSE,TRUE,FALSE,FALSE,FALSE,Disabled,0.000000,0.000000,0.000000,TRUE,-3.548141,8.422211,0.000000,-0.013000,0.008469,0.000000,-0.020000,0.000000,-0.037000,1.320000,-2.260000,-6.610000,-6.832407,Hold,50.794189,45.000000,Hold,-139277.000000,139264.000000,LowGoal,2032.500000,-2181.818182,Speed,2017.500000,-2181.818182,Speed,Off,Off,0.000000,FALSE,0,,,,,0.000000,0.000000
09:33:07.096 AM 04/14/2016,Teleop Enabled,12,FALSE,0,NO ERROR,-0.000000,6.840151,-0.000000,-6.724651,FALSE,FALSE,TRUE,FALSE,FALSE,FALSE,Disabled,0.000000,0.000000,0.000000,TRUE,-3.548447,8.421738,0.000000,-0.005905,-0.013931,0.000000,-0.039000,0.012000,-0.001000,1.340000,-2.260000,-6.640000,-6.838607,Hold,50.794189,45.000000,Hold,-139277.000000,139264.000000,LowGoal,2025.000000,-2181.818182,Speed,2025.000000,-2181.818182,Speed,Off,Off,0.000000,FALSE,0,,,,,0.000000,0.000000
09:33:07.196 AM 04/14/2016,Teleop Enabled,11,FALSE,0,NO ERROR,-0.000000,6.840151,-0.000000,-6.724651,FALSE,FALSE,TRUE,FALSE,FALSE,FALSE,Disabled,0.000000,0.000000,0.000000,TRUE,-3.548843,8.422180,0.000000,-0.005844,0.023163,0.000000,0.001000,-0.005000,-0.073000,1.330000,-2.250000,-6.640000,-6.852608,Hold,50.794189,45.000000,Hold,-139277.000000,139264.000000,LowGoal,2032.500000,-2181.818182,Speed,2025.000000,-2181.818182,Speed,Off,Off,0.000000,FALSE,0,,,,,0.000000,0.000000
