Time,Robot Mode,Loop Time,Error Status,Error Code,Error Source,Left Motor Output,Left Motor Encoder,Right Motor Output,Right Motor Encoder,Is Level,Is Stalled,Ball Detector Photoeye,Vision Enabled,Vision Teleop Control,Vision Auto Control,Vision Current State,Vision X Output,Vision NavX Error,Vision NavX Target,NavX Connection Status,NavX Displacement X,NavX Displacement Y,NavX Displacement Z,NavX Velocity X,NavX Velocity Y,NavX Velocity Z,NavX Acceleration X,NavX Acceleration Y,NavX Acceleration Z,NavX Pitch,NavX Yaw,NavX Roll,Gyro Angle,Roller Arm State,Roller Arm Actual,Roller Arm Desired,Shooter Arm State,Shooter Arm Actual,Shooter Arm Desired,Shooter State,Actual RPM Left,Desired RPM Left,Control Mode Left,Actual RPM Right,Desired RPM Right,Control Mode Right,Ball Shooter Cylinder,Ball Halo Cylinder,Scaler Motor Output,Scaler Solenoid Fire,Auto To Run,Auto Current File,Auto File Status,Auto Current Command,Auto Trimmed Command,Shooter Amps Left,Shooter Amps Right
08:27:25.303 AM 04/14/2016,Teleop Enabled,10,FALSE,0,NO ERROR,0.000000,0.000000,0.000000,0.000000,TRUE,FALSE,TRUE,TRUE,FALSE,FALSE,Disabled,0.000000,0.000000,0.000000,TRUE,-0.001205,0.000397,0.000000,0.000000,0.000000,0.000000,-0.001000,0.001000,0.008000,1.100000,-0.010000,0.160000,-0.125860,ResetBack,0.000000,-0.000049,ResetBack,-27478.000000,-0.250000,LowGoal,0.000000,-2181.818182,Speed,0.000000,-2181.818182,Speed,Off,Off,0.000000,FALSE,0,,,,,0.000000,0.000000
08:27:25.403 AM 04/14/2016,Teleop Enabled,10,FALSE,0,NO ERROR,-0.000000,0.000000,-0.000000,0.000000,TRUE,FALSE,TRUE,FALSE,FALSE,FALSE,Disabled,0.000000,0.000000,0.000000,TRUE,-0.001984,0.000610,0.000000,-0.026108,0.006439,0.000000,0.057000,-0.013000,0.035000,1.140000,-0.020000,0.120000,-0.058079,ResetBack,0.000000,-0.000049,ResetBack,-27284.000000,-0.250000,LowGoal,195.000000,-2181.818182,Speed,195.000000,-2181.818182,Speed,Off,Off,0.000000,FALSE,0,,,,,0.000000,0.000000
08:27:25.503 AM 04/14/2016,Teleop Enabled,9,FALSE,0,NO ERROR,-0.000000,0.000000,-0.000000,0.012833,TRUE,FALSE,TRUE,FALSE,FALSE,FALSE,Disabled,0.000000,0.000000,0.000000,TRUE,-0.002686,0.001053,0.000000,-0.002625,0.007202,0.000000,-0.002000,0.045000,0.052000,1.190000,-0.040000,0.160000,-0.029196,ResetBack,-0.741455,-0.000049,ResetBack,-27284.000000,-0.250000,LowGoal,892.500000,-2181.818182,Speed,855.000000,-2181.818182,Speed,Off,Off,0.000000,FALSE,0,,,,,0.000000,0.000000
08:27:25.603 AM 04/14/2016,Teleop Enabled,11,FALSE,0,NO ERROR,-0.000000,0.000000,-0.000000,0.012833,TRUE,FALSE,TRUE,FALSE,FALSE,FALSE,Disabled,0.000000,0.000000,0.000000,TRUE,-0.002625,0.001816,0.000000,0.003616,0.018127,0.000000,-0.068000,0.013000,0.013000,1.210000,-0.040000,0.120000,-0.037159,ResetBack,-1.103516,-0.000049,ResetBack,-24165.000000,-0.250000,LowGoal,1395.000000,-2181.818182,Speed,1440.000000,-2181.818182,Speed,Off,Off,0.000000,FALSE,0,,,,,0.000000,0.000000
08:27:25.704 AM 04/14/2016,Teleop Enabled,10,FALSE,0,NO ERROR,-0.000000,0.000000,-0.000000,0.012833,TRUE,FALSE,TRUE,FALSE,FALSE,FALSE,Disabled,0.000000,0.000000,0.000000,TRUE,-0.002609,0.002625,0.000000,0.014801,0.008392,0.000000,0.112000,-0.054000,0.063000,1.270000,-0.040000,0.140000,-0.025234,Reset,-1.104248,-0.000049,ResetBack,-19594.000000,-0.250000,LowGoal,1920.000000,-2181.818182,Speed,1927.500000,-2181.818182,Speed,Off,Off,0.000000,FALSE,0,,,,,0.000000,0.000000
08:27:25.805 AM 04/14/2016,Teleop Enabled,11,FALSE,0,NO ERROR,-0.000000,0.000000,-0.000000,0.012833,TRUE,FALSE,TRUE,FALSE,FALSE,FALSE,Disabled,0.000000,0.000000,0.000000,TRUE,0.000610,0.002014,0.000000,0.115448,-0.029175,0.000000,0.074000,-0.003000,0.240000,1.170000,-0.050000,0.330000,-0.011918,Hold,-1.153564,0.000000,ResetBack,-14399.000000,-0.250000,LowGoal,2242.500000,-2181.818182,Speed,2190.000000,-2181.818182,Speed,Off,Off,0.000000,FALSE,0,,,,,0.000000,0.000000
08:27:25.906 AM 04/14/2016,Teleop Enabled,11,FALSE,0,NO ERROR,-0.000000,0.000000,-0.000000,0.012833,TRUE,FALSE,TRUE,FALSE,FALSE,FALSE,Disabled,0.000000,0.000000,0.000000,TRUE,0.008621,-0.000031,0.000000,0.179062,-0.047531,0.000000,0.025000,-0.007000,0.123000,1.170000,-0.040000,0.280000,-0.011426,Hold,0.014160,0.000000,ResetBack,-8134.000000,-0.250000,LowGoal,2250.000000,-2181.818182,Speed,2190.000000,-2181.818182,Speed,Off,Off,0.000000,FALSE,0,,,,,0.000000,0.000000
08:27:26.007 AM 04/14/2016,Teleop Enabled,9,FALSE,0,NO ERROR,-0.000000,0.000000,-0.000000,0.012833,TRUE,FALSE,TRUE,FALSE,FALSE,FALSE,Disabled,0.000000,0.000000,0.000000,TRUE,0.014404,0.000153,0.000000,0.002167,0.008255,0.000000,0.020000,0.042000,0.092000,1.210000,-0.040000,0.180000,-0.012180,Hold,0.021484,0.000000,ResetBack,-8134.000000,-0.250000,LowGoal,2175.000000,-2181.818182,Speed,2145.000000,-2181.818182,Speed,Off,Off,0.000000,FALSE,0,,,,,0.000000,0.000000
08:27:26.107 AM 04/14/2016,Teleop Enabled,10,FALSE,0,NO ERROR,-0.000000,0.000000,-0.000000,0.012833,TRUE,FALSE,TRUE,FALSE,FALSE,FALSE,Disabled,0.000000,0.000000,0.000000,TRUE,0.015427,0.000748,0.000000,0.041016,0.010574,0.000000,0.083000,-0.036000,0.003000,1.230000,-0.040000,0.260000,-0.009288,Hold,0.021484,0.000000,ResetBack,-1607.000000,-0.250000,LowGoal,2145.000000,-2181.818182,Speed,2122.500000,-2181.818182,Speed,Off,Off,0.000000,FALSE,0,,,,,0.000000,0.000000
08:27:26.207 AM 04/14/2016,Teleop Enabled,9,FALSE,0,NO ERROR,-0.000000,0.000000,-0.000000,0.012833,TRUE,FALSE,TRUE,FALSE,FALSE,FALSE,Disabled,0.000000,0.000000,0.000000,TRUE,0.020386,-0.000214,0.000000,0.136047,-0.042847,0.000000,0.056000,-0.038000,-0.071000,1.220000,-0.050000,0.210000,-0.014534,Hold,0.021729,0.000000,ResetBack,3322.000000,-0.250000,LowGoal,2145.000000,-2181.818182,Speed,2137.500000,-2181.818182,Speed,Off,Off,0.000000,FALSE,0,,,,,0.000000,0.000000
08:27:26.308 AM 04/14/2016,Teleop Enabled,10,FALSE,0,NO ERROR,-0.000000,0.000000,-0.000000,0.012833,TRUE,FALSE,TRUE,FALSE,FALSE,FALSE,Disabled,0.000000,0.000000,0.000000,TRUE,0.029922,-0.004837,0.000000,0.177017,-0.107437,0.000000,0.048000,-0.047000,0.028000,1.170000,-0.050000,-0.070000,-0.025241,Hold,0.021729,0.000000,ResetBack,6064.000000,-0.250000,LowGoal,2160.000000,-2181.818182,Speed,2137.500000,-2181.818182,Speed,Off,Off,0.000000,FALSE,0,,,,,0.000000,0.000000
08:27:26.408 AM 04/14/2016,Teleop Enabled,10,FALSE,0,NO ERROR,-0.000000,0.000000,-0.000000,0.012833,TRUE,FALSE,TRUE,FALSE,FALSE,FALSE,Disabled,0.000000,0.000000,0.000000,TRUE,0.040054,-0.011871,0.000000,0.212952,-0.158463,0.000000,-0.001000,0.008000,0.123000,1.070000,-0.040000,-0.070000,-0.046189,Hold,0.021729,0.000000,ResetBack,7809.000000,-0.250000,LowGoal,2160.000000,-2181.818182,Speed,2145.000000,-2181.818182,Speed,Off,Off,0.000000,FALSE,0,,,,,0.000000,0.000000
08:27:26.509 AM 04/14/2016,Teleop Enabled,10,FALSE,0,NO ERROR,-0.000000,0.000000,-0.000000,0.012833,TRUE,FALSE,TRUE,FALSE,FALSE,FALSE,Disabled,0.000000,0.000000,0.000000,TRUE,0.051208,-0.020020,0.000000,0.235565,-0.150040,0.000000,0.053000,0.028000,0.181000,1.120000,-0.040000,-0.140000,-0.034043,Hold,0.021729,0.000000,ResetBack,8845.000000,-0.250000,LowGoal,2160.000000,-2181.818182,Speed,2145.000000,-2181.818182,Speed,Off,Off,0.000000,FALSE,0,,,,,0.000000,0.000000
08:27:26.609 AM 04/14/2016,Teleop Enabled,10,FALSE,0,NO ERROR,-0.000000,0.000000,-0.000000,0.012833,TRUE,FALSE,TRUE,FALSE,FALSE,FALSE,Disabled,0.000000,0.000000,0.000000,TRUE,0.064407,-0.023071,0.000000,0.274323,-0.016571,0.000000,-0.006000,-0.019000,0.223000,1.130000,-0.040000,-0.100000,-0.026329,Hold,0.021729,0.000000,Reset,8990.000000,-0.250000,LowGoal,2145.000000,-2181.818182,Speed,2137.500000,-2181.818182,Speed,Off,Off,0.000000,FALSE,0,,,,,0.000000,0.000000
08:27:26.709 AM 04/14/2016,Teleop Enabled,10,FALSE,0,NO ERROR,-0.000000,0.000000,-0.000000,0.012833,TRUE,FALSE,TRUE,FALSE,FALSE,FALSE,Disabled,0.000000,0.000000,0.000000,TRUE,0.064651,-0.023590,0.000000,0.002533,-0.018372,0.000000,-0.051000,-0.053000,0.185000,1.060000,-0.040000,0.020000,-0.032167,Hold,0.021973,0.000000,Reset,8990.000000,2.000000,LowGoal,2145.000000,-2181.818182,Speed,2130.000000,-2181.818182,Speed,Off,Off,0.000000,FALSE,0,,,,,0.000000,0.000000
08:27:26.809 AM 04/14/2016,Teleop Enabled,10,FALSE,0,NO ERROR,-0.000000,0.000000,-0.000000,0.012833,TRUE,FALSE,TRUE,FALSE,FALSE,FALSE,Disabled,0.000000,0.000000,0.000000,TRUE,0.062973,-0.025879,0.000000,-0.066040,-0.054138,0.000000,-0.007000,-0.047000,0.109000,1.150000,-0.040000,-0.150000,-0.027203,Hold,0.021973,0.000000,Hold,-64.000000,2.000000,LowGoal,2145.000000,-2181.818182,Speed,2137.500000,-2181.818182,Speed,Off,Off,0.000000,FALSE,0,,,,,0.000000,0.000000
08:27:26.910 AM 04/14/2016,Teleop Enabled,10,FALSE,0,NO ERROR,-0.000000,0.000000,-0.000000,0.012833,TRUE,FALSE,TRUE,FALSE,FALSE,FALSE,Disabled,0.000000,0.000000,0.000000,TRUE,0.059906,-0.030090,0.000000,-0.036865,-0.104752,0.000000,0.056000,-0.059000,0.067000,1.120000,-0.040000,0.140000,-0.030498,Hold,0.021973,0.000000,Hold,-170.000000,2.000000,LowGoal,2145.000000,-2181.818182,Speed,2137.500000,-2181.818182,Speed,Off,Off,0.000000,FALSE,0,,,,,0.000000,0.000000
08:27:27.011 AM 04/14/2016,Teleop Enabled,11,FALSE,0,NO ERROR,-0.000000,0.000000,-0.000000,0.012833,TRUE,FALSE,TRUE,FALSE,FALSE,FALSE,Disabled,0.000000,0.000000,0.000000,TRUE,0.060226,-0.036545,0.000000,0.024277,-0.145905,0.000000,0.013000,-0.037000,0.088000,1.060000,-0.050000,0.370000,-0.041132,Hold,0.021973,0.000000,Hold,-170.000000,2.000000,LowGoal,2167.500000,-2181.818182,Speed,2137.500000,-2181.818182,Speed,Off,Off,0.000000,FALSE,0,,,,,0.000000,0.000000
08:27:27.111 AM 04/14/2016,Teleop Enabled,10,FALSE,0,NO ERROR,-0.000000,0.000000,-0.000000,0.012833,TRUE,FALSE,TRUE,FALSE,FALSE,FALSE,Disabled,0.000000,0.000000,0.000000,TRUE,0.058884,-0.046616,0.000000,-0.055511,-0.184479,0.000000,0.013000,-0.037000,0.088000,1.060000,-0.050000,0.370000,-0.041948,Hold,0.021973,0.000000,Hold,-170.000000,2.000000,LowGoal,2167.500000,-2181.818182,Speed,2145.000000,-2181.818182,Speed,Off,Off,0.000000,FALSE,0,,,,,0.000000,0.000000
08:27:27.211 AM 04/14/2016,Teleop Enabled,10,FALSE,0,NO ERROR,-0.000000,0.000000,-0.000000,0.012833,TRUE,FALSE,TRUE,FALSE,FALSE,FALSE,Disabled,0.000000,0.000000,0.000000,TRUE,0.055389,-0.050400,0.000000,0.000000,0.000000,0.000000,-0.082000,-0.007000,-0.001000,1.000000,-0.050000,0.230000,-0.025544,Hold,0.021973,0.000000,Hold,-170.000000,2.000000,LowGoal,2160.000000,-2181.818182,Speed,2145.000000,-2181.818182,Speed,Off,Off,0.000000,FALSE,0,,,,,0.000000,0.000000
08:27:27.311 AM 04/14/2016,Teleop Enabled,10,FALSE,0,NO ERROR,-0.000000,0.000000,-0.000000,0.012833,TRUE,FALSE,TRUE,FALSE,FALSE,FALSE,Disabled,0.000000,0.000000,0.000000,TRUE,0.053452,-0.050018,0.000000,-0.084335,0.017624,0.000000,-0.067000,0.009000,0.006000,0.940000,-0.050000,0.250000,-0.042584,Hold,0.021973,0.000000,Hold,-170.000000,2.000000,LowGoal,2167.500000,-2181.818182,Speed,2145.000000,-2181.818182,Speed,Off,Off,0.000000,FALSE,0,,,,,0.000000,0.000000
08:27:27.411 AM 04/14/2016,Teleop Enabled,11,FALSE,0,NO ERROR,0.181102,0.000000,0.181102,0.019250,TRUE,FALSE,TRUE,FALSE,FALSE,FALSE,Disabled,0.000000,0.000000,0.000000,TRUE,0.045212,-0.049179,0.000000,-0.212784,0.000000,0.000000,-0.124000,0.041000,0.035000,1.020000,-0.050000,0.160000,-0.042464,Hold,0.021973,0.000000,Hold,-170.000000,2.000000,LowGoal,2167.500000,-2181.818182,Speed,2145.000000,-2181.818182,Speed,Off,Off,0.000000,FALSE,0,,,,,0.000000,0.000000
08:27:27.513 AM 04/14/2016,Teleop Enabled,10,FALSE,0,NO ERROR,0.181102,0.154000,0.181102,0.256666,TRUE,FALSE,TRUE,FALSE,FALSE,FALSE,Disabled,0.000000,0.000000,0.000000,TRUE,0.033005,-0.048981,0.000000,-0.258957,0.023819,0.000000,-0.040000,-0.025000,-0.002000,1.090000,-0.050000,-0.150000,-0.095397,Hold,0.021973,0.000000,Hold,-170.000000,2.000000,LowGoal,2167.500000,-2181.818182,Speed,2145.000000,-2181.818182,Speed,Off,Off,0.000000,FALSE,0,,,,,0.000000,0.000000
08:27:27.614 AM 04/14/2016,Teleop Enabled,11,FALSE,0,NO ERROR,-0.000000,0.211750,-0.000000,0.263083,TRUE,FALSE,TRUE,FALSE,FALSE,FALSE,Disabled,0.000000,0.000000,0.000000,TRUE,0.018036,-0.045502,0.000000,-0.315567,0.112778,0.000000,-0.096000,-0.005000,-0.027000,0.990000,-0.110000,-0.520000,-0.310519,Hold,0.021973,0.000000,Hold,-170.000000,2.000000,LowGoal,2167.500000,-2181.818182,Speed,2137.500000,-2181.818182,Speed,Off,Off,0.000000,FALSE,0,,,,,0.000000,0.000000
08:27:27.715 AM 04/14/2016,Teleop Enabled,10,FALSE,0,NO ERROR,-0.000000,0.192500,-0.000000,0.224583,TRUE,FALSE,TRUE,FALSE,FALSE,FALSE,Disabled,0.000000,0.000000,0.000000,TRUE,0.010880,-0.036423,0.000000,-0.027145,0.212708,0.000000,-0.097000,0.133000,0.023000,1.110000,-0.310000,-0.340000,-0.112369,Hold,0.021973,0.000000,Hold,-170.000000,2.000000,LowGoal,2167.500000,-2181.818182,Speed,2137.500000,-2181.818182,Speed,Off,Off,0.000000,FALSE,0,,,,,0.000000,0.000000
08:27:27.816 AM 04/14/2016,Teleop Enabled,9,FALSE,0,NO ERROR,-0.000000,0.179666,-0.000000,0.224583,TRUE,FALSE,TRUE,FALSE,FALSE,FALSE,Disabled,0.000000,0.000000,0.000000,TRUE,0.010880,-0.036423,0.000000,-0.027145,0.212708,0.000000,-0.097000,0.133000,0.023000,1.130000,-0.130000,-0.610000,-0.143321,Hold,0.021973,0.000000,Hold,-170.000000,2.000000,LowGoal,2160.000000,-2181.818182,Speed,2145.000000,-2181.818182,Speed,Off,Off,0.000000,FALSE,0,,,,,0.000000,0.000000
08:27:27.917 AM 04/14/2016,Teleop Enabled,10,FALSE,0,NO ERROR,-0.000000,0.173250,-0.000000,0.224583,TRUE,FALSE,TRUE,FALSE,FALSE,FALSE,Disabled,0.000000,0.000000,0.000000,TRUE,0.008682,-0.002151,0.000000,0.000061,0.429398,0.000000,0.053000,0.060000,-0.040000,1.180000,-0.180000,-0.180000,-0.148157,Hold,0.021973,0.000000,Hold,-170.000000,2.000000,LowGoal,2167.500000,-2181.818182,Speed,2145.000000,-2181.818182,Speed,Off,Off,0.000000,FALSE,0,,,,,0.000000,0.000000
08:27:28.018 AM 04/14/2016,Teleop Enabled,11,FALSE,0,NO ERROR,-0.000000,0.173250,-0.000000,0.224583,TRUE,FALSE,TRUE,FALSE,FALSE,FALSE,Disabled,0.000000,0.000000,0.000000,TRUE,0.006683,0.021088,0.000000,-0.071014,0.491257,0.000000,-0.092000,0.059000,-0.142000,1.200000,-0.180000,0.000000,-0.140990,Hold,0.021973,0.000000,Hold,-170.000000,2.000000,LowGoal,2167.500000,-2181.818182,Speed,2145.000000,-2181.818182,Speed,Off,Off,0.000000,FALSE,0,,,,,0.000000,0.000000
08:27:28.118 AM 04/14/2016,Teleop Enabled,10,FALSE,0,NO ERROR,-0.000000,0.173250,-0.000000,0.224583,TRUE,FALSE,TRUE,FALSE,FALSE,FALSE,Disabled,0.000000,0.000000,0.000000,TRUE,0.006683,0.021088,0.000000,-0.071014,0.491257,0.000000,-0.082000,0.093000,-0.162000,1.180000,-0.180000,-0.060000,-0.147569,Hold,0.021973,0.000000,Hold,-170.000000,2.000000,LowGoal,2167.500000,-2181.818182,Speed,2145.000000,-2181.818182,Speed,Off,Off,0.000000,FALSE,0,,,,,0.000000,0.000000
08:27:28.221 AM 04/14/2016,Teleop Enabled,11,FALSE,0,NO ERROR,-0.000000,0.173250,-0.000000,0.224583,TRUE,FALSE,TRUE,FALSE,FALSE,FALSE,Disabled,0.000000,0.000000,0.000000,TRUE,-0.000046,0.053558,0.000000,-0.121292,0.570038,0.000000,0.035000,0.085000,-0.148000,1.130000,-0.180000,0.000000,-0.138522,Hold,0.021973,0.000000,Hold,-170.000000,2.000000,LowGoal,2167.500000,-2181.818182,Speed,2145.000000,-2181.818182,Speed,Off,Off,0.000000,FALSE,0,,,,,0.000000,0.000000
08:27:28.322 AM 04/14/2016,Teleop Enabled,11,FALSE,0,NO ERROR,-0.000000,0.173250,-0.000000,0.224583,TRUE,FALSE,TRUE,FALSE,FALSE,FALSE,Disabled,0.000000,0.000000,0.000000,TRUE,-0.002426,0.084549,0.000000,-0.012161,0.660736,0.000000,-0.027000,0.091000,-0.188000,1.110000,-0.190000,0.240000,-0.159404,Hold,0.021973,0.000000,Hold,-170.000000,2.000000,LowGoal,2175.000000,-2181.818182,Speed,2145.000000,-2181.818182,Speed,Off,Off,0.000000,FALSE,0,,,,,0.000000,0.000000
08:27:28.423 AM 04/14/2016,Teleop Enabled,10,FALSE,0,NO ERROR,-0.000000,0.173250,-0.000000,0.224583,TRUE,FALSE,TRUE,FALSE,FALSE,FALSE,Disabled,0.000000,0.000000,0.000000,TRUE,-0.004608,0.120575,0.000000,-0.071594,0.758575,0.000000,-0.103000,0.035000,-0.116000,1.090000,-0.190000,0.090000,-0.154254,Hold,0.021973,0.000000,Hold,-170.000000,2.000000,LowGoal,2175.000000,-2181.818182,Speed,2145.000000,-2181.818182,Speed,Off,Off,0.000000,FALSE,0,,,,,0.000000,0.000000
08:27:28.522 AM 04/14/2016,Teleop Enabled,11,FALSE,0,NO ERROR,-0.000000,0.173250,-0.000000,0.224583,TRUE,FALSE,TRUE,FALSE,FALSE,FALSE,Disabled,0.000000,0.000000,0.000000,TRUE,-0.011353,0.158966,0.000000,-0.181870,0.765808,0.000000,-0.021000,-0.013000,-0.127000,0.960000,-0.190000,-0.120000,-0.165759,Hold,0.021973,0.000000,Hold,-170.000000,2.000000,LowGoal,2152.500000,-2181.818182,Speed,2145.000000,-2181.818182,Speed,Off,Off,0.000000,FALSE,0,,,,,0.000000,0.000000
08:27:28.623 AM 04/14/2016,Teleop Enabled,9,FALSE,0,NO ERROR,-0.000000,0.173250,-0.000000,0.224583,TRUE,FALSE,TRUE,FALSE,FALSE,FALSE,Disabled,0.000000,0.000000,0.000000,TRUE,-0.017426,0.166443,0.000000,0.000000,-0.006668,0.000000,-0.001000,0.011000,-0.030000,0.960000,-0.190000,-0.190000,-0.165759,Hold,0.021973,0.000000,Hold,-170.000000,2.000000,LowGoal,2160.000000,-2181.818182,Speed,2145.000000,-2181.818182,Speed,Off,Off,0.000000,FALSE,0,,,,,0.000000,0.000000
08:27:28.723 AM 04/14/2016,Teleop Enabled,10,FALSE,0,NO ERROR,-0.000000,0.173250,-0.000000,0.224583,TRUE,FALSE,TRUE,FALSE,FALSE,FALSE,Disabled,0.000000,0.000000,0.000000,TRUE,-0.017334,0.166718,0.000000,-0.000885,0.014465,0.000000,-0.027000,-0.008000,-0.074000,1.110000,-0.190000,-0.250000,-0.168124,Hold,0.021973,0.000000,Hold,-170.000000,2.000000,LowGoal,2152.500000,-2181.818182,Speed,2137.500000,-2181.818182,Speed,Off,Off,0.000000,FALSE,0,,,,,0.000000,0.000000
08:27:28.823 AM 04/14/2016,Teleop Enabled,12,FALSE,0,NO ERROR,-0.000000,0.173250,-0.000000,0.224583,TRUE,FALSE,TRUE,FALSE,FALSE,FALSE,Disabled,0.000000,0.000000,0.000000,TRUE,-0.015869,0.166214,0.000000,0.078613,-0.036530,0.000000,0.138000,-0.058000,0.019000,1.170000,-0.190000,-0.180000,-0.167814,Hold,0.021973,0.000000,Hold,-170.000000,2.000000,LowGoal,2145.000000,-2181.818182,Speed,2145.000000,-2181.818182,Speed,Off,Off,0.000000,FALSE,0,,,,,0.000000,0.000000
08:27:28.923 AM 04/14/2016,Teleop Enabled,10,FALSE,0,NO ERROR,-0.000000,0.173250,-0.000000,0.224583,TRUE,FALSE,TRUE,FALSE,FALSE,FALSE,Disabled,0.000000,0.000000,0.000000,TRUE,-0.008224,0.162140,0.000000,0.185516,-0.105179,0.000000,0.081000,-0.025000,0.027000,1.050000,-0.190000,-0.070000,-0.174359,Hold,0.021973,0.000000,Hold,-170.000000,2.000000,LowGoal,2145.000000,-2181.818182,Speed,2137.500000,-2181.818182,Speed,Off,Off,0.000000,FALSE,0,,,,,0.000000,0.000000
08:27:29.023 AM 04/14/2016,Teleop Enabled,10,FALSE,0,NO ERROR,-0.000000,0.173250,-0.000000,0.224583,TRUE,FALSE,TRUE,FALSE,FALSE,FALSE,Disabled,0.000000,0.000000,0.000000,TRUE,0.001938,0.156570,0.000000,0.213516,-0.107651,0.000000,0.084000,-0.006000,0.164000,1.100000,-0.190000,-0.210000,-0.180569,Hold,0.021973,0.000000,Hold,-170.000000,2.000000,LowGoal,2145.000000,-2181.818182,Speed,2145.000000,-2181.818182,Speed,Off,Off,0.000000,FALSE,0,,,,,0.000000,0.000000
08:27:29.124 AM 04/14/2016,Teleop Enabled,9,FALSE,0,NO ERROR,-0.000000,0.173250,-0.000000,0.224583,TRUE,FALSE,TRUE,FALSE,FALSE,FALSE,Disabled,0.000000,0.000000,0.000000,TRUE,0.017700,0.155350,0.000000,0.301086,-0.017990,0.000000,0.016000,-0.027000,0.217000,1.120000,-0.190000,-0.080000,-0.179020,Hold,0.021973,0.000000,Hold,-170.000000,2.000000,LowGoal,2145.000000,-2181.818182,Speed,2145.000000,-2181.818182,Speed,Off,Off,0.000000,FALSE,0,,,,,0.000000,0.000000
08:27:29.224 AM 04/14/2016,Teleop Enabled,10,FALSE,0,NO ERROR,-0.000000,0.173250,-0.000000,0.224583,TRUE,FALSE,TRUE,FALSE,FALSE,FALSE,Disabled,0.000000,0.000000,0.000000,TRUE,0.020981,0.153397,0.000000,0.005066,-0.054535,0.000000,0.010000,-0.083000,0.242000,1.040000,-0.200000,0.040000,-0.184714,Hold,0.021973,0.000000,Hold,-170.000000,2.000000,LowGoal,2145.000000,-2181.818182,Speed,2145.000000,-2181.818182,Speed,Off,Off,0.000000,FALSE,0,,,,,0.000000,0.000000
08:27:29.325 AM 04/14/2016,Teleop Enabled,11,FALSE,0,NO ERROR,-0.000000,0.173250,-0.000000,0.224583,TRUE,FALSE,TRUE,FALSE,FALSE,FALSE,Disabled,0.000000,0.000000,0.000000,TRUE,0.020584,0.148254,0.000000,-0.036606,-0.134552,0.000000,-0.084000,-0.038000,0.125000,1.050000,-0.190000,-0.110000,-0.178221,Hold,0.021973,0.000000,Hold,-170.000000,2.000000,LowGoal,2152.500000,-2181.818182,Speed,2145.000000,-2181.818182,Speed,Off,Off,0.000000,FALSE,0,,,,,0.000000,0.000000
08:27:29.425 AM 04/14/2016,Teleop Enabled,11,FALSE,0,NO ERROR,-0.000000,0.173250,-0.000000,0.224583,TRUE,FALSE,TRUE,FALSE,FALSE,FALSE,Disabled,0.000000,0.000000,0.000000,TRUE,0.015289,0.143936,0.000000,-0.138580,-0.003571,0.000000,-0.045000,0.027000,0.052000,1.050000,-0.190000,-0.300000,-0.175667,Hold,0.021973,0.000000,Hold,-170.000000,2.000000,LowGoal,2145.000000,-2181.818182,Speed,2145.000000,-2181.818182,Speed,Off,Off,0.000000,FALSE,0,,,,,0.000000,0.000000
08:27:29.525 AM 04/14/2016,Teleop Enabled,10,FALSE,0,NO ERROR,-0.000000,0.173250,-0.000000,0.224583,TRUE,FALSE,TRUE,FALSE,FALSE,FALSE,Disabled,0.000000,0.000000,0.000000,TRUE,0.008057,0.144150,0.000000,-0.138229,0.004700,0.000000,0.042000,0.043000,0.072000,1.010000,-0.190000,-0.150000,-0.180779,Hold,0.021973,0.000000,Hold,-170.000000,2.000000,LowGoal,2152.500000,-2181.818182,Speed,2145.000000,-2181.818182,Speed,Off,Off,0.000000,FALSE,0,,,,,0.000000,0.000000
08:27:29.626 AM 04/14/2016,Teleop Enabled,10,FALSE,0,NO ERROR,-0.000000,0.173250,-0.000000,0.224583,TRUE,FALSE,TRUE,FALSE,FALSE,FALSE,Disabled,0.000000,0.000000,0.000000,TRUE,0.001740,0.145447,0.000000,-0.135956,0.041275,0.000000,-0.129000,0.068000,-0.069000,0.990000,-0.190000,-0.100000,-0.165146,Hold,0.021973,0.000000,Hold,-170.000000,2.000000,LowGoal,2152.500000,-2181.818182,Speed,2145.000000,-2181.818182,Speed,Off,Off,0.000000,FALSE,0,,,,,0.000000,0.000000
08:27:29.726 AM 04/14/2016,Teleop Enabled,11,FALSE,0,NO ERROR,-0.000000,0.173250,-0.000000,0.224583,TRUE,FALSE,TRUE,FALSE,FALSE,FALSE,Disabled,0.000000,0.000000,0.000000,TRUE,-0.008224,0.149170,0.000000,-0.234375,0.100403,0.000000,-0.038000,0.105000,-0.090000,1.040000,-0.180000,-0.340000,-0.173185,Hold,0.021973,0.000000,Hold,-170.000000,2.000000,LowGoal,2152.500000,-2181.818182,Speed,2145.000000,-2181.818182,Speed,Off,Off,0.000000,FALSE,0,,,,,0.000000,0.000000
08:27:29.828 AM 04/14/2016,Teleop Enabled,10,FALSE,0,NO ERROR,-0.000000,0.173250,-0.000000,0.224583,TRUE,FALSE,TRUE,FALSE,FALSE,FALSE,Disabled,0.000000,0.000000,0.000000,TRUE,-0.021423,0.157410,0.000000,-0.261627,0.205353,0.000000,0.058000,-0.002000,-0.225000,1.060000,-0.190000,-0.180000,-0.171140,Hold,0.021973,0.000000,Hold,-170.000000,2.000000,LowGoal,2145.000000,-2181.818182,Speed,2145.000000,-2181.818182,Speed,Off,Off,0.000000,FALSE,0,,,,,0.000000,0.000000
08:27:29.928 AM 04/14/2016,Teleop Enabled,9,FALSE,0,NO ERROR,-0.000000,0.173250,-0.000000,0.224583,TRUE,FALSE,TRUE,FALSE,FALSE,FALSE,Disabled,0.000000,0.000000,0.000000,TRUE,-0.032822,0.168777,0.000000,-0.206589,0.233948,0.000000,-0.089000,0.029000,-0.191000,1.030000,-0.190000,0.130000,-0.173508,Hold,0.021973,0.000000,Hold,-170.000000,2.000000,LowGoal,2160.000000,-2181.818182,Speed,2145.000000,-2181.818182,Speed,Off,Off,0.000000,FALSE,0,,,,,0.000000,0.000000
08:27:30.029 AM 04/14/2016,Teleop Enabled,10,FALSE,0,NO ERROR,-0.000000,0.173250,-0.000000,0.224583,TRUE,FALSE,TRUE,FALSE,FALSE,FALSE,Disabled,0.000000,0.000000,0.000000,TRUE,-0.045441,0.180725,0.000000,-0.293121,0.241577,0.000000,-0.038000,-0.009000,-0.165000,1.030000,-0.190000,-0.150000,-0.172603,Hold,0.021973,0.000000,Hold,-170.000000,2.000000,LowGoal,2152.500000,-2181.818182,Speed,2145.000000,-2181.818182,Speed,Off,Off,0.000000,FALSE,0,,,,,0.000000,0.000000
08:27:30.129 AM 04/14/2016,Teleop Enabled,10,FALSE,0,NO ERROR,0.000000,0.173250,-0.000000,0.224583,TRUE,FALSE,TRUE,TRUE,TRUE,FALSE,Disabled,0.000000,0.000000,0.000000,TRUE,-0.061783,0.192642,0.000000,-0.341583,0.234741,0.000000,0.078000,-0.125000,-0.109000,1.090000,-0.190000,-0.280000,-0.171811,Hold,0.021973,0.000000,Hold,-170.000000,2.000000,LowGoal,2145.000000,-2181.818182,Speed,2152.500000,-2181.818182,Speed,Off,Off,0.000000,FALSE,0,,,,,0.000000,0.000000
08:27:30.230 AM 04/14/2016,Teleop Enabled,11,FALSE,0,NO ERROR,0.000000,0.173250,-0.000000,0.224583,TRUE,FALSE,TRUE,TRUE,TRUE,FALSE,Disabled,0.000000,0.000000,0.000000,TRUE,-0.078552,0.203583,0.000000,-0.214600,0.152939,0.000000,0.113000,-0.070000,-0.029000,1.090000,-0.190000,0.080000,-0.165198,Hold,0.021973,50.000000,Hold,-170.000000,2.000000,LowGoal,2145.000000,-2181.818182,Speed,2152.500000,-2181.818182,Speed,Off,Off,0.000000,FALSE,0,,,,,0.000000,0.000000
08:27:30.331 AM 04/14/2016,Teleop Enabled,12,FALSE,0,NO ERROR,0.000000,0.070583,-0.000000,0.192500,TRUE,FALSE,TRUE,TRUE,TRUE,FALSE,Disabled,0.000000,0.000000,0.000000,TRUE,-0.085876,0.210052,0.000000,-0.111740,0.114227,0.000000,0.019000,-0.007000,-0.029000,1.060000,-0.190000,0.170000,-0.161528,Hold,3.927979,50.000000,HighGoal,-170.000000,73728.000000,HighGoal,2160.000000,-3272.727273,Speed,2145.000000,-3272.727273,Speed,Off,Off,0.000000,FALSE,0,,,,,0.000000,0.000000
08:27:30.431 AM 04/14/2016,Teleop Enabled,5,FALSE,0,NO ERROR,0.000000,0.089833,-0.000000,0.192500,TRUE,FALSE,TRUE,TRUE,TRUE,FALSE,Disabled,0.000000,0.000000,0.000000,TRUE,-0.091476,0.214859,0.000000,-0.133621,0.077179,0.000000,0.070000,-0.074000,0.062000,1.150000,-0.170000,-0.190000,-0.169990,Hold,6.377441,50.000000,Hold,-4222.000000,73728.000000,HighGoal,2137.500000,-3272.727273,Speed,2100.000000,-3272.727273,Speed,Off,Off,0.000000,FALSE,0,,,,,0.000000,0.000000
08:27:30.532 AM 04/14/2016,Teleop Enabled,11,FALSE,0,NO ERROR,0.000000,0.096250,-0.000000,0.192500,TRUE,FALSE,TRUE,TRUE,TRUE,FALSE,Disabled,0.000000,0.000000,0.000000,TRUE,-0.096298,0.217148,0.000000,0.000000,0.050873,0.000000,0.091000,-0.036000,0.081000,1.070000,-0.180000,-0.110000,-0.157859,Hold,9.519775,50.000000,HighGoal,-18888.000000,73728.000000,HighGoal,2340.000000,-3272.727273,Speed,2137.500000,-3272.727273,Speed,Off,Off,0.000000,FALSE,0,,,,,0.000000,0.000000
08:27:30.633 AM 04/14/2016,Teleop Enabled,9,FALSE,0,NO ERROR,0.000000,0.096250,-0.000000,0.192500,TRUE,FALSE,TRUE,TRUE,TRUE,FALSE,Disabled,0.000000,0.000000,0.000000,TRUE,-0.096146,0.220688,0.000000,-0.016281,0.099731,0.000000,0.069000,-0.108000,0.070000,1.080000,-0.190000,-0.060000,-0.165597,Hold,12.420410,50.000000,Hold,-33513.000000,73728.000000,HighGoal,2715.000000,-3272.727273,Speed,2505.000000,-3272.727273,Speed,Off,Off,0.000000,FALSE,0,,,,,0.000000,0.000000
08:27:30.734 AM 04/14/2016,Teleop Enabled,8,FALSE,0,NO ERROR,0.000000,0.134750,-0.000000,0.192500,TRUE,FALSE,TRUE,TRUE,TRUE,FALSE,Disabled,0.000000,0.000000,0.000000,TRUE,-0.096130,0.224716,0.000000,0.010269,0.074280,0.000000,-0.118000,-0.108000,0.055000,1.050000,-0.180000,-0.070000,-0.154695,Hold,16.695801,50.000000,HighGoal,-33513.000000,73728.000000,HighGoal,3037.500000,-3272.727273,Speed,2812.500000,-3272.727273,Speed,Off,Off,0.000000,FALSE,0,,,,,0.000000,0.000000
08:27:30.835 AM 04/14/2016,Teleop Enabled,11,FALSE,0,NO ERROR,0.000000,0.166833,-0.000000,0.179666,TRUE,FALSE,TRUE,TRUE,TRUE,FALSE,Disabled,0.000000,0.000000,0.000000,TRUE,-0.094925,0.230087,0.000000,0.061707,0.099731,0.000000,-0.102000,0.101000,0.065000,1.000000,-0.200000,0.070000,-0.174025,Hold,21.826904,50.000000,Hold,-46690.000000,73728.000000,HighGoal,3270.000000,-3272.727273,Speed,3090.000000,-3272.727273,Speed,Off,Off,0.000000,FALSE,0,,,,,0.000000,0.000000
08:27:30.934 AM 04/14/2016,Teleop Enabled,9,FALSE,0,NO ERROR,0.000000,0.166833,-0.000000,0.179666,TRUE,FALSE,TRUE,TRUE,TRUE,FALSE,Disabled,0.000000,0.000000,0.000000,TRUE,-0.093628,0.235641,0.000000,0.007507,0.164078,0.000000,-0.237000,0.001000,0.112000,1.010000,-0.200000,0.100000,-0.172789,Hold,28.143311,50.000000,HighGoal,-62143.000000,73728.000000,HighGoal,3322.500000,-3272.727273,Speed,3255.000000,-3272.727273,Speed,Off,Off,0.000000,FALSE,0,,,,,0.000000,0.000000
08:27:31.035 AM 04/14/2016,Teleop Enabled,10,FALSE,0,NO ERROR,0.000000,0.166833,-0.000000,0.179666,TRUE,FALSE,TRUE,TRUE,TRUE,FALSE,Disabled,0.000000,0.000000,0.000000,TRUE,-0.099503,0.246490,0.000000,-0.162048,0.179993,0.000000,-0.031000,-0.152000,0.108000,0.990000,-0.200000,0.070000,-0.198773,Hold,35.395020,50.000000,Hold,-75174.000000,73728.000000,HighGoal,3285.000000,-3272.727273,Speed,3300.000000,-3272.727273,Speed,Off,Off,0.000000,FALSE,0,,,,,0.000000,0.000000
08:27:31.137 AM 04/14/2016,Teleop Enabled,10,FALSE,0,NO ERROR,0.000000,-0.154000,-0.000000,0.269499,TRUE,FALSE,TRUE,TRUE,TRUE,FALSE,Disabled,0.000000,0.000000,0.000000,TRUE,-0.109543,0.253952,0.000000,-0.242767,0.127136,0.000000,-0.294000,-0.058000,0.055000,1.040000,-0.250000,0.380000,-0.264034,Hold,43.180176,50.000000,HighGoal,-73770.000000,73728.000000,HighGoal,3262.500000,-3272.727273,Speed,3255.000000,-3272.727273,Speed,Off,Off,0.000000,FALSE,0,,,,,0.000000,0.000000
08:27:31.237 AM 04/14/2016,Teleop Enabled,10,FALSE,0,NO ERROR,0.000000,-0.250249,-0.000000,0.346499,TRUE,FALSE,TRUE,TRUE,TRUE,FALSE,Disabled,0.000000,0.000000,0.000000,TRUE,-0.128571,0.259964,0.000000,-0.453339,0.136169,0.000000,-0.141000,0.016000,0.012000,1.080000,-0.080000,-0.240000,-0.059178,Hold,52.344971,50.000000,Hold,-73762.000000,73728.000000,HighGoal,3285.000000,-3272.727273,Speed,3247.500000,-3272.727273,Speed,Off,Off,0.000000,FALSE,0,,,,,0.000000,0.000000
08:27:31.336 AM 04/14/2016,Teleop Enabled,12,FALSE,0,NO ERROR,0.000000,-0.250249,-0.000000,0.346499,TRUE,FALSE,TRUE,TRUE,TRUE,FALSE,Disabled,0.000000,0.000000,0.000000,TRUE,-0.154221,0.266693,0.000000,-0.543045,0.135529,0.000000,0.049000,0.026000,-0.059000,0.970000,-0.220000,-0.460000,-0.198353,Hold,55.380127,50.000000,HighGoal,-73762.000000,73728.000000,HighGoal,3285.000000,-3272.727273,Speed,3262.500000,-3272.727273,Speed,Off,Off,0.000000,FALSE,0,,,,,0.000000,0.000000
08:27:31.436 AM 04/14/2016,Teleop Enabled,10,FALSE,0,NO ERROR,0.000000,-0.250249,-0.000000,0.340083,TRUE,FALSE,TRUE,TRUE,TRUE,FALSE,Disabled,0.000000,0.000000,0.000000,TRUE,-0.180954,0.273026,0.000000,-0.520569,0.101456,0.000000,-0.064000,-0.106000,-0.131000,1.070000,-0.120000,-0.110000,-0.089813,Hold,55.373535,50.000000,Hold,-73865.000000,73728.000000,HighGoal,3277.500000,-3272.727273,Speed,3262.500000,-3272.727273,Speed,Off,Off,0.000000,FALSE,0,,,,,0.000000,0.000000
08:27:31.536 AM 04/14/2016,Teleop Enabled,6,FALSE,0,NO ERROR,0.000000,-0.250249,-0.000000,0.340083,TRUE,FALSE,TRUE,TRUE,TRUE,FALSE,Disabled,0.000000,0.000000,0.000000,TRUE,-0.208572,0.275192,0.000000,-0.587860,0.002579,0.000000,0.018000,-0.065000,-0.147000,1.090000,-0.200000,-0.190000,-0.180060,Hold,55.373291,50.000000,HighGoal,-73792.000000,73728.000000,HighGoal,3270.000000,-3272.727273,Speed,3262.500000,-3272.727273,Speed,Off,Off,0.000000,FALSE,0,,,,,0.000000,0.000000
08:27:31.637 AM 04/14/2016,Teleop Enabled,9,FALSE,0,NO ERROR,0.000000,-0.250249,-0.000000,0.307999,TRUE,FALSE,TRUE,TRUE,TRUE,FALSE,Disabled,0.000000,0.000000,0.000000,TRUE,-0.238678,0.274063,0.000000,-0.592728,-0.046158,0.000000,-0.064000,0.035000,-0.004000,1.080000,-0.150000,-0.260000,-0.132442,Hold,55.373047,50.000000,Hold,-73774.000000,73728.000000,HighGoal,3270.000000,-3272.727273,Speed,3262.500000,-3272.727273,Speed,Off,Off,0.000000,FALSE,0,,,,,0.000000,0.000000
08:27:31.737 AM 04/14/2016,Teleop Enabled,8,FALSE,0,NO ERROR,0.000000,-0.250249,-0.000000,0.307999,TRUE,FALSE,TRUE,TRUE,TRUE,FALSE,Disabled,0.000000,0.000000,0.000000,TRUE,-0.267578,0.271301,0.000000,-0.578064,-0.066055,0.000000,0.026000,-0.045000,0.004000,1.060000,-0.180000,-0.110000,-0.157094,Hold,55.373047,50.000000,HighGoal,-73830.000000,73728.000000,HighGoal,3277.500000,-3272.727273,Speed,3262.500000,-3272.727273,Speed,Off,Off,0.000000,FALSE,0,,,,,0.000000,0.000000
08:27:31.837 AM 04/14/2016,Teleop Enabled,9,FALSE,0,NO ERROR,0.000000,-0.250249,-0.000000,0.307999,TRUE,FALSE,TRUE,TRUE,TRUE,FALSE,Disabled,0.000000,0.000000,0.000000,TRUE,-0.302582,0.265945,0.000000,-0.570679,-0.104584,0.000000,0.037000,0.015000,0.046000,1.060000,-0.160000,-0.170000,-0.145920,Hold,55.372070,50.000000,Hold,-73826.000000,73728.000000,HighGoal,3277.500000,-3272.727273,Speed,3262.500000,-3272.727273,Speed,Off,Off,0.000000,FALSE,0,,,,,0.000000,0.000000
08:27:31.937 AM 04/14/2016,Teleop Enabled,9,FALSE,0,NO ERROR,0.000000,-0.250249,-0.000000,0.307999,TRUE,FALSE,TRUE,TRUE,TRUE,FALSE,Disabled,0.000000,0.000000,0.000000,TRUE,-0.330078,0.260757,0.000000,-0.549622,-0.100372,0.000000,-0.038000,0.041000,0.047000,1.050000,-0.170000,-0.130000,-0.150023,Hold,55.372070,50.000000,HighGoal,-73826.000000,73728.000000,HighGoal,3270.000000,-3272.727273,Speed,3262.500000,-3272.727273,Speed,Off,Off,0.000000,FALSE,0,,,,,0.000000,0.000000
08:27:32.037 AM 04/14/2016,Teleop Enabled,10,FALSE,0,NO ERROR,0.000000,-0.250249,-0.000000,0.307999,TRUE,FALSE,TRUE,TRUE,TRUE,FALSE,Disabled,0.000000,0.000000,0.000000,TRUE,-0.357681,0.255585,0.000000,-0.544907,-0.100800,0.000000,0.065000,0.064000,0.061000,1.050000,-0.170000,-0.230000,-0.151294,Hold,55.372070,50.000000,Hold,-73826.000000,73728.000000,HighGoal,3270.000000,-3272.727273,Speed,3262.500000,-3272.727273,Speed,Off,Off,0.000000,FALSE,0,,,,,0.000000,0.000000
08:27:32.137 AM 04/14/2016,Teleop Enabled,9,FALSE,0,NO ERROR,0.000000,-0.250249,-0.000000,0.307999,TRUE,FALSE,TRUE,TRUE,TRUE,FALSE,Disabled,0.000000,0.000000,0.000000,TRUE,-0.382919,0.250870,0.000000,-0.484558,-0.089310,0.000000,-0.007000,0.102000,0.075000,1.050000,-0.170000,-0.180000,-0.153727,Hold,55.372070,50.000000,HighGoal,-73826.000000,73728.000000,HighGoal,3277.500000,-3272.727273,Speed,3262.500000,-3272.727273,Speed,Off,Off,0.000000,FALSE,0,,,,,0.000000,0.000000
08:27:32.237 AM 04/14/2016,Teleop Enabled,11,FALSE,0,NO ERROR,0.000000,-0.250249,-0.000000,0.307999,TRUE,FALSE,TRUE,TRUE,TRUE,FALSE,Disabled,0.000000,0.000000,0.000000,TRUE,-0.406631,0.246902,0.000000,-0.463440,-0.072372,0.000000,0.097000,-0.077000,-0.014000,1.020000,-0.170000,-0.240000,-0.145675,Hold,55.372070,50.000000,Hold,-73826.000000,73728.000000,HighGoal,3270.000000,-3272.727273,Speed,3262.500000,-3272.727273,Speed,Off,Off,0.000000,FALSE,0,,,,,0.000000,0.000000
08:27:32.337 AM 04/14/2016,Teleop Enabled,10,FALSE,0,NO ERROR,0.000000,-0.250249,-0.000000,0.307999,TRUE,FALSE,TRUE,TRUE,TRUE,FALSE,Disabled,0.000000,0.000000,0.000000,TRUE,-0.427429,0.244186,0.000000,-0.394394,-0.034821,0.000000,0.045000,-0.083000,0.019000,1.030000,-0.170000,-0.170000,-0.160255,Hold,55.372070,50.000000,HighGoal,-73826.000000,73728.000000,HighGoal,3270.000000,-3272.727273,Speed,3262.500000,-3272.727273,Speed,Off,Off,0.000000,FALSE,0,,,,,0.000000,0.000000
08:27:32.438 AM 04/14/2016,Teleop Enabled,9,FALSE,0,NO ERROR,0.000000,-0.250249,-0.000000,0.307999,TRUE,FALSE,TRUE,TRUE,TRUE,FALSE,Enable,0.046875,0.000000,0.000000,TRUE,-0.445969,0.244141,0.000000,-0.346512,0.021515,0.000000,0.205000,-0.128000,0.030000,1.090000,-0.170000,-0.190000,-0.142773,Hold,55.372070,50.000000,Hold,-73826.000000,73728.000000,HighGoal,3277.500000,-3272.727273,Speed,3262.500000,-3272.727273,Speed,Off,Off,0.000000,FALSE,0,,,,,0.000000,0.000000
08:27:32.538 AM 04/14/2016,Teleop Enabled,11,FALSE,0,NO ERROR,-0.194802,-0.250249,-0.194802,0.115500,TRUE,FALSE,TRUE,TRUE,TRUE,FALSE,PID,0.046875,-3.309093,3.139093,TRUE,-0.460037,0.246460,0.000000,-0.238495,0.064499,0.000000,-0.023000,0.209000,0.113000,1.030000,-0.170000,-0.120000,-0.142746,Hold,55.372070,50.000000,HighGoal,-73826.000000,73728.000000,HighGoal,3277.500000,-3272.727273,Speed,3262.500000,-3272.727273,Speed,Off,Off,0.000000,FALSE,0,,,,,0.000000,0.000000
08:27:32.638 AM 04/14/2016,Teleop Enabled,10,FALSE,0,NO ERROR,-0.189759,-0.391416,-0.189759,-0.327249,TRUE,FALSE,TRUE,TRUE,TRUE,FALSE,PID,0.046875,-3.309093,3.139093,TRUE,-0.471939,0.251831,0.000000,-0.232162,0.135925,0.000000,0.398000,-0.150000,-0.024000,1.230000,0.510000,-0.250000,0.540437,Hold,55.372070,50.000000,Hold,-73826.000000,73728.000000,HighGoal,3277.500000,-3272.727273,Speed,3270.000000,-3272.727273,Speed,Off,Off,0.000000,FALSE,0,,,,,0.000000,0.000000
08:27:32.740 AM 04/14/2016,Teleop Enabled,11,FALSE,0,NO ERROR,-0.175866,-0.532582,-0.175866,-0.686582,TRUE,FALSE,TRUE,TRUE,TRUE,FALSE,PID,0.046875,-3.309093,3.139093,TRUE,-0.478882,0.258530,0.000000,-0.102585,0.123840,0.000000,-0.043000,0.091000,0.037000,1.060000,1.740000,-0.260000,1.834374,Hold,55.372070,50.000000,HighGoal,-73826.000000,73728.000000,HighGoal,3270.000000,-3272.727273,Speed,3262.500000,-3272.727273,Speed,Off,Off,0.000000,FALSE,0,,,,,0.000000,0.000000
08:27:32.840 AM 04/14/2016,Teleop Enabled,9,FALSE,0,NO ERROR,-0.172319,-0.532582,-0.172319,-0.776415,TRUE,FALSE,TRUE,TRUE,TRUE,FALSE,PID,0.046875,-3.309093,3.139093,TRUE,-0.481842,0.264832,0.000000,-0.003708,0.128525,0.000000,0.148000,-0.174000,-0.018000,1.040000,1.930000,-0.270000,2.043964,Hold,55.311768,50.000000,HighGoal,-73826.000000,73728.000000,HighGoal,3262.500000,-3272.727273,Speed,3255.000000,-3272.727273,Speed,Off,Off,0.000000,FALSE,0,,,,,0.000000,0.000000
08:27:32.941 AM 04/14/2016,Teleop Enabled,10,FALSE,0,NO ERROR,-0.172423,-0.532582,-0.172423,-0.782832,TRUE,FALSE,TRUE,TRUE,TRUE,FALSE,PID,0.046875,-3.309093,3.139093,TRUE,-0.476562,0.272552,0.000000,0.159454,0.130264,0.000000,0.197000,-0.202000,-0.044000,1.060000,1.910000,-0.340000,2.058756,Hold,55.308838,50.000000,Hold,-73826.000000,73728.000000,HighGoal,3262.500000,-3272.727273,Speed,3255.000000,-3272.727273,Speed,Off,Off,0.000000,FALSE,0,,,,,0.000000,0.000000
08:27:33.041 AM 04/14/2016,Teleop Enabled,9,FALSE,0,NO ERROR,-0.172008,-0.532582,-0.172008,-0.802081,TRUE,FALSE,TRUE,TRUE,TRUE,FALSE,PID,0.046875,-3.309093,3.139093,TRUE,-0.463791,0.278351,0.000000,0.312256,0.113876,0.000000,0.197000,-0.202000,-0.044000,1.060000,1.910000,-0.340000,2.109445,Hold,55.307861,50.000000,HighGoal,-73825.000000,73728.000000,HighGoal,3270.000000,-3272.727273,Speed,3255.000000,-3272.727273,Speed,Off,Off,0.000000,FALSE,0,,,,,0.000000,0.000000
08:27:33.141 AM 04/14/2016,Teleop Enabled,10,FALSE,0,NO ERROR,-0.171697,-0.532582,-0.171697,-0.827748,TRUE,FALSE,TRUE,TRUE,TRUE,FALSE,PID,0.046875,-3.309093,3.139093,TRUE,-0.444611,0.283661,0.000000,0.429413,0.107819,0.000000,0.120000,-0.157000,-0.051000,1.030000,2.000000,-0.280000,2.160408,Hold,55.307617,50.000000,Hold,-73825.000000,73728.000000,HighGoal,3277.500000,-3272.727273,Speed,3255.000000,-3272.727273,Speed,Off,Off,0.000000,FALSE,0,,,,,0.000000,0.000000
08:27:33.241 AM 04/14/2016,Teleop Enabled,9,FALSE,0,NO ERROR,-0.171283,-0.532582,-0.171283,-0.834165,TRUE,FALSE,TRUE,TRUE,TRUE,FALSE,PID,0.046875,-3.309093,3.139093,TRUE,-0.420685,0.289062,0.000000,0.509064,0.108078,0.000000,0.138000,-0.163000,-0.038000,1.010000,2.030000,-0.300000,2.207558,Hold,55.307373,50.000000,HighGoal,-73825.000000,73728.000000,HighGoal,3270.000000,-3272.727273,Speed,3255.000000,-3272.727273,Speed,Off,Off,0.000000,FALSE,0,,,,,0.000000,0.000000
08:27:33.341 AM 04/14/2016,Teleop Enabled,10,FALSE,0,NO ERROR,-0.171180,-0.532582,-0.171180,-0.834165,TRUE,FALSE,TRUE,TRUE,TRUE,FALSE,PID,0.046875,-3.309093,3.139093,TRUE,-0.394043,0.293823,0.000000,0.553467,0.086777,0.000000,0.138000,-0.163000,-0.038000,1.060000,2.040000,-0.200000,2.208566,Hold,55.307373,50.000000,Hold,-73825.000000,73728.000000,HighGoal,3262.500000,-3272.727273,Speed,3255.000000,-3272.727273,Speed,Off,Off,0.000000,FALSE,0,,,,,0.000000,0.000000
08:27:33.441 AM 04/14/2016,Teleop Enabled,10,FALSE,0,NO ERROR,-0.171180,-0.532582,-0.171180,-0.834165,TRUE,FALSE,TRUE,TRUE,TRUE,FALSE,Enable,-0.012500,-3.309093,3.139093,TRUE,-0.365341,0.298065,0.000000,0.569092,0.075897,0.000000,0.022000,0.002000,0.123000,1.060000,2.040000,-0.220000,2.218970,Hold,55.307373,50.000000,HighGoal,-73825.000000,73728.000000,HighGoal,3262.500000,-3272.727273,Speed,3255.000000,-3272.727273,Speed,Off,Off,0.000000,FALSE,0,,,,,0.000000,0.000000
08:27:33.542 AM 04/14/2016,Teleop Enabled,9,FALSE,0,NO ERROR,0.000000,-0.526165,-0.000000,-0.737915,TRUE,FALSE,TRUE,TRUE,TRUE,FALSE,Suspended,-0.012500,-0.849282,2.899282,TRUE,-0.336365,0.299805,0.000000,0.587631,-0.007431,0.000000,0.052000,-0.115000,0.021000,1.060000,2.040000,-0.220000,1.981526,Hold,55.307373,50.000000,Hold,-73825.000000,73728.000000,HighGoal,3262.500000,-3272.727273,Speed,3255.000000,-3272.727273,Speed,Off,Off,0.000000,FALSE,0,,,,,0.000000,0.000000
08:27:33.642 AM 04/14/2016,Teleop Enabled,11,FALSE,0,NO ERROR,0.000000,-0.449166,-0.000000,-0.609582,TRUE,FALSE,TRUE,TRUE,TRUE,FALSE,Suspended,-0.012500,-0.849282,2.899282,TRUE,-0.304581,0.298355,0.000000,0.676300,-0.039536,0.000000,0.052000,-0.115000,0.021000,0.900000,1.830000,-0.290000,1.504367,Hold,55.307373,50.000000,HighGoal,-73825.000000,73728.000000,HighGoal,3262.500000,-3272.727273,Speed,3255.000000,-3272.727273,Speed,Off,Off,0.000000,FALSE,0,,,,,0.000000,0.000000
08:27:33.744 AM 04/14/2016,Teleop Enabled,9,FALSE,0,NO ERROR,0.000000,-0.449166,-0.000000,-0.609582,TRUE,FALSE,TRUE,TRUE,TRUE,FALSE,Suspended,-0.012500,-0.849282,2.899282,TRUE,-0.304581,0.298355,0.000000,0.676300,-0.039536,0.000000,0.064000,0.042000,0.156000,1.000000,1.370000,-0.040000,1.421443,Hold,55.307373,50.000000,Hold,-73825.000000,73728.000000,Shoot,3277.500000,-3272.727273,Speed,3262.500000,-3272.727273,Speed,Off,On,0.000000,FALSE,0,,,,,0.000000,0.000000
08:27:33.843 AM 04/14/2016,Teleop Enabled,10,FALSE,0,NO ERROR,0.000000,-0.449166,-0.000000,-0.609582,TRUE,FALSE,TRUE,TRUE,TRUE,FALSE,Suspended,-0.012500,-0.849282,2.899282,TRUE,-0.262390,0.295197,0.000000,0.718933,-0.068069,0.000000,0.037000,0.056000,0.069000,0.930000,1.440000,-0.200000,1.394615,Hold,55.307129,50.000000,HighGoal,-73825.000000,73728.000000,Shoot,3285.000000,-3272.727273,Speed,3270.000000,-3272.727273,Speed,Off,On,0.000000,FALSE,0,,,,,0.000000,0.000000
08:27:33.943 AM 04/14/2016,Teleop Enabled,10,FALSE,0,NO ERROR,0.000000,-0.449166,-0.000000,-0.609582,TRUE,FALSE,TRUE,TRUE,TRUE,FALSE,Suspended,-0.012500,-0.849282,2.899282,TRUE,-0.225189,0.292786,0.000000,0.746857,-0.042435,0.000000,0.082000,-0.080000,-0.103000,0.960000,1.430000,-0.120000,1.391523,Hold,55.307129,50.000000,Hold,-73825.000000,73728.000000,Shoot,3277.500000,-3272.727273,Speed,3262.500000,-3272.727273,Speed,On,On,0.000000,FALSE,0,,,,,0.000000,0.000000
08:27:34.044 AM 04/14/2016,Teleop Enabled,9,FALSE,0,NO ERROR,0.000000,-0.442749,-0.000000,-0.609582,TRUE,FALSE,FALSE,TRUE,TRUE,FALSE,Suspended,-0.012500,-0.849282,2.899282,TRUE,-0.147812,0.289398,0.000000,0.794022,0.012070,0.000000,-0.051000,0.114000,0.102000,0.960000,1.430000,-0.110000,1.369477,Hold,55.307129,50.000000,HighGoal,-73825.000000,73728.000000,Shoot,3262.500000,-3272.727273,Speed,3255.000000,-3272.727273,Speed,On,On,0.000000,FALSE,0,,,,,0.000000,0.000000
08:27:34.144 AM 04/14/2016,Teleop Enabled,9,FALSE,0,NO ERROR,0.000000,-0.442749,-0.000000,-0.603165,TRUE,FALSE,FALSE,TRUE,TRUE,FALSE,Suspended,-0.012500,-0.849282,2.899282,TRUE,-0.107315,0.294678,0.000000,0.801071,0.154434,0.000000,-0.003000,0.177000,-0.160000,0.810000,1.430000,0.060000,1.343138,Hold,55.307129,50.000000,Hold,-73825.000000,73728.000000,Shoot,2377.500000,-3272.727273,Speed,2355.000000,-3272.727273,Speed,On,On,0.000000,FALSE,0,,,,,0.000000,0.000000
08:27:34.245 AM 04/14/2016,Teleop Enabled,10,FALSE,0,NO ERROR,0.000000,-0.442749,-0.000000,-0.603165,TRUE,FALSE,FALSE,TRUE,TRUE,FALSE,Suspended,-0.012500,-0.849282,2.899282,TRUE,-0.107315,0.294678,0.000000,0.801071,0.154434,0.000000,-0.111000,-0.032000,-0.196000,0.890000,1.410000,-0.050000,1.347235,Hold,55.307129,50.000000,HighGoal,-73825.000000,73728.000000,Shoot,2535.000000,-3272.727273,Speed,2415.000000,-3272.727273,Speed,On,On,0.000000,FALSE,0,,,,,0.000000,0.000000
08:27:34.346 AM 04/14/2016,Teleop Enabled,8,FALSE,0,NO ERROR,0.000000,-0.442749,-0.000000,-0.603165,TRUE,FALSE,FALSE,TRUE,TRUE,FALSE,Suspended,-0.012500,-0.849282,2.899282,TRUE,-0.067413,0.301086,0.000000,0.810013,0.148590,0.000000,-0.035000,0.023000,0.078000,0.900000,1.410000,0.000000,1.347235,Hold,55.307129,50.000000,Hold,-73825.000000,73728.000000,Shoot,2827.500000,-3272.727273,Speed,2767.500000,-3272.727273,Speed,On,On,0.000000,FALSE,0,,,,,0.000000,0.000000
08:27:34.446 AM 04/14/2016,Teleop Enabled,10,FALSE,0,NO ERROR,0.000000,-0.442749,-0.000000,-0.603165,TRUE,FALSE,FALSE,TRUE,TRUE,FALSE,Disabled,0.000000,-0.849282,2.899282,TRUE,-0.026947,0.309647,0.000000,0.794617,0.196426,0.000000,-0.038000,0.093000,-0.068000,0.940000,1.420000,-0.060000,1.353955,Hold,55.307129,50.000000,HighGoal,-73825.000000,73728.000000,Shoot,3142.500000,-3272.727273,Speed,3075.000000,-3272.727273,Speed,On,On,0.000000,FALSE,0,,,,,0.000000,0.000000
08:27:34.546 AM 04/14/2016,Teleop Enabled,10,FALSE,0,NO ERROR,0.000000,-0.442749,-0.000000,-0.603165,TRUE,FALSE,FALSE,TRUE,TRUE,FALSE,Disabled,0.000000,-0.849282,2.899282,TRUE,0.012772,0.319733,0.000000,0.804230,0.201950,0.000000,0.014000,-0.163000,-0.073000,0.940000,1.420000,-0.060000,1.353903,Hold,55.307129,50.000000,Hold,-73825.000000,73728.000000,Shoot,3330.000000,-3272.727273,Speed,3285.000000,-3272.727273,Speed,On,On,0.000000,FALSE,0,,,,,0.000000,0.000000
08:27:34.646 AM 04/14/2016,Teleop Enabled,10,FALSE,0,NO ERROR,0.000000,-0.442749,-0.000000,-0.603165,TRUE,FALSE,FALSE,TRUE,TRUE,FALSE,Disabled,0.000000,-0.849282,2.899282,TRUE,0.051056,0.329208,0.000000,0.723770,0.186920,0.000000,0.002000,-0.026000,-0.090000,0.950000,1.420000,-0.080000,1.347627,Hold,55.306885,50.000000,HighGoal,-73825.000000,73728.000000,Shoot,3337.500000,-3272.727273,Speed,3322.500000,-3272.727273,Speed,On,On,0.000000,FALSE,0,,,,,0.000000,0.000000
08:27:34.746 AM 04/14/2016,Teleop Enabled,10,FALSE,0,NO ERROR,0.000000,-0.442749,-0.000000,-0.603165,TRUE,FALSE,FALSE,TRUE,TRUE,FALSE,Disabled,0.000000,-0.849282,2.899282,TRUE,0.094940,0.338150,0.000000,0.755142,0.119064,0.000000,0.115000,-0.146000,-0.086000,1.010000,1.410000,-0.130000,1.342615,Hold,55.306641,50.000000,Hold,-73825.000000,73728.000000,Shoot,3292.500000,-3272.727273,Speed,3277.500000,-3272.727273,Speed,On,On,0.000000,FALSE,0,,,,,0.000000,0.000000
08:27:34.846 AM 04/14/2016,Teleop Enabled,9,FALSE,0,NO ERROR,0.000000,-0.442749,-0.000000,-0.603165,TRUE,FALSE,FALSE,TRUE,TRUE,FALSE,Disabled,0.000000,-0.849282,2.899282,TRUE,0.135788,0.342834,0.000000,0.867172,0.081100,0.000000,0.078000,0.052000,0.075000,0.940000,1.410000,-0.080000,1.344797,Hold,55.306641,50.000000,HighGoal,-73825.000000,73728.000000,Shoot,3277.500000,-3272.727273,Speed,3262.500000,-3272.727273,Speed,On,On,0.000000,FALSE,0,,,,,0.000000,0.000000
08:27:34.946 AM 04/14/2016,Teleop Enabled,9,FALSE,0,NO ERROR,0.000000,-0.442749,-0.000000,-0.603165,TRUE,FALSE,FALSE,TRUE,TRUE,FALSE,Disabled,0.000000,-0.849282,2.899282,TRUE,0.182648,0.346146,0.000000,0.982330,0.060852,0.000000,0.114000,-0.198000,-0.098000,1.000000,1.410000,-0.080000,1.348278,Hold,55.306641,50.000000,Hold,-73825.000000,73728.000000,Shoot,3277.500000,-3272.727273,Speed,3270.000000,-3272.727273,Speed,On,On,0.000000,FALSE,0,,,,,0.000000,0.000000
08:27:35.046 AM 04/14/2016,Teleop Enabled,10,FALSE,0,NO ERROR,0.000000,-0.442749,-0.000000,-0.603165,TRUE,FALSE,FALSE,TRUE,TRUE,FALSE,Disabled,0.000000,-0.849282,2.899282,TRUE,0.235443,0.347198,0.000000,1.110550,0.005692,0.000000,0.145000,-0.106000,-0.087000,0.980000,1.420000,-0.160000,1.346646,Hold,55.306641,50.000000,HighGoal,-73825.000000,73728.000000,Shoot,3277.500000,-3272.727273,Speed,3277.500000,-3272.727273,Speed,On,On,0.000000,FALSE,0,,,,,0.000000,0.000000
08:27:35.146 AM 04/14/2016,Teleop Enabled,10,FALSE,0,NO ERROR,0.000000,-0.442749,-0.000000,-0.603165,TRUE,FALSE,FALSE,TRUE,TRUE,FALSE,Disabled,0.000000,-0.849282,2.899282,TRUE,0.295792,0.347504,0.000000,1.277725,0.002060,0.000000,0.187000,-0.205000,-0.062000,1.080000,1.410000,-0.130000,1.342708,Hold,55.306396,50.000000,Hold,-73825.000000,73728.000000,Shoot,3277.500000,-3272.727273,Speed,3277.500000,-3272.727273,Speed,On,On,0.000000,FALSE,0,,,,,0.000000,0.000000
08:27:35.246 AM 04/14/2016,Teleop Enabled,10,FALSE,0,NO ERROR,0.000000,-0.442749,-0.000000,-0.603165,TRUE,FALSE,FALSE,TRUE,TRUE,FALSE,Disabled,0.000000,-0.849282,2.899282,TRUE,0.364319,0.347336,0.000000,1.429077,-0.005798,0.000000,0.124000,0.263000,0.196000,1.000000,1.420000,-0.140000,1.335726,Hold,55.306396,50.000000,HighGoal,-73825.000000,73728.000000,Dwell,3285.000000,-3272.727273,Speed,3270.000000,-3272.727273,Speed,Off,On,0.000000,FALSE,0,,,,,0.000000,0.000000
08:27:35.346 AM 04/14/2016,Teleop Enabled,12,FALSE,0,NO ERROR,0.000000,-0.442749,-0.000000,-0.603165,TRUE,FALSE,FALSE,TRUE,TRUE,FALSE,Disabled,0.000000,-0.849282,2.899282,TRUE,0.440933,0.347656,0.000000,1.594406,0.014053,0.000000,0.213000,-0.225000,0.006000,1.050000,1.420000,-0.080000,1.313821,Hold,55.305908,50.000000,Hold,-73825.000000,73728.000000,Dwell,3285.000000,-3272.727273,Speed,3270.000000,-3272.727273,Speed,Off,On,0.000000,FALSE,0,,,,,0.000000,0.000000
08:27:35.447 AM 04/14/2016,Teleop Enabled,10,FALSE,0,NO ERROR,-0.194802,-0.442749,-0.194802,-0.603165,TRUE,FALSE,FALSE,TRUE,TRUE,FALSE,PID,0.046875,-3.309093,4.729093,TRUE,0.541901,0.349213,0.000000,1.746552,0.044830,0.000000,0.002000,0.350000,0.075000,0.990000,1.420000,-0.060000,1.313684,Hold,55.305176,50.000000,HighGoal,-73825.000000,73728.000000,Dwell,3277.500000,-3272.727273,Speed,3277.500000,-3272.727273,Speed,Off,On,0.000000,FALSE,0,,,,,0.000000,0.000000
08:27:35.547 AM 04/14/2016,Teleop Enabled,10,FALSE,0,NO ERROR,-0.192821,-0.442749,-0.192821,-0.628832,TRUE,FALSE,FALSE,TRUE,TRUE,FALSE,PID,0.046875,-3.309093,4.729093,TRUE,0.632095,0.353561,0.000000,1.835098,0.115219,0.000000,0.153000,-0.178000,0.068000,1.040000,1.420000,-0.130000,1.316562,Hold,55.304688,50.000000,Hold,-73825.000000,73728.000000,Dwell,3277.500000,-3272.727273,Speed,3270.000000,-3272.727273,Speed,Off,On,0.000000,FALSE,0,,,,,0.000000,0.000000
08:27:35.647 AM 04/14/2016,Teleop Enabled,10,FALSE,0,NO ERROR,-0.183603,-0.615999,-0.183603,-0.904748,TRUE,FALSE,FALSE,TRUE,TRUE,FALSE,PID,0.046875,-3.309093,4.729093,TRUE,0.726257,0.361984,0.000000,1.903763,0.179398,0.000000,0.134000,-0.185000,0.077000,1.140000,2.380000,-0.270000,2.220632,Hold,55.304688,50.000000,HighGoal,-73825.000000,73728.000000,Dwell,3270.000000,-3272.727273,Speed,3262.500000,-3272.727273,Speed,Off,On,0.000000,FALSE,0,,,,,0.000000,0.000000
08:27:35.748 AM 04/14/2016,Teleop Enabled,10,FALSE,0,NO ERROR,-0.183281,-0.628832,-0.183281,-0.962498,TRUE,FALSE,FALSE,TRUE,TRUE,FALSE,PID,0.046875,-3.309093,4.729093,TRUE,0.823090,0.372330,0.000000,1.972015,0.219864,0.000000,-0.021000,0.337000,0.074000,1.040000,2.450000,-0.240000,2.397521,Hold,55.304443,50.000000,Hold,-73825.000000,73728.000000,Dwell,3270.000000,-3272.727273,Speed,3262.500000,-3272.727273,Speed,Off,On,0.000000,FALSE,0,,,,,0.000000,0.000000
08:27:35.848 AM 04/14/2016,Teleop Enabled,9,FALSE,0,NO ERROR,-0.182960,-0.628832,-0.182960,-0.968914,TRUE,FALSE,FALSE,TRUE,TRUE,FALSE,PID,0.046875,-3.309093,4.729093,TRUE,0.924393,0.384171,0.000000,2.058273,0.245224,0.000000,0.172000,-0.196000,-0.017000,1.000000,2.500000,-0.230000,2.429551,Hold,55.304443,50.000000,HighGoal,-73825.000000,73728.000000,Dwell,3270.000000,-3272.727273,Speed,3262.500000,-3272.727273,Speed,Off,On,0.000000,FALSE,0,,,,,0.000000,0.000000
08:27:35.948 AM 04/14/2016,Teleop Enabled,11,FALSE,0,NO ERROR,-0.182426,-0.628832,-0.182426,-0.988164,TRUE,FALSE,FALSE,TRUE,TRUE,FALSE,PID,0.046875,-3.309093,4.729093,TRUE,1.030457,0.397781,0.000000,2.157364,0.291260,0.000000,0.167000,-0.220000,0.011000,1.000000,2.530000,-0.180000,2.456637,Hold,55.304443,50.000000,Hold,-73825.000000,73728.000000,Dwell,3277.500000,-3272.727273,Speed,3262.500000,-3272.727273,Speed,Off,On,0.000000,FALSE,0,,,,,0.000000,0.000000
08:27:36.048 AM 04/14/2016,Teleop Enabled,9,FALSE,0,NO ERROR,-0.181679,-0.628832,-0.181679,-1.033081,TRUE,FALSE,FALSE,TRUE,TRUE,FALSE,PID,0.046875,-3.309093,4.729093,TRUE,1.140884,0.414185,0.000000,2.232391,0.348328,0.000000,0.104000,-0.227000,0.016000,1.000000,2.630000,-0.240000,2.556853,Hold,55.304443,50.000000,HighGoal,-73825.000000,73728.000000,Dwell,3277.500000,-3272.727273,Speed,3262.500000,-3272.727273,Speed,Off,On,0.000000,FALSE,0,,,,,0.000000,0.000000
08:27:36.149 AM 04/14/2016,Teleop Enabled,10,FALSE,0,NO ERROR,-0.181573,-0.628832,-0.181573,-1.033081,TRUE,FALSE,FALSE,TRUE,TRUE,FALSE,PID,0.046875,-3.309093,4.729093,TRUE,1.253845,0.432785,0.000000,2.282730,0.386368,0.000000,0.223000,-0.257000,0.096000,1.100000,2.640000,-0.140000,2.581461,Hold,55.304199,50.000000,Hold,-73825.000000,73728.000000,Dwell,3277.500000,-3272.727273,Speed,3262.500000,-3272.727273,Speed,Off,On,0.000000,FALSE,0,,,,,0.000000,0.000000
08:27:36.251 AM 04/14/2016,Teleop Enabled,7,FALSE,0,NO ERROR,-0.181573,-0.628832,-0.181573,-1.039498,TRUE,FALSE,FALSE,TRUE,TRUE,FALSE,PID,0.046875,-3.309093,4.729093,TRUE,1.370056,0.452850,0.000000,2.337875,0.406693,0.000000,0.104000,-0.302000,0.085000,1.090000,2.640000,-0.150000,2.585148,Hold,55.304199,50.000000,HighGoal,-73825.000000,73728.000000,Dwell,3270.000000,-3272.727273,Speed,3262.500000,-3272.727273,Speed,Off,On,0.000000,FALSE,0,,,,,0.000000,0.000000
08:27:36.350 AM 04/14/2016,Teleop Enabled,10,FALSE,0,NO ERROR,-0.181573,-0.628832,-0.181573,-1.039498,TRUE,FALSE,FALSE,TRUE,TRUE,FALSE,PID,0.046875,-3.309093,4.729093,TRUE,1.509781,0.477737,0.000000,2.319717,0.422943,0.000000,0.110000,-0.288000,0.123000,1.030000,2.650000,-0.170000,2.611700,Hold,55.304199,50.000000,Hold,-73825.000000,73728.000000,Dwell,3270.000000,-3272.727273,Speed,3262.500000,-3272.727273,Speed,Off,On,0.000000,FALSE,0,,,,,0.000000,0.000000
08:27:36.452 AM 04/14/2016,Teleop Enabled,11,FALSE,0,NO ERROR,0.000000,-0.628832,-0.000000,-1.039498,TRUE,FALSE,FALSE,TRUE,TRUE,FALSE,Suspended,-0.021875,-0.460891,3.120891,TRUE,1.626282,0.498474,0.000000,2.328979,0.421219,0.000000,-0.147000,0.238000,-0.063000,1.110000,2.650000,-0.100000,2.623470,Hold,55.304199,50.000000,HighGoal,-73825.000000,73728.000000,Empty,3262.500000,0.000000,Speed,3262.500000,0.000000,Speed,Off,On,0.000000,FALSE,0,,,,,0.000000,0.000000
08:27:36.554 AM 04/14/2016,Teleop Enabled,9,FALSE,0,NO ERROR,0.000000,-0.615999,-0.000000,-0.968914,TRUE,FALSE,FALSE,TRUE,TRUE,FALSE,Suspended,-0.021875,-0.460891,3.120891,TRUE,1.741150,0.519958,0.000000,2.272141,0.434937,0.000000,0.014000,-0.208000,0.045000,0.950000,2.440000,-0.230000,2.512393,Hold,55.304199,50.000000,Hold,-73825.000000,73728.000000,Empty,3247.500000,0.000000,Speed,3247.500000,0.000000,Speed,Off,On,0.000000,FALSE,0,,,,,0.000000,0.000000
08:27:36.654 AM 04/14/2016,Teleop Enabled,11,FALSE,0,NO ERROR,0.000000,-0.506915,-0.000000,-0.821331,TRUE,FALSE,FALSE,TRUE,TRUE,FALSE,Suspended,-0.021875,-0.460891,3.120891,TRUE,1.854660,0.541672,0.000000,2.286850,0.436356,0.000000,0.065000,-0.049000,-0.139000,1.010000,1.930000,-0.060000,1.895411,Hold,55.304199,50.000000,HighGoal,-73825.000000,73728.000000,Empty,3142.500000,0.000000,Speed,3135.000000,0.000000,Speed,Off,On,0.000000,FALSE,0,,,,,0.000000,0.000000
08:27:36.757 AM 04/14/2016,Teleop Enabled,10,FALSE,0,NO ERROR,0.000000,-0.513332,-0.000000,-0.814915,TRUE,FALSE,FALSE,TRUE,TRUE,FALSE,Suspended,-0.021875,-0.460891,3.120891,TRUE,1.969452,0.564011,0.000000,2.284241,0.458908,0.000000,0.107000,-0.132000,0.192000,1.050000,2.020000,-0.170000,1.977089,Hold,55.304199,50.000000,Hold,-73825.000000,73728.000000,Empty,3037.500000,0.000000,Speed,3000.000000,0.000000,Speed,Off,On,0.000000,FALSE,0,,,,,0.000000,0.000000
08:27:36.857 AM 04/14/2016,Teleop Enabled,10,FALSE,0,NO ERROR,0.000000,-0.513332,-0.000000,-0.814915,TRUE,FALSE,FALSE,TRUE,TRUE,FALSE,Suspended,-0.021875,-0.460891,3.120891,TRUE,2.084961,0.585831,0.000000,2.348846,0.429657,0.000000,-0.013000,-0.122000,0.031000,0.970000,1.990000,0.070000,1.951397,Hold,55.304199,50.000000,HighGoal,-73825.000000,73728.000000,Empty,2910.000000,0.000000,Speed,2842.500000,0.000000,Speed,Off,On,0.000000,FALSE,0,,,,,0.000000,0.000000
08:27:36.957 AM 04/14/2016,Teleop Enabled,10,FALSE,0,NO ERROR,0.000000,-0.513332,-0.000000,-0.814915,TRUE,FALSE,FALSE,TRUE,TRUE,FALSE,Suspended,-0.021875,-0.460891,3.120891,TRUE,2.201752,0.607666,0.000000,2.328201,0.456421,0.000000,-0.040000,0.082000,-0.042000,1.030000,1.980000,0.040000,1.946646,Hold,55.304199,50.000000,Hold,-73825.000000,73728.000000,Empty,2790.000000,0.000000,Speed,2685.000000,0.000000,Speed,Off,On,0.000000,FALSE,0,,,,,0.000000,0.000000
08:27:37.057 AM 04/14/2016,Teleop Enabled,9,FALSE,0,NO ERROR,-0.000000,-0.513332,-0.000000,-0.814915,TRUE,FALSE,FALSE,FALSE,FALSE,FALSE,Disabled,-0.021875,-0.460891,3.120891,TRUE,2.318512,0.630005,0.000000,2.337112,0.459885,0.000000,0.013000,0.199000,-0.199000,1.050000,1.970000,0.070000,1.931829,Hold,55.304199,50.000000,HighGoal,-73825.000000,73728.000000,Empty,2662.500000,0.000000,Speed,2535.000000,0.000000,Speed,Off,On,0.000000,FALSE,0,,,,,0.000000,0.000000
08:27:37.157 AM 04/14/2016,Teleop Enabled,11,FALSE,0,NO ERROR,-0.000000,-0.417082,-0.000000,-0.737915,TRUE,FALSE,FALSE,FALSE,FALSE,FALSE,Disabled,-0.021875,-0.460891,3.120891,TRUE,2.435776,0.651459,0.000000,2.355499,0.419312,0.000000,-0.069000,0.215000,-0.022000,0.970000,1.970000,0.020000,1.843786,Hold,55.304199,50.000000,Hold,-73825.000000,73728.000000,Empty,2527.500000,0.000000,Speed,2385.000000,0.000000,Speed,Off,On,0.000000,FALSE,0,,,,,0.000000,0.000000
08:27:37.257 AM 04/14/2016,Teleop Enabled,10,FALSE,0,NO ERROR,-0.000000,-0.417082,-0.000000,-0.712248,TRUE,FALSE,FALSE,FALSE,FALSE,FALSE,Disabled,-0.021875,-0.460891,3.120891,TRUE,2.577209,0.679169,0.000000,2.344772,0.428879,0.000000,-0.082000,-0.059000,0.140000,1.020000,1.880000,0.020000,1.752076,Hold,55.304199,50.000000,Hold,-73825.000000,73728.000000,Empty,2415.000000,0.000000,Speed,2242.500000,0.000000,Speed,Off,On,0.000000,FALSE,0,,,,,0.000000,0.000000
08:27:37.360 AM 04/14/2016,Teleop Enabled,11,FALSE,0,NO ERROR,-0.000000,-0.417082,-0.000000,-0.712248,TRUE,FALSE,FALSE,FALSE,FALSE,FALSE,Disabled,-0.021875,-0.460891,3.120891,TRUE,2.668884,0.697403,0.000000,2.267014,0.489777,0.000000,-0.095000,0.184000,0.018000,1.000000,1.880000,-0.160000,1.767791,Hold,55.304199,50.000000,Hold,-73825.000000,73728.000000,Empty,2287.500000,0.000000,Speed,2130.000000,0.000000,Speed,Off,On,0.000000,FALSE,0,,,,,0.000000,0.000000
08:27:37.459 AM 04/14/2016,Teleop Enabled,10,FALSE,0,NO ERROR,-0.000000,-0.417082,-0.000000,-0.712248,TRUE,FALSE,FALSE,FALSE,FALSE,FALSE,Disabled,0.000000,-0.460891,3.120891,TRUE,2.803070,0.732178,0.000000,2.230453,0.608658,0.000000,-0.096000,0.055000,-0.230000,0.960000,1.870000,-0.180000,1.752686,Hold,55.303955,50.000000,Hold,-73825.000000,73728.000000,Empty,2287.500000,0.000000,Speed,1995.000000,0.000000,Speed,Off,On,0.000000,FALSE,0,,,,,0.000000,0.000000
08:27:37.559 AM 04/14/2016,Teleop Enabled,10,FALSE,0,NO ERROR,-0.000000,-0.417082,-0.000000,-0.705832,TRUE,FALSE,FALSE,FALSE,FALSE,FALSE,Disabled,0.000000,-0.460891,3.120891,TRUE,2.913605,0.763901,0.000000,2.189240,0.669708,0.000000,0.013000,0.024000,-0.331000,0.920000,1.870000,-0.220000,1.744482,Hold,55.299561,50.000000,Hold,-73825.000000,73728.000000,Empty,2062.500000,0.000000,Speed,1995.000000,0.000000,Speed,Off,On,0.000000,FALSE,0,,,,,0.000000,0.000000
08:27:37.659 AM 04/14/2016,Teleop Enabled,11,FALSE,0,NO ERROR,-0.000000,-0.417082,-0.000000,-0.705832,TRUE,FALSE,FALSE,FALSE,FALSE,FALSE,Disabled,0.000000,-0.460891,3.120891,TRUE,3.023758,0.798203,0.000000,2.226883,0.701279,0.000000,-0.046000,-0.010000,0.009000,0.910000,1.860000,-0.040000,1.741714,Hold,55.294434,50.000000,Hold,-73825.000000,73728.000000,Suck,2062.500000,0.000000,Speed,1852.500000,0.000000,Speed,Off,On,0.000000,FALSE,0,,,,,0.000000,0.000000
08:27:37.760 AM 04/14/2016,Teleop Enabled,10,FALSE,0,NO ERROR,-0.000000,-0.417082,-0.000000,-0.705832,TRUE,FALSE,FALSE,FALSE,FALSE,FALSE,Disabled,0.000000,-0.460891,3.120891,TRUE,3.134232,0.834305,0.000000,2.203888,0.737579,0.000000,0.000000,-0.027000,-0.136000,0.910000,1.860000,-0.080000,1.742754,Hold,55.294434,50.000000,Hold,-73825.000000,73728.000000,Suck,1950.000000,1818.181818,Speed,1725.000000,1818.181818,Speed,Off,On,0.000000,FALSE,0,,,,,0.000000,0.000000
08:27:37.860 AM 04/14/2016,Teleop Enabled,11,FALSE,0,NO ERROR,-0.000000,-0.417082,-0.000000,-0.705832,TRUE,FALSE,FALSE,FALSE,FALSE,FALSE,Disabled,0.000000,-0.460891,3.120891,TRUE,3.245850,0.871918,0.000000,2.254456,0.763992,0.000000,-0.014000,-0.006000,0.026000,0.980000,1.860000,-0.040000,1.731968,Hold,55.294189,50.000000,Hold,-73825.000000,73728.000000,Suck,1732.500000,1818.181818,Speed,1530.000000,1818.181818,Speed,Off,On,0.000000,FALSE,0,,,,,0.000000,0.000000
