Time,Robot Mode,Loop Time,Error Status,Error Code,Error Source,Left Motor Output,Left Motor Encoder,Right Motor Output,Right Motor Encoder,Is Level,Is Stalled,Ball Detector Photoeye,Vision Enabled,Vision Teleop Control,Vision Auto Control,Vision Current State,Vision X Output,Vision NavX Error,Vision NavX Target,NavX Connection Status,NavX Displacement X,NavX Displacement Y,NavX Displacement Z,NavX Velocity X,NavX Velocity Y,NavX Velocity Z,NavX Acceleration X,NavX Acceleration Y,NavX Acceleration Z,NavX Pitch,NavX Yaw,NavX Roll,Gyro Angle,Roller Arm State,Roller Arm Actual,Roller Arm Desired,Shooter Arm State,Shooter Arm Actual,Shooter Arm Desired,Shooter State,Actual RPM Left,Desired RPM Left,Control Mode Left,Actual RPM Right,Desired RPM Right,Control Mode Right,Ball Shooter Cylinder,Ball Halo Cylinder,Scaler Motor Output,Scaler Solenoid Fire,Auto To Run,Auto Current File,Auto File Status,Auto Current Command,Auto Trimmed Command,Shooter Amps Left,Shooter Amps Right
09:13:32.451 AM 04/14/2016,Teleop Enabled,10,FALSE,0,NO ERROR,0.000000,0.000000,0.000000,0.000000,TRUE,FALSE,TRUE,FALSE,FALSE,FALSE,Disabled,0.000000,0.000000,0.000000,TRUE,0.066284,-0.078949,0.000000,0.000000,0.000000,0.000000,0.000000,0.000000,0.003000,2.330000,-0.080000,-0.920000,-0.103225,ResetBack,0.656494,-0.000049,ResetBack,-12.000000,-0.250000,LowGoal,0.000000,-2181.818182,Speed,0.000000,-2181.818182,Speed,Off,Off,0.000000,FALSE,0,,,,,0.000000,0.000000
09:13:32.551 AM 04/14/2016,Teleop Enabled,11,FALSE,0,NO ERROR,-0.000000,0.000000,-0.000000,0.012833,TRUE,FALSE,TRUE,FALSE,FALSE,FALSE,Disabled,0.000000,0.000000,0.000000,TRUE,0.066284,-0.078949,0.000000,0.000000,0.000000,0.000000,-0.014000,0.040000,0.068000,2.330000,-0.080000,-0.920000,-0.103597,ResetBack,0.590820,-0.000049,ResetBack,-12.000000,-0.250000,LowGoal,0.000000,-2181.818182,Speed,0.000000,-2181.818182,Speed,Off,Off,0.000000,FALSE,0,,,,,0.000000,0.000000
09:13:32.651 AM 04/14/2016,Teleop Enabled,11,FALSE,0,NO ERROR,-0.000000,0.000000,-0.000000,0.019250,TRUE,FALSE,TRUE,FALSE,FALSE,FALSE,Disabled,0.000000,0.000000,0.000000,TRUE,0.067780,-0.080658,0.000000,0.029266,-0.012924,0.000000,0.021000,-0.026000,-0.042000,2.350000,-0.100000,-0.890000,-0.137368,ResetBack,-0.850586,-0.000049,ResetBack,278.000000,-0.250000,LowGoal,45.000000,-2181.818182,Speed,255.000000,-2181.818182,Speed,Off,Off,0.000000,FALSE,0,,,,,0.000000,0.000000
09:13:32.751 AM 04/14/2016,Teleop Enabled,11,FALSE,0,NO ERROR,-0.000000,0.000000,-0.000000,0.019250,TRUE,FALSE,TRUE,FALSE,FALSE,FALSE,Disabled,0.000000,0.000000,0.000000,TRUE,0.067337,-0.080673,0.000000,-0.010391,-0.010132,0.000000,-0.006000,0.033000,0.009000,2.390000,-0.120000,-0.920000,-0.119725,ResetBack,-1.898926,-0.000049,ResetBack,3695.000000,-0.250000,LowGoal,555.000000,-2181.818182,Speed,900.000000,-2181.818182,Speed,Off,Off,0.000000,FALSE,0,,,,,0.000000,0.000000
09:13:32.851 AM 04/14/2016,Teleop Enabled,11,FALSE,0,NO ERROR,-0.000000,0.000000,-0.000000,0.019250,TRUE,FALSE,TRUE,FALSE,FALSE,FALSE,Disabled,0.000000,0.000000,0.000000,TRUE,0.067337,-0.080673,0.000000,-0.010391,-0.010132,0.000000,-0.023000,0.039000,0.084000,2.400000,-0.130000,-0.820000,-0.112248,Reset,-1.989990,0.000000,ResetBack,8341.000000,-0.250000,LowGoal,1155.000000,-2181.818182,Speed,1432.500000,-2181.818182,Speed,Off,Off,0.000000,FALSE,0,,,,,0.000000,0.000000
09:13:32.951 AM 04/14/2016,Teleop Enabled,10,FALSE,0,NO ERROR,-0.000000,0.000000,-0.000000,0.019250,TRUE,FALSE,TRUE,FALSE,FALSE,FALSE,Disabled,0.000000,0.000000,0.000000,TRUE,0.066528,-0.080963,0.000000,0.020248,-0.041595,0.000000,0.018000,-0.019000,0.020000,2.410000,-0.120000,-0.980000,-0.124249,Hold,0.001709,0.000000,ResetBack,13357.000000,-0.250000,LowGoal,1672.500000,-2181.818182,Speed,1875.000000,-2181.818182,Speed,Off,Off,0.000000,FALSE,0,,,,,0.000000,0.000000
09:13:33.051 AM 04/14/2016,Teleop Enabled,11,FALSE,0,NO ERROR,-0.000000,0.000000,-0.000000,0.025667,TRUE,FALSE,TRUE,FALSE,FALSE,FALSE,Disabled,0.000000,0.000000,0.000000,TRUE,0.066528,-0.080963,0.000000,0.020248,-0.041595,0.000000,0.163000,-0.141000,-0.002000,2.450000,-0.130000,-1.030000,-0.124249,Hold,0.001709,0.000000,ResetBack,19048.000000,-0.250000,LowGoal,2032.500000,-2181.818182,Speed,2160.000000,-2181.818182,Speed,Off,Off,0.000000,FALSE,0,,,,,0.000000,0.000000
09:13:33.151 AM 04/14/2016,Teleop Enabled,9,FALSE,0,NO ERROR,-0.000000,0.000000,-0.000000,0.025667,TRUE,FALSE,TRUE,FALSE,FALSE,FALSE,Disabled,0.000000,0.000000,0.000000,TRUE,0.070633,-0.087143,0.000000,0.100174,-0.162628,0.000000,0.045000,-0.136000,-0.134000,2.430000,-0.130000,-0.930000,-0.116107,Hold,0.001709,0.000000,ResetBack,25297.000000,-0.250000,LowGoal,2272.500000,-2181.818182,Speed,2197.500000,-2181.818182,Speed,Off,Off,0.000000,FALSE,0,,,,,0.000000,0.000000
09:13:33.254 AM 04/14/2016,Teleop Enabled,11,FALSE,0,NO ERROR,-0.000000,0.000000,-0.000000,0.025667,TRUE,FALSE,TRUE,FALSE,FALSE,FALSE,Disabled,0.000000,0.000000,0.000000,TRUE,0.077423,-0.100204,0.000000,0.106400,-0.202042,0.000000,-0.033000,0.042000,0.016000,2.480000,-0.130000,-1.090000,-0.133998,Hold,0.001709,0.000000,ResetBack,25297.000000,-0.250000,LowGoal,2227.500000,-2181.818182,Speed,2160.000000,-2181.818182,Speed,Off,Off,0.000000,FALSE,0,,,,,0.000000,0.000000
09:13:33.355 AM 04/14/2016,Teleop Enabled,11,FALSE,0,NO ERROR,-0.000000,0.000000,-0.000000,0.025667,TRUE,FALSE,TRUE,FALSE,FALSE,FALSE,Disabled,0.000000,0.000000,0.000000,TRUE,0.082092,-0.108536,0.000000,0.080353,-0.139496,0.000000,-0.142000,0.056000,0.002000,2.470000,-0.140000,-1.000000,-0.134749,Hold,0.001709,0.000000,ResetBack,30065.000000,-0.250000,LowGoal,2152.500000,-2181.818182,Speed,2137.500000,-2181.818182,Speed,Off,Off,0.000000,FALSE,0,,,,,0.000000,0.000000
09:13:33.455 AM 04/14/2016,Teleop Enabled,11,FALSE,0,NO ERROR,-0.000000,0.000000,-0.000000,0.032083,TRUE,FALSE,TRUE,FALSE,FALSE,FALSE,Disabled,0.000000,0.000000,0.000000,TRUE,0.082642,-0.115540,0.000000,-0.032059,-0.152267,0.000000,-0.075000,0.069000,0.118000,2.420000,-0.130000,-1.040000,-0.144822,Hold,0.001709,0.000000,ResetBack,32554.000000,-0.250000,LowGoal,2145.000000,-2181.818182,Speed,2137.500000,-2181.818182,Speed,Off,Off,0.000000,FALSE,0,,,,,0.000000,0.000000
09:13:33.555 AM 04/14/2016,Teleop Enabled,12,FALSE,0,NO ERROR,-0.000000,0.000000,-0.000000,0.032083,TRUE,FALSE,TRUE,FALSE,FALSE,FALSE,Disabled,0.000000,0.000000,0.000000,TRUE,0.079010,-0.121475,0.000000,-0.095886,-0.112991,0.000000,-0.037000,0.049000,0.045000,2.480000,-0.140000,-0.960000,-0.133354,Hold,0.001709,0.000000,ResetBack,34091.000000,-0.250000,LowGoal,2160.000000,-2181.818182,Speed,2145.000000,-2181.818182,Speed,Off,Off,0.000000,FALSE,0,,,,,0.000000,0.000000
09:13:33.655 AM 04/14/2016,Teleop Enabled,9,FALSE,0,NO ERROR,-0.000000,0.000000,-0.000000,0.032083,TRUE,FALSE,TRUE,FALSE,FALSE,FALSE,Disabled,0.000000,0.000000,0.000000,TRUE,0.075974,-0.125641,0.000000,0.006638,-0.050232,0.000000,0.061000,-0.062000,-0.072000,2.550000,-0.140000,-0.810000,-0.128383,Hold,0.001709,0.000000,ResetBack,34833.000000,-0.250000,LowGoal,2160.000000,-2181.818182,Speed,2145.000000,-2181.818182,Speed,Off,Off,0.000000,FALSE,0,,,,,0.000000,0.000000
09:13:33.755 AM 04/14/2016,Teleop Enabled,11,FALSE,0,NO ERROR,-0.000000,0.000000,-0.000000,0.032083,TRUE,FALSE,TRUE,FALSE,FALSE,FALSE,Disabled,0.000000,0.000000,0.000000,TRUE,0.077179,-0.127945,0.000000,0.000000,-0.032379,0.000000,-0.060000,0.013000,0.139000,2.530000,-0.150000,-0.710000,-0.133086,Hold,0.001709,0.000000,Reset,35058.000000,2.000000,LowGoal,2160.000000,-2181.818182,Speed,2145.000000,-2181.818182,Speed,Off,Off,0.000000,FALSE,0,,,,,0.000000,0.000000
09:13:33.856 AM 04/14/2016,Teleop Enabled,12,FALSE,0,NO ERROR,-0.000000,0.000000,-0.000000,0.032083,TRUE,FALSE,TRUE,FALSE,FALSE,FALSE,Disabled,0.000000,0.000000,0.000000,TRUE,0.075912,-0.128571,0.000000,-0.044159,-0.012848,0.000000,-0.051000,0.077000,0.124000,2.450000,-0.150000,-0.830000,-0.134542,Hold,0.001709,0.000000,Hold,-181.000000,2.000000,LowGoal,2160.000000,-2181.818182,Speed,2145.000000,-2181.818182,Speed,Off,Off,0.000000,FALSE,0,,,,,0.000000,0.000000
09:13:33.956 AM 04/14/2016,Teleop Enabled,11,FALSE,0,NO ERROR,-0.000000,0.000000,-0.000000,0.032083,TRUE,FALSE,TRUE,FALSE,FALSE,FALSE,Disabled,0.000000,0.000000,0.000000,TRUE,0.072205,-0.127869,0.000000,0.000000,0.015701,0.000000,-0.007000,0.092000,0.032000,2.360000,-0.150000,-1.080000,-0.149121,Hold,0.001709,0.000000,Hold,-181.000000,2.000000,LowGoal,2160.000000,-2181.818182,Speed,2145.000000,-2181.818182,Speed,Off,Off,0.000000,FALSE,0,,,,,0.000000,0.000000
09:13:34.057 AM 04/14/2016,Teleop Enabled,9,FALSE,0,NO ERROR,-0.000000,0.000000,-0.000000,0.032083,TRUE,FALSE,TRUE,FALSE,FALSE,FALSE,Disabled,0.000000,0.000000,0.000000,TRUE,0.071899,-0.125549,0.000000,0.000610,0.079498,0.000000,0.076000,-0.035000,-0.086000,2.350000,-0.150000,-1.140000,-0.158237,Hold,0.001709,0.000000,Hold,-181.000000,2.000000,LowGoal,2167.500000,-2181.818182,Speed,2152.500000,-2181.818182,Speed,Off,Off,0.000000,FALSE,0,,,,,0.000000,0.000000
09:13:34.158 AM 04/14/2016,Teleop Enabled,11,FALSE,0,NO ERROR,-0.000000,0.000000,-0.000000,0.038500,TRUE,FALSE,TRUE,FALSE,FALSE,FALSE,Disabled,0.000000,0.000000,0.000000,TRUE,0.074203,-0.119400,0.000000,0.068222,0.136734,0.000000,0.052000,-0.054000,-0.186000,2.390000,-0.150000,-1.140000,-0.143506,Hold,0.001709,0.000000,Hold,-178.000000,2.000000,LowGoal,2167.500000,-2181.818182,Speed,2152.500000,-2181.818182,Speed,Off,Off,0.000000,FALSE,0,,,,,0.000000,0.000000
09:13:34.258 AM 04/14/2016,Teleop Enabled,11,FALSE,0,NO ERROR,-0.000000,0.000000,-0.000000,0.038500,TRUE,FALSE,TRUE,FALSE,FALSE,FALSE,Disabled,0.000000,0.000000,0.000000,TRUE,0.079636,-0.112457,0.000000,0.145935,0.146637,0.000000,0.148000,0.008000,-0.063000,2.410000,-0.160000,-1.030000,-0.141104,Hold,0.001709,0.000000,Hold,-176.000000,2.000000,LowGoal,2160.000000,-2181.818182,Speed,2145.000000,-2181.818182,Speed,Off,Off,0.000000,FALSE,0,,,,,0.000000,0.000000
09:13:34.358 AM 04/14/2016,Teleop Enabled,10,FALSE,0,NO ERROR,-0.000000,0.000000,-0.000000,0.038500,TRUE,FALSE,TRUE,FALSE,FALSE,FALSE,Disabled,0.000000,0.000000,0.000000,TRUE,0.091293,-0.113388,0.000000,0.286377,-0.028976,0.000000,0.194000,0.021000,-0.025000,2.460000,-0.160000,-0.810000,-0.142894,Hold,0.001709,0.000000,Hold,-174.000000,2.000000,LowGoal,2160.000000,-2181.818182,Speed,2152.500000,-2181.818182,Speed,Off,Off,0.000000,FALSE,0,,,,,0.000000,0.000000
09:13:34.458 AM 04/14/2016,Teleop Enabled,11,FALSE,0,NO ERROR,-0.000000,0.000000,-0.000000,0.038500,TRUE,FALSE,TRUE,FALSE,FALSE,FALSE,Disabled,0.000000,0.000000,0.000000,TRUE,0.110596,-0.116318,0.000000,0.449387,-0.102356,0.000000,0.110000,-0.049000,0.015000,2.420000,-0.170000,-0.660000,-0.139128,Hold,0.001709,0.000000,Hold,-172.000000,2.000000,LowGoal,2167.500000,-2181.818182,Speed,2145.000000,-2181.818182,Speed,Off,Off,0.000000,FALSE,0,,,,,0.000000,0.000000
09:13:34.558 AM 04/14/2016,Teleop Enabled,11,FALSE,0,NO ERROR,-0.000000,0.000000,-0.000000,0.038500,TRUE,FALSE,TRUE,FALSE,FALSE,FALSE,Disabled,0.000000,0.000000,0.000000,TRUE,0.136414,-0.123611,0.000000,0.569977,-0.195129,0.000000,0.095000,-0.089000,-0.009000,2.400000,-0.160000,-0.710000,-0.149614,Hold,0.001709,0.000000,Hold,-172.000000,2.000000,LowGoal,2167.500000,-2181.818182,Speed,2145.000000,-2181.818182,Speed,Off,Off,0.000000,FALSE,0,,,,,0.000000,0.000000
09:13:34.658 AM 04/14/2016,Teleop Enabled,11,FALSE,0,NO ERROR,-0.000000,0.000000,-0.000000,0.038500,TRUE,FALSE,TRUE,FALSE,FALSE,FALSE,Disabled,0.000000,0.000000,0.000000,TRUE,0.174744,-0.139923,0.000000,0.677734,-0.340881,0.000000,0.016000,-0.118000,0.026000,2.430000,-0.170000,-0.780000,-0.134745,Hold,0.001709,0.000000,Hold,-171.000000,2.000000,LowGoal,2160.000000,-2181.818182,Speed,2152.500000,-2181.818182,Speed,Off,Off,0.000000,FALSE,0,,,,,0.000000,0.000000
09:13:34.758 AM 04/14/2016,Teleop Enabled,11,FALSE,0,NO ERROR,-0.000000,0.000000,-0.000000,0.038500,TRUE,FALSE,TRUE,FALSE,FALSE,FALSE,Disabled,0.000000,0.000000,0.000000,TRUE,0.209396,-0.161728,0.000000,0.697037,-0.507019,0.000000,0.058000,-0.241000,-0.074000,2.330000,-0.160000,-0.900000,-0.130738,Hold,0.001709,0.000000,Hold,-170.000000,2.000000,LowGoal,2167.500000,-2181.818182,Speed,2152.500000,-2181.818182,Speed,Off,Off,0.000000,FALSE,0,,,,,0.000000,0.000000
09:13:34.859 AM 04/14/2016,Teleop Enabled,11,FALSE,0,NO ERROR,-0.000000,0.000000,-0.000000,0.038500,TRUE,FALSE,TRUE,FALSE,FALSE,FALSE,Disabled,0.000000,0.000000,0.000000,TRUE,0.244781,-0.192749,0.000000,0.707153,-0.681702,0.000000,0.022000,-0.199000,-0.074000,2.260000,-0.160000,-0.980000,-0.115143,Hold,0.001709,0.000000,Hold,-169.000000,2.000000,LowGoal,2167.500000,-2181.818182,Speed,2145.000000,-2181.818182,Speed,Off,Off,0.000000,FALSE,0,,,,,0.000000,0.000000
09:13:34.959 AM 04/14/2016,Teleop Enabled,10,FALSE,0,NO ERROR,-0.000000,0.000000,-0.000000,0.038500,TRUE,FALSE,TRUE,FALSE,FALSE,FALSE,Disabled,0.000000,0.000000,0.000000,TRUE,0.280121,-0.231750,0.000000,0.694122,-0.827057,0.000000,-0.046000,-0.072000,0.180000,2.320000,-0.160000,-1.130000,-0.116541,Hold,0.001709,0.000000,Hold,-167.000000,2.000000,LowGoal,2167.500000,-2181.818182,Speed,2152.500000,-2181.818182,Speed,Off,Off,0.000000,FALSE,0,,,,,0.000000,0.000000
09:13:35.059 AM 04/14/2016,Teleop Enabled,11,FALSE,0,NO ERROR,-0.000000,0.000000,-0.000000,0.038500,TRUE,FALSE,TRUE,FALSE,FALSE,FALSE,Disabled,0.000000,0.000000,0.000000,TRUE,0.314468,-0.276367,0.000000,0.687180,-0.934433,0.000000,0.062000,-0.046000,0.169000,2.360000,-0.160000,-1.150000,-0.109766,Hold,0.001709,0.000000,Hold,-167.000000,2.000000,LowGoal,2160.000000,-2181.818182,Speed,2152.500000,-2181.818182,Speed,Off,Off,0.000000,FALSE,0,,,,,0.000000,0.000000
09:13:35.159 AM 04/14/2016,Teleop Enabled,11,FALSE,0,NO ERROR,-0.000000,0.000000,-0.000000,0.038500,TRUE,FALSE,TRUE,FALSE,FALSE,FALSE,Disabled,0.000000,0.000000,0.000000,TRUE,0.350204,-0.325150,0.000000,0.729553,-1.007797,0.000000,-0.016000,0.036000,0.210000,2.370000,-0.170000,-0.890000,-0.113618,Hold,0.001709,0.000000,Hold,-167.000000,2.000000,LowGoal,2167.500000,-2181.818182,Speed,2145.000000,-2181.818182,Speed,Off,Off,0.000000,FALSE,0,,,,,0.000000,0.000000
09:13:35.260 AM 04/14/2016,Teleop Enabled,11,FALSE,0,NO ERROR,-0.000000,0.000000,-0.000000,0.038500,TRUE,FALSE,TRUE,FALSE,FALSE,FALSE,Disabled,0.000000,0.000000,0.000000,TRUE,0.350006,-0.376190,0.000000,-0.017822,-1.044815,0.000000,-0.052000,-0.006000,0.007000,2.400000,-0.170000,-0.710000,-0.097366,Hold,0.001709,0.000000,Hold,-167.000000,2.000000,LowGoal,2167.500000,-2181.818182,Speed,2145.000000,-2181.818182,Speed,Off,Off,0.000000,FALSE,0,,,,,0.000000,0.000000
09:13:35.362 AM 04/14/2016,Teleop Enabled,10,FALSE,0,NO ERROR,-0.000000,0.000000,-0.000000,0.038500,TRUE,FALSE,TRUE,FALSE,FALSE,FALSE,Disabled,0.000000,0.000000,0.000000,TRUE,0.346786,-0.397263,0.000000,-0.093704,-0.006561,0.000000,-0.025000,-0.085000,0.016000,2.380000,-0.180000,-0.740000,-0.099579,Hold,0.001709,0.000000,Hold,-167.000000,2.000000,LowGoal,2167.500000,-2181.818182,Speed,2152.500000,-2181.818182,Speed,Off,Off,0.000000,FALSE,0,,,,,0.000000,0.000000
09:13:35.463 AM 04/14/2016,Teleop Enabled,10,FALSE,0,NO ERROR,-0.000000,0.000000,-0.000000,0.038500,TRUE,FALSE,TRUE,FALSE,FALSE,FALSE,Disabled,0.000000,0.000000,0.000000,TRUE,0.339005,-0.397552,0.000000,-0.154816,0.004440,0.000000,-0.058000,-0.041000,0.005000,2.400000,-0.180000,-0.820000,-0.079041,Hold,0.001709,0.000000,Hold,-167.000000,2.000000,LowGoal,2167.500000,-2181.818182,Speed,2152.500000,-2181.818182,Speed,Off,Off,0.000000,FALSE,0,,,,,0.000000,0.000000
09:13:35.564 AM 04/14/2016,Teleop Enabled,11,FALSE,0,NO ERROR,-0.000000,0.000000,-0.000000,0.038500,TRUE,FALSE,TRUE,FALSE,FALSE,FALSE,Disabled,0.000000,0.000000,0.000000,TRUE,0.329254,-0.396912,0.000000,-0.226181,0.032822,0.000000,-0.054000,-0.023000,0.011000,2.380000,-0.170000,-0.930000,-0.076879,Hold,0.001709,0.000000,Hold,-167.000000,2.000000,LowGoal,2167.500000,-2181.818182,Speed,2152.500000,-2181.818182,Speed,Off,Off,0.000000,FALSE,0,,,,,0.000000,0.000000
09:13:35.664 AM 04/14/2016,Teleop Enabled,10,FALSE,0,NO ERROR,-0.000000,0.000000,-0.000000,0.038500,TRUE,FALSE,TRUE,FALSE,FALSE,FALSE,Disabled,0.000000,0.000000,0.000000,TRUE,0.319031,-0.395569,0.000000,-0.275223,0.039108,0.000000,-0.035000,0.075000,0.136000,2.310000,-0.160000,-1.230000,-0.069099,Hold,0.001709,0.000000,Hold,-167.000000,2.000000,LowGoal,2167.500000,-2181.818182,Speed,2152.500000,-2181.818182,Speed,Off,Off,0.000000,FALSE,0,,,,,0.000000,0.000000
09:13:35.764 AM 04/14/2016,Teleop Enabled,11,FALSE,0,NO ERROR,-0.000000,0.000000,-0.000000,0.038500,TRUE,FALSE,TRUE,FALSE,FALSE,FALSE,Disabled,0.000000,0.000000,0.000000,TRUE,0.300613,-0.391525,0.000000,-0.323425,0.087250,0.000000,-0.048000,0.069000,0.072000,2.340000,-0.160000,-1.300000,-0.077788,Hold,0.001709,0.000000,Hold,-167.000000,2.000000,LowGoal,2167.500000,-2181.818182,Speed,2152.500000,-2181.818182,Speed,Off,Off,0.000000,FALSE,0,,,,,0.000000,0.000000
09:13:35.865 AM 04/14/2016,Teleop Enabled,11,FALSE,0,NO ERROR,-0.000000,0.000000,-0.000000,0.038500,TRUE,FALSE,TRUE,FALSE,FALSE,FALSE,Disabled,0.000000,0.000000,0.000000,TRUE,0.283722,-0.385422,0.000000,-0.334808,0.127045,0.000000,0.014000,0.000000,-0.120000,2.380000,-0.160000,-1.260000,-0.072184,Hold,0.001709,0.000000,Hold,-167.000000,2.000000,LowGoal,2167.500000,-2181.818182,Speed,2145.000000,-2181.818182,Speed,Off,Off,0.000000,FALSE,0,,,,,0.000000,0.000000
09:13:35.966 AM 04/14/2016,Teleop Enabled,11,FALSE,0,NO ERROR,-0.000000,0.000000,-0.000000,0.038500,TRUE,FALSE,TRUE,FALSE,FALSE,FALSE,Disabled,0.000000,0.000000,0.000000,TRUE,0.280960,-0.377792,0.000000,0.030243,0.152695,0.000000,0.004000,0.042000,-0.164000,2.290000,-0.160000,-1.260000,-0.057928,Hold,0.001709,0.000000,Hold,-167.000000,2.000000,LowGoal,2167.500000,-2181.818182,Speed,2152.500000,-2181.818182,Speed,Off,Off,0.000000,FALSE,0,,,,,0.000000,0.000000
09:13:36.066 AM 04/14/2016,Teleop Enabled,11,FALSE,0,NO ERROR,-0.000000,0.000000,-0.000000,0.038500,TRUE,FALSE,TRUE,FALSE,FALSE,FALSE,Disabled,0.000000,0.000000,0.000000,TRUE,0.283203,-0.369080,0.000000,0.054245,0.195724,0.000000,0.080000,-0.030000,-0.302000,2.290000,-0.160000,-1.350000,-0.055738,Hold,0.001709,0.000000,Hold,-167.000000,2.000000,LowGoal,2167.500000,-2181.818182,Speed,2152.500000,-2181.818182,Speed,Off,Off,0.000000,FALSE,0,,,,,0.000000,0.000000
09:13:36.166 AM 04/14/2016,Teleop Enabled,11,FALSE,0,NO ERROR,-0.000000,0.000000,-0.000000,0.038500,TRUE,FALSE,TRUE,FALSE,FALSE,FALSE,Disabled,0.000000,0.000000,0.000000,TRUE,0.287827,-0.357758,0.000000,0.113708,0.270447,0.000000,0.149000,0.084000,-0.097000,2.390000,-0.160000,-1.230000,-0.042326,Hold,0.001709,0.000000,Hold,-167.000000,2.000000,LowGoal,2167.500000,-2181.818182,Speed,2152.500000,-2181.818182,Speed,Off,Off,0.000000,FALSE,0,,,,,0.000000,0.000000
09:13:36.267 AM 04/14/2016,Teleop Enabled,11,FALSE,0,NO ERROR,-0.000000,0.000000,-0.000000,0.038500,TRUE,FALSE,TRUE,FALSE,FALSE,FALSE,Disabled,0.000000,0.000000,0.000000,TRUE,0.296722,-0.341949,0.000000,0.205872,0.358047,0.000000,0.003000,0.104000,-0.003000,2.440000,-0.170000,-1.010000,-0.055050,Hold,0.001709,0.000000,Hold,-167.000000,2.000000,LowGoal,2160.000000,-2181.818182,Speed,2152.500000,-2181.818182,Speed,Off,Off,0.000000,FALSE,0,,,,,0.000000,0.000000
09:13:36.367 AM 04/14/2016,Teleop Enabled,11,FALSE,0,NO ERROR,-0.000000,0.000000,-0.000000,0.038500,TRUE,FALSE,TRUE,FALSE,FALSE,FALSE,Disabled,0.000000,0.000000,0.000000,TRUE,0.304764,-0.334061,0.000000,0.192078,0.010086,0.000000,-0.122000,0.086000,0.010000,2.450000,-0.180000,-0.900000,-0.056568,Hold,0.001709,0.000000,Hold,-167.000000,2.000000,LowGoal,2167.500000,-2181.818182,Speed,2152.500000,-2181.818182,Speed,Off,Off,0.000000,FALSE,0,,,,,0.000000,0.000000
09:13:36.467 AM 04/14/2016,Teleop Enabled,10,FALSE,0,NO ERROR,-0.000000,0.000000,-0.000000,0.038500,TRUE,FALSE,TRUE,FALSE,FALSE,FALSE,Disabled,0.000000,0.000000,0.000000,TRUE,0.313126,-0.329910,0.000000,0.102005,0.096771,0.000000,-0.168000,0.117000,0.044000,2.400000,-0.180000,-0.840000,-0.058572,Hold,0.001709,0.000000,Hold,-167.000000,2.000000,LowGoal,2167.500000,-2181.818182,Speed,2152.500000,-2181.818182,Speed,Off,Off,0.000000,FALSE,0,,,,,0.000000,0.000000
09:13:36.567 AM 04/14/2016,Teleop Enabled,11,FALSE,0,NO ERROR,-0.000000,0.000000,-0.000000,0.038500,TRUE,FALSE,TRUE,FALSE,FALSE,FALSE,Disabled,0.000000,0.000000,0.000000,TRUE,0.313293,-0.320633,0.000000,-0.063263,0.176971,0.000000,-0.148000,0.081000,-0.010000,2.360000,-0.170000,-0.900000,-0.053181,Hold,0.001709,0.000000,Hold,-167.000000,2.000000,LowGoal,2167.500000,-2181.818182,Speed,2152.500000,-2181.818182,Speed,Off,Off,0.000000,FALSE,0,,,,,0.000000,0.000000
09:13:36.667 AM 04/14/2016,Teleop Enabled,11,FALSE,0,NO ERROR,-0.000000,0.000000,-0.000000,0.038500,TRUE,FALSE,TRUE,FALSE,FALSE,FALSE,Disabled,0.000000,0.000000,0.000000,TRUE,0.307907,-0.311081,0.000000,-0.180099,0.266022,0.000000,-0.194000,0.016000,-0.036000,2.320000,-0.170000,-1.070000,-0.056062,Hold,0.001709,0.000000,Hold,-167.000000,2.000000,LowGoal,2167.500000,-2181.818182,Speed,2152.500000,-2181.818182,Speed,Off,Off,0.000000,FALSE,0,,,,,0.000000,0.000000
09:13:36.767 AM 04/14/2016,Teleop Enabled,11,FALSE,0,NO ERROR,-0.000000,0.000000,-0.000000,0.038500,TRUE,FALSE,TRUE,FALSE,FALSE,FALSE,Disabled,0.000000,0.000000,0.000000,TRUE,0.293274,-0.291443,0.000000,-0.277725,0.384842,0.000000,-0.013000,0.005000,-0.056000,2.300000,-0.170000,-1.200000,-0.057673,Hold,0.001709,0.000000,Hold,-167.000000,2.000000,LowGoal,2167.500000,-2181.818182,Speed,2152.500000,-2181.818182,Speed,Off,Off,0.000000,FALSE,0,,,,,0.000000,0.000000
09:13:36.868 AM 04/14/2016,Teleop Enabled,7,FALSE,0,NO ERROR,-0.000000,0.000000,-0.000000,0.038500,TRUE,FALSE,TRUE,FALSE,FALSE,FALSE,Disabled,0.000000,0.000000,0.000000,TRUE,0.292282,-0.269958,0.000000,-0.047668,0.476196,0.000000,-0.013000,0.005000,-0.056000,2.260000,-0.180000,-1.260000,-0.068703,Hold,0.001709,0.000000,Hold,-167.000000,2.000000,LowGoal,2167.500000,-2181.818182,Speed,2152.500000,-2181.818182,Speed,Off,Off,0.000000,FALSE,0,,,,,0.000000,0.000000
09:13:36.968 AM 04/14/2016,Teleop Enabled,11,FALSE,0,NO ERROR,-0.000000,0.000000,-0.000000,0.038500,TRUE,FALSE,TRUE,FALSE,FALSE,FALSE,Disabled,0.000000,0.000000,0.000000,TRUE,0.287704,-0.244446,0.000000,-0.125748,0.548233,0.000000,-0.099000,0.093000,0.158000,2.270000,-0.180000,-1.280000,-0.052960,Hold,0.001709,0.000000,Hold,-167.000000,2.000000,LowGoal,2167.500000,-2181.818182,Speed,2152.500000,-2181.818182,Speed,Off,Off,0.000000,FALSE,0,,,,,0.000000,0.000000
09:13:37.068 AM 04/14/2016,Teleop Enabled,12,FALSE,0,NO ERROR,-0.000000,0.000000,-0.000000,0.038500,TRUE,FALSE,TRUE,FALSE,FALSE,FALSE,Disabled,0.000000,0.000000,0.000000,TRUE,0.279373,-0.216202,0.000000,-0.187225,0.572708,0.000000,-0.099000,0.093000,0.158000,2.300000,-0.180000,-1.290000,-0.048674,Hold,0.001709,0.000000,Hold,-167.000000,2.000000,LowGoal,2167.500000,-2181.818182,Speed,2152.500000,-2181.818182,Speed,Off,Off,0.000000,FALSE,0,,,,,0.000000,0.000000
09:13:37.168 AM 04/14/2016,Teleop Enabled,9,FALSE,0,NO ERROR,-0.000000,0.000000,-0.000000,0.038500,TRUE,FALSE,TRUE,FALSE,FALSE,FALSE,Disabled,0.000000,0.000000,0.000000,TRUE,0.277634,-0.187012,0.000000,0.014679,0.574402,0.000000,0.027000,0.043000,0.100000,2.370000,-0.180000,-1.130000,-0.047852,Hold,0.001709,0.000000,Hold,-167.000000,2.000000,LowGoal,2160.000000,-2181.818182,Speed,2152.500000,-2181.818182,Speed,Off,Off,0.000000,FALSE,0,,,,,0.000000,0.000000
09:13:37.268 AM 04/14/2016,Teleop Enabled,11,FALSE,0,NO ERROR,-0.000000,0.000000,-0.000000,0.038500,TRUE,FALSE,TRUE,FALSE,FALSE,FALSE,Disabled,0.000000,0.000000,0.000000,TRUE,0.278000,-0.157272,0.000000,0.015182,0.592804,0.000000,0.067000,-0.035000,0.000000,2.410000,-0.200000,-0.920000,-0.045387,Hold,0.001709,0.000000,Hold,-167.000000,2.000000,LowGoal,2167.500000,-2181.818182,Speed,2152.500000,-2181.818182,Speed,Off,Off,0.000000,FALSE,0,,,,,0.000000,0.000000
09:13:37.368 AM 04/14/2016,Teleop Enabled,8,FALSE,0,NO ERROR,-0.000000,0.000000,-0.000000,0.038500,TRUE,FALSE,TRUE,FALSE,FALSE,FALSE,Disabled,0.000000,0.000000,0.000000,TRUE,0.279831,-0.127258,0.000000,0.052246,0.601959,0.000000,0.067000,-0.035000,0.000000,2.390000,-0.210000,-0.750000,-0.044629,Hold,0.001709,0.000000,Hold,-167.000000,2.000000,LowGoal,2167.500000,-2181.818182,Speed,2152.500000,-2181.818182,Speed,Off,Off,0.000000,FALSE,0,,,,,0.000000,0.000000
09:13:37.468 AM 04/14/2016,Teleop Enabled,8,FALSE,0,NO ERROR,-0.000000,0.000000,-0.000000,0.038500,TRUE,FALSE,TRUE,FALSE,FALSE,FALSE,Disabled,0.000000,0.000000,0.000000,TRUE,0.282578,-0.097290,0.000000,0.049667,0.615555,0.000000,-0.026000,-0.001000,-0.013000,2.400000,-0.200000,-0.830000,-0.034508,Hold,0.001709,0.000000,Hold,-167.000000,2.000000,LowGoal,2160.000000,-2181.818182,Speed,2160.000000,-2181.818182,Speed,Off,Off,0.000000,FALSE,0,,,,,0.000000,0.000000
09:13:37.568 AM 04/14/2016,Teleop Enabled,13,FALSE,0,NO ERROR,-0.000000,0.000000,-0.000000,0.038500,TRUE,FALSE,TRUE,FALSE,FALSE,FALSE,Disabled,0.000000,0.000000,0.000000,TRUE,0.284225,-0.079239,0.000000,0.023666,0.000000,0.000000,-0.026000,-0.001000,-0.013000,2.400000,-0.200000,-0.830000,-0.014662,Hold,0.001709,0.000000,Hold,-167.000000,2.000000,LowGoal,2167.500000,-2181.818182,Speed,2160.000000,-2181.818182,Speed,Off,Off,0.000000,FALSE,0,,,,,0.000000,0.000000
09:13:37.668 AM 04/14/2016,Teleop Enabled,10,FALSE,0,NO ERROR,-0.000000,0.000000,-0.000000,0.038500,TRUE,FALSE,TRUE,FALSE,FALSE,FALSE,Disabled,0.000000,0.000000,0.000000,TRUE,0.284866,-0.079651,0.000000,0.000000,-0.013321,0.000000,0.030000,0.044000,-0.070000,2.360000,-0.200000,-1.000000,-0.001305,Hold,0.001709,0.000000,Hold,-167.000000,2.000000,LowGoal,2175.000000,-2181.818182,Speed,2160.000000,-2181.818182,Speed,Off,Off,0.000000,FALSE,0,,,,,0.000000,0.000000
09:13:37.768 AM 04/14/2016,Teleop Enabled,12,FALSE,0,NO ERROR,-0.000000,0.000000,-0.000000,0.038500,TRUE,FALSE,TRUE,FALSE,FALSE,FALSE,Disabled,0.000000,0.000000,0.000000,TRUE,0.284866,-0.079651,0.000000,0.000000,-0.013321,0.000000,0.068000,0.040000,0.009000,2.320000,-0.200000,-1.010000,-0.003625,Hold,0.001709,0.000000,Hold,-167.000000,2.000000,LowGoal,2167.500000,-2181.818182,Speed,2152.500000,-2181.818182,Speed,Off,Off,0.000000,FALSE,0,,,,,0.000000,0.000000
09:13:37.869 AM 04/14/2016,Teleop Enabled,11,FALSE,0,NO ERROR,-0.000000,0.000000,-0.000000,0.038500,TRUE,FALSE,TRUE,FALSE,FALSE,FALSE,Disabled,0.000000,0.000000,0.000000,TRUE,0.291794,-0.080322,0.000000,0.135574,-0.020050,0.000000,0.047000,0.074000,-0.015000,2.250000,-0.210000,-0.990000,0.005911,Hold,0.001709,0.000000,Hold,-167.000000,2.000000,LowGoal,2167.500000,-2181.818182,Speed,2152.500000,-2181.818182,Speed,Off,Off,0.000000,FALSE,0,,,,,0.000000,0.000000
09:13:37.973 AM 04/14/2016,Teleop Enabled,10,FALSE,0,NO ERROR,-0.000000,0.000000,-0.000000,0.038500,TRUE,FALSE,TRUE,FALSE,FALSE,FALSE,Disabled,0.000000,0.000000,0.000000,TRUE,0.299911,-0.081177,0.000000,0.186813,-0.011169,0.000000,0.035000,0.022000,-0.089000,2.140000,-0.210000,-1.020000,0.004978,Hold,0.001709,0.000000,Hold,-167.000000,2.000000,LowGoal,2167.500000,-2181.818182,Speed,2160.000000,-2181.818182,Speed,Off,Off,0.000000,FALSE,0,,,,,0.000000,0.000000
09:13:38.072 AM 04/14/2016,Teleop Enabled,10,FALSE,0,NO ERROR,-0.000000,0.000000,-0.000000,0.038500,TRUE,FALSE,TRUE,FALSE,FALSE,FALSE,Disabled,0.000000,0.000000,0.000000,TRUE,0.313782,-0.082581,0.000000,0.271362,-0.028366,0.000000,0.043000,0.079000,0.002000,2.140000,-0.200000,-1.290000,-0.004957,Hold,0.001709,0.000000,Hold,-167.000000,2.000000,LowGoal,2167.500000,-2181.818182,Speed,2152.500000,-2181.818182,Speed,Off,Off,0.000000,FALSE,0,,,,,0.000000,0.000000
09:13:38.176 AM 04/14/2016,Teleop Enabled,11,FALSE,0,NO ERROR,-0.000000,0.000000,-0.000000,0.038500,TRUE,FALSE,TRUE,FALSE,FALSE,FALSE,Disabled,0.000000,0.000000,0.000000,TRUE,0.331131,-0.085510,0.000000,0.390823,-0.073120,0.000000,0.136000,-0.078000,-0.165000,2.290000,-0.200000,-1.280000,0.003264,Hold,0.001709,0.000000,Hold,-167.000000,2.000000,LowGoal,2167.500000,-2181.818182,Speed,2152.500000,-2181.818182,Speed,Off,Off,0.000000,FALSE,0,,,,,0.000000,0.000000
09:13:38.279 AM 04/14/2016,Teleop Enabled,12,FALSE,0,NO ERROR,-0.000000,0.000000,-0.000000,0.044917,TRUE,FALSE,TRUE,FALSE,FALSE,FALSE,Disabled,0.000000,0.000000,0.000000,TRUE,0.354156,-0.092621,0.000000,0.489471,-0.169998,0.000000,0.145000,-0.161000,-0.189000,2.350000,-0.210000,-1.020000,-0.018228,Hold,0.001709,0.000000,Hold,-167.000000,2.000000,LowGoal,2160.000000,-2181.818182,Speed,2152.500000,-2181.818182,Speed,Off,Off,0.000000,FALSE,0,,,,,0.000000,0.000000
09:13:38.379 AM 04/14/2016,Teleop Enabled,11,FALSE,0,NO ERROR,-0.000000,0.000000,-0.000000,0.044917,TRUE,FALSE,TRUE,FALSE,FALSE,FALSE,Disabled,0.000000,0.000000,0.000000,TRUE,0.354156,-0.092621,0.000000,0.489471,-0.169998,0.000000,0.102000,-0.026000,0.097000,2.250000,-0.230000,-0.860000,-0.032171,Hold,0.001709,0.000000,Hold,-167.000000,2.000000,LowGoal,2160.000000,-2181.818182,Speed,2160.000000,-2181.818182,Speed,Off,Off,0.000000,FALSE,0,,,,,0.000000,0.000000
09:13:38.480 AM 04/14/2016,Teleop Enabled,11,FALSE,0,NO ERROR,-0.000000,0.000000,-0.000000,0.044917,TRUE,FALSE,TRUE,FALSE,FALSE,FALSE,Disabled,0.000000,0.000000,0.000000,TRUE,0.375015,-0.108475,0.000000,-0.005493,-0.317429,0.000000,-0.005000,-0.079000,0.016000,2.230000,-0.220000,-1.100000,-0.029155,Hold,0.001709,0.000000,Hold,-167.000000,2.000000,LowGoal,2167.500000,-2181.818182,Speed,2152.500000,-2181.818182,Speed,Off,Off,0.000000,FALSE,0,,,,,0.000000,0.000000
09:13:38.580 AM 04/14/2016,Teleop Enabled,11,FALSE,0,NO ERROR,-0.000000,0.000000,-0.000000,0.044917,TRUE,FALSE,TRUE,FALSE,FALSE,FALSE,Disabled,0.000000,0.000000,0.000000,TRUE,0.374344,-0.127563,0.000000,-0.024902,-0.424454,0.000000,-0.042000,-0.055000,0.177000,2.270000,-0.210000,-1.320000,-0.040429,Hold,0.001709,0.000000,Hold,-166.000000,2.000000,LowGoal,2167.500000,-2181.818182,Speed,2152.500000,-2181.818182,Speed,Off,Off,0.000000,FALSE,0,,,,,0.000000,0.000000
09:13:38.682 AM 04/14/2016,Teleop Enabled,9,FALSE,0,NO ERROR,-0.000000,0.000000,-0.000000,0.044917,TRUE,FALSE,TRUE,FALSE,FALSE,FALSE,Disabled,0.000000,0.000000,0.000000,TRUE,0.372696,-0.151535,0.000000,-0.026718,-0.529938,0.000000,-0.010000,-0.080000,0.103000,2.270000,-0.210000,-1.320000,-0.064706,Hold,0.001709,0.000000,Hold,-166.000000,2.000000,LowGoal,2167.500000,-2181.818182,Speed,2160.000000,-2181.818182,Speed,Off,Off,0.000000,FALSE,0,,,,,0.000000,0.000000
09:13:38.784 AM 04/14/2016,Teleop Enabled,12,FALSE,0,NO ERROR,-0.000000,0.000000,-0.000000,0.044917,TRUE,FALSE,TRUE,FALSE,FALSE,FALSE,Disabled,0.000000,0.000000,0.000000,TRUE,0.373856,-0.208099,0.000000,0.063202,-0.707245,0.000000,0.092000,-0.076000,0.131000,2.280000,-0.210000,-1.390000,-0.072449,Hold,0.001709,0.000000,Hold,-166.000000,2.000000,LowGoal,2167.500000,-2181.818182,Speed,2160.000000,-2181.818182,Speed,Off,Off,0.000000,FALSE,0,,,,,0.000000,0.000000
09:13:38.883 AM 04/14/2016,Teleop Enabled,10,FALSE,0,NO ERROR,-0.000000,0.000000,-0.000000,0.044917,TRUE,FALSE,TRUE,FALSE,FALSE,FALSE,Disabled,0.000000,0.000000,0.000000,TRUE,0.373856,-0.208099,0.000000,0.063202,-0.707245,0.000000,0.072000,-0.157000,-0.061000,2.300000,-0.220000,-1.280000,-0.052210,Hold,0.001709,0.000000,Hold,-166.000000,2.000000,LowGoal,2167.500000,-2181.818182,Speed,2152.500000,-2181.818182,Speed,Off,Off,0.000000,FALSE,0,,,,,0.000000,0.000000
09:13:38.983 AM 04/14/2016,Teleop Enabled,11,FALSE,0,NO ERROR,-0.000000,0.000000,-0.000000,0.044917,TRUE,FALSE,TRUE,FALSE,FALSE,FALSE,Disabled,0.000000,0.000000,0.000000,TRUE,0.378723,-0.246826,0.000000,0.112564,-0.809601,0.000000,-0.028000,-0.155000,-0.055000,2.260000,-0.230000,-0.880000,-0.052210,Hold,0.001709,0.000000,Hold,-166.000000,2.000000,LowGoal,2167.500000,-2181.818182,Speed,2160.000000,-2181.818182,Speed,Off,Off,0.000000,FALSE,0,,,,,0.000000,0.000000
09:13:39.085 AM 04/14/2016,Teleop Enabled,11,FALSE,0,NO ERROR,-0.000000,0.000000,-0.000000,0.044917,TRUE,FALSE,TRUE,FALSE,FALSE,FALSE,Disabled,0.000000,0.000000,0.000000,TRUE,0.384369,-0.290604,0.000000,0.107330,-0.907776,0.000000,-0.084000,-0.054000,0.196000,2.260000,-0.230000,-0.800000,-0.033031,Hold,0.001709,0.000000,Hold,-166.000000,2.000000,LowGoal,2167.500000,-2181.818182,Speed,2152.500000,-2181.818182,Speed,Off,Off,0.000000,FALSE,0,,,,,0.000000,0.000000
09:13:39.186 AM 04/14/2016,Teleop Enabled,11,FALSE,0,NO ERROR,-0.000000,0.000000,-0.000000,0.044917,TRUE,FALSE,TRUE,FALSE,FALSE,FALSE,Disabled,0.000000,0.000000,0.000000,TRUE,0.386948,-0.338226,0.000000,-0.008438,-0.989197,0.000000,-0.051000,-0.019000,0.187000,2.290000,-0.240000,-0.770000,-0.035933,Hold,0.001709,0.000000,Hold,-166.000000,2.000000,LowGoal,2167.500000,-2181.818182,Speed,2152.500000,-2181.818182,Speed,Off,Off,0.000000,FALSE,0,,,,,0.000000,0.000000
09:13:39.287 AM 04/14/2016,Teleop Enabled,10,FALSE,0,NO ERROR,-0.000000,0.000000,-0.000000,0.044917,TRUE,FALSE,TRUE,FALSE,FALSE,FALSE,Disabled,0.000000,0.000000,0.000000,TRUE,0.384689,-0.349594,0.000000,-0.062927,-0.053024,0.000000,-0.066000,0.031000,0.182000,2.280000,-0.260000,-0.740000,-0.058455,Hold,0.001709,0.000000,Hold,-166.000000,2.000000,LowGoal,2167.500000,-2181.818182,Speed,2160.000000,-2181.818182,Speed,Off,Off,0.000000,FALSE,0,,,,,0.000000,0.000000
09:13:39.388 AM 04/14/2016,Teleop Enabled,11,FALSE,0,NO ERROR,-0.000000,0.000000,-0.000000,0.044917,TRUE,FALSE,TRUE,FALSE,FALSE,FALSE,Disabled,0.000000,0.000000,0.000000,TRUE,0.381531,-0.353317,0.000000,0.000000,-0.102066,0.000000,-0.041000,0.012000,0.157000,2.240000,-0.270000,-0.780000,-0.068259,Hold,0.001709,0.000000,Hold,-166.000000,2.000000,LowGoal,2167.500000,-2181.818182,Speed,2160.000000,-2181.818182,Speed,Off,Off,0.000000,FALSE,0,,,,,0.000000,0.000000
09:13:39.488 AM 04/14/2016,Teleop Enabled,10,FALSE,0,NO ERROR,-0.000000,0.000000,-0.000000,0.044917,TRUE,FALSE,TRUE,FALSE,FALSE,FALSE,Disabled,0.000000,0.000000,0.000000,TRUE,0.380798,-0.359177,0.000000,-0.021652,-0.137741,0.000000,-0.050000,-0.037000,-0.102000,2.160000,-0.280000,-0.870000,-0.079124,Hold,0.001709,0.000000,Hold,-166.000000,2.000000,LowGoal,2167.500000,-2181.818182,Speed,2152.500000,-2181.818182,Speed,Off,Off,0.000000,FALSE,0,,,,,0.000000,0.000000
09:13:39.590 AM 04/14/2016,Teleop Enabled,11,FALSE,0,NO ERROR,-0.000000,0.000000,-0.000000,0.044917,TRUE,FALSE,TRUE,FALSE,FALSE,FALSE,Disabled,0.000000,0.000000,0.000000,TRUE,0.376724,-0.367828,0.000000,-0.105835,-0.145782,0.000000,-0.070000,-0.062000,-0.061000,2.140000,-0.260000,-1.230000,-0.085851,Hold,0.001709,0.000000,Hold,-166.000000,2.000000,LowGoal,2167.500000,-2181.818182,Speed,2160.000000,-2181.818182,Speed,Off,Off,0.000000,FALSE,0,,,,,0.000000,0.000000
09:13:39.691 AM 04/14/2016,Teleop Enabled,9,FALSE,0,NO ERROR,-0.000000,0.000000,-0.000000,0.044917,TRUE,FALSE,TRUE,FALSE,FALSE,FALSE,Disabled,0.000000,0.000000,0.000000,TRUE,0.371063,-0.372803,0.000000,-0.159271,-0.098938,0.000000,-0.098000,0.028000,-0.081000,2.220000,-0.260000,-1.410000,-0.103735,Hold,0.001709,0.000000,Hold,-166.000000,2.000000,LowGoal,2167.500000,-2181.818182,Speed,2160.000000,-2181.818182,Speed,Off,Off,0.000000,FALSE,0,,,,,0.000000,0.000000
09:13:39.791 AM 04/14/2016,Teleop Enabled,11,FALSE,0,NO ERROR,-0.000000,0.000000,-0.000000,0.044917,TRUE,FALSE,TRUE,FALSE,FALSE,FALSE,Disabled,0.000000,0.000000,0.000000,TRUE,0.365784,-0.376801,0.000000,0.000000,-0.058182,0.000000,0.031000,0.090000,-0.034000,2.250000,-0.260000,-1.420000,-0.095810,Hold,0.001709,0.000000,Hold,-166.000000,2.000000,LowGoal,2167.500000,-2181.818182,Speed,2152.500000,-2181.818182,Speed,Off,Off,0.000000,FALSE,0,,,,,0.000000,0.000000
09:13:39.891 AM 04/14/2016,Teleop Enabled,10,FALSE,0,NO ERROR,-0.000000,0.000000,-0.000000,0.044917,TRUE,FALSE,TRUE,FALSE,FALSE,FALSE,Disabled,0.000000,0.000000,0.000000,TRUE,0.367203,-0.378418,0.000000,0.054901,-0.028259,0.000000,0.100000,0.041000,0.004000,2.210000,-0.250000,-1.280000,-0.076976,Hold,0.001709,0.000000,Hold,-166.000000,2.000000,LowGoal,2167.500000,-2181.818182,Speed,2160.000000,-2181.818182,Speed,Off,Off,0.000000,FALSE,0,,,,,0.000000,0.000000
09:13:39.993 AM 04/14/2016,Teleop Enabled,11,FALSE,0,NO ERROR,-0.000000,0.000000,-0.000000,0.044917,TRUE,FALSE,TRUE,FALSE,FALSE,FALSE,Disabled,0.000000,0.000000,0.000000,TRUE,0.372574,-0.378967,0.000000,0.145920,-0.013870,0.000000,0.110000,0.090000,-0.087000,2.170000,-0.260000,-1.140000,-0.082535,Hold,0.001709,0.000000,Hold,-166.000000,2.000000,LowGoal,2167.500000,-2181.818182,Speed,2160.000000,-2181.818182,Speed,Off,Off,0.000000,FALSE,0,,,,,0.000000,0.000000
09:13:40.093 AM 04/14/2016,Teleop Enabled,10,FALSE,0,NO ERROR,-0.000000,0.000000,-0.000000,0.044917,TRUE,FALSE,TRUE,FALSE,FALSE,FALSE,Disabled,0.000000,0.000000,0.000000,TRUE,0.385162,-0.376968,0.000000,0.256607,0.062851,0.000000,0.036000,0.127000,-0.012000,2.230000,-0.270000,-0.970000,-0.089985,Hold,0.001709,0.000000,Hold,-166.000000,2.000000,LowGoal,2167.500000,-2181.818182,Speed,2152.500000,-2181.818182,Speed,Off,Off,0.000000,FALSE,0,,,,,0.000000,0.000000
09:13:40.194 AM 04/14/2016,Teleop Enabled,10,FALSE,0,NO ERROR,-0.000000,0.000000,-0.000000,0.044917,TRUE,FALSE,TRUE,FALSE,FALSE,FALSE,Disabled,0.000000,0.000000,0.000000,TRUE,0.398834,-0.370392,0.000000,0.286087,0.165909,0.000000,0.082000,-0.033000,-0.228000,2.370000,-0.280000,-0.930000,-0.083768,Hold,0.001709,0.000000,Hold,-166.000000,2.000000,LowGoal,2167.500000,-2181.818182,Speed,2160.000000,-2181.818182,Speed,Off,Off,0.000000,FALSE,0,,,,,0.000000,0.000000
09:13:40.295 AM 04/14/2016,Teleop Enabled,9,FALSE,0,NO ERROR,-0.000000,0.000000,-0.000000,0.044917,TRUE,FALSE,TRUE,FALSE,FALSE,FALSE,Disabled,0.000000,0.000000,0.000000,TRUE,0.401794,-0.362106,0.000000,0.000000,0.238419,0.000000,-0.034000,0.001000,-0.063000,2.450000,-0.280000,-0.810000,-0.096777,Hold,0.001709,0.000000,Hold,-166.000000,2.000000,LowGoal,2167.500000,-2181.818182,Speed,2160.000000,-2181.818182,Speed,Off,Off,0.000000,FALSE,0,,,,,0.000000,0.000000
09:13:40.396 AM 04/14/2016,Teleop Enabled,10,FALSE,0,NO ERROR,-0.000000,0.000000,-0.000000,0.044917,TRUE,FALSE,TRUE,FALSE,FALSE,FALSE,Disabled,0.000000,0.000000,0.000000,TRUE,0.399918,-0.346207,0.000000,-0.070999,0.305145,0.000000,-0.136000,0.057000,-0.097000,2.420000,-0.300000,-0.710000,-0.095132,Hold,0.001709,0.000000,Hold,-166.000000,2.000000,LowGoal,2167.500000,-2181.818182,Speed,2160.000000,-2181.818182,Speed,Off,Off,0.000000,FALSE,0,,,,,0.000000,0.000000
09:13:40.499 AM 04/14/2016,Teleop Enabled,9,FALSE,0,NO ERROR,-0.000000,0.000000,-0.000000,0.044917,TRUE,FALSE,TRUE,FALSE,FALSE,FALSE,Disabled,0.000000,0.000000,0.000000,TRUE,0.392578,-0.329468,0.000000,-0.206558,0.360428,0.000000,-0.198000,0.095000,0.056000,2.320000,-0.300000,-0.790000,-0.081788,Hold,0.001709,0.000000,Hold,-166.000000,2.000000,LowGoal,2167.500000,-2181.818182,Speed,2160.000000,-2181.818182,Speed,Off,Off,0.000000,FALSE,0,,,,,0.000000,0.000000
09:13:40.599 AM 04/14/2016,Teleop Enabled,10,FALSE,0,NO ERROR,-0.000000,0.000000,-0.000000,0.044917,TRUE,FALSE,TRUE,FALSE,FALSE,FALSE,Disabled,0.000000,0.000000,0.000000,TRUE,0.378220,-0.309677,0.000000,-0.341782,0.412445,0.000000,-0.110000,0.106000,0.086000,2.190000,-0.290000,-0.890000,-0.082046,Hold,0.001709,0.000000,Hold,-166.000000,2.000000,LowGoal,2167.500000,-2181.818182,Speed,2160.000000,-2181.818182,Speed,Off,Off,0.000000,FALSE,0,,,,,0.000000,0.000000
09:13:40.700 AM 04/14/2016,Teleop Enabled,10,FALSE,0,NO ERROR,-0.000000,0.000000,-0.000000,0.044917,TRUE,FALSE,TRUE,FALSE,FALSE,FALSE,Disabled,0.000000,0.000000,0.000000,TRUE,0.356995,-0.287109,0.000000,-0.477692,0.463394,0.000000,-0.162000,0.124000,0.073000,2.180000,-0.270000,-1.110000,-0.080370,Hold,0.001709,0.000000,Hold,-166.000000,2.000000,LowGoal,2167.500000,-2181.818182,Speed,2160.000000,-2181.818182,Speed,Off,Off,0.000000,FALSE,0,,,,,0.000000,0.000000
09:13:40.800 AM 04/14/2016,Teleop Enabled,10,FALSE,0,NO ERROR,-0.000000,0.000000,-0.000000,0.044917,TRUE,FALSE,TRUE,FALSE,FALSE,FALSE,Disabled,0.000000,0.000000,0.000000,TRUE,0.328613,-0.261185,0.000000,-0.621353,0.539612,0.000000,-0.039000,0.019000,0.053000,2.180000,-0.260000,-1.340000,-0.080036,Hold,0.001709,0.000000,Hold,-166.000000,2.000000,LowGoal,2167.500000,-2181.818182,Speed,2160.000000,-2181.818182,Speed,Off,Off,0.000000,FALSE,0,,,,,0.000000,0.000000
09:13:40.900 AM 04/14/2016,Teleop Enabled,11,FALSE,0,NO ERROR,-0.000000,0.000000,-0.000000,0.044917,TRUE,FALSE,TRUE,FALSE,FALSE,FALSE,Disabled,0.000000,0.000000,0.000000,TRUE,0.295868,-0.232437,0.000000,-0.671463,0.607483,0.000000,-0.034000,0.002000,-0.022000,2.230000,-0.260000,-1.360000,-0.082267,Hold,0.001709,0.000000,Hold,-166.000000,2.000000,LowGoal,2167.500000,-2181.818182,Speed,2160.000000,-2181.818182,Speed,Off,Off,0.000000,FALSE,0,,,,,0.000000,0.000000
09:13:41.000 AM 04/14/2016,Teleop Enabled,11,FALSE,0,NO ERROR,-0.000000,0.000000,-0.000000,0.044917,TRUE,FALSE,TRUE,FALSE,FALSE,FALSE,Disabled,0.000000,0.000000,0.000000,TRUE,0.261581,-0.200897,0.000000,-0.688568,0.655899,0.000000,-0.034000,-0.034000,-0.048000,2.240000,-0.280000,-1.320000,-0.069309,Hold,0.001709,0.000000,Hold,-166.000000,2.000000,LowGoal,2167.500000,-2181.818182,Speed,2160.000000,-2181.818182,Speed,Off,Off,0.000000,FALSE,0,,,,,0.000000,0.000000
09:13:41.100 AM 04/14/2016,Teleop Enabled,11,FALSE,0,NO ERROR,-0.000000,0.000000,-0.000000,0.044917,TRUE,FALSE,TRUE,FALSE,FALSE,FALSE,Disabled,0.000000,0.000000,0.000000,TRUE,0.240509,-0.160477,0.000000,-0.019669,0.704361,0.000000,-0.037000,-0.022000,0.023000,2.250000,-0.280000,-1.230000,-0.074920,Hold,0.001709,0.000000,Hold,-166.000000,2.000000,LowGoal,2175.000000,-2181.818182,Speed,2160.000000,-2181.818182,Speed,Off,Off,0.000000,FALSE,0,,,,,0.000000,0.000000
09:13:41.200 AM 04/14/2016,Teleop Enabled,11,FALSE,0,NO ERROR,-0.000000,0.000000,-0.000000,0.044917,TRUE,FALSE,TRUE,FALSE,FALSE,FALSE,Disabled,0.000000,0.000000,0.000000,TRUE,0.238068,-0.124695,0.000000,-0.074051,0.740067,0.000000,-0.043000,0.053000,0.127000,2.240000,-0.290000,-1.060000,-0.078556,Hold,0.001709,0.000000,Hold,-166.000000,2.000000,LowGoal,2167.500000,-2181.818182,Speed,2160.000000,-2181.818182,Speed,Off,Off,0.000000,FALSE,0,,,,,0.000000,0.000000
09:13:41.300 AM 04/14/2016,Teleop Enabled,10,FALSE,0,NO ERROR,-0.000000,0.000000,-0.000000,0.044917,TRUE,FALSE,TRUE,FALSE,FALSE,FALSE,Disabled,0.000000,0.000000,0.000000,TRUE,0.232697,-0.087021,0.000000,-0.135925,0.766357,0.000000,-0.005000,0.069000,0.225000,2.250000,-0.300000,-0.990000,-0.082415,Hold,0.001709,0.000000,Hold,-166.000000,2.000000,LowGoal,2167.500000,-2181.818182,Speed,2160.000000,-2181.818182,Speed,Off,Off,0.000000,FALSE,0,,,,,0.000000,0.000000
09:13:41.400 AM 04/14/2016,Teleop Enabled,11,FALSE,0,NO ERROR,-0.000000,0.000000,-0.000000,0.044917,TRUE,FALSE,TRUE,FALSE,FALSE,FALSE,Disabled,0.000000,0.000000,0.000000,TRUE,0.224945,-0.047958,0.000000,-0.158112,0.775330,0.000000,-0.011000,0.033000,0.185000,2.290000,-0.300000,-0.870000,-0.078676,Hold,0.001709,0.000000,Hold,-166.000000,2.000000,LowGoal,2167.500000,-2181.818182,Speed,2160.000000,-2181.818182,Speed,Off,Off,0.000000,FALSE,0,,,,,0.000000,0.000000
09:13:41.500 AM 04/14/2016,Teleop Enabled,11,FALSE,0,NO ERROR,-0.000000,0.000000,-0.000000,0.044917,TRUE,FALSE,TRUE,FALSE,FALSE,FALSE,Disabled,0.000000,0.000000,0.000000,TRUE,0.216919,-0.008560,0.000000,-0.152542,0.778046,0.000000,-0.056000,0.045000,0.064000,2.290000,-0.310000,-0.800000,-0.065278,Hold,0.001709,0.000000,Hold,-166.000000,2.000000,LowGoal,2167.500000,-2181.818182,Speed,2160.000000,-2181.818182,Speed,Off,Off,0.000000,FALSE,0,,,,,0.000000,0.000000
09:13:41.600 AM 04/14/2016,Teleop Enabled,11,FALSE,0,NO ERROR,-0.000000,0.000000,-0.000000,0.044917,TRUE,FALSE,TRUE,FALSE,FALSE,FALSE,Disabled,0.000000,0.000000,0.000000,TRUE,0.209213,0.030853,0.000000,-0.145020,0.791077,0.000000,0.024000,-0.073000,-0.037000,2.260000,-0.310000,-0.830000,-0.052568,Hold,0.001709,0.000000,Hold,-166.000000,2.000000,LowGoal,2167.500000,-2181.818182,Speed,2160.000000,-2181.818182,Speed,Off,Off,0.000000,FALSE,0,,,,,0.000000,0.000000
09:13:41.700 AM 04/14/2016,Teleop Enabled,10,FALSE,0,NO ERROR,-0.000000,0.000000,-0.000000,0.051333,TRUE,FALSE,TRUE,FALSE,FALSE,FALSE,Disabled,0.000000,0.000000,0.000000,TRUE,0.202911,0.069824,0.000000,-0.110992,0.784546,0.000000,0.000000,-0.085000,-0.135000,2.130000,-0.290000,-0.930000,-0.038770,Hold,0.001709,0.000000,Hold,-166.000000,2.000000,LowGoal,2167.500000,-2181.818182,Speed,2160.000000,-2181.818182,Speed,Off,Off,0.000000,FALSE,0,,,,,0.000000,0.000000
09:13:41.802 AM 04/14/2016,Teleop Enabled,9,FALSE,0,NO ERROR,-0.000000,0.000000,-0.000000,0.051333,TRUE,FALSE,TRUE,FALSE,FALSE,FALSE,Disabled,0.000000,0.000000,0.000000,TRUE,0.201675,0.108215,0.000000,-0.012512,0.774384,0.000000,0.012000,0.005000,-0.063000,2.100000,-0.280000,-1.180000,-0.032112,Hold,0.001709,0.000000,Hold,-166.000000,2.000000,LowGoal,2167.500000,-2181.818182,Speed,2160.000000,-2181.818182,Speed,Off,Off,0.000000,FALSE,0,,,,,0.000000,0.000000
09:13:41.902 AM 04/14/2016,Teleop Enabled,9,FALSE,0,NO ERROR,-0.000000,0.000000,-0.000000,0.051333,TRUE,FALSE,TRUE,FALSE,FALSE,FALSE,Disabled,0.000000,0.000000,0.000000,TRUE,0.201172,0.147049,0.000000,-0.018402,0.792709,0.000000,-0.018000,0.070000,-0.015000,2.150000,-0.280000,-1.360000,-0.029499,Hold,0.001709,0.000000,Hold,-166.000000,2.000000,LowGoal,2167.500000,-2181.818182,Speed,2160.000000,-2181.818182,Speed,Off,Off,0.000000,FALSE,0,,,,,0.000000,0.000000
09:13:42.003 AM 04/14/2016,Teleop Enabled,10,FALSE,0,NO ERROR,-0.000000,0.000000,-0.000000,0.051333,TRUE,FALSE,TRUE,FALSE,FALSE,FALSE,Disabled,0.000000,0.000000,0.000000,TRUE,0.199799,0.195923,0.000000,-0.009766,0.830917,0.000000,0.050000,0.077000,0.095000,2.160000,-0.270000,-1.440000,-0.036402,Hold,0.001709,0.000000,Hold,-166.000000,2.000000,LowGoal,2167.500000,-2181.818182,Speed,2160.000000,-2181.818182,Speed,Off,Off,0.000000,FALSE,0,,,,,0.000000,0.000000
09:13:42.103 AM 04/14/2016,Teleop Enabled,6,FALSE,0,NO ERROR,-0.000000,0.000000,-0.000000,0.051333,TRUE,FALSE,TRUE,FALSE,FALSE,FALSE,Disabled,0.000000,0.000000,0.000000,TRUE,0.201096,0.237442,0.000000,0.051804,0.824982,0.000000,0.076000,0.068000,-0.108000,2.150000,-0.270000,-1.440000,-0.047418,Hold,0.001709,0.000000,Hold,-166.000000,2.000000,LowGoal,2167.500000,-2181.818182,Speed,2160.000000,-2181.818182,Speed,Off,Off,0.000000,FALSE,0,,,,,0.000000,0.000000
09:13:42.203 AM 04/14/2016,Teleop Enabled,9,FALSE,0,NO ERROR,-0.000000,0.000000,-0.000000,0.051333,TRUE,FALSE,TRUE,FALSE,FALSE,FALSE,Disabled,0.000000,0.000000,0.000000,TRUE,0.206696,0.278641,0.000000,0.166229,0.800491,0.000000,0.139000,0.042000,-0.037000,2.120000,-0.290000,-1.290000,-0.068238,Hold,0.001709,0.000000,Hold,-166.000000,2.000000,LowGoal,2167.500000,-2181.818182,Speed,2160.000000,-2181.818182,Speed,Off,Off,0.000000,FALSE,0,,,,,0.000000,0.000000
09:13:42.303 AM 04/14/2016,Teleop Enabled,9,FALSE,0,NO ERROR,-0.000000,0.000000,-0.000000,0.051333,TRUE,FALSE,TRUE,FALSE,FALSE,FALSE,Disabled,0.000000,0.000000,0.000000,TRUE,0.219650,0.318451,0.000000,0.326508,0.772476,0.000000,0.125000,-0.083000,-0.176000,2.150000,-0.300000,-1.080000,-0.067147,Hold,0.001709,0.000000,Hold,-166.000000,2.000000,LowGoal,2167.500000,-2181.818182,Speed,2160.000000,-2181.818182,Speed,Off,Off,0.000000,FALSE,0,,,,,0.000000,0.000000
09:13:42.404 AM 04/14/2016,Teleop Enabled,9,FALSE,0,NO ERROR,-0.000000,0.000000,-0.000000,0.051333,TRUE,FALSE,TRUE,FALSE,FALSE,FALSE,Disabled,0.000000,0.000000,0.000000,TRUE,0.240204,0.355728,0.000000,0.471573,0.735764,0.000000,0.197000,-0.104000,-0.166000,2.270000,-0.300000,-1.100000,-0.078029,Hold,0.001709,0.000000,Hold,-166.000000,2.000000,LowGoal,2167.500000,-2181.818182,Speed,2160.000000,-2181.818182,Speed,Off,Off,0.000000,FALSE,0,,,,,0.000000,0.000000
09:13:42.504 AM 04/14/2016,Teleop Enabled,10,FALSE,0,NO ERROR,-0.000000,0.000000,-0.000000,0.051333,TRUE,FALSE,TRUE,FALSE,FALSE,FALSE,Disabled,0.000000,0.000000,0.000000,TRUE,0.268356,0.383972,0.000000,0.612320,0.000000,0.000000,0.170000,-0.086000,-0.102000,2.410000,-0.300000,-1.050000,-0.092760,Hold,0.001709,0.000000,Hold,-166.000000,2.000000,LowGoal,2167.500000,-2181.818182,Speed,2160.000000,-2181.818182,Speed,Off,Off,0.000000,FALSE,0,,,,,0.000000,0.000000
09:13:42.604 AM 04/14/2016,Teleop Enabled,10,FALSE,0,NO ERROR,-0.000000,0.000000,-0.000000,0.051333,TRUE,FALSE,TRUE,FALSE,FALSE,FALSE,Disabled,0.000000,0.000000,0.000000,TRUE,0.303360,0.381165,0.000000,0.742416,-0.087326,0.000000,0.109000,-0.073000,0.008000,2.430000,-0.310000,-0.960000,-0.086443,Hold,0.001709,0.000000,Hold,-166.000000,2.000000,LowGoal,2167.500000,-2181.818182,Speed,2160.000000,-2181.818182,Speed,Off,Off,0.000000,FALSE,0,,,,,0.000000,0.000000
09:13:42.704 AM 04/14/2016,Teleop Enabled,10,FALSE,0,NO ERROR,-0.000000,0.000000,-0.000000,0.051333,TRUE,FALSE,TRUE,FALSE,FALSE,FALSE,Disabled,0.000000,0.000000,0.000000,TRUE,0.343414,0.373489,0.000000,0.835602,-0.206787,0.000000,0.084000,-0.083000,0.066000,2.400000,-0.310000,-0.780000,-0.082394,Hold,0.001709,0.000000,Hold,-166.000000,2.000000,LowGoal,2167.500000,-2181.818182,Speed,2160.000000,-2181.818182,Speed,Off,Off,0.000000,FALSE,0,,,,,0.000000,0.000000
09:13:42.804 AM 04/14/2016,Teleop Enabled,10,FALSE,0,NO ERROR,-0.000000,0.000000,-0.000000,0.051333,TRUE,FALSE,TRUE,FALSE,FALSE,FALSE,Disabled,0.000000,0.000000,0.000000,TRUE,0.387161,0.360077,0.000000,0.903946,-0.323959,0.000000,0.046000,-0.112000,-0.008000,2.310000,-0.320000,-0.680000,-0.068855,Hold,0.001709,0.000000,Hold,-166.000000,2.000000,LowGoal,2167.500000,-2181.818182,Speed,2160.000000,-2181.818182,Speed,Off,Off,0.000000,FALSE,0,,,,,0.000000,0.000000
09:13:42.904 AM 04/14/2016,Teleop Enabled,10,FALSE,0,NO ERROR,-0.000000,0.000000,-0.000000,0.051333,TRUE,FALSE,TRUE,FALSE,FALSE,FALSE,Disabled,0.000000,0.000000,0.000000,TRUE,0.432938,0.340668,0.000000,0.922241,-0.435074,0.000000,-0.025000,-0.124000,0.062000,2.260000,-0.310000,-0.830000,-0.062723,Hold,0.001709,0.000000,Hold,-165.000000,2.000000,LowGoal,2167.500000,-2181.818182,Speed,2160.000000,-2181.818182,Speed,Off,Off,0.000000,FALSE,0,,,,,0.000000,0.000000
09:13:43.004 AM 04/14/2016,Teleop Enabled,9,FALSE,0,NO ERROR,-0.000000,0.000000,-0.000000,0.051333,TRUE,FALSE,TRUE,FALSE,FALSE,FALSE,Disabled,0.000000,0.000000,0.000000,TRUE,0.478577,0.315826,0.000000,0.902863,-0.533203,0.000000,-0.029000,-0.192000,-0.098000,2.260000,-0.290000,-1.060000,-0.079058,Hold,0.001709,0.000000,Hold,-165.000000,2.000000,LowGoal,2167.500000,-2181.818182,Speed,2160.000000,-2181.818182,Speed,Off,Off,0.000000,FALSE,0,,,,,0.000000,0.000000
09:13:43.104 AM 04/14/2016,Teleop Enabled,10,FALSE,0,NO ERROR,-0.000000,0.000000,-0.000000,0.051333,TRUE,FALSE,TRUE,FALSE,FALSE,FALSE,Disabled,0.000000,0.000000,0.000000,TRUE,0.531647,0.279129,0.000000,0.862595,-0.650711,0.000000,0.059000,-0.116000,-0.025000,2.280000,-0.300000,-1.360000,-0.091352,Hold,0.001709,0.000000,Hold,-165.000000,2.000000,LowGoal,2167.500000,-2181.818182,Speed,2160.000000,-2181.818182,Speed,Off,Off,0.000000,FALSE,0,,,,,0.000000,0.000000
09:13:43.204 AM 04/14/2016,Teleop Enabled,11,FALSE,0,NO ERROR,-0.000000,0.000000,-0.000000,0.051333,TRUE,FALSE,TRUE,FALSE,FALSE,FALSE,Disabled,0.000000,0.000000,0.000000,TRUE,0.575180,0.244293,0.000000,0.881683,-0.718582,0.000000,0.071000,-0.099000,-0.015000,2.360000,-0.290000,-1.560000,-0.092577,Hold,0.001709,0.000000,Hold,-165.000000,2.000000,LowGoal,2175.000000,-2181.818182,Speed,2160.000000,-2181.818182,Speed,Off,Off,0.000000,FALSE,0,,,,,0.000000,0.000000
09:13:43.304 AM 04/14/2016,Teleop Enabled,10,FALSE,0,NO ERROR,-0.000000,0.000000,-0.000000,0.051333,TRUE,FALSE,TRUE,FALSE,FALSE,FALSE,Disabled,0.000000,0.000000,0.000000,TRUE,0.621628,0.205582,0.000000,0.962494,-0.811279,0.000000,0.089000,-0.083000,0.085000,2.380000,-0.290000,-1.490000,-0.081895,Hold,0.001709,0.000000,Hold,-165.000000,2.000000,LowGoal,2167.500000,-2181.818182,Speed,2160.000000,-2181.818182,Speed,Off,Off,0.000000,FALSE,0,,,,,0.000000,0.000000
09:13:43.404 AM 04/14/2016,Teleop Enabled,9,FALSE,0,NO ERROR,-0.000000,0.000000,-0.000000,0.051333,TRUE,FALSE,TRUE,FALSE,FALSE,FALSE,Disabled,0.000000,0.000000,0.000000,TRUE,0.672470,0.161682,0.000000,1.047409,-0.917694,0.000000,0.033000,-0.088000,0.180000,2.400000,-0.300000,-1.210000,-0.104124,Hold,0.001709,0.000000,Hold,-165.000000,2.000000,LowGoal,2175.000000,-2181.818182,Speed,2160.000000,-2181.818182,Speed,Off,Off,0.000000,FALSE,0,,,,,0.000000,0.000000
09:13:43.504 AM 04/14/2016,Teleop Enabled,11,FALSE,0,NO ERROR,-0.000000,0.000000,-0.000000,0.051333,TRUE,FALSE,TRUE,FALSE,FALSE,FALSE,Disabled,0.000000,0.000000,0.000000,TRUE,0.725189,0.112503,0.000000,1.052628,-1.027832,0.000000,0.033000,-0.088000,0.180000,2.350000,-0.300000,-1.030000,-0.099755,Hold,0.001709,0.000000,Hold,-165.000000,2.000000,LowGoal,2167.500000,-2181.818182,Speed,2160.000000,-2181.818182,Speed,Off,Off,0.000000,FALSE,0,,,,,0.000000,0.000000
09:13:43.604 AM 04/14/2016,Teleop Enabled,9,FALSE,0,NO ERROR,-0.000000,0.000000,-0.000000,0.057750,TRUE,FALSE,TRUE,FALSE,FALSE,FALSE,Disabled,0.000000,0.000000,0.000000,TRUE,0.746231,0.058746,0.000000,0.010468,-1.114777,0.000000,-0.028000,-0.087000,0.154000,2.350000,-0.310000,-0.900000,-0.106578,Hold,0.001709,0.000000,Hold,-165.000000,2.000000,LowGoal,2167.500000,-2181.818182,Speed,2160.000000,-2181.818182,Speed,Off,Off,0.000000,FALSE,0,,,,,0.000000,0.000000
09:13:43.705 AM 04/14/2016,Teleop Enabled,9,FALSE,0,NO ERROR,-0.000000,0.000000,-0.000000,0.057750,TRUE,FALSE,TRUE,FALSE,FALSE,FALSE,Disabled,0.000000,0.000000,0.000000,TRUE,0.746216,0.000610,0.000000,0.000809,-1.193909,0.000000,0.005000,-0.043000,0.042000,2.380000,-0.310000,-0.870000,-0.111119,Hold,0.001709,0.000000,Hold,-165.000000,2.000000,LowGoal,2160.000000,-2181.818182,Speed,2160.000000,-2181.818182,Speed,Off,Off,0.000000,FALSE,0,,,,,0.000000,0.000000
09:13:43.805 AM 04/14/2016,Teleop Enabled,9,FALSE,0,NO ERROR,-0.000000,0.000000,-0.000000,0.057750,TRUE,FALSE,TRUE,FALSE,FALSE,FALSE,Disabled,0.000000,0.000000,0.000000,TRUE,0.745636,-0.035660,0.000000,-0.032883,0.000000,0.000000,0.005000,-0.043000,0.042000,2.400000,-0.300000,-0.890000,-0.115012,Hold,0.001709,0.000000,Hold,-165.000000,2.000000,LowGoal,2152.500000,-2181.818182,Speed,2160.000000,-2181.818182,Speed,Off,Off,0.000000,FALSE,0,,,,,0.000000,0.000000
09:13:43.906 AM 04/14/2016,Teleop Enabled,12,FALSE,0,NO ERROR,-0.000000,0.000000,-0.000000,0.057750,TRUE,FALSE,TRUE,FALSE,FALSE,FALSE,Disabled,0.000000,0.000000,0.000000,TRUE,0.742096,-0.035904,0.000000,-0.095917,0.013245,0.000000,-0.076000,-0.073000,-0.023000,2.400000,-0.300000,-0.890000,-0.112761,Hold,0.001709,0.000000,Hold,-165.000000,2.000000,LowGoal,2137.500000,-2181.818182,Speed,2160.000000,-2181.818182,Speed,Off,Off,0.000000,FALSE,0,,,,,0.000000,0.000000
09:13:44.006 AM 04/14/2016,Teleop Enabled,12,FALSE,0,NO ERROR,-0.000000,0.000000,-0.000000,0.057750,TRUE,FALSE,TRUE,FALSE,FALSE,FALSE,Disabled,0.000000,0.000000,0.000000,TRUE,0.742096,-0.035904,0.000000,-0.095917,0.013245,0.000000,-0.048000,0.098000,0.018000,2.450000,-0.300000,-0.970000,-0.096715,Hold,0.001709,0.000000,Hold,-165.000000,2.000000,LowGoal,2145.000000,-2181.818182,Speed,2160.000000,-2181.818182,Speed,Off,Off,0.000000,FALSE,0,,,,,0.000000,0.000000
09:13:44.108 AM 04/14/2016,Teleop Enabled,9,FALSE,0,NO ERROR,-0.000000,0.000000,-0.000000,0.057750,TRUE,FALSE,TRUE,FALSE,FALSE,FALSE,Disabled,0.000000,0.000000,0.000000,TRUE,0.733032,-0.022964,0.000000,-0.041000,0.212418,0.000000,0.101000,0.140000,0.031000,2.440000,-0.320000,-0.670000,-0.086312,Hold,0.001709,0.000000,Hold,-165.000000,2.000000,LowGoal,2152.500000,-2181.818182,Speed,2167.500000,-2181.818182,Speed,Off,Off,0.000000,FALSE,0,,,,,0.000000,0.000000
09:13:44.207 AM 04/14/2016,Teleop Enabled,13,FALSE,0,NO ERROR,-0.000000,0.000000,-0.000000,0.064167,TRUE,FALSE,TRUE,FALSE,FALSE,FALSE,Disabled,0.000000,0.000000,0.000000,TRUE,0.733032,-0.022964,0.000000,-0.041000,0.212418,0.000000,0.025000,0.091000,0.148000,2.390000,-0.330000,-0.460000,-0.111535,Hold,0.001709,0.000000,Hold,-165.000000,2.000000,LowGoal,2145.000000,-2181.818182,Speed,2167.500000,-2181.818182,Speed,Off,Off,0.000000,FALSE,0,,,,,0.000000,0.000000
09:13:44.308 AM 04/14/2016,Teleop Enabled,11,FALSE,0,NO ERROR,-0.000000,0.000000,-0.000000,0.064167,TRUE,FALSE,TRUE,FALSE,FALSE,FALSE,Disabled,0.000000,0.000000,0.000000,TRUE,0.723434,0.005264,0.000000,-0.155838,0.326370,0.000000,-0.119000,0.123000,0.076000,2.290000,-0.320000,-0.540000,-0.105174,Hold,0.001709,0.000000,Hold,-165.000000,2.000000,LowGoal,2145.000000,-2181.818182,Speed,2160.000000,-2181.818182,Speed,Off,Off,0.000000,FALSE,0,,,,,0.000000,0.000000
09:13:44.408 AM 04/14/2016,Teleop Enabled,10,FALSE,0,NO ERROR,-0.000000,0.000000,-0.000000,0.064167,TRUE,FALSE,TRUE,FALSE,FALSE,FALSE,Disabled,0.000000,0.000000,0.000000,TRUE,0.713882,0.023865,0.000000,-0.209854,0.397095,0.000000,-0.048000,0.081000,-0.009000,2.370000,-0.320000,-0.640000,-0.095989,Hold,0.001709,0.000000,Hold,-165.000000,2.000000,LowGoal,2145.000000,-2181.818182,Speed,2160.000000,-2181.818182,Speed,Off,Off,0.000000,FALSE,0,,,,,0.000000,0.000000
09:13:44.508 AM 04/14/2016,Teleop Enabled,11,FALSE,0,NO ERROR,-0.000000,0.000000,-0.000000,0.128333,TRUE,FALSE,TRUE,FALSE,FALSE,FALSE,Disabled,0.000000,0.000000,0.000000,TRUE,0.713882,0.023865,0.000000,-0.209854,0.397095,0.000000,-0.002000,-0.096000,-0.189000,2.480000,-0.320000,-0.640000,-0.088815,Hold,0.001709,0.000000,Hold,-165.000000,2.000000,LowGoal,2152.500000,-2181.818182,Speed,2160.000000,-2181.818182,Speed,Off,Off,0.000000,FALSE,0,,,,,0.000000,0.000000
09:13:44.612 AM 04/14/2016,Teleop Enabled,11,FALSE,0,NO ERROR,-0.000000,0.000000,-0.000000,0.128333,TRUE,FALSE,TRUE,FALSE,FALSE,FALSE,Disabled,0.000000,0.000000,0.000000,TRUE,0.703842,0.043671,0.000000,-0.185730,0.412262,0.000000,0.054000,-0.035000,-0.152000,2.520000,-0.330000,-0.560000,-0.110021,Hold,0.001709,0.000000,Hold,-165.000000,2.000000,LowGoal,2160.000000,-2181.818182,Speed,2160.000000,-2181.818182,Speed,Off,Off,0.000000,FALSE,0,,,,,0.000000,0.000000
09:13:44.715 AM 04/14/2016,Teleop Enabled,12,FALSE,0,NO ERROR,-0.000000,0.000000,-0.000000,0.134750,TRUE,FALSE,TRUE,FALSE,FALSE,FALSE,Disabled,0.000000,0.000000,0.000000,TRUE,0.691986,0.083664,0.000000,0.000000,0.385620,0.000000,0.018000,0.065000,0.047000,2.280000,-0.350000,-0.540000,-0.108272,Hold,0.001709,0.000000,Hold,-165.000000,2.000000,LowGoal,2145.000000,-2181.818182,Speed,2160.000000,-2181.818182,Speed,Off,Off,0.000000,FALSE,0,,,,,0.000000,0.000000
09:13:44.815 AM 04/14/2016,Teleop Enabled,11,FALSE,0,NO ERROR,-0.000000,0.000000,-0.000000,0.134750,TRUE,FALSE,TRUE,FALSE,FALSE,FALSE,Disabled,0.000000,0.000000,0.000000,TRUE,0.694336,0.103760,0.000000,0.089096,0.389130,0.000000,0.087000,0.064000,-0.032000,2.280000,-0.350000,-0.540000,-0.116197,Hold,0.001709,0.000000,Hold,-165.000000,2.000000,LowGoal,2145.000000,-2181.818182,Speed,2160.000000,-2181.818182,Speed,Off,Off,0.000000,FALSE,0,,,,,0.000000,0.000000
09:13:44.916 AM 04/14/2016,Teleop Enabled,12,FALSE,0,NO ERROR,-0.000000,0.000000,-0.000000,0.134750,TRUE,FALSE,TRUE,FALSE,FALSE,FALSE,Disabled,0.000000,0.000000,0.000000,TRUE,0.694336,0.103760,0.000000,0.089096,0.389130,0.000000,0.130000,0.040000,0.013000,2.440000,-0.350000,-0.540000,-0.114971,Hold,0.001709,0.000000,Hold,-165.000000,2.000000,LowGoal,2152.500000,-2181.818182,Speed,2160.000000,-2181.818182,Speed,Off,Off,0.000000,FALSE,0,,,,,0.000000,0.000000
09:13:45.016 AM 04/14/2016,Teleop Enabled,12,FALSE,0,NO ERROR,-0.000000,0.000000,-0.000000,0.141166,TRUE,FALSE,TRUE,FALSE,FALSE,FALSE,Disabled,0.000000,0.000000,0.000000,TRUE,0.705994,0.126129,0.000000,0.269745,0.336639,0.000000,0.165000,-0.111000,-0.180000,2.470000,-0.350000,-0.720000,-0.114210,Hold,0.001709,0.000000,Hold,-165.000000,2.000000,LowGoal,2152.500000,-2181.818182,Speed,2167.500000,-2181.818182,Speed,Off,Off,0.000000,FALSE,0,,,,,0.000000,0.000000
09:13:45.119 AM 04/14/2016,Teleop Enabled,11,FALSE,0,NO ERROR,-0.000000,0.000000,-0.000000,0.141166,TRUE,FALSE,TRUE,FALSE,FALSE,FALSE,Disabled,0.000000,0.000000,0.000000,TRUE,0.737564,0.146042,0.000000,0.391388,0.102722,0.000000,0.059000,-0.224000,-0.156000,2.470000,-0.350000,-0.720000,-0.118575,Hold,0.001709,0.000000,Hold,-165.000000,2.000000,LowGoal,2145.000000,-2181.818182,Speed,2160.000000,-2181.818182,Speed,Off,Off,0.000000,FALSE,0,,,,,0.000000,0.000000
