Time,Robot Mode,Loop Time,Error Status,Error Code,Error Source,Left Motor Output,Left Motor Encoder,Right Motor Output,Right Motor Encoder,Is Level,Is Stalled,Ball Detector Photoeye,Vision Enabled,Vision Teleop Control,Vision Auto Control,Vision Current State,Vision X Output,Vision NavX Error,Vision NavX Target,NavX Connection Status,NavX Displacement X,NavX Displacement Y,NavX Displacement Z,NavX Velocity X,NavX Velocity Y,NavX Velocity Z,NavX Acceleration X,NavX Acceleration Y,NavX Acceleration Z,NavX Pitch,NavX Yaw,NavX Roll,Gyro Angle,Roller Arm State,Roller Arm Actual,Roller Arm Desired,Shooter Arm State,Shooter Arm Actual,Shooter Arm Desired,Shooter State,Actual RPM Left,Desired RPM Left,Control Mode Left,Actual RPM Right,Desired RPM Right,Control Mode Right,Ball Shooter Cylinder,Ball Halo Cylinder,Scaler Motor Output,Scaler Solenoid Fire,Auto To Run,Auto Current File,Auto File Status,Auto Current Command,Auto Trimmed Command,Shooter Amps Left,Shooter Amps Right, Vision After Offset
11:59:59.254 AM 04/28/2016,Teleop Enabled,10,FALSE,0,NO ERROR,0.000000,-0.051333,0.000000,-0.038500,TRUE,FALSE,FALSE,TRUE,FALSE,FALSE,Disabled,0.000000,0.000000,0.000000,TRUE,-0.005783,0.006470,0.000000,0.000000,0.000000,0.000000,0.001000,0.000000,0.006000,1.200000,0.170000,-0.030000,2.614437,ResetBack,0.823975,-0.000049,ResetBack,974.000000,-0.250000,Suck,0.000000,1818.181818,Speed,0.000000,1818.181818,Speed,Off,On,0.000000,FALSE,10,,,,,0.000000,0.000000,-0.050000
11:59:59.355 AM 04/28/2016,Teleop Enabled,13,FALSE,0,NO ERROR,-0.000000,-0.051333,-0.000000,-0.038500,TRUE,FALSE,FALSE,FALSE,FALSE,FALSE,Disabled,0.000000,0.000000,0.000000,TRUE,-0.005920,0.006439,0.000000,-0.012665,0.002426,0.000000,-0.198000,-0.035000,-0.053000,1.210000,0.150000,-0.060000,2.620548,ResetBack,0.295166,-0.000049,ResetBack,1207.000000,-0.250000,Suck,-60.000000,1818.181818,Speed,-15.000000,1818.181818,Speed,Off,On,0.000000,FALSE,10,,,,,0.000000,0.000000,-0.050000
11:59:59.454 AM 04/28/2016,Teleop Enabled,10,FALSE,0,NO ERROR,-0.000000,-0.051333,-0.000000,-0.070583,TRUE,FALSE,FALSE,FALSE,FALSE,FALSE,Disabled,0.000000,0.000000,0.000000,TRUE,-0.009109,0.005203,0.000000,-0.070480,-0.050186,0.000000,-0.053000,0.026000,-0.066000,1.220000,0.140000,-0.300000,2.607748,ResetBack,-0.434082,-0.000049,ResetBack,5910.000000,-0.250000,Suck,-607.500000,1818.181818,Speed,-427.500000,1818.181818,Speed,Off,On,0.000000,FALSE,10,,,,,0.000000,0.000000,-0.050000
11:59:59.555 AM 04/28/2016,Teleop Enabled,9,FALSE,0,NO ERROR,-0.000000,-0.051333,-0.000000,-0.070583,TRUE,FALSE,FALSE,FALSE,FALSE,FALSE,Disabled,0.000000,0.000000,0.000000,TRUE,-0.012177,0.003662,0.000000,-0.051941,0.000000,0.000000,-0.053000,0.026000,-0.066000,1.220000,0.140000,-0.300000,2.607869,ResetBack,-0.435791,-0.000049,ResetBack,13013.000000,-0.250000,Suck,-1215.000000,1818.181818,Speed,-1072.500000,1818.181818,Speed,Off,On,0.000000,FALSE,10,,,,,0.000000,0.000000,-0.050000
11:59:59.655 AM 04/28/2016,Teleop Enabled,11,FALSE,0,NO ERROR,-0.000000,-0.051333,-0.000000,-0.070583,TRUE,FALSE,FALSE,FALSE,FALSE,FALSE,Disabled,0.000000,0.000000,0.000000,TRUE,-0.014694,0.003159,0.000000,-0.040649,-0.015747,0.000000,-0.041000,-0.003000,0.051000,1.250000,0.130000,-0.190000,2.616874,Reset,-0.461670,0.000000,ResetBack,21613.000000,-0.250000,Suck,-1627.500000,1818.181818,Speed,-1627.500000,1818.181818,Speed,Off,On,0.000000,FALSE,10,,,,,0.000000,0.000000,-0.050000
11:59:59.758 AM 04/28/2016,Teleop Enabled,10,FALSE,0,NO ERROR,-0.000000,-0.051333,-0.000000,-0.070583,TRUE,FALSE,FALSE,FALSE,FALSE,FALSE,Disabled,0.000000,0.000000,0.000000,TRUE,-0.015228,0.002457,0.000000,-0.009842,-0.021271,0.000000,-0.008000,-0.012000,-0.010000,1.230000,0.100000,0.060000,2.603841,Hold,-0.010254,0.000000,ResetBack,21613.000000,-0.250000,Suck,-1867.500000,1818.181818,Speed,-1897.500000,1818.181818,Speed,Off,On,0.000000,FALSE,10,,,,,0.000000,0.000000,-0.050000
11:59:59.857 AM 04/28/2016,Teleop Enabled,9,FALSE,0,NO ERROR,-0.000000,-0.051333,-0.000000,-0.070583,TRUE,FALSE,FALSE,FALSE,FALSE,FALSE,Disabled,0.000000,0.000000,0.000000,TRUE,-0.014999,0.001221,0.000000,0.015839,-0.019241,0.000000,0.051000,-0.071000,-0.075000,1.210000,0.090000,0.000000,2.604192,Hold,-0.010254,0.000000,ResetBack,30284.000000,-0.250000,Suck,-1815.000000,1818.181818,Speed,-1770.000000,1818.181818,Speed,Off,On,0.000000,FALSE,10,,,,,0.000000,0.000000,-0.050000
11:59:59.958 AM 04/28/2016,Teleop Enabled,9,FALSE,0,NO ERROR,-0.000000,-0.051333,-0.000000,-0.070583,TRUE,FALSE,FALSE,FALSE,FALSE,FALSE,Disabled,0.000000,0.000000,0.000000,TRUE,-0.014893,-0.000671,0.000000,-0.001404,-0.045242,0.000000,-0.005000,-0.040000,-0.049000,1.260000,0.090000,-0.040000,2.609342,Hold,-0.010254,0.000000,ResetBack,34398.000000,-0.250000,Suck,-1762.500000,1818.181818,Speed,-1635.000000,1818.181818,Speed,Off,On,0.000000,FALSE,10,,,,,0.000000,0.000000,-0.050000
12:00:00.058 PM 04/28/2016,Teleop Enabled,10,FALSE,0,NO ERROR,-0.000000,-0.051333,-0.000000,-0.070583,TRUE,FALSE,FALSE,FALSE,FALSE,FALSE,Disabled,0.000000,0.000000,0.000000,TRUE,-0.015045,-0.002304,0.000000,-0.009216,-0.026047,0.000000,0.046000,0.022000,0.017000,1.280000,0.090000,-0.100000,2.594487,Hold,-0.010254,0.000000,ResetBack,35215.000000,-0.250000,Suck,-1740.000000,1818.181818,Speed,-1627.500000,1818.181818,Speed,Off,On,0.000000,FALSE,10,,,,,0.000000,0.000000,-0.050000
12:00:00.160 PM 04/28/2016,Teleop Enabled,12,FALSE,0,NO ERROR,-0.000000,-0.051333,-0.000000,-0.070583,TRUE,FALSE,FALSE,FALSE,FALSE,FALSE,Disabled,0.000000,0.000000,0.000000,TRUE,-0.015091,-0.003845,0.000000,-0.003220,-0.031769,0.000000,0.087000,0.004000,-0.030000,1.350000,0.090000,-0.140000,2.615601,Hold,-0.010254,0.000000,ResetBack,35544.000000,-0.250000,Suck,-1747.500000,1818.181818,Speed,-1687.500000,1818.181818,Speed,Off,On,0.000000,FALSE,10,,,,,0.000000,0.000000,-0.050000
12:00:00.261 PM 04/28/2016,Teleop Enabled,9,FALSE,0,NO ERROR,-0.000000,-0.051333,-0.000000,-0.070583,TRUE,FALSE,FALSE,FALSE,FALSE,FALSE,Disabled,0.000000,0.000000,0.000000,TRUE,-0.014969,-0.005264,0.000000,0.004135,-0.005432,0.000000,-0.016000,0.009000,0.027000,1.370000,0.090000,-0.160000,2.616847,Hold,-0.010254,0.000000,ResetBack,35559.000000,-0.250000,Suck,-1770.000000,1818.181818,Speed,-1702.500000,1818.181818,Speed,Off,On,0.000000,FALSE,10,,,,,0.000000,0.000000,-0.050000
12:00:00.363 PM 04/28/2016,Teleop Enabled,11,FALSE,0,NO ERROR,-0.000000,-0.051333,-0.000000,-0.070583,TRUE,FALSE,FALSE,FALSE,FALSE,FALSE,Disabled,0.000000,0.000000,0.000000,TRUE,-0.014969,-0.005630,0.000000,0.000488,-0.009781,0.000000,-0.019000,0.038000,-0.002000,1.300000,0.080000,-0.150000,2.624744,Hold,-0.010254,0.000000,ResetBack,35559.000000,-0.250000,Suck,-1762.500000,1818.181818,Speed,-1687.500000,1818.181818,Speed,Off,On,0.000000,FALSE,10,,,,,0.000000,0.000000,-0.050000
12:00:00.463 PM 04/28/2016,Teleop Enabled,10,FALSE,0,NO ERROR,-0.000000,-0.051333,-0.000000,-0.070583,TRUE,FALSE,FALSE,FALSE,FALSE,FALSE,Disabled,0.000000,0.000000,0.000000,TRUE,-0.014099,-0.006104,0.000000,0.014343,-0.002808,0.000000,-0.013000,-0.015000,-0.003000,1.300000,0.080000,-0.150000,2.613566,Hold,-0.010254,0.000000,ResetBack,35566.000000,-0.250000,Suck,-1762.500000,1818.181818,Speed,-1665.000000,1818.181818,Speed,Off,On,0.000000,FALSE,10,,,,,0.000000,0.000000,-0.050000
12:00:00.563 PM 04/28/2016,Teleop Enabled,9,FALSE,0,NO ERROR,-0.000000,-0.051333,-0.000000,-0.070583,TRUE,FALSE,FALSE,FALSE,FALSE,FALSE,Disabled,0.000000,0.000000,0.000000,TRUE,-0.013245,-0.006363,0.000000,0.024048,0.002258,0.000000,-0.013000,-0.015000,-0.003000,1.320000,0.080000,-0.150000,2.632989,Hold,-0.010254,0.000000,Reset,35573.000000,2.000000,Suck,-1762.500000,1818.181818,Speed,-1680.000000,1818.181818,Speed,Off,On,0.000000,FALSE,10,,,,,0.000000,0.000000,-0.050000
12:00:00.664 PM 04/28/2016,Teleop Enabled,12,FALSE,0,NO ERROR,-0.000000,-0.051333,-0.000000,-0.070583,TRUE,FALSE,FALSE,FALSE,FALSE,FALSE,Disabled,0.000000,0.000000,0.000000,TRUE,-0.011154,-0.006683,0.000000,0.044388,-0.004974,0.000000,0.074000,0.015000,-0.030000,1.350000,0.080000,-0.070000,2.637389,Hold,-0.010254,0.000000,Hold,-182.000000,2.000000,Suck,-1755.000000,1818.181818,Speed,-1687.500000,1818.181818,Speed,Off,On,0.000000,FALSE,10,,,,,0.000000,0.000000,-0.050000
12:00:00.764 PM 04/28/2016,Teleop Enabled,11,FALSE,0,NO ERROR,-0.000000,-0.051333,-0.000000,-0.070583,TRUE,FALSE,FALSE,FALSE,FALSE,FALSE,Disabled,0.000000,0.000000,0.000000,TRUE,-0.011765,-0.007141,0.000000,0.000000,-0.015137,0.000000,-0.004000,-0.065000,-0.050000,1.340000,0.080000,0.000000,2.648119,Hold,-0.010254,0.000000,Hold,-173.000000,2.000000,Suck,-1762.500000,1818.181818,Speed,-1680.000000,1818.181818,Speed,Off,On,0.000000,FALSE,10,,,,,0.000000,0.000000,-0.050000
12:00:00.871 PM 04/28/2016,Teleop Enabled,12,FALSE,0,NO ERROR,-0.000000,-0.051333,-0.000000,-0.070583,TRUE,FALSE,FALSE,FALSE,FALSE,FALSE,Disabled,0.000000,0.000000,0.000000,TRUE,-0.010712,-0.008621,0.000000,0.013855,-0.025375,0.000000,0.069000,-0.041000,-0.037000,1.270000,0.070000,0.010000,2.644029,Hold,-0.010254,0.000000,Hold,-173.000000,2.000000,Suck,-1762.500000,1818.181818,Speed,-1687.500000,1818.181818,Speed,Off,On,0.000000,FALSE,10,,,,,0.000000,0.000000,-0.050000
12:00:00.969 PM 04/28/2016,Teleop Enabled,14,FALSE,0,NO ERROR,-0.000000,-0.051333,-0.000000,-0.070583,TRUE,FALSE,FALSE,FALSE,FALSE,FALSE,Disabled,0.000000,0.000000,0.000000,TRUE,-0.010666,-0.009109,0.000000,-0.002426,-0.008118,0.000000,0.003000,0.101000,-0.001000,1.270000,0.070000,0.010000,2.650687,Hold,-0.010254,0.000000,Hold,-173.000000,2.000000,Suck,-1762.500000,1818.181818,Speed,-1695.000000,1818.181818,Speed,Off,On,0.000000,FALSE,10,,,,,0.000000,0.000000,-0.050000
12:00:01.072 PM 04/28/2016,Teleop Enabled,13,FALSE,0,NO ERROR,-0.000000,-0.051333,-0.000000,-0.070583,TRUE,FALSE,FALSE,FALSE,FALSE,FALSE,Disabled,0.000000,0.000000,0.000000,TRUE,-0.012238,-0.010284,0.000000,-0.032181,-0.025970,0.000000,-0.083000,-0.032000,0.033000,1.320000,0.070000,-0.110000,2.652581,Hold,-0.010254,0.000000,Hold,-173.000000,2.000000,Suck,-1762.500000,1818.181818,Speed,-1680.000000,1818.181818,Speed,Off,On,0.000000,FALSE,10,,,,,0.000000,0.000000,-0.050000
12:00:01.173 PM 04/28/2016,Teleop Enabled,11,FALSE,0,NO ERROR,-0.000000,-0.051333,-0.000000,-0.070583,TRUE,FALSE,FALSE,FALSE,FALSE,FALSE,Disabled,0.000000,0.000000,0.000000,TRUE,-0.013214,-0.011887,0.000000,-0.011749,-0.039230,0.000000,0.009000,-0.058000,-0.027000,1.240000,0.040000,-0.020000,2.618296,Hold,-0.010254,0.000000,Hold,-173.000000,2.000000,Suck,-1762.500000,1818.181818,Speed,-1680.000000,1818.181818,Speed,Off,On,0.000000,FALSE,10,,,,,0.000000,0.000000,-0.050000
12:00:01.273 PM 04/28/2016,Teleop Enabled,10,FALSE,0,NO ERROR,-0.000000,-0.051333,-0.000000,-0.070583,TRUE,FALSE,FALSE,FALSE,FALSE,FALSE,Disabled,0.000000,0.000000,0.000000,TRUE,-0.014053,-0.013489,0.000000,-0.030334,-0.032410,0.000000,-0.042000,0.012000,0.003000,1.240000,0.040000,-0.020000,2.601073,Hold,-0.010254,0.000000,Hold,-173.000000,2.000000,Suck,-1762.500000,1818.181818,Speed,-1680.000000,1818.181818,Speed,Off,On,0.000000,FALSE,10,,,,,0.000000,0.000000,-0.050000
12:00:01.375 PM 04/28/2016,Teleop Enabled,10,FALSE,0,NO ERROR,-0.000000,-0.051333,-0.000000,-0.070583,TRUE,FALSE,FALSE,FALSE,FALSE,FALSE,Disabled,0.000000,0.000000,0.000000,TRUE,-0.016434,-0.014740,0.000000,-0.042252,-0.019714,0.000000,0.019000,-0.034000,0.006000,1.290000,0.000000,-0.160000,2.599933,Hold,-0.010254,0.000000,Hold,-173.000000,2.000000,Suck,-1762.500000,1818.181818,Speed,-1687.500000,1818.181818,Speed,Off,On,0.000000,FALSE,10,,,,,0.000000,0.000000,-0.050000
12:00:01.479 PM 04/28/2016,Teleop Enabled,9,FALSE,0,NO ERROR,-0.000000,-0.051333,-0.000000,-0.070583,TRUE,FALSE,FALSE,FALSE,FALSE,FALSE,Disabled,0.000000,0.000000,0.000000,TRUE,-0.018677,-0.015686,0.000000,-0.036041,-0.030151,0.000000,0.021000,-0.031000,0.047000,1.290000,0.000000,-0.160000,2.663755,Hold,-0.010254,0.000000,Hold,-173.000000,2.000000,Suck,-1762.500000,1818.181818,Speed,-1687.500000,1818.181818,Speed,Off,On,0.000000,FALSE,10,,,,,0.000000,0.000000,-0.050000
12:00:01.585 PM 04/28/2016,Teleop Enabled,11,FALSE,0,NO ERROR,-0.000000,-0.051333,-0.000000,-0.070583,TRUE,FALSE,FALSE,FALSE,FALSE,FALSE,Disabled,0.000000,0.000000,0.000000,TRUE,-0.018677,-0.015686,0.000000,-0.036041,-0.030151,0.000000,0.059000,-0.048000,0.015000,1.300000,0.030000,-0.200000,2.683722,Hold,-0.010254,0.000000,Hold,-173.000000,2.000000,Suck,-1770.000000,1818.181818,Speed,-1680.000000,1818.181818,Speed,Off,On,0.000000,FALSE,10,,,,,0.000000,0.000000,-0.050000
12:00:01.683 PM 04/28/2016,Teleop Enabled,5,FALSE,0,NO ERROR,-0.000000,-0.051333,-0.000000,-0.070583,TRUE,FALSE,FALSE,FALSE,FALSE,FALSE,Disabled,0.000000,0.000000,0.000000,TRUE,-0.019348,-0.017654,0.000000,-0.007233,-0.044769,0.000000,0.006000,-0.031000,0.024000,1.260000,0.040000,-0.050000,2.683722,Hold,-0.010254,0.000000,Hold,-173.000000,2.000000,Suck,-1762.500000,1818.181818,Speed,-1680.000000,1818.181818,Speed,Off,On,0.000000,FALSE,10,,,,,0.000000,0.000000,-0.050000
12:00:01.783 PM 04/28/2016,Teleop Enabled,11,FALSE,0,NO ERROR,-0.000000,-0.051333,-0.000000,-0.070583,TRUE,FALSE,FALSE,FALSE,FALSE,FALSE,Disabled,0.000000,0.000000,0.000000,TRUE,-0.018723,-0.020737,0.000000,0.007004,-0.020386,0.000000,0.010000,-0.065000,-0.039000,1.330000,0.050000,-0.070000,2.702866,Hold,-0.010254,0.000000,Hold,-173.000000,2.000000,Suck,-1762.500000,1818.181818,Speed,-1680.000000,1818.181818,Speed,Off,On,0.000000,FALSE,10,,,,,0.000000,0.000000,-0.050000
12:00:01.883 PM 04/28/2016,Teleop Enabled,13,FALSE,0,NO ERROR,-0.000000,-0.051333,-0.000000,-0.070583,TRUE,FALSE,FALSE,FALSE,FALSE,FALSE,Disabled,0.000000,0.000000,0.000000,TRUE,-0.018387,-0.022568,0.000000,0.008133,-0.041428,0.000000,-0.016000,0.030000,0.018000,1.270000,0.050000,0.030000,2.720127,Hold,-0.010254,0.000000,Hold,-173.000000,2.000000,Suck,-1770.000000,1818.181818,Speed,-1680.000000,1818.181818,Speed,Off,On,0.000000,FALSE,10,,,,,0.000000,0.000000,-0.050000
12:00:01.984 PM 04/28/2016,Teleop Enabled,8,FALSE,0,NO ERROR,-0.000000,-0.051333,-0.000000,-0.070583,TRUE,FALSE,FALSE,FALSE,FALSE,FALSE,Disabled,0.000000,0.000000,0.000000,TRUE,-0.018082,-0.024857,0.000000,-0.000977,-0.048233,0.000000,-0.001000,0.009000,0.021000,1.310000,0.060000,-0.040000,2.736541,Hold,-0.010254,0.000000,Hold,-173.000000,2.000000,Suck,-1770.000000,1818.181818,Speed,-1687.500000,1818.181818,Speed,Off,On,0.000000,FALSE,10,,,,,0.000000,0.000000,-0.050000
12:00:02.085 PM 04/28/2016,Teleop Enabled,11,FALSE,0,NO ERROR,-0.000000,-0.051333,-0.000000,-0.070583,TRUE,FALSE,FALSE,FALSE,FALSE,FALSE,Disabled,0.000000,0.000000,0.000000,TRUE,-0.018082,-0.025101,0.000000,0.000000,0.017258,0.000000,0.008000,0.086000,-0.007000,1.290000,0.060000,0.000000,2.746707,Hold,-0.010254,0.000000,Hold,-173.000000,2.000000,Suck,-1770.000000,1818.181818,Speed,-1687.500000,1818.181818,Speed,Off,On,0.000000,FALSE,10,,,,,0.000000,0.000000,-0.050000
12:00:02.185 PM 04/28/2016,Teleop Enabled,10,FALSE,0,NO ERROR,-0.000000,-0.051333,-0.000000,-0.070583,TRUE,FALSE,FALSE,FALSE,FALSE,FALSE,Disabled,0.000000,0.000000,0.000000,TRUE,-0.018097,-0.024292,0.000000,-0.005966,0.009705,0.000000,0.042000,-0.015000,-0.051000,1.270000,0.070000,0.000000,2.746765,Hold,-0.010254,0.000000,Hold,-173.000000,2.000000,Suck,-1762.500000,1818.181818,Speed,-1680.000000,1818.181818,Speed,Off,On,0.000000,FALSE,10,,,,,0.000000,0.000000,-0.050000
12:00:02.286 PM 04/28/2016,Teleop Enabled,11,FALSE,0,NO ERROR,-0.000000,-0.051333,-0.000000,-0.070583,TRUE,FALSE,FALSE,FALSE,FALSE,FALSE,Disabled,0.000000,0.000000,0.000000,TRUE,-0.017548,-0.024170,0.000000,0.025696,0.001663,0.000000,0.037000,-0.025000,-0.008000,1.250000,0.080000,0.100000,2.763159,Hold,-0.010254,0.000000,Hold,-173.000000,2.000000,Suck,-1770.000000,1818.181818,Speed,-1680.000000,1818.181818,Speed,Off,On,0.000000,FALSE,10,,,,,0.000000,0.000000,-0.050000
12:00:02.388 PM 04/28/2016,Teleop Enabled,9,FALSE,0,NO ERROR,-0.000000,-0.051333,-0.000000,-0.070583,TRUE,FALSE,FALSE,FALSE,FALSE,FALSE,Disabled,0.000000,0.000000,0.000000,TRUE,-0.015732,-0.024033,0.000000,0.000000,0.006653,0.000000,-0.005000,-0.027000,-0.022000,1.260000,0.080000,0.170000,2.766870,Hold,-0.010254,0.000000,Hold,-173.000000,2.000000,Suck,-1770.000000,1818.181818,Speed,-1687.500000,1818.181818,Speed,Off,On,0.000000,FALSE,10,,,,,0.000000,0.000000,-0.050000
12:00:02.488 PM 04/28/2016,Teleop Enabled,11,FALSE,0,NO ERROR,-0.000000,-0.051333,-0.000000,-0.070583,TRUE,FALSE,FALSE,FALSE,FALSE,FALSE,Disabled,0.000000,0.000000,0.000000,TRUE,-0.015533,-0.023926,0.000000,0.004395,-0.000015,0.000000,-0.047000,-0.053000,-0.066000,1.250000,0.080000,0.160000,2.777625,Hold,-0.010254,0.000000,Hold,-173.000000,2.000000,Suck,-1770.000000,1818.181818,Speed,-1687.500000,1818.181818,Speed,Off,On,0.000000,FALSE,10,,,,,0.000000,0.000000,-0.050000
12:00:02.590 PM 04/28/2016,Teleop Enabled,12,FALSE,0,NO ERROR,-0.000000,-0.051333,-0.000000,-0.070583,TRUE,FALSE,FALSE,FALSE,FALSE,FALSE,Disabled,0.000000,0.000000,0.000000,TRUE,-0.016586,-0.024063,0.000000,-0.033051,-0.006256,0.000000,0.075000,-0.012000,-0.037000,1.200000,0.080000,0.170000,2.796837,Hold,-0.010254,0.000000,Hold,-173.000000,2.000000,Suck,-1770.000000,1818.181818,Speed,-1695.000000,1818.181818,Speed,Off,On,0.000000,FALSE,10,,,,,0.000000,0.000000,-0.050000
12:00:02.690 PM 04/28/2016,Teleop Enabled,10,FALSE,0,NO ERROR,-0.000000,-0.051333,-0.000000,-0.070583,TRUE,FALSE,FALSE,FALSE,FALSE,FALSE,Disabled,0.000000,0.000000,0.000000,TRUE,-0.017197,-0.023819,0.000000,-0.013062,0.015091,0.000000,-0.041000,0.030000,0.003000,1.220000,0.070000,0.310000,2.799158,Hold,-0.010254,0.000000,Hold,-173.000000,2.000000,Suck,-1770.000000,1818.181818,Speed,-1687.500000,1818.181818,Speed,Off,On,0.000000,FALSE,10,,,,,0.000000,0.000000,-0.050000
12:00:02.790 PM 04/28/2016,Teleop Enabled,10,FALSE,0,NO ERROR,-0.000000,-0.051333,-0.000000,-0.070583,TRUE,FALSE,FALSE,FALSE,FALSE,FALSE,Disabled,0.000000,0.000000,0.000000,TRUE,-0.018433,-0.022995,0.000000,-0.025665,0.013931,0.000000,-0.034000,0.009000,0.019000,1.250000,0.060000,0.220000,2.809675,Hold,-0.010254,0.000000,Hold,-173.000000,2.000000,Suck,-1770.000000,1818.181818,Speed,-1680.000000,1818.181818,Speed,Off,On,0.000000,FALSE,10,,,,,0.000000,0.000000,-0.050000
12:00:02.891 PM 04/28/2016,Teleop Enabled,10,FALSE,0,NO ERROR,-0.000000,-0.051333,-0.000000,-0.070583,TRUE,FALSE,FALSE,FALSE,FALSE,FALSE,Disabled,0.000000,0.000000,0.000000,TRUE,-0.018646,-0.023087,0.000000,0.011703,-0.003448,0.000000,0.040000,0.009000,-0.048000,1.150000,0.030000,0.400000,2.814866,Hold,-0.010254,0.000000,Hold,-173.000000,2.000000,Suck,-1770.000000,1818.181818,Speed,-1702.500000,1818.181818,Speed,Off,On,0.000000,FALSE,10,,,,,0.000000,0.000000,-0.050000
12:00:02.991 PM 04/28/2016,Teleop Enabled,12,FALSE,0,NO ERROR,-0.000000,-0.051333,-0.000000,-0.070583,TRUE,FALSE,FALSE,FALSE,FALSE,FALSE,Disabled,0.000000,0.000000,0.000000,TRUE,-0.017349,-0.023102,0.000000,0.043411,0.002182,0.000000,-0.004000,-0.020000,0.050000,1.180000,0.020000,0.500000,2.832289,Hold,-0.010254,0.000000,Hold,-173.000000,2.000000,Suck,-1770.000000,1818.181818,Speed,-1710.000000,1818.181818,Speed,Off,On,0.000000,FALSE,10,,,,,0.000000,0.000000,-0.050000
12:00:03.092 PM 04/28/2016,Teleop Enabled,9,FALSE,0,NO ERROR,-0.000000,-0.051333,-0.000000,-0.070583,TRUE,FALSE,FALSE,FALSE,FALSE,FALSE,Disabled,0.000000,0.000000,0.000000,TRUE,-0.015839,-0.022675,0.000000,0.022919,0.004059,0.000000,-0.001000,-0.028000,0.016000,1.240000,0.000000,0.380000,2.800390,Hold,-0.010254,0.000000,Hold,-173.000000,2.000000,Suck,-1770.000000,1818.181818,Speed,-1687.500000,1818.181818,Speed,Off,On,0.000000,FALSE,10,,,,,0.000000,0.000000,-0.050000
12:00:03.192 PM 04/28/2016,Teleop Enabled,9,FALSE,0,NO ERROR,-0.000000,-0.051333,-0.000000,-0.070583,TRUE,FALSE,FALSE,FALSE,FALSE,FALSE,Disabled,0.000000,0.000000,0.000000,TRUE,-0.014725,-0.022156,0.000000,0.030548,0.010696,0.000000,0.000000,-0.097000,-0.005000,1.220000,0.020000,0.430000,2.834100,Hold,-0.010010,0.000000,Hold,-173.000000,2.000000,Suck,-1762.500000,1818.181818,Speed,-1695.000000,1818.181818,Speed,Off,On,0.000000,FALSE,10,,,,,0.000000,0.000000,-0.050000
12:00:03.293 PM 04/28/2016,Teleop Enabled,11,FALSE,0,NO ERROR,-0.000000,-0.051333,-0.000000,-0.070583,TRUE,FALSE,FALSE,FALSE,FALSE,FALSE,Disabled,0.000000,0.000000,0.000000,TRUE,-0.013336,-0.021927,0.000000,0.023132,0.004944,0.000000,-0.028000,-0.026000,-0.021000,1.220000,0.020000,0.460000,2.845192,Hold,-0.010010,0.000000,Hold,-173.000000,2.000000,Suck,-1762.500000,1818.181818,Speed,-1702.500000,1818.181818,Speed,Off,On,0.000000,FALSE,10,,,,,0.000000,0.000000,-0.050000
12:00:03.394 PM 04/28/2016,Teleop Enabled,11,FALSE,0,NO ERROR,-0.000000,-0.051333,-0.000000,-0.070583,TRUE,FALSE,FALSE,FALSE,FALSE,FALSE,Disabled,0.000000,0.000000,0.000000,TRUE,-0.012711,-0.021713,0.000000,0.000000,0.006058,0.000000,-0.028000,-0.026000,-0.021000,1.220000,0.030000,0.390000,2.847842,Hold,-0.010010,0.000000,Hold,-173.000000,2.000000,Suck,-1762.500000,1818.181818,Speed,-1695.000000,1818.181818,Speed,Off,On,0.000000,FALSE,10,,,,,0.000000,0.000000,-0.050000
12:00:03.495 PM 04/28/2016,Teleop Enabled,10,FALSE,0,NO ERROR,-0.000000,-0.051333,-0.000000,-0.070583,TRUE,FALSE,FALSE,FALSE,FALSE,FALSE,Disabled,0.000000,0.000000,0.000000,TRUE,-0.012466,-0.021362,0.000000,0.006180,0.002258,0.000000,0.004000,0.037000,-0.054000,1.220000,0.030000,0.390000,2.849440,Hold,-0.010010,0.000000,Hold,-173.000000,2.000000,Suck,-1770.000000,1818.181818,Speed,-1702.500000,1818.181818,Speed,Off,On,0.000000,FALSE,10,,,,,0.000000,0.000000,-0.050000
12:00:03.599 PM 04/28/2016,Teleop Enabled,10,FALSE,0,NO ERROR,-0.000000,-0.051333,-0.000000,-0.070583,TRUE,FALSE,FALSE,FALSE,FALSE,FALSE,Disabled,0.000000,0.000000,0.000000,TRUE,-0.012009,-0.021393,0.000000,0.022842,-0.000610,0.000000,0.004000,0.037000,-0.054000,1.200000,0.020000,0.450000,2.868722,Hold,-0.010010,0.000000,Hold,-173.000000,2.000000,Suck,-1770.000000,1818.181818,Speed,-1710.000000,1818.181818,Speed,Off,On,0.000000,FALSE,10,,,,,0.000000,0.000000,-0.050000
12:00:03.700 PM 04/28/2016,Teleop Enabled,9,FALSE,0,NO ERROR,-0.000000,-0.051333,-0.000000,-0.070583,TRUE,FALSE,FALSE,FALSE,FALSE,FALSE,Disabled,0.000000,0.000000,0.000000,TRUE,-0.011017,-0.021072,0.000000,0.019989,0.008377,0.000000,-0.067000,0.038000,-0.011000,1.210000,0.030000,0.370000,2.890024,Hold,-0.010010,0.000000,Hold,-173.000000,2.000000,Suck,-1770.000000,1818.181818,Speed,-1710.000000,1818.181818,Speed,Off,On,0.000000,FALSE,10,,,,,0.000000,0.000000,-0.050000
12:00:03.799 PM 04/28/2016,Teleop Enabled,9,FALSE,0,NO ERROR,-0.000000,-0.051333,-0.000000,-0.070583,TRUE,FALSE,FALSE,FALSE,FALSE,FALSE,Disabled,0.000000,0.000000,0.000000,TRUE,-0.009750,-0.021072,0.000000,0.016251,-0.006302,0.000000,-0.026000,0.017000,-0.063000,1.190000,0.030000,0.290000,2.905822,Hold,-0.010010,0.000000,Hold,-173.000000,2.000000,Suck,-1777.500000,1818.181818,Speed,-1710.000000,1818.181818,Speed,Off,On,0.000000,FALSE,10,,,,,0.000000,0.000000,-0.050000
12:00:03.899 PM 04/28/2016,Teleop Enabled,10,FALSE,0,NO ERROR,-0.000000,-0.051333,-0.000000,-0.070583,TRUE,FALSE,FALSE,FALSE,FALSE,FALSE,Disabled,0.000000,0.000000,0.000000,TRUE,-0.009888,-0.020996,0.000000,-0.015228,0.006958,0.000000,-0.026000,0.017000,-0.063000,1.280000,0.030000,0.150000,2.902985,Hold,-0.010010,0.000000,Hold,-173.000000,2.000000,Suck,-1777.500000,1818.181818,Speed,-1702.500000,1818.181818,Speed,Off,On,0.000000,FALSE,10,,,,,0.000000,0.000000,-0.050000
12:00:04.002 PM 04/28/2016,Teleop Enabled,10,FALSE,0,NO ERROR,-0.000000,-0.051333,-0.000000,-0.070583,TRUE,FALSE,FALSE,FALSE,FALSE,FALSE,Disabled,0.000000,0.000000,0.000000,TRUE,-0.011383,-0.020569,0.000000,-0.034470,0.011749,0.000000,-0.007000,-0.084000,-0.017000,1.230000,0.030000,0.090000,2.897908,Hold,-0.010010,0.000000,Hold,-173.000000,2.000000,Suck,-1770.000000,1818.181818,Speed,-1710.000000,1818.181818,Speed,Off,On,0.000000,FALSE,10,,,,,0.000000,0.000000,-0.050000
12:00:04.102 PM 04/28/2016,Teleop Enabled,10,FALSE,0,NO ERROR,-0.000000,-0.051333,-0.000000,-0.070583,TRUE,FALSE,FALSE,FALSE,FALSE,FALSE,Disabled,0.000000,0.000000,0.000000,TRUE,-0.010651,-0.020920,0.000000,0.032928,-0.004486,0.000000,0.085000,-0.009000,0.007000,1.190000,0.020000,0.240000,2.911733,Hold,-0.010010,0.000000,Hold,-173.000000,2.000000,Suck,-1777.500000,1818.181818,Speed,-1710.000000,1818.181818,Speed,Off,On,0.000000,FALSE,10,,,,,0.000000,0.000000,-0.050000
12:00:04.203 PM 04/28/2016,Teleop Enabled,9,FALSE,0,NO ERROR,-0.000000,-0.051333,-0.000000,-0.070583,TRUE,FALSE,FALSE,FALSE,FALSE,FALSE,Disabled,0.000000,0.000000,0.000000,TRUE,-0.007919,-0.020996,0.000000,0.056107,0.002579,0.000000,0.085000,-0.009000,0.007000,1.250000,0.020000,0.250000,2.917041,Hold,-0.010010,0.000000,Hold,-173.000000,2.000000,Suck,-1777.500000,1818.181818,Speed,-1702.500000,1818.181818,Speed,Off,On,0.000000,FALSE,10,,,,,0.000000,0.000000,-0.050000
12:00:04.306 PM 04/28/2016,Teleop Enabled,9,FALSE,0,NO ERROR,-0.000000,-0.051333,-0.000000,-0.070583,TRUE,FALSE,FALSE,FALSE,FALSE,FALSE,Disabled,0.000000,0.000000,0.000000,TRUE,-0.004562,-0.021225,0.000000,0.056900,-0.009827,0.000000,-0.006000,0.017000,-0.018000,1.230000,0.020000,0.250000,2.916367,Hold,-0.010010,0.000000,Hold,-173.000000,2.000000,Suck,-1777.500000,1818.181818,Speed,-1702.500000,1818.181818,Speed,Off,On,0.000000,FALSE,10,,,,,0.000000,0.000000,-0.050000
12:00:04.405 PM 04/28/2016,Teleop Enabled,10,FALSE,0,NO ERROR,-0.000000,-0.051333,-0.000000,-0.070583,TRUE,FALSE,FALSE,FALSE,FALSE,FALSE,Disabled,0.000000,0.000000,0.000000,TRUE,-0.001587,-0.020966,0.000000,0.000000,0.000000,0.000000,0.017000,-0.006000,0.003000,1.200000,0.010000,0.390000,2.926088,Hold,-0.010010,0.000000,Hold,-173.000000,2.000000,Suck,-1777.500000,1818.181818,Speed,-1710.000000,1818.181818,Speed,Off,On,0.000000,FALSE,10,,,,,0.000000,0.000000,-0.050000
12:00:04.511 PM 04/28/2016,Teleop Enabled,12,FALSE,0,NO ERROR,-0.000000,-0.051333,-0.000000,-0.070583,TRUE,FALSE,FALSE,FALSE,FALSE,FALSE,Disabled,0.000000,0.000000,0.000000,TRUE,-0.001053,-0.020706,0.000000,0.011658,0.015930,0.000000,-0.051000,0.081000,-0.007000,1.270000,0.010000,0.450000,2.932061,Hold,-0.010010,0.000000,Hold,-173.000000,2.000000,Suck,-1770.000000,1818.181818,Speed,-1717.500000,1818.181818,Speed,Off,On,0.000000,FALSE,10,,,,,0.000000,0.000000,-0.050000
12:00:04.613 PM 04/28/2016,Teleop Enabled,12,FALSE,0,NO ERROR,-0.000000,-0.051333,-0.000000,-0.070583,TRUE,FALSE,FALSE,FALSE,FALSE,FALSE,Disabled,0.000000,0.000000,0.000000,TRUE,-0.002106,-0.019058,0.000000,-0.038193,0.028351,0.000000,-0.051000,0.081000,-0.007000,1.300000,0.010000,0.270000,2.936271,Hold,-0.010010,0.000000,Hold,-173.000000,2.000000,Suck,-1777.500000,1818.181818,Speed,-1717.500000,1818.181818,Speed,Off,On,0.000000,FALSE,10,,,,,0.000000,0.000000,-0.050000
12:00:04.714 PM 04/28/2016,Teleop Enabled,10,FALSE,0,NO ERROR,-0.000000,-0.051333,-0.000000,-0.070583,TRUE,FALSE,FALSE,FALSE,FALSE,FALSE,Disabled,0.000000,0.000000,0.000000,TRUE,-0.004822,-0.018814,0.000000,-0.065033,-0.000977,0.000000,-0.028000,-0.008000,-0.034000,1.330000,0.010000,0.140000,2.943869,Hold,-0.010010,0.000000,Hold,-173.000000,2.000000,Suck,-1777.500000,1818.181818,Speed,-1717.500000,1818.181818,Speed,Off,On,0.000000,FALSE,10,,,,,0.000000,0.000000,-0.050000
12:00:04.816 PM 04/28/2016,Teleop Enabled,3,FALSE,0,NO ERROR,-0.000000,-0.051333,-0.000000,-0.070583,TRUE,FALSE,FALSE,FALSE,FALSE,FALSE,Disabled,0.000000,0.000000,0.000000,TRUE,-0.008072,-0.019196,0.000000,-0.071213,-0.016815,0.000000,0.034000,0.091000,0.006000,1.330000,0.010000,0.140000,2.948403,Hold,-0.010010,0.000000,Hold,-173.000000,2.000000,Suck,-1777.500000,1818.181818,Speed,-1717.500000,1818.181818,Speed,Off,On,0.000000,FALSE,10,,,,,0.000000,0.000000,-0.050000
12:00:04.914 PM 04/28/2016,Teleop Enabled,7,FALSE,0,NO ERROR,-0.000000,-0.051333,-0.000000,-0.070583,TRUE,FALSE,FALSE,FALSE,FALSE,FALSE,Disabled,0.000000,0.000000,0.000000,TRUE,-0.010040,-0.020477,0.000000,0.000000,-0.026169,0.000000,0.010000,0.042000,0.049000,1.250000,0.010000,0.170000,2.940502,Hold,-0.010010,0.000000,Hold,-173.000000,2.000000,Suck,-1777.500000,1818.181818,Speed,-1717.500000,1818.181818,Speed,Off,On,0.000000,FALSE,10,,,,,0.000000,0.000000,-0.050000
12:00:05.017 PM 04/28/2016,Teleop Enabled,9,FALSE,0,NO ERROR,-0.000000,-0.051333,-0.000000,-0.070583,TRUE,FALSE,FALSE,FALSE,FALSE,FALSE,Disabled,0.000000,0.000000,0.000000,TRUE,-0.010025,-0.021713,0.000000,0.003662,-0.030472,0.000000,0.024000,-0.085000,-0.029000,1.240000,0.010000,0.250000,2.928774,Hold,-0.010010,0.000000,Hold,-173.000000,2.000000,Suck,-1777.500000,1818.181818,Speed,-1717.500000,1818.181818,Speed,Off,On,0.000000,FALSE,10,,,,,0.000000,0.000000,-0.050000
12:00:05.117 PM 04/28/2016,Teleop Enabled,7,FALSE,0,NO ERROR,-0.000000,-0.051333,-0.000000,-0.070583,TRUE,FALSE,FALSE,FALSE,FALSE,FALSE,Disabled,0.000000,0.000000,0.000000,TRUE,-0.009109,-0.023483,0.000000,0.024826,-0.036987,0.000000,0.024000,-0.085000,-0.029000,1.260000,0.010000,0.280000,2.936385,Hold,-0.010010,0.000000,Hold,-173.000000,2.000000,Suck,-1777.500000,1818.181818,Speed,-1725.000000,1818.181818,Speed,Off,On,0.000000,FALSE,10,,,,,0.000000,0.000000,-0.050000
12:00:05.218 PM 04/28/2016,Teleop Enabled,10,FALSE,0,NO ERROR,-0.000000,-0.051333,-0.000000,-0.070583,TRUE,FALSE,FALSE,FALSE,FALSE,FALSE,Disabled,0.000000,0.000000,0.000000,TRUE,-0.009064,-0.024323,0.000000,-0.005692,-0.024063,0.000000,-0.117000,0.112000,0.003000,1.280000,0.000000,0.180000,2.951966,Hold,-0.010010,0.000000,Hold,-173.000000,2.000000,Suck,-1785.000000,1818.181818,Speed,-1725.000000,1818.181818,Speed,Off,On,0.000000,FALSE,10,,,,,0.000000,0.000000,-0.050000
12:00:05.319 PM 04/28/2016,Teleop Enabled,9,FALSE,0,NO ERROR,-0.000000,-0.051333,-0.000000,-0.070583,TRUE,FALSE,FALSE,FALSE,FALSE,FALSE,Disabled,0.000000,0.000000,0.000000,TRUE,-0.009277,-0.025513,0.000000,0.004974,0.000000,0.000000,0.048000,-0.034000,-0.028000,1.260000,0.000000,0.230000,2.953894,Hold,-0.010010,0.000000,Hold,-173.000000,2.000000,Suck,-1777.500000,1818.181818,Speed,-1725.000000,1818.181818,Speed,Off,On,0.000000,FALSE,10,,,,,0.000000,0.000000,-0.050000
12:00:05.422 PM 04/28/2016,Teleop Enabled,9,FALSE,0,NO ERROR,-0.000000,-0.051333,-0.000000,-0.070583,TRUE,FALSE,FALSE,FALSE,FALSE,FALSE,Disabled,0.000000,0.000000,0.000000,TRUE,-0.008881,-0.025253,0.000000,-0.004532,0.011597,0.000000,0.048000,-0.034000,-0.028000,1.270000,0.000000,0.160000,2.969127,Hold,-0.010010,0.000000,Hold,-173.000000,2.000000,Suck,-1777.500000,1818.181818,Speed,-1725.000000,1818.181818,Speed,Off,On,0.000000,FALSE,10,,,,,0.000000,0.000000,-0.050000
12:00:05.525 PM 04/28/2016,Teleop Enabled,13,FALSE,0,NO ERROR,-0.000000,-0.051333,-0.000000,-0.070583,TRUE,FALSE,FALSE,FALSE,FALSE,FALSE,Disabled,0.000000,0.000000,0.000000,TRUE,-0.009689,-0.025604,0.000000,-0.007904,-0.013489,0.000000,-0.069000,0.006000,-0.025000,1.220000,0.010000,0.110000,2.985228,Hold,-0.010010,0.000000,Hold,-173.000000,2.000000,Suck,-1785.000000,1818.181818,Speed,-1717.500000,1818.181818,Speed,Off,On,0.000000,FALSE,10,,,,,0.000000,0.000000,-0.050000
12:00:05.624 PM 04/28/2016,Teleop Enabled,11,FALSE,0,NO ERROR,-0.000000,-0.051333,-0.000000,-0.070583,TRUE,FALSE,FALSE,FALSE,FALSE,FALSE,Disabled,0.000000,0.000000,0.000000,TRUE,-0.009827,-0.025833,0.000000,-0.005814,0.007812,0.000000,-0.041000,-0.045000,0.001000,1.240000,0.000000,0.100000,2.994654,Hold,-0.010010,0.000000,Hold,-173.000000,2.000000,Suck,-1777.500000,1818.181818,Speed,-1725.000000,1818.181818,Speed,Off,On,0.000000,FALSE,10,,,,,0.000000,0.000000,-0.050000
12:00:05.725 PM 04/28/2016,Teleop Enabled,11,FALSE,0,NO ERROR,-0.000000,-0.051333,-0.000000,-0.070583,TRUE,FALSE,FALSE,FALSE,FALSE,FALSE,Disabled,0.000000,0.000000,0.000000,TRUE,-0.009796,-0.026199,0.000000,0.006226,-0.012817,0.000000,0.089000,-0.089000,-0.030000,1.190000,0.000000,0.090000,3.024243,Hold,-0.010010,0.000000,Hold,-173.000000,2.000000,Suck,-1777.500000,1818.181818,Speed,-1725.000000,1818.181818,Speed,Off,On,0.000000,FALSE,10,,,,,0.000000,0.000000,-0.050000
12:00:05.826 PM 04/28/2016,Teleop Enabled,12,FALSE,0,NO ERROR,-0.000000,-0.051333,-0.000000,-0.070583,TRUE,FALSE,FALSE,FALSE,FALSE,FALSE,Disabled,0.000000,0.000000,0.000000,TRUE,-0.009491,-0.026764,0.000000,0.014572,-0.011108,0.000000,-0.017000,-0.004000,0.011000,1.190000,0.000000,0.090000,3.038987,Hold,-0.010010,0.000000,Hold,-173.000000,2.000000,Suck,-1785.000000,1818.181818,Speed,-1725.000000,1818.181818,Speed,Off,On,0.000000,FALSE,10,,,,,0.000000,0.000000,-0.050000
12:00:05.930 PM 04/28/2016,Teleop Enabled,9,FALSE,0,NO ERROR,-0.000000,-0.051333,-0.000000,-0.070583,TRUE,FALSE,FALSE,FALSE,FALSE,FALSE,Disabled,0.000000,0.000000,0.000000,TRUE,-0.009109,-0.027893,0.000000,0.013351,-0.035721,0.000000,-0.050000,-0.031000,-0.035000,1.130000,0.000000,0.070000,3.042667,Hold,-0.010010,0.000000,Hold,-173.000000,2.000000,Suck,-1785.000000,1818.181818,Speed,-1732.500000,1818.181818,Speed,Off,On,0.000000,FALSE,10,,,,,0.000000,0.000000,-0.050000
12:00:06.033 PM 04/28/2016,Teleop Enabled,12,FALSE,0,NO ERROR,-0.000000,-0.051333,-0.000000,-0.070583,TRUE,FALSE,FALSE,FALSE,FALSE,FALSE,Disabled,0.000000,0.000000,0.000000,TRUE,-0.007492,-0.029877,0.000000,0.047302,-0.034378,0.000000,-0.115000,-0.035000,0.007000,1.080000,0.000000,0.140000,3.046230,Hold,-0.010010,0.000000,Hold,-173.000000,2.000000,Suck,-1785.000000,1818.181818,Speed,-1725.000000,1818.181818,Speed,Off,On,0.000000,FALSE,10,,,,,0.000000,0.000000,-0.050000
12:00:06.137 PM 04/28/2016,Teleop Enabled,9,FALSE,0,NO ERROR,-0.000000,-0.051333,-0.000000,-0.070583,TRUE,FALSE,FALSE,FALSE,FALSE,FALSE,Disabled,0.000000,0.000000,0.000000,TRUE,-0.006302,-0.031830,0.000000,0.029160,-0.044464,0.000000,-0.115000,-0.035000,0.007000,1.040000,0.000000,0.120000,3.043624,Hold,-0.010010,0.000000,Hold,-173.000000,2.000000,Suck,-1785.000000,1818.181818,Speed,-1725.000000,1818.181818,Speed,Off,On,0.000000,FALSE,10,,,,,0.000000,0.000000,-0.050000
12:00:06.237 PM 04/28/2016,Teleop Enabled,9,FALSE,0,NO ERROR,-0.000000,-0.051333,-0.000000,-0.070583,TRUE,FALSE,FALSE,FALSE,FALSE,FALSE,Disabled,0.000000,0.000000,0.000000,TRUE,-0.005005,-0.032654,0.000000,0.033112,0.006226,0.000000,-0.066000,0.021000,0.030000,1.080000,0.000000,0.140000,3.041290,Hold,-0.010010,0.000000,Hold,-173.000000,2.000000,Suck,-1785.000000,1818.181818,Speed,-1732.500000,1818.181818,Speed,Off,On,0.000000,FALSE,10,,,,,0.000000,0.000000,-0.050000
12:00:06.341 PM 04/28/2016,Teleop Enabled,13,FALSE,0,NO ERROR,-0.000000,-0.051333,-0.000000,-0.070583,TRUE,FALSE,FALSE,FALSE,FALSE,FALSE,Disabled,0.000000,0.000000,0.000000,TRUE,-0.004883,-0.031937,0.000000,-0.019211,0.017151,0.000000,-0.025000,-0.034000,0.060000,1.070000,0.000000,-0.010000,3.057697,Hold,-0.010010,0.000000,Hold,-173.000000,2.000000,Suck,-1777.500000,1818.181818,Speed,-1740.000000,1818.181818,Speed,Off,On,0.000000,FALSE,10,,,,,0.000000,0.000000,-0.050000
12:00:06.442 PM 04/28/2016,Teleop Enabled,6,FALSE,0,NO ERROR,-0.000000,-0.051333,-0.000000,-0.070583,TRUE,FALSE,FALSE,FALSE,FALSE,FALSE,Disabled,0.000000,0.000000,0.000000,TRUE,-0.005707,-0.031235,0.000000,-0.003250,0.016037,0.000000,0.048000,0.039000,0.012000,1.080000,0.000000,-0.010000,3.069612,Hold,-0.010010,0.000000,Hold,-173.000000,2.000000,Suck,-1785.000000,1818.181818,Speed,-1755.000000,1818.181818,Speed,Off,On,0.000000,FALSE,10,,,,,0.000000,0.000000,-0.050000
12:00:06.542 PM 04/28/2016,Teleop Enabled,10,FALSE,0,NO ERROR,-0.000000,-0.051333,-0.000000,-0.070583,TRUE,FALSE,FALSE,FALSE,FALSE,FALSE,Disabled,0.000000,0.000000,0.000000,TRUE,-0.004395,-0.029846,0.000000,0.035248,0.025955,0.000000,0.048000,0.039000,0.012000,1.070000,0.010000,0.050000,3.079072,Hold,-0.010010,0.000000,Hold,-173.000000,2.000000,Suck,-1785.000000,1818.181818,Speed,-1770.000000,1818.181818,Speed,Off,On,0.000000,FALSE,10,,,,,0.000000,0.000000,-0.050000
12:00:06.643 PM 04/28/2016,Teleop Enabled,8,FALSE,0,NO ERROR,-0.000000,-0.051333,-0.000000,-0.070583,TRUE,FALSE,FALSE,FALSE,FALSE,FALSE,Disabled,0.000000,0.000000,0.000000,TRUE,-0.002106,-0.028900,0.000000,0.054230,0.000000,0.000000,0.044000,0.023000,-0.054000,1.030000,0.020000,0.110000,3.102433,Hold,-0.010010,0.000000,Hold,-173.000000,2.000000,Suck,-1785.000000,1818.181818,Speed,-1770.000000,1818.181818,Speed,Off,On,0.000000,FALSE,10,,,,,0.000000,0.000000,-0.050000
12:00:06.745 PM 04/28/2016,Teleop Enabled,12,FALSE,0,NO ERROR,-0.000000,-0.051333,-0.000000,-0.070583,TRUE,FALSE,FALSE,FALSE,FALSE,FALSE,Disabled,0.000000,0.000000,0.000000,TRUE,0.000183,-0.028473,0.000000,0.037842,0.005966,0.000000,-0.037000,0.088000,0.042000,1.050000,0.020000,0.100000,3.099376,Hold,-0.010010,0.000000,Hold,-173.000000,2.000000,Suck,-1785.000000,1818.181818,Speed,-1777.500000,1818.181818,Speed,Off,On,0.000000,FALSE,10,,,,,0.000000,0.000000,-0.050000
12:00:06.850 PM 04/28/2016,Teleop Enabled,14,FALSE,0,NO ERROR,-0.000000,-0.051333,-0.000000,-0.070583,TRUE,FALSE,FALSE,FALSE,FALSE,FALSE,Disabled,0.000000,0.000000,0.000000,TRUE,0.000183,-0.028473,0.000000,0.037842,0.005966,0.000000,0.030000,0.008000,-0.062000,1.050000,0.020000,0.100000,3.089720,Hold,-0.010010,0.000000,Hold,-173.000000,2.000000,Suck,-1785.000000,1818.181818,Speed,-1777.500000,1818.181818,Speed,Off,On,0.000000,FALSE,10,,,,,0.000000,0.000000,-0.050000
12:00:06.950 PM 04/28/2016,Teleop Enabled,12,FALSE,0,NO ERROR,-0.000000,-0.051333,-0.000000,-0.070583,TRUE,FALSE,FALSE,FALSE,FALSE,FALSE,Disabled,0.000000,0.000000,0.000000,TRUE,0.004272,-0.027893,0.000000,0.035400,0.014755,0.000000,0.033000,-0.037000,0.025000,1.090000,0.010000,0.100000,3.088501,Hold,-0.010010,0.000000,Hold,-173.000000,2.000000,Suck,-1785.000000,1818.181818,Speed,-1785.000000,1818.181818,Speed,Off,On,0.000000,FALSE,10,,,,,0.000000,0.000000,-0.050000
12:00:07.048 PM 04/28/2016,Teleop Enabled,11,FALSE,0,NO ERROR,-0.000000,-0.051333,-0.000000,-0.070583,TRUE,FALSE,FALSE,FALSE,FALSE,FALSE,Disabled,0.000000,0.000000,0.000000,TRUE,0.005966,-0.027161,0.000000,0.000000,0.007660,0.000000,0.000000,0.045000,-0.028000,1.080000,0.010000,0.070000,3.106234,Hold,-0.010010,0.000000,Hold,-173.000000,2.000000,Suck,-1785.000000,1818.181818,Speed,-1792.500000,1818.181818,Speed,Off,On,0.000000,FALSE,10,,,,,0.000000,0.000000,-0.050000
12:00:07.155 PM 04/28/2016,Teleop Enabled,9,FALSE,0,NO ERROR,-0.000000,-0.051333,-0.000000,-0.070583,TRUE,FALSE,FALSE,FALSE,FALSE,FALSE,Disabled,0.000000,0.000000,0.000000,TRUE,0.005737,-0.026718,0.000000,-0.005524,0.008194,0.000000,0.000000,-0.026000,-0.036000,1.110000,0.010000,0.090000,3.131502,Hold,-0.010010,0.000000,Hold,-173.000000,2.000000,Suck,-1785.000000,1818.181818,Speed,-1792.500000,1818.181818,Speed,Off,On,0.000000,FALSE,10,,,,,0.000000,0.000000,-0.050000
12:00:07.255 PM 04/28/2016,Teleop Enabled,11,FALSE,0,NO ERROR,-0.000000,-0.051333,-0.000000,-0.070583,TRUE,FALSE,FALSE,FALSE,FALSE,FALSE,Disabled,0.000000,0.000000,0.000000,TRUE,0.004776,-0.026291,0.000000,-0.020340,0.013092,0.000000,-0.063000,0.000000,-0.046000,1.120000,0.010000,0.070000,3.140301,Hold,-0.010010,0.000000,Hold,-173.000000,2.000000,Suck,-1785.000000,1818.181818,Speed,-1792.500000,1818.181818,Speed,Off,On,0.000000,FALSE,10,,,,,0.000000,0.000000,-0.050000
12:00:07.354 PM 04/28/2016,Teleop Enabled,10,FALSE,0,NO ERROR,-0.000000,-0.051333,-0.000000,-0.070583,TRUE,FALSE,FALSE,FALSE,FALSE,FALSE,Disabled,0.000000,0.000000,0.000000,TRUE,0.003754,-0.026505,0.000000,-0.011185,-0.013901,0.000000,-0.025000,-0.017000,0.032000,1.090000,0.010000,0.090000,3.153056,Hold,-0.010010,0.000000,Hold,-173.000000,2.000000,Suck,-1785.000000,1818.181818,Speed,-1792.500000,1818.181818,Speed,Off,On,0.000000,FALSE,10,,,,,0.000000,0.000000,-0.050000
12:00:07.459 PM 04/28/2016,Teleop Enabled,11,FALSE,0,NO ERROR,-0.000000,-0.051333,-0.000000,-0.070583,TRUE,FALSE,FALSE,FALSE,FALSE,FALSE,Disabled,0.000000,0.000000,0.000000,TRUE,0.003876,-0.026810,0.000000,0.014069,0.003677,0.000000,-0.056000,0.005000,0.084000,1.130000,0.000000,0.080000,3.157731,Hold,-0.010010,0.000000,Hold,-173.000000,2.000000,Suck,-1792.500000,1818.181818,Speed,-1792.500000,1818.181818,Speed,Off,On,0.000000,FALSE,10,,,,,0.000000,0.000000,-0.050000
12:00:07.561 PM 04/28/2016,Teleop Enabled,9,FALSE,0,NO ERROR,-0.000000,-0.051333,-0.000000,-0.070583,TRUE,FALSE,FALSE,FALSE,FALSE,FALSE,Disabled,0.000000,0.000000,0.000000,TRUE,0.004120,-0.026337,0.000000,0.004517,0.009216,0.000000,0.030000,-0.015000,0.017000,1.110000,0.000000,0.040000,3.156612,Hold,-0.010010,0.000000,Hold,-173.000000,2.000000,Suck,-1785.000000,1818.181818,Speed,-1792.500000,1818.181818,Speed,Off,On,0.000000,FALSE,10,,,,,0.000000,0.000000,-0.050000
12:00:07.661 PM 04/28/2016,Teleop Enabled,11,FALSE,0,NO ERROR,-0.000000,-0.051333,-0.000000,-0.070583,TRUE,FALSE,FALSE,FALSE,FALSE,FALSE,Disabled,0.000000,0.000000,0.000000,TRUE,0.004486,-0.026199,0.000000,0.012054,-0.005859,0.000000,0.009000,-0.045000,-0.007000,1.130000,0.000000,0.140000,3.159786,Hold,-0.010010,0.000000,Hold,-173.000000,2.000000,Suck,-1785.000000,1818.181818,Speed,-1785.000000,1818.181818,Speed,Off,On,0.000000,FALSE,10,,,,,0.000000,0.000000,-0.050000
12:00:07.762 PM 04/28/2016,Teleop Enabled,10,FALSE,0,NO ERROR,-0.000000,-0.051333,-0.000000,-0.070583,TRUE,FALSE,FALSE,FALSE,FALSE,FALSE,Disabled,0.000000,0.000000,0.000000,TRUE,0.004776,-0.026138,0.000000,0.006897,0.000000,0.000000,0.052000,0.015000,-0.092000,1.130000,0.000000,0.140000,3.169006,Hold,-0.010010,0.000000,Hold,-173.000000,2.000000,Suck,-1785.000000,1818.181818,Speed,-1792.500000,1818.181818,Speed,Off,On,0.000000,FALSE,10,,,,,0.000000,0.000000,-0.050000
12:00:07.862 PM 04/28/2016,Teleop Enabled,10,FALSE,0,NO ERROR,-0.000000,-0.051333,-0.000000,-0.070583,TRUE,FALSE,FALSE,FALSE,FALSE,FALSE,Disabled,0.000000,0.000000,0.000000,TRUE,0.004669,-0.025574,0.000000,-0.003769,0.015457,0.000000,0.052000,0.015000,-0.092000,1.110000,0.000000,0.120000,3.178855,Hold,-0.010010,0.000000,Hold,-173.000000,2.000000,Suck,-1785.000000,1818.181818,Speed,-1792.500000,1818.181818,Speed,Off,On,0.000000,FALSE,10,,,,,0.000000,0.000000,-0.050000
12:00:07.963 PM 04/28/2016,Teleop Enabled,12,FALSE,0,NO ERROR,-0.000000,-0.051333,-0.000000,-0.070583,TRUE,FALSE,FALSE,FALSE,FALSE,FALSE,Disabled,0.000000,0.000000,0.000000,TRUE,0.004517,-0.025116,0.000000,0.006287,-0.000504,0.000000,-0.039000,0.066000,-0.059000,1.130000,0.000000,0.100000,3.203145,Hold,-0.010010,0.000000,Hold,-173.000000,2.000000,Suck,-1785.000000,1818.181818,Speed,-1792.500000,1818.181818,Speed,Off,On,0.000000,FALSE,10,,,,,0.000000,0.000000,-0.050000
12:00:08.068 PM 04/28/2016,Teleop Enabled,12,FALSE,0,NO ERROR,-0.000000,-0.051333,-0.000000,-0.070583,TRUE,FALSE,FALSE,FALSE,FALSE,FALSE,Disabled,0.000000,0.000000,0.000000,TRUE,0.004837,-0.024399,0.000000,0.007767,0.023788,0.000000,0.025000,0.018000,-0.051000,1.100000,0.000000,0.120000,3.215036,Hold,-0.010010,0.000000,Hold,-173.000000,2.000000,Suck,-1792.500000,1818.181818,Speed,-1785.000000,1818.181818,Speed,Off,On,0.000000,FALSE,10,,,,,0.000000,0.000000,-0.050000
12:00:08.167 PM 04/28/2016,Teleop Enabled,10,FALSE,0,NO ERROR,-0.000000,-0.051333,-0.000000,-0.070583,TRUE,FALSE,FALSE,FALSE,FALSE,FALSE,Disabled,0.000000,0.000000,0.000000,TRUE,0.005341,-0.023941,0.000000,0.014618,0.005768,0.000000,-0.065000,-0.031000,0.005000,1.130000,0.000000,0.150000,3.213745,Hold,-0.010010,0.000000,Hold,-173.000000,2.000000,Suck,-1785.000000,1818.181818,Speed,-1792.500000,1818.181818,Speed,Off,On,0.000000,FALSE,10,,,,,0.000000,0.000000,-0.050000
12:00:08.266 PM 04/28/2016,Teleop Enabled,12,FALSE,0,NO ERROR,-0.000000,-0.051333,-0.000000,-0.070583,TRUE,FALSE,FALSE,FALSE,FALSE,FALSE,Disabled,0.000000,0.000000,0.000000,TRUE,0.007217,-0.024002,0.000000,0.049454,0.000626,0.000000,0.114000,-0.028000,0.000000,1.130000,0.000000,0.140000,3.217632,Hold,-0.010010,0.000000,Hold,-173.000000,2.000000,Suck,-1785.000000,1818.181818,Speed,-1800.000000,1818.181818,Speed,Off,On,0.000000,FALSE,10,,,,,0.000000,0.000000,-0.050000
12:00:08.372 PM 04/28/2016,Teleop Enabled,10,FALSE,0,NO ERROR,-0.000000,-0.051333,-0.000000,-0.070583,TRUE,FALSE,FALSE,FALSE,FALSE,FALSE,Disabled,0.000000,0.000000,0.000000,TRUE,0.009613,-0.023453,0.000000,0.050598,0.000000,0.000000,-0.033000,-0.009000,0.053000,1.150000,0.000000,0.240000,3.236201,Hold,-0.010010,0.000000,Hold,-173.000000,2.000000,Suck,-1792.500000,1818.181818,Speed,-1792.500000,1818.181818,Speed,Off,On,0.000000,FALSE,10,,,,,0.000000,0.000000,-0.050000
12:00:08.474 PM 04/28/2016,Teleop Enabled,11,FALSE,0,NO ERROR,-0.000000,-0.051333,-0.000000,-0.070583,TRUE,FALSE,FALSE,FALSE,FALSE,FALSE,Disabled,0.000000,0.000000,0.000000,TRUE,0.009613,-0.023453,0.000000,0.050598,0.000000,0.000000,0.019000,0.012000,0.004000,1.100000,0.000000,0.150000,3.242446,Hold,-0.010010,0.000000,Hold,-173.000000,2.000000,Suck,-1792.500000,1818.181818,Speed,-1777.500000,1818.181818,Speed,Off,On,0.000000,FALSE,10,,,,,0.000000,0.000000,-0.050000
12:00:08.575 PM 04/28/2016,Teleop Enabled,11,FALSE,0,NO ERROR,-0.000000,-0.051333,-0.000000,-0.070583,TRUE,FALSE,FALSE,FALSE,FALSE,FALSE,Disabled,0.000000,0.000000,0.000000,TRUE,0.006531,-0.024536,0.000000,-0.040634,-0.000107,0.000000,0.000000,0.016000,0.020000,1.100000,0.000000,0.150000,3.229770,Hold,-0.010010,0.000000,Hold,-173.000000,2.000000,Suck,-1785.000000,1818.181818,Speed,-1777.500000,1818.181818,Speed,Off,On,0.000000,FALSE,10,,,,,0.000000,0.000000,-0.050000
12:00:08.676 PM 04/28/2016,Teleop Enabled,10,FALSE,0,NO ERROR,-0.000000,-0.051333,-0.000000,-0.070583,TRUE,FALSE,FALSE,FALSE,FALSE,FALSE,Disabled,0.000000,0.000000,0.000000,TRUE,0.006531,-0.024536,0.000000,-0.040634,-0.000107,0.000000,0.020000,-0.035000,0.071000,1.180000,-0.020000,0.100000,3.209955,Hold,-0.010010,0.000000,Hold,-173.000000,2.000000,Suck,-1785.000000,1818.181818,Speed,-1792.500000,1818.181818,Speed,Off,On,0.000000,FALSE,10,,,,,0.000000,0.000000,-0.050000
12:00:08.776 PM 04/28/2016,Teleop Enabled,11,FALSE,0,NO ERROR,-0.000000,-0.051333,-0.000000,-0.070583,TRUE,FALSE,FALSE,FALSE,FALSE,FALSE,Disabled,0.000000,0.000000,0.000000,TRUE,0.004410,-0.024475,0.000000,-0.043869,-0.003433,0.000000,0.017000,-0.008000,0.055000,1.170000,-0.030000,0.150000,3.211115,Hold,-0.010010,0.000000,Hold,-173.000000,2.000000,Suck,-1792.500000,1818.181818,Speed,-1792.500000,1818.181818,Speed,Off,On,0.000000,FALSE,10,,,,,0.000000,0.000000,-0.050000
12:00:08.876 PM 04/28/2016,Teleop Enabled,10,FALSE,0,NO ERROR,-0.000000,-0.051333,-0.000000,-0.070583,TRUE,FALSE,FALSE,FALSE,FALSE,FALSE,Disabled,0.000000,0.000000,0.000000,TRUE,0.003021,-0.025085,0.000000,-0.027527,-0.014328,0.000000,0.040000,-0.043000,0.027000,1.170000,-0.030000,0.150000,3.199014,Hold,-0.010010,0.000000,Hold,-173.000000,2.000000,Suck,-1785.000000,1818.181818,Speed,-1792.500000,1818.181818,Speed,Off,On,0.000000,FALSE,10,,,,,0.000000,0.000000,-0.050000
12:00:08.977 PM 04/28/2016,Teleop Enabled,11,FALSE,0,NO ERROR,-0.000000,-0.051333,-0.000000,-0.070583,TRUE,FALSE,FALSE,FALSE,FALSE,FALSE,Disabled,0.000000,0.000000,0.000000,TRUE,0.001938,-0.025177,0.000000,-0.009079,-0.002426,0.000000,-0.017000,-0.003000,0.026000,1.170000,-0.030000,0.130000,3.205373,Hold,-0.010010,0.000000,Hold,-173.000000,2.000000,Suck,-1792.500000,1818.181818,Speed,-1792.500000,1818.181818,Speed,Off,On,0.000000,FALSE,10,,,,,0.000000,0.000000,-0.050000
12:00:09.077 PM 04/28/2016,Teleop Enabled,15,FALSE,0,NO ERROR,-0.000000,-0.051333,-0.000000,-0.070583,TRUE,FALSE,FALSE,FALSE,FALSE,FALSE,Disabled,0.000000,0.000000,0.000000,TRUE,-0.001572,-0.025116,0.000000,-0.050201,-0.003204,0.000000,-0.067000,0.019000,-0.036000,1.180000,-0.030000,0.140000,3.230772,Hold,-0.010010,0.000000,Hold,-173.000000,2.000000,Suck,-1792.500000,1818.181818,Speed,-1792.500000,1818.181818,Speed,Off,On,0.000000,FALSE,10,,,,,0.000000,0.000000,-0.050000
12:00:09.179 PM 04/28/2016,Teleop Enabled,12,FALSE,0,NO ERROR,-0.000000,-0.051333,-0.000000,-0.070583,TRUE,FALSE,FALSE,FALSE,FALSE,FALSE,Disabled,0.000000,0.000000,0.000000,TRUE,-0.001572,-0.025116,0.000000,-0.050201,-0.003204,0.000000,0.092000,0.024000,-0.011000,1.200000,-0.040000,0.080000,3.232858,Hold,-0.010010,0.000000,Hold,-173.000000,2.000000,Suck,-1785.000000,1818.181818,Speed,-1792.500000,1818.181818,Speed,Off,On,0.000000,FALSE,10,,,,,0.000000,0.000000,-0.050000
12:00:09.280 PM 04/28/2016,Teleop Enabled,11,FALSE,0,NO ERROR,-0.000000,-0.051333,-0.000000,-0.070583,TRUE,FALSE,FALSE,FALSE,FALSE,FALSE,Disabled,0.000000,0.000000,0.000000,TRUE,-0.005203,-0.024643,0.000000,-0.042603,0.002136,0.000000,-0.094000,-0.029000,0.044000,1.200000,-0.050000,0.110000,3.238889,Hold,-0.010010,0.000000,Hold,-173.000000,2.000000,Suck,-1785.000000,1818.181818,Speed,-1792.500000,1818.181818,Speed,Off,On,0.000000,FALSE,10,,,,,0.000000,0.000000,-0.050000
12:00:09.382 PM 04/28/2016,Teleop Enabled,10,FALSE,0,NO ERROR,-0.000000,-0.051333,-0.000000,-0.070583,TRUE,FALSE,FALSE,FALSE,FALSE,FALSE,Disabled,0.000000,0.000000,0.000000,TRUE,-0.005203,-0.024643,0.000000,-0.042603,0.002136,0.000000,0.048000,0.007000,-0.003000,1.220000,-0.050000,0.110000,3.254739,Hold,-0.010010,0.000000,Hold,-173.000000,2.000000,Suck,-1792.500000,1818.181818,Speed,-1792.500000,1818.181818,Speed,Off,On,0.000000,FALSE,10,,,,,0.000000,0.000000,-0.050000
12:00:09.485 PM 04/28/2016,Teleop Enabled,12,FALSE,0,NO ERROR,-0.000000,-0.051333,-0.000000,-0.070583,TRUE,FALSE,FALSE,FALSE,FALSE,FALSE,Disabled,0.000000,0.000000,0.000000,TRUE,-0.007202,-0.024704,0.000000,-0.040237,-0.000015,0.000000,0.091000,-0.021000,0.047000,1.180000,-0.040000,0.180000,3.261015,Hold,-0.010010,0.000000,Hold,-173.000000,2.000000,Suck,-1785.000000,1818.181818,Speed,-1792.500000,1818.181818,Speed,Off,On,0.000000,FALSE,10,,,,,0.000000,0.000000,-0.050000
12:00:09.586 PM 04/28/2016,Teleop Enabled,11,FALSE,0,NO ERROR,-0.000000,-0.051333,-0.000000,-0.070583,TRUE,FALSE,FALSE,FALSE,FALSE,FALSE,Disabled,0.000000,0.000000,0.000000,TRUE,-0.010315,-0.024292,0.000000,-0.050491,-0.013641,0.000000,-0.084000,0.016000,-0.047000,1.180000,-0.040000,0.180000,3.269638,Hold,-0.010010,0.000000,Hold,-173.000000,2.000000,Suck,-1792.500000,1818.181818,Speed,-1792.500000,1818.181818,Speed,Off,On,0.000000,FALSE,10,,,,,0.000000,0.000000,-0.050000
12:00:09.688 PM 04/28/2016,Teleop Enabled,12,FALSE,0,NO ERROR,-0.000000,-0.051333,-0.000000,-0.070583,TRUE,FALSE,FALSE,FALSE,FALSE,FALSE,Disabled,0.000000,0.000000,0.000000,TRUE,-0.012527,-0.025406,0.000000,-0.045471,-0.020950,0.000000,0.011000,0.012000,-0.033000,1.200000,-0.050000,0.080000,3.270719,Hold,-0.010010,0.000000,Hold,-173.000000,2.000000,Suck,-1792.500000,1818.181818,Speed,-1785.000000,1818.181818,Speed,Off,On,0.000000,FALSE,10,,,,,0.000000,0.000000,-0.050000
12:00:09.791 PM 04/28/2016,Teleop Enabled,12,FALSE,0,NO ERROR,-0.000000,-0.051333,-0.000000,-0.070583,TRUE,FALSE,FALSE,FALSE,FALSE,FALSE,Disabled,0.000000,0.000000,0.000000,TRUE,-0.012878,-0.025986,0.000000,0.008148,-0.014847,0.000000,0.000000,-0.011000,0.015000,1.200000,-0.050000,0.060000,3.268213,Hold,-0.010010,0.000000,Hold,-173.000000,2.000000,Suck,-1792.500000,1818.181818,Speed,-1792.500000,1818.181818,Speed,Off,On,0.000000,FALSE,10,,,,,0.000000,0.000000,-0.050000
12:00:09.892 PM 04/28/2016,Teleop Enabled,12,FALSE,0,NO ERROR,-0.000000,-0.051333,-0.000000,-0.070583,TRUE,FALSE,FALSE,FALSE,FALSE,FALSE,Disabled,0.000000,0.000000,0.000000,TRUE,-0.012878,-0.025986,0.000000,0.008148,-0.014847,0.000000,-0.067000,0.036000,0.015000,1.250000,-0.040000,0.000000,3.271680,Hold,-0.010010,0.000000,Hold,-173.000000,2.000000,Suck,-1785.000000,1818.181818,Speed,-1792.500000,1818.181818,Speed,Off,On,0.000000,FALSE,10,,,,,0.000000,0.000000,-0.050000
12:00:09.992 PM 04/28/2016,Teleop Enabled,10,FALSE,0,NO ERROR,-0.000000,-0.051333,-0.000000,-0.070583,TRUE,FALSE,FALSE,FALSE,FALSE,FALSE,Disabled,0.000000,0.000000,0.000000,TRUE,-0.014236,-0.026337,0.000000,-0.028351,-0.008865,0.000000,-0.033000,0.004000,-0.022000,1.210000,-0.040000,-0.030000,3.270909,Hold,-0.010010,0.000000,Hold,-173.000000,2.000000,Suck,-1792.500000,1818.181818,Speed,-1792.500000,1818.181818,Speed,Off,On,0.000000,FALSE,10,,,,,0.000000,0.000000,-0.050000
12:00:10.093 PM 04/28/2016,Teleop Enabled,9,FALSE,0,NO ERROR,-0.000000,-0.051333,-0.000000,-0.070583,TRUE,FALSE,FALSE,FALSE,FALSE,FALSE,Disabled,0.000000,0.000000,0.000000,TRUE,-0.016006,-0.026840,0.000000,-0.035858,-0.002045,0.000000,0.038000,0.024000,0.007000,1.210000,-0.040000,-0.030000,3.265184,Hold,-0.010010,0.000000,Hold,-173.000000,2.000000,Suck,-1792.500000,1818.181818,Speed,-1792.500000,1818.181818,Speed,Off,On,0.000000,FALSE,10,,,,,0.000000,0.000000,-0.050000
12:00:10.196 PM 04/28/2016,Teleop Enabled,9,FALSE,0,NO ERROR,-0.000000,-0.051333,-0.000000,-0.070583,TRUE,FALSE,FALSE,FALSE,FALSE,FALSE,Disabled,0.000000,0.000000,0.000000,TRUE,-0.017334,-0.026993,0.000000,-0.036865,-0.007233,0.000000,-0.001000,0.050000,0.008000,1.210000,-0.050000,-0.020000,3.265105,Hold,-0.010010,0.000000,Hold,-173.000000,2.000000,Suck,-1785.000000,1818.181818,Speed,-1792.500000,1818.181818,Speed,Off,On,0.000000,FALSE,10,,,,,0.000000,0.000000,-0.050000
12:00:10.296 PM 04/28/2016,Teleop Enabled,10,FALSE,0,NO ERROR,-0.000000,-0.051333,-0.000000,-0.070583,TRUE,FALSE,FALSE,FALSE,FALSE,FALSE,Disabled,0.000000,0.000000,0.000000,TRUE,-0.021912,-0.027313,0.000000,-0.046051,0.007278,0.000000,0.041000,-0.038000,-0.020000,1.220000,-0.060000,0.000000,3.257445,Hold,-0.010010,0.000000,Hold,-173.000000,2.000000,Suck,-1792.500000,1818.181818,Speed,-1792.500000,1818.181818,Speed,Off,On,0.000000,FALSE,10,,,,,0.000000,0.000000,-0.050000
12:00:10.396 PM 04/28/2016,Teleop Enabled,12,FALSE,0,NO ERROR,-0.000000,-0.051333,-0.000000,-0.070583,TRUE,FALSE,FALSE,FALSE,FALSE,FALSE,Disabled,0.000000,0.000000,0.000000,TRUE,-0.023438,-0.026505,0.000000,-0.025162,0.024948,0.000000,-0.008000,0.008000,0.043000,1.210000,-0.060000,-0.020000,3.270743,Hold,-0.010010,0.000000,Hold,-173.000000,2.000000,Suck,-1785.000000,1818.181818,Speed,-1785.000000,1818.181818,Speed,Off,On,0.000000,FALSE,10,,,,,0.000000,0.000000,-0.050000
12:00:10.496 PM 04/28/2016,Teleop Enabled,10,FALSE,0,NO ERROR,-0.000000,-0.051333,-0.000000,-0.070583,TRUE,FALSE,FALSE,FALSE,FALSE,FALSE,Disabled,0.000000,0.000000,0.000000,TRUE,-0.023438,-0.026505,0.000000,-0.025162,0.024948,0.000000,-0.030000,0.012000,-0.012000,1.190000,-0.070000,0.030000,3.286655,Hold,-0.010010,0.000000,Hold,-173.000000,2.000000,Suck,-1792.500000,1818.181818,Speed,-1792.500000,1818.181818,Speed,Off,On,0.000000,FALSE,10,,,,,0.000000,0.000000,-0.050000
12:00:10.596 PM 04/28/2016,Teleop Enabled,11,FALSE,0,NO ERROR,-0.000000,-0.051333,-0.000000,-0.070583,TRUE,FALSE,FALSE,FALSE,FALSE,FALSE,Disabled,0.000000,0.000000,0.000000,TRUE,-0.023743,-0.025421,0.000000,-0.001999,0.016098,0.000000,-0.036000,0.064000,0.032000,1.190000,-0.070000,0.030000,3.287622,Hold,-0.010010,0.000000,Hold,-173.000000,2.000000,Suck,-1792.500000,1818.181818,Speed,-1792.500000,1818.181818,Speed,Off,On,0.000000,FALSE,10,,,,,0.000000,0.000000,-0.050000
12:00:10.696 PM 04/28/2016,Teleop Enabled,9,FALSE,0,NO ERROR,-0.000000,-0.051333,-0.000000,-0.070583,TRUE,FALSE,FALSE,FALSE,FALSE,FALSE,Disabled,0.000000,0.000000,0.000000,TRUE,-0.023514,-0.024445,0.000000,0.008163,0.023483,0.000000,0.005000,-0.058000,0.048000,1.240000,-0.070000,0.000000,3.292383,Hold,-0.010010,0.000000,Hold,-173.000000,2.000000,Suck,-1785.000000,1818.181818,Speed,-1792.500000,1818.181818,Speed,Off,On,0.000000,FALSE,10,,,,,0.000000,0.000000,-0.050000
12:00:10.798 PM 04/28/2016,Teleop Enabled,10,FALSE,0,NO ERROR,-0.000000,-0.051333,-0.000000,-0.070583,TRUE,FALSE,FALSE,FALSE,FALSE,FALSE,Disabled,0.000000,0.000000,0.000000,TRUE,-0.023636,-0.023880,0.000000,-0.003677,-0.005585,0.000000,-0.033000,-0.047000,0.017000,1.210000,-0.070000,-0.040000,3.311242,Hold,-0.010010,0.000000,Hold,-173.000000,2.000000,Suck,-1792.500000,1818.181818,Speed,-1792.500000,1818.181818,Speed,Off,On,0.000000,FALSE,10,,,,,0.000000,0.000000,-0.050000
12:00:10.898 PM 04/28/2016,Teleop Enabled,10,FALSE,0,NO ERROR,-0.000000,-0.051333,-0.000000,-0.070583,TRUE,FALSE,FALSE,FALSE,FALSE,FALSE,Disabled,0.000000,0.000000,0.000000,TRUE,-0.023346,-0.024384,0.000000,0.022964,0.000000,0.000000,-0.036000,-0.064000,0.037000,1.210000,-0.070000,-0.040000,3.313521,Hold,-0.010010,0.000000,Hold,-173.000000,2.000000,Suck,-1792.500000,1818.181818,Speed,-1792.500000,1818.181818,Speed,Off,On,0.000000,FALSE,10,,,,,0.000000,0.000000,-0.050000
12:00:10.999 PM 04/28/2016,Teleop Enabled,10,FALSE,0,NO ERROR,-0.000000,-0.051333,-0.000000,-0.070583,TRUE,FALSE,FALSE,FALSE,FALSE,FALSE,Disabled,0.000000,0.000000,0.000000,TRUE,-0.022217,-0.024384,0.000000,0.022537,0.008820,0.000000,-0.016000,0.059000,0.029000,1.200000,-0.070000,-0.080000,3.304209,Hold,-0.010010,0.000000,Hold,-173.000000,2.000000,Suck,-1792.500000,1818.181818,Speed,-1785.000000,1818.181818,Speed,Off,On,0.000000,FALSE,10,,,,,0.000000,0.000000,-0.050000
12:00:11.101 PM 04/28/2016,Teleop Enabled,11,FALSE,0,NO ERROR,-0.000000,-0.051333,-0.000000,-0.070583,TRUE,FALSE,FALSE,FALSE,FALSE,FALSE,Disabled,0.000000,0.000000,0.000000,TRUE,-0.021622,-0.023407,0.000000,0.000000,0.013779,0.000000,0.044000,-0.036000,-0.051000,1.210000,-0.080000,-0.130000,3.313386,Hold,-0.010010,0.000000,Hold,-173.000000,2.000000,Suck,-1792.500000,1818.181818,Speed,-1792.500000,1818.181818,Speed,Off,On,0.000000,FALSE,10,,,,,0.000000,0.000000,-0.050000
12:00:11.203 PM 04/28/2016,Teleop Enabled,11,FALSE,0,NO ERROR,-0.000000,-0.051333,-0.000000,-0.070583,TRUE,FALSE,FALSE,FALSE,FALSE,FALSE,Disabled,0.000000,0.000000,0.000000,TRUE,-0.021301,-0.023621,0.000000,0.012894,-0.012375,0.000000,0.044000,-0.018000,0.030000,1.210000,-0.070000,-0.090000,3.336765,Hold,-0.010010,0.000000,Hold,-173.000000,2.000000,Suck,-1792.500000,1818.181818,Speed,-1785.000000,1818.181818,Speed,Off,On,0.000000,FALSE,10,,,,,0.000000,0.000000,-0.050000
12:00:11.304 PM 04/28/2016,Teleop Enabled,11,FALSE,0,NO ERROR,-0.000000,-0.051333,-0.000000,-0.070583,TRUE,FALSE,FALSE,FALSE,FALSE,FALSE,Disabled,0.000000,0.000000,0.000000,TRUE,-0.020477,-0.024231,0.000000,0.017120,-0.003891,0.000000,0.038000,0.014000,-0.020000,1.190000,-0.070000,-0.090000,3.332228,Hold,-0.010010,0.000000,Hold,-173.000000,2.000000,Suck,-1785.000000,1818.181818,Speed,-1785.000000,1818.181818,Speed,Off,On,0.000000,FALSE,10,,,,,0.000000,0.000000,-0.050000
12:00:11.403 PM 04/28/2016,Teleop Enabled,11,FALSE,0,NO ERROR,-0.000000,-0.051333,-0.000000,-0.070583,TRUE,FALSE,FALSE,FALSE,FALSE,FALSE,Disabled,0.000000,0.000000,0.000000,TRUE,-0.018539,-0.024521,0.000000,0.035416,-0.005753,0.000000,-0.012000,-0.051000,-0.057000,1.210000,-0.070000,-0.020000,3.338958,Hold,-0.010010,0.000000,Hold,-173.000000,2.000000,Suck,-1792.500000,1818.181818,Speed,-1785.000000,1818.181818,Speed,Off,On,0.000000,FALSE,10,,,,,0.000000,0.000000,-0.050000
12:00:11.505 PM 04/28/2016,Teleop Enabled,12,FALSE,0,NO ERROR,-0.000000,-0.051333,-0.000000,-0.070583,TRUE,FALSE,FALSE,FALSE,FALSE,FALSE,Disabled,0.000000,0.000000,0.000000,TRUE,-0.017899,-0.025345,0.000000,0.017807,-0.017532,0.000000,0.048000,0.015000,-0.040000,1.180000,-0.080000,0.000000,3.339147,Hold,-0.010010,0.000000,Hold,-173.000000,2.000000,Suck,-1792.500000,1818.181818,Speed,-1777.500000,1818.181818,Speed,Off,On,0.000000,FALSE,10,,,,,0.000000,0.000000,-0.050000
12:00:11.603 PM 04/28/2016,Teleop Enabled,9,FALSE,0,NO ERROR,-0.000000,-0.051333,-0.000000,-0.070583,TRUE,FALSE,FALSE,FALSE,FALSE,FALSE,Disabled,0.000000,0.000000,0.000000,TRUE,-0.016205,-0.026154,0.000000,0.032349,-0.009796,0.000000,0.008000,-0.028000,-0.035000,1.210000,-0.080000,0.010000,3.339147,Hold,-0.010010,0.000000,Hold,-173.000000,2.000000,Suck,-1792.500000,1818.181818,Speed,-1785.000000,1818.181818,Speed,Off,On,0.000000,FALSE,10,,,,,0.000000,0.000000,-0.050000
12:00:11.704 PM 04/28/2016,Teleop Enabled,10,FALSE,0,NO ERROR,-0.000000,-0.051333,-0.000000,-0.070583,TRUE,FALSE,FALSE,FALSE,FALSE,FALSE,Disabled,0.000000,0.000000,0.000000,TRUE,-0.014328,-0.026184,0.000000,0.036926,0.005051,0.000000,-0.065000,0.006000,-0.018000,1.200000,-0.090000,0.080000,3.350346,Hold,-0.010010,0.000000,Hold,-173.000000,2.000000,Suck,-1792.500000,1818.181818,Speed,-1792.500000,1818.181818,Speed,Off,On,0.000000,FALSE,10,,,,,0.000000,0.000000,-0.050000
