Time,Robot Mode,Loop Time,Error Status,Error Code,Error Source,Left Motor Output,Left Motor Encoder,Right Motor Output,Right Motor Encoder,Is Level,Is Stalled,Ball Detector Photoeye,Vision Enabled,Vision Teleop Control,Vision Auto Control,Vision Current State,Vision X Output,Vision NavX Error,Vision NavX Target,NavX Connection Status,NavX Displacement X,NavX Displacement Y,NavX Displacement Z,NavX Velocity X,NavX Velocity Y,NavX Velocity Z,NavX Acceleration X,NavX Acceleration Y,NavX Acceleration Z,NavX Pitch,NavX Yaw,NavX Roll,Gyro Angle,Roller Arm State,Roller Arm Actual,Roller Arm Desired,Shooter Arm State,Shooter Arm Actual,Shooter Arm Desired,Shooter State,Actual RPM Left,Desired RPM Left,Control Mode Left,Actual RPM Right,Desired RPM Right,Control Mode Right,Ball Shooter Cylinder,Ball Halo Cylinder,Scaler Motor Output,Scaler Solenoid Fire,Auto To Run,Auto Current File,Auto File Status,Auto Current Command,Auto Trimmed Command,Shooter Amps Left,Shooter Amps Right, Vision After Offset
09:01:00.302 AM 04/28/2016,Teleop Enabled,9,FALSE,0,NO ERROR,-0.000000,0.000000,-0.000000,0.000000,TRUE,FALSE,FALSE,FALSE,FALSE,FALSE,Disabled,0.043750,0.000000,0.000000,TRUE,0.003662,0.001053,0.000000,0.000000,-0.003906,0.000000,0.010000,-0.037000,0.341000,1.760000,-0.020000,-0.250000,0.104175,ResetBack,-23.715088,-0.000049,ResetBack,-19552.000000,-0.250000,Suck,0.000000,1818.181818,Speed,0.000000,1818.181818,Speed,Off,On,0.000000,FALSE,0,,,,,0.000000,0.000000,-0.006250
09:01:00.403 AM 04/28/2016,Teleop Enabled,9,FALSE,0,NO ERROR,-0.000000,0.000000,-0.000000,0.083416,TRUE,FALSE,FALSE,FALSE,FALSE,FALSE,Disabled,0.043750,0.000000,0.000000,TRUE,0.003662,0.001053,0.000000,0.000000,-0.003906,0.000000,0.010000,-0.037000,0.341000,1.760000,-0.020000,-0.250000,0.111473,ResetBack,-24.710205,-0.000049,ResetBack,-19552.000000,-0.250000,Suck,-45.000000,1818.181818,Speed,-15.000000,1818.181818,Speed,Off,On,0.000000,FALSE,0,,,,,0.000000,0.000000,-0.006250
09:01:00.503 AM 04/28/2016,Teleop Enabled,11,FALSE,0,NO ERROR,-0.000000,0.000000,-0.000000,0.134750,TRUE,FALSE,FALSE,FALSE,FALSE,FALSE,Disabled,0.043750,0.000000,0.000000,TRUE,0.002975,0.002975,0.000000,-0.035248,0.017090,0.000000,-0.090000,0.020000,-0.013000,1.730000,-0.020000,-0.200000,0.094832,ResetBack,-24.713623,-0.000049,ResetBack,-16932.000000,-0.250000,Suck,-480.000000,1818.181818,Speed,-315.000000,1818.181818,Speed,Off,On,0.000000,FALSE,0,,,,,0.000000,0.000000,-0.006250
09:01:00.604 AM 04/28/2016,Teleop Enabled,10,FALSE,0,NO ERROR,-0.000000,0.000000,-0.000000,0.134750,TRUE,FALSE,FALSE,FALSE,FALSE,FALSE,Disabled,0.043750,0.000000,0.000000,TRUE,0.001373,0.003922,0.000000,0.000000,0.009583,0.000000,-0.014000,-0.006000,0.012000,1.770000,-0.030000,-0.230000,0.093483,ResetBack,-24.714844,-0.000049,ResetBack,-10442.000000,-0.250000,Suck,-975.000000,1818.181818,Speed,-810.000000,1818.181818,Speed,Off,On,0.000000,FALSE,0,,,,,0.000000,0.000000,-0.006250
09:01:00.705 AM 04/28/2016,Teleop Enabled,10,FALSE,0,NO ERROR,-0.000000,0.000000,-0.000000,0.134750,TRUE,FALSE,FALSE,FALSE,FALSE,FALSE,Disabled,0.043750,0.000000,0.000000,TRUE,0.001999,0.004623,0.000000,0.022354,0.028610,0.000000,-0.030000,0.004000,0.019000,1.780000,-0.040000,-0.150000,0.108647,Reset,-24.719971,0.000000,ResetBack,-2140.000000,-0.250000,Suck,-1410.000000,1818.181818,Speed,-1065.000000,1818.181818,Speed,Off,On,0.000000,FALSE,0,,,,,0.000000,0.000000,-0.006250
09:01:00.805 AM 04/28/2016,Teleop Enabled,9,FALSE,0,NO ERROR,-0.000000,0.000000,-0.000000,0.134750,TRUE,FALSE,FALSE,FALSE,FALSE,FALSE,Disabled,0.043750,0.000000,0.000000,TRUE,0.002701,0.006088,0.000000,0.009247,0.031418,0.000000,-0.010000,-0.064000,0.021000,1.780000,-0.040000,-0.150000,0.114651,Hold,0.000244,0.000000,ResetBack,7045.000000,-0.250000,Suck,-1710.000000,1818.181818,Speed,-1807.500000,1818.181818,Speed,Off,On,0.000000,FALSE,0,,,,,0.000000,0.000000,-0.006250
09:01:00.905 AM 04/28/2016,Teleop Enabled,10,FALSE,0,NO ERROR,-0.000000,0.000000,-0.000000,0.134750,TRUE,FALSE,FALSE,FALSE,FALSE,FALSE,Disabled,0.043750,0.000000,0.000000,TRUE,0.005417,0.006485,0.000000,0.065308,-0.003265,0.000000,-0.010000,-0.064000,0.021000,1.800000,-0.070000,-0.190000,0.086033,Hold,0.000244,0.000000,ResetBack,15498.000000,-0.250000,Suck,-1792.500000,1818.181818,Speed,-1995.000000,1818.181818,Speed,Off,On,0.000000,FALSE,0,,,,,0.000000,0.000000,-0.006250
09:01:01.006 AM 04/28/2016,Teleop Enabled,10,FALSE,0,NO ERROR,-0.000000,0.000000,-0.000000,0.134750,TRUE,FALSE,FALSE,FALSE,FALSE,FALSE,Disabled,0.043750,0.000000,0.000000,TRUE,0.009171,0.006500,0.000000,0.073074,0.003342,0.000000,0.034000,-0.002000,-0.003000,1.790000,-0.070000,-0.090000,0.111862,Hold,0.000244,0.000000,ResetBack,15498.000000,-0.250000,Suck,-1762.500000,1818.181818,Speed,-1845.000000,1818.181818,Speed,Off,On,0.000000,FALSE,0,,,,,0.000000,0.000000,-0.006250
09:01:01.106 AM 04/28/2016,Teleop Enabled,9,FALSE,0,NO ERROR,-0.000000,0.000000,-0.000000,0.141166,TRUE,FALSE,FALSE,FALSE,FALSE,FALSE,Disabled,0.043750,0.000000,0.000000,TRUE,0.012207,0.006699,0.000000,0.060959,0.000000,0.000000,-0.103000,0.022000,-0.007000,1.800000,-0.060000,-0.170000,0.145872,Hold,0.000244,0.000000,ResetBack,18327.000000,-0.250000,Suck,-1725.000000,1818.181818,Speed,-1687.500000,1818.181818,Speed,Off,On,0.000000,FALSE,0,,,,,0.000000,0.000000,-0.006250
09:01:01.206 AM 04/28/2016,Teleop Enabled,11,FALSE,0,NO ERROR,-0.000000,0.000000,-0.000000,0.141166,TRUE,FALSE,FALSE,FALSE,FALSE,FALSE,Disabled,0.043750,0.000000,0.000000,TRUE,0.015900,0.006638,0.000000,0.075851,0.001099,0.000000,0.073000,-0.010000,-0.018000,1.800000,-0.060000,-0.170000,0.126862,Hold,0.000244,0.000000,ResetBack,18806.000000,-0.250000,Suck,-1717.500000,1818.181818,Speed,-1597.500000,1818.181818,Speed,Off,On,0.000000,FALSE,0,,,,,0.000000,0.000000,-0.006250
09:01:01.306 AM 04/28/2016,Teleop Enabled,11,FALSE,0,NO ERROR,-0.000000,0.000000,-0.000000,0.141166,TRUE,FALSE,FALSE,FALSE,FALSE,FALSE,Disabled,0.043750,0.000000,0.000000,TRUE,0.019028,0.006546,0.000000,0.065765,-0.006180,0.000000,-0.066000,-0.030000,0.169000,1.820000,-0.080000,-0.180000,0.133416,Hold,0.000244,0.000000,ResetBack,18816.000000,-0.250000,Suck,-1710.000000,1818.181818,Speed,-1695.000000,1818.181818,Speed,Off,On,0.000000,FALSE,0,,,,,0.000000,0.000000,-0.006250
09:01:01.407 AM 04/28/2016,Teleop Enabled,10,FALSE,0,NO ERROR,-0.000000,0.000000,-0.000000,0.141166,TRUE,FALSE,FALSE,FALSE,FALSE,FALSE,Disabled,0.043750,0.000000,0.000000,TRUE,0.021942,0.005142,0.000000,0.051834,-0.039963,0.000000,0.047000,-0.095000,-0.101000,1.810000,-0.080000,-0.190000,0.141252,Hold,0.000244,0.000000,ResetBack,18854.000000,-0.250000,Suck,-1702.500000,1818.181818,Speed,-1770.000000,1818.181818,Speed,Off,On,0.000000,FALSE,0,,,,,0.000000,0.000000,-0.006250
09:01:01.509 AM 04/28/2016,Teleop Enabled,11,FALSE,0,NO ERROR,-0.000000,0.000000,-0.000000,0.141166,TRUE,FALSE,FALSE,FALSE,FALSE,FALSE,Disabled,0.043750,0.000000,0.000000,TRUE,0.021942,0.005142,0.000000,0.051834,-0.039963,0.000000,-0.098000,-0.031000,0.011000,1.810000,-0.080000,-0.190000,0.135599,Hold,0.000244,0.000000,ResetBack,18931.000000,-0.250000,Suck,-1710.000000,1818.181818,Speed,-1792.500000,1818.181818,Speed,Off,On,0.000000,FALSE,0,,,,,0.000000,0.000000,-0.006250
09:01:01.609 AM 04/28/2016,Teleop Enabled,9,FALSE,0,NO ERROR,-0.000000,0.000000,-0.000000,0.147583,TRUE,FALSE,FALSE,FALSE,FALSE,FALSE,Disabled,0.043750,0.000000,0.000000,TRUE,0.022949,0.002380,0.000000,-0.006042,-0.061829,0.000000,0.003000,-0.049000,-0.019000,1.840000,-0.080000,-0.230000,0.140195,Hold,0.000244,0.000000,Reset,0.000000,2.000000,Suck,-1702.500000,1818.181818,Speed,-1747.500000,1818.181818,Speed,Off,On,0.000000,FALSE,0,,,,,0.000000,0.000000,-0.006250
09:01:01.709 AM 04/28/2016,Teleop Enabled,10,FALSE,0,NO ERROR,-0.000000,0.000000,-0.000000,0.147583,TRUE,FALSE,FALSE,FALSE,FALSE,FALSE,Disabled,0.043750,0.000000,0.000000,TRUE,0.023270,-0.000168,0.000000,0.026123,-0.043152,0.000000,-0.106000,0.007000,0.093000,1.810000,-0.070000,-0.150000,0.145989,Hold,0.000244,0.000000,Hold,0.000000,2.000000,Suck,-1695.000000,1818.181818,Speed,-1687.500000,1818.181818,Speed,Off,On,0.000000,FALSE,0,,,,,0.000000,0.000000,-0.006250
09:01:01.809 AM 04/28/2016,Teleop Enabled,10,FALSE,0,NO ERROR,-0.000000,0.000000,-0.000000,0.147583,TRUE,FALSE,FALSE,FALSE,FALSE,FALSE,Disabled,0.043750,0.000000,0.000000,TRUE,0.023087,-0.001541,0.000000,-0.007828,-0.024246,0.000000,0.043000,0.074000,-0.021000,1.860000,-0.080000,-0.260000,0.150127,Hold,0.000244,0.000000,Hold,-182.000000,2.000000,Suck,-1695.000000,1818.181818,Speed,-1680.000000,1818.181818,Speed,Off,On,0.000000,FALSE,0,,,,,0.000000,0.000000,-0.006250
09:01:01.909 AM 04/28/2016,Teleop Enabled,10,FALSE,0,NO ERROR,-0.000000,0.000000,-0.000000,0.147583,TRUE,FALSE,FALSE,FALSE,FALSE,FALSE,Disabled,0.043750,0.000000,0.000000,TRUE,0.023071,-0.002167,0.000000,0.006516,-0.018661,0.000000,-0.070000,0.010000,0.077000,1.870000,-0.080000,-0.190000,0.151641,Hold,0.000244,0.000000,Hold,-182.000000,2.000000,Suck,-1710.000000,1818.181818,Speed,-1717.500000,1818.181818,Speed,Off,On,0.000000,FALSE,0,,,,,0.000000,0.000000,-0.006250
09:01:02.009 AM 04/28/2016,Teleop Enabled,9,FALSE,0,NO ERROR,-0.000000,0.000000,-0.000000,0.147583,TRUE,FALSE,FALSE,FALSE,FALSE,FALSE,Disabled,0.043750,0.000000,0.000000,TRUE,0.022720,-0.003448,0.000000,-0.013092,-0.023132,0.000000,-0.044000,-0.077000,-0.049000,1.900000,-0.080000,-0.240000,0.151641,Hold,0.000244,0.000000,Hold,-182.000000,2.000000,Suck,-1717.500000,1818.181818,Speed,-1777.500000,1818.181818,Speed,Off,On,0.000000,FALSE,0,,,,,0.000000,0.000000,-0.006250
09:01:02.109 AM 04/28/2016,Teleop Enabled,9,FALSE,0,NO ERROR,-0.000000,0.000000,-0.000000,0.147583,TRUE,FALSE,FALSE,FALSE,FALSE,FALSE,Disabled,0.043750,0.000000,0.000000,TRUE,0.021545,-0.005249,0.000000,-0.025406,-0.037308,0.000000,0.034000,-0.028000,-0.019000,1.890000,-0.080000,-0.300000,0.168431,Hold,0.000244,0.000000,Hold,-182.000000,2.000000,Suck,-1710.000000,1818.181818,Speed,-1755.000000,1818.181818,Speed,Off,On,0.000000,FALSE,0,,,,,0.000000,0.000000,-0.006250
09:01:02.210 AM 04/28/2016,Teleop Enabled,8,FALSE,0,NO ERROR,-0.000000,0.000000,-0.000000,0.147583,TRUE,FALSE,FALSE,FALSE,FALSE,FALSE,Disabled,0.043750,0.000000,0.000000,TRUE,0.020950,-0.007431,0.000000,-0.003693,-0.040619,0.000000,-0.028000,-0.060000,-0.026000,1.870000,-0.090000,-0.260000,0.188483,Hold,0.000244,0.000000,Hold,-181.000000,2.000000,Suck,-1710.000000,1818.181818,Speed,-1695.000000,1818.181818,Speed,Off,On,0.000000,FALSE,0,,,,,0.000000,0.000000,-0.006250
09:01:02.311 AM 04/28/2016,Teleop Enabled,9,FALSE,0,NO ERROR,-0.000000,0.000000,-0.000000,0.147583,TRUE,FALSE,FALSE,FALSE,FALSE,FALSE,Disabled,0.043750,0.000000,0.000000,TRUE,0.020615,-0.009064,0.000000,0.004776,-0.022736,0.000000,0.064000,-0.071000,-0.049000,1.900000,-0.080000,-0.320000,0.188652,Hold,0.000244,0.000000,Hold,-181.000000,2.000000,Suck,-1710.000000,1818.181818,Speed,-1680.000000,1818.181818,Speed,Off,On,0.000000,FALSE,0,,,,,0.000000,0.000000,-0.006250
09:01:02.412 AM 04/28/2016,Teleop Enabled,9,FALSE,0,NO ERROR,-0.000000,0.000000,-0.000000,0.147583,TRUE,FALSE,FALSE,FALSE,FALSE,FALSE,Disabled,0.043750,0.000000,0.000000,TRUE,0.020798,-0.010742,0.000000,-0.008881,-0.034576,0.000000,0.066000,0.040000,-0.072000,1.860000,-0.080000,-0.320000,0.175674,Hold,0.000244,0.000000,Hold,-181.000000,2.000000,Suck,-1702.500000,1818.181818,Speed,-1717.500000,1818.181818,Speed,Off,On,0.000000,FALSE,0,,,,,0.000000,0.000000,-0.006250
09:01:02.512 AM 04/28/2016,Teleop Enabled,3,FALSE,0,NO ERROR,-0.000000,0.000000,-0.000000,0.147583,TRUE,FALSE,FALSE,FALSE,FALSE,FALSE,Disabled,0.043750,0.000000,0.000000,TRUE,0.021057,-0.012772,0.000000,0.004791,-0.054092,0.000000,0.065000,0.031000,0.022000,1.840000,-0.090000,-0.310000,0.177591,Hold,0.000244,0.000000,Hold,-181.000000,2.000000,Suck,-1702.500000,1818.181818,Speed,-1725.000000,1818.181818,Speed,Off,On,0.000000,FALSE,0,,,,,0.000000,0.000000,-0.006250
09:01:02.613 AM 04/28/2016,Teleop Enabled,10,FALSE,0,NO ERROR,-0.000000,0.000000,-0.000000,0.147583,TRUE,FALSE,FALSE,FALSE,FALSE,FALSE,Disabled,0.043750,0.000000,0.000000,TRUE,0.021286,-0.014908,0.000000,-0.005020,-0.032822,0.000000,0.025000,-0.072000,0.022000,1.860000,-0.080000,-0.320000,0.163670,Hold,0.000244,0.000000,Hold,-181.000000,2.000000,Suck,-1717.500000,1818.181818,Speed,-1732.500000,1818.181818,Speed,Off,On,0.000000,FALSE,0,,,,,0.000000,0.000000,-0.006250
09:01:02.713 AM 04/28/2016,Teleop Enabled,10,FALSE,0,NO ERROR,-0.000000,0.000000,-0.000000,0.147583,TRUE,FALSE,FALSE,FALSE,FALSE,FALSE,Disabled,0.043750,0.000000,0.000000,TRUE,0.021149,-0.016983,0.000000,0.000000,0.000000,0.000000,0.032000,-0.025000,-0.005000,1.820000,-0.090000,-0.230000,0.161979,Hold,0.000244,0.000000,Hold,-181.000000,2.000000,Suck,-1717.500000,1818.181818,Speed,-1725.000000,1818.181818,Speed,Off,On,0.000000,FALSE,0,,,,,0.000000,0.000000,-0.006250
09:01:02.815 AM 04/28/2016,Teleop Enabled,9,FALSE,0,NO ERROR,-0.000000,0.000000,-0.000000,0.147583,TRUE,FALSE,FALSE,FALSE,FALSE,FALSE,Disabled,0.043750,0.000000,0.000000,TRUE,0.021561,-0.017319,0.000000,0.006027,-0.008194,0.000000,0.078000,-0.070000,-0.046000,1.840000,-0.090000,-0.260000,0.167043,Hold,0.000244,0.000000,Hold,-181.000000,2.000000,Suck,-1702.500000,1818.181818,Speed,-1710.000000,1818.181818,Speed,Off,On,0.000000,FALSE,0,,,,,0.000000,0.000000,-0.006250
09:01:02.916 AM 04/28/2016,Teleop Enabled,13,FALSE,0,NO ERROR,-0.000000,0.000000,-0.000000,0.154000,TRUE,FALSE,FALSE,FALSE,FALSE,FALSE,Disabled,0.043750,0.000000,0.000000,TRUE,0.021561,-0.016937,0.000000,-0.006851,0.023926,0.000000,0.005000,-0.016000,-0.030000,1.850000,-0.090000,-0.320000,0.178197,Hold,0.000244,0.000000,Hold,-181.000000,2.000000,Suck,-1710.000000,1818.181818,Speed,-1710.000000,1818.181818,Speed,Off,On,0.000000,FALSE,0,,,,,0.000000,0.000000,-0.006250
09:01:03.016 AM 04/28/2016,Teleop Enabled,9,FALSE,0,NO ERROR,-0.000000,0.000000,-0.000000,0.154000,TRUE,FALSE,FALSE,FALSE,FALSE,FALSE,Disabled,0.043750,0.000000,0.000000,TRUE,0.022232,-0.015823,0.000000,0.013931,0.035461,0.000000,0.093000,0.018000,-0.062000,1.860000,-0.090000,-0.200000,0.177175,Hold,0.000244,0.000000,Hold,-181.000000,2.000000,Suck,-1717.500000,1818.181818,Speed,-1717.500000,1818.181818,Speed,Off,On,0.000000,FALSE,0,,,,,0.000000,0.000000,-0.006250
09:01:03.118 AM 04/28/2016,Teleop Enabled,10,FALSE,0,NO ERROR,-0.000000,0.000000,-0.000000,0.154000,TRUE,FALSE,FALSE,FALSE,FALSE,FALSE,Disabled,0.043750,0.000000,0.000000,TRUE,0.022690,-0.014481,0.000000,0.004776,0.023834,0.000000,0.029000,-0.047000,-0.047000,1.870000,-0.100000,-0.210000,0.198453,Hold,0.000244,0.000000,Hold,-181.000000,2.000000,Suck,-1717.500000,1818.181818,Speed,-1740.000000,1818.181818,Speed,Off,On,0.000000,FALSE,0,,,,,0.000000,0.000000,-0.006250
09:01:03.218 AM 04/28/2016,Teleop Enabled,10,FALSE,0,NO ERROR,-0.000000,0.000000,-0.000000,0.154000,TRUE,FALSE,FALSE,FALSE,FALSE,FALSE,Disabled,0.043750,0.000000,0.000000,TRUE,0.023132,-0.014267,0.000000,0.005493,-0.002914,0.000000,-0.029000,0.048000,-0.079000,1.820000,-0.100000,-0.210000,0.195548,Hold,0.000244,0.000000,Hold,-181.000000,2.000000,Suck,-1717.500000,1818.181818,Speed,-1755.000000,1818.181818,Speed,Off,On,0.000000,FALSE,0,,,,,0.000000,0.000000,-0.006250
09:01:03.319 AM 04/28/2016,Teleop Enabled,10,FALSE,0,NO ERROR,-0.000000,0.000000,-0.000000,0.154000,TRUE,FALSE,FALSE,FALSE,FALSE,FALSE,Disabled,0.043750,0.000000,0.000000,TRUE,0.022705,-0.014267,0.000000,-0.005310,-0.008636,0.000000,0.037000,-0.103000,0.013000,1.800000,-0.110000,-0.250000,0.200405,Hold,0.000244,0.000000,Hold,-181.000000,2.000000,Suck,-1710.000000,1818.181818,Speed,-1725.000000,1818.181818,Speed,Off,On,0.000000,FALSE,0,,,,,0.000000,0.000000,-0.006250
09:01:03.420 AM 04/28/2016,Teleop Enabled,10,FALSE,0,NO ERROR,-0.000000,0.000000,-0.000000,0.154000,TRUE,FALSE,FALSE,FALSE,FALSE,FALSE,Disabled,0.043750,0.000000,0.000000,TRUE,0.023621,-0.015045,0.000000,0.015320,0.002090,0.000000,0.007000,-0.022000,-0.049000,1.780000,-0.110000,-0.200000,0.204140,Hold,0.000244,0.000000,Hold,-181.000000,2.000000,Suck,-1717.500000,1818.181818,Speed,-1695.000000,1818.181818,Speed,Off,On,0.000000,FALSE,0,,,,,0.000000,0.000000,-0.006250
09:01:03.520 AM 04/28/2016,Teleop Enabled,10,FALSE,0,NO ERROR,-0.000000,0.000000,-0.000000,0.154000,TRUE,FALSE,FALSE,FALSE,FALSE,FALSE,Disabled,0.043750,0.000000,0.000000,TRUE,0.024597,-0.016006,0.000000,0.014359,-0.044174,0.000000,-0.050000,-0.057000,0.000000,1.720000,-0.110000,-0.210000,0.207600,Hold,0.000244,0.000000,Hold,-181.000000,2.000000,Suck,-1717.500000,1818.181818,Speed,-1695.000000,1818.181818,Speed,Off,On,0.000000,FALSE,0,,,,,0.000000,0.000000,-0.006250
09:01:03.621 AM 04/28/2016,Teleop Enabled,12,FALSE,0,NO ERROR,-0.000000,0.000000,-0.000000,0.160416,TRUE,FALSE,FALSE,FALSE,FALSE,FALSE,Disabled,0.043750,0.000000,0.000000,TRUE,0.025101,-0.016632,0.000000,0.023376,-0.012497,0.000000,0.044000,-0.069000,0.009000,1.700000,-0.110000,-0.190000,0.204075,Hold,0.000244,0.000000,Hold,-181.000000,2.000000,Suck,-1725.000000,1818.181818,Speed,-1725.000000,1818.181818,Speed,Off,On,0.000000,FALSE,0,,,,,0.000000,0.000000,-0.006250
09:01:03.721 AM 04/28/2016,Teleop Enabled,10,FALSE,0,NO ERROR,-0.000000,0.000000,-0.000000,0.160416,TRUE,FALSE,FALSE,FALSE,FALSE,FALSE,Disabled,0.043750,0.000000,0.000000,TRUE,0.027298,-0.016693,0.000000,0.059891,-0.005737,0.000000,-0.097000,0.064000,0.071000,1.680000,-0.120000,-0.070000,0.218110,Hold,0.000244,0.000000,Hold,-181.000000,2.000000,Suck,-1725.000000,1818.181818,Speed,-1725.000000,1818.181818,Speed,Off,On,0.000000,FALSE,0,,,,,0.000000,0.000000,-0.006250
09:01:03.822 AM 04/28/2016,Teleop Enabled,11,FALSE,0,NO ERROR,-0.000000,0.000000,-0.000000,0.160416,TRUE,FALSE,FALSE,FALSE,FALSE,FALSE,Disabled,0.043750,0.000000,0.000000,TRUE,0.029129,-0.016159,0.000000,0.027359,0.008987,0.000000,-0.021000,0.036000,0.030000,1.730000,-0.120000,-0.150000,0.215452,Hold,0.000244,0.000000,Hold,-181.000000,2.000000,Suck,-1725.000000,1818.181818,Speed,-1725.000000,1818.181818,Speed,Off,On,0.000000,FALSE,0,,,,,0.000000,0.000000,-0.006250
09:01:03.923 AM 04/28/2016,Teleop Enabled,10,FALSE,0,NO ERROR,-0.000000,0.000000,-0.000000,0.160416,TRUE,FALSE,FALSE,FALSE,FALSE,FALSE,Disabled,0.043750,0.000000,0.000000,TRUE,0.030075,-0.015396,0.000000,0.017792,0.007797,0.000000,-0.062000,0.006000,-0.031000,1.690000,-0.120000,-0.150000,0.226551,Hold,0.000244,0.000000,Hold,-181.000000,2.000000,Suck,-1732.500000,1818.181818,Speed,-1710.000000,1818.181818,Speed,Off,On,0.000000,FALSE,0,,,,,0.000000,0.000000,-0.006250
09:01:04.024 AM 04/28/2016,Teleop Enabled,10,FALSE,0,NO ERROR,-0.000000,0.000000,-0.000000,0.166833,TRUE,FALSE,FALSE,FALSE,FALSE,FALSE,Disabled,0.043750,0.000000,0.000000,TRUE,0.030304,-0.015594,0.000000,0.000000,0.001846,0.000000,-0.023000,0.102000,0.062000,1.670000,-0.110000,-0.210000,0.227818,Hold,0.000244,0.000000,Hold,-181.000000,2.000000,Suck,-1732.500000,1818.181818,Speed,-1710.000000,1818.181818,Speed,Off,On,0.000000,FALSE,0,,,,,0.000000,0.000000,-0.006250
09:01:04.125 AM 04/28/2016,Teleop Enabled,13,FALSE,0,NO ERROR,-0.000000,0.000000,-0.000000,0.166833,TRUE,FALSE,FALSE,FALSE,FALSE,FALSE,Disabled,0.043750,0.000000,0.000000,TRUE,0.030472,-0.014191,0.000000,0.011337,0.036636,0.000000,-0.006000,0.053000,-0.020000,1.630000,-0.120000,-0.150000,0.241988,Hold,0.000244,0.000000,Hold,-181.000000,2.000000,Suck,-1725.000000,1818.181818,Speed,-1710.000000,1818.181818,Speed,Off,On,0.000000,FALSE,0,,,,,0.000000,0.000000,-0.006250
09:01:04.226 AM 04/28/2016,Teleop Enabled,10,FALSE,0,NO ERROR,-0.000000,0.000000,-0.000000,0.166833,TRUE,FALSE,FALSE,FALSE,FALSE,FALSE,Disabled,0.043750,0.000000,0.000000,TRUE,0.031143,-0.013290,0.000000,0.022247,0.001495,0.000000,-0.025000,0.099000,0.030000,1.600000,-0.120000,-0.100000,0.243492,Hold,0.000244,0.000000,Hold,-181.000000,2.000000,Suck,-1710.000000,1818.181818,Speed,-1717.500000,1818.181818,Speed,Off,On,0.000000,FALSE,0,,,,,0.000000,0.000000,-0.006250
09:01:04.326 AM 04/28/2016,Teleop Enabled,10,FALSE,0,NO ERROR,-0.000000,0.000000,-0.000000,0.173250,TRUE,FALSE,FALSE,FALSE,FALSE,FALSE,Disabled,0.043750,0.000000,0.000000,TRUE,0.032257,-0.011398,0.000000,0.013336,0.057739,0.000000,0.020000,0.039000,0.033000,1.650000,-0.120000,-0.120000,0.232469,Hold,0.000244,0.000000,Hold,-181.000000,2.000000,Suck,-1710.000000,1818.181818,Speed,-1717.500000,1818.181818,Speed,Off,On,0.000000,FALSE,0,,,,,0.000000,0.000000,-0.006250
09:01:04.427 AM 04/28/2016,Teleop Enabled,10,FALSE,0,NO ERROR,-0.000000,0.000000,-0.000000,0.173250,TRUE,FALSE,FALSE,FALSE,FALSE,FALSE,Disabled,0.043750,0.000000,0.000000,TRUE,0.033386,-0.008652,0.000000,0.026474,0.050812,0.000000,0.038000,-0.010000,0.007000,1.600000,-0.120000,-0.110000,0.229787,Hold,0.000244,0.000000,Hold,-180.000000,2.000000,Suck,-1717.500000,1818.181818,Speed,-1725.000000,1818.181818,Speed,Off,On,0.000000,FALSE,0,,,,,0.000000,0.000000,-0.006250
09:01:04.529 AM 04/28/2016,Teleop Enabled,11,FALSE,0,NO ERROR,-0.000000,0.000000,-0.000000,0.198916,TRUE,FALSE,FALSE,FALSE,FALSE,FALSE,Disabled,0.043750,0.000000,0.000000,TRUE,0.034882,-0.008438,0.000000,0.028366,0.016617,0.000000,0.050000,-0.008000,0.033000,1.600000,-0.140000,-0.040000,0.220055,Hold,0.000244,0.000000,Hold,-180.000000,2.000000,Suck,-1725.000000,1818.181818,Speed,-1725.000000,1818.181818,Speed,Off,On,0.000000,FALSE,0,,,,,0.000000,0.000000,-0.006250
09:01:04.631 AM 04/28/2016,Teleop Enabled,10,FALSE,0,NO ERROR,-0.000000,0.000000,-0.000000,0.179666,TRUE,FALSE,FALSE,FALSE,FALSE,FALSE,Disabled,0.043750,0.000000,0.000000,TRUE,0.037415,-0.007950,0.000000,0.061798,0.003601,0.000000,0.059000,-0.030000,-0.042000,1.570000,-0.090000,-0.090000,0.260454,Hold,0.000244,0.000000,Hold,-180.000000,2.000000,Suck,-1732.500000,1818.181818,Speed,-1702.500000,1818.181818,Speed,Off,On,0.000000,FALSE,0,,,,,0.000000,0.000000,-0.006250
09:01:04.732 AM 04/28/2016,Teleop Enabled,10,FALSE,0,NO ERROR,-0.000000,0.000000,-0.000000,0.160416,TRUE,FALSE,FALSE,FALSE,FALSE,FALSE,Disabled,0.043750,0.000000,0.000000,TRUE,0.040436,-0.007645,0.000000,0.058777,0.013428,0.000000,-0.022000,-0.016000,-0.102000,1.620000,-0.120000,-0.100000,0.251785,Hold,0.000244,0.000000,Hold,-180.000000,2.000000,Suck,-1717.500000,1818.181818,Speed,-1717.500000,1818.181818,Speed,Off,On,0.000000,FALSE,0,,,,,0.000000,0.000000,-0.006250
09:01:04.832 AM 04/28/2016,Teleop Enabled,11,FALSE,0,NO ERROR,-0.000000,0.000000,-0.000000,0.160416,TRUE,FALSE,FALSE,FALSE,FALSE,FALSE,Disabled,0.043750,0.000000,0.000000,TRUE,0.043777,-0.008347,0.000000,0.050949,-0.016602,0.000000,0.038000,0.001000,-0.056000,1.640000,-0.110000,-0.110000,0.254560,Hold,0.000244,0.000000,Hold,-180.000000,2.000000,Suck,-1717.500000,1818.181818,Speed,-1725.000000,1818.181818,Speed,Off,On,0.000000,FALSE,0,,,,,0.000000,0.000000,-0.006250
09:01:04.932 AM 04/28/2016,Teleop Enabled,10,FALSE,0,NO ERROR,-0.000000,0.000000,-0.000000,0.160416,TRUE,FALSE,FALSE,FALSE,FALSE,FALSE,Disabled,0.043750,0.000000,0.000000,TRUE,0.046326,-0.008072,0.000000,0.058533,0.012238,0.000000,0.000000,0.055000,0.000000,1.630000,-0.110000,-0.110000,0.259108,Hold,0.000244,0.000000,Hold,-180.000000,2.000000,Suck,-1717.500000,1818.181818,Speed,-1717.500000,1818.181818,Speed,Off,On,0.000000,FALSE,0,,,,,0.000000,0.000000,-0.006250
09:01:05.032 AM 04/28/2016,Teleop Enabled,12,FALSE,0,NO ERROR,-0.000000,0.000000,-0.000000,0.160416,TRUE,FALSE,FALSE,FALSE,FALSE,FALSE,Disabled,0.043750,0.000000,0.000000,TRUE,0.049164,-0.007065,0.000000,0.078720,0.024307,0.000000,0.021000,0.087000,0.004000,1.660000,-0.120000,-0.010000,0.271687,Hold,0.000244,0.000000,Hold,-180.000000,2.000000,Suck,-1732.500000,1818.181818,Speed,-1702.500000,1818.181818,Speed,Off,On,0.000000,FALSE,0,,,,,0.000000,0.000000,-0.006250
09:01:05.132 AM 04/28/2016,Teleop Enabled,9,FALSE,0,NO ERROR,-0.000000,0.000000,-0.000000,0.160416,TRUE,FALSE,FALSE,FALSE,FALSE,FALSE,Disabled,0.043750,0.000000,0.000000,TRUE,0.052399,-0.006714,0.000000,-0.001480,-0.014252,0.000000,0.001000,0.021000,0.002000,1.630000,-0.120000,0.020000,0.278245,Hold,0.000244,0.000000,Hold,-180.000000,2.000000,Suck,-1740.000000,1818.181818,Speed,-1717.500000,1818.181818,Speed,Off,On,0.000000,FALSE,0,,,,,0.000000,0.000000,-0.006250
09:01:05.232 AM 04/28/2016,Teleop Enabled,9,FALSE,0,NO ERROR,-0.000000,0.000000,-0.000000,0.160416,TRUE,FALSE,FALSE,FALSE,FALSE,FALSE,Disabled,0.043750,0.000000,0.000000,TRUE,0.052597,-0.006744,0.000000,0.016617,0.008087,0.000000,-0.132000,0.038000,0.005000,1.620000,-0.120000,-0.050000,0.276727,Hold,0.000244,0.000000,Hold,-180.000000,2.000000,Suck,-1725.000000,1818.181818,Speed,-1732.500000,1818.181818,Speed,Off,On,0.000000,FALSE,0,,,,,0.000000,0.000000,-0.006250
09:01:05.332 AM 04/28/2016,Teleop Enabled,8,FALSE,0,NO ERROR,-0.000000,0.000000,-0.000000,0.160416,TRUE,FALSE,FALSE,FALSE,FALSE,FALSE,Disabled,0.043750,0.000000,0.000000,TRUE,0.051895,-0.005493,0.000000,-0.030182,0.049698,0.000000,-0.035000,0.024000,-0.032000,1.700000,-0.120000,-0.140000,0.283980,Hold,0.000244,0.000000,Hold,-180.000000,2.000000,Suck,-1717.500000,1818.181818,Speed,-1725.000000,1818.181818,Speed,Off,On,0.000000,FALSE,0,,,,,0.000000,0.000000,-0.006250
09:01:05.432 AM 04/28/2016,Teleop Enabled,9,FALSE,0,NO ERROR,-0.000000,0.000000,-0.000000,0.160416,TRUE,FALSE,FALSE,FALSE,FALSE,FALSE,Disabled,0.043750,0.000000,0.000000,TRUE,0.049423,-0.002548,0.000000,-0.048645,0.042480,0.000000,0.076000,-0.021000,0.082000,1.670000,-0.120000,-0.130000,0.284311,Hold,0.000244,0.000000,Hold,-180.000000,2.000000,Suck,-1717.500000,1818.181818,Speed,-1725.000000,1818.181818,Speed,Off,On,0.000000,FALSE,0,,,,,0.000000,0.000000,-0.006250
09:01:05.532 AM 04/28/2016,Teleop Enabled,10,FALSE,0,NO ERROR,-0.000000,0.000000,-0.000000,0.160416,TRUE,FALSE,FALSE,FALSE,FALSE,FALSE,Disabled,0.043750,0.000000,0.000000,TRUE,0.047180,-0.000031,0.000000,-0.030991,0.040192,0.000000,-0.047000,0.028000,0.083000,1.670000,-0.120000,-0.120000,0.289220,Hold,0.000244,0.000000,Hold,-180.000000,2.000000,Suck,-1710.000000,1818.181818,Speed,-1710.000000,1818.181818,Speed,Off,On,0.000000,FALSE,0,,,,,0.000000,0.000000,-0.006250
09:01:05.632 AM 04/28/2016,Teleop Enabled,10,FALSE,0,NO ERROR,-0.000000,0.000000,-0.000000,0.160416,TRUE,FALSE,FALSE,FALSE,FALSE,FALSE,Disabled,0.043750,0.000000,0.000000,TRUE,0.044876,0.002045,0.000000,-0.057022,0.038010,0.000000,-0.039000,-0.067000,0.025000,1.710000,-0.110000,-0.210000,0.290097,Hold,0.000244,0.000000,Hold,-180.000000,2.000000,Suck,-1702.500000,1818.181818,Speed,-1710.000000,1818.181818,Speed,Off,On,0.000000,FALSE,0,,,,,0.000000,0.000000,-0.006250
09:01:05.732 AM 04/28/2016,Teleop Enabled,9,FALSE,0,NO ERROR,-0.000000,0.000000,-0.000000,0.160416,TRUE,FALSE,FALSE,FALSE,FALSE,FALSE,Disabled,0.043750,0.000000,0.000000,TRUE,0.043701,0.004272,0.000000,0.016983,0.047134,0.000000,0.027000,-0.071000,-0.014000,1.740000,-0.120000,-0.170000,0.279938,Hold,0.000244,0.000000,Hold,-180.000000,2.000000,Suck,-1710.000000,1818.181818,Speed,-1710.000000,1818.181818,Speed,Off,On,0.000000,FALSE,0,,,,,0.000000,0.000000,-0.006250
09:01:05.832 AM 04/28/2016,Teleop Enabled,11,FALSE,0,NO ERROR,-0.000000,0.000000,-0.000000,0.160416,TRUE,FALSE,FALSE,FALSE,FALSE,FALSE,Disabled,0.043750,0.000000,0.000000,TRUE,0.044800,0.006287,0.000000,0.016251,0.054321,0.000000,-0.024000,0.026000,-0.036000,1.780000,-0.120000,-0.190000,0.289805,Hold,0.000244,0.000000,Hold,-180.000000,2.000000,Suck,-1725.000000,1818.181818,Speed,-1702.500000,1818.181818,Speed,Off,On,0.000000,FALSE,0,,,,,0.000000,0.000000,-0.006250
09:01:05.932 AM 04/28/2016,Teleop Enabled,9,FALSE,0,NO ERROR,-0.000000,0.000000,-0.000000,0.160416,TRUE,FALSE,FALSE,FALSE,FALSE,FALSE,Disabled,0.043750,0.000000,0.000000,TRUE,0.045242,0.008499,0.000000,0.010574,0.044540,0.000000,0.060000,0.006000,-0.088000,1.770000,-0.120000,-0.200000,0.302642,Hold,0.000244,0.000000,Hold,-180.000000,2.000000,Suck,-1725.000000,1818.181818,Speed,-1717.500000,1818.181818,Speed,Off,On,0.000000,FALSE,0,,,,,0.000000,0.000000,-0.006250
09:01:06.032 AM 04/28/2016,Teleop Enabled,9,FALSE,0,NO ERROR,-0.000000,0.000000,-0.000000,0.160416,TRUE,FALSE,FALSE,FALSE,FALSE,FALSE,Disabled,0.043750,0.000000,0.000000,TRUE,0.046478,0.010345,0.000000,0.015701,0.043747,0.000000,-0.025000,0.027000,0.064000,1.780000,-0.120000,-0.210000,0.303823,Hold,0.000244,0.000000,Hold,-180.000000,2.000000,Suck,-1717.500000,1818.181818,Speed,-1732.500000,1818.181818,Speed,Off,On,0.000000,FALSE,0,,,,,0.000000,0.000000,-0.006250
09:01:06.132 AM 04/28/2016,Teleop Enabled,10,FALSE,0,NO ERROR,-0.000000,0.000000,-0.000000,0.160416,TRUE,FALSE,FALSE,FALSE,FALSE,FALSE,Disabled,0.043750,0.000000,0.000000,TRUE,0.048187,0.011795,0.000000,0.029053,0.039246,0.000000,-0.026000,-0.034000,0.001000,1.770000,-0.120000,-0.140000,0.307159,Hold,0.000244,0.000000,Hold,-180.000000,2.000000,Suck,-1710.000000,1818.181818,Speed,-1740.000000,1818.181818,Speed,Off,On,0.000000,FALSE,0,,,,,0.000000,0.000000,-0.006250
09:01:06.232 AM 04/28/2016,Teleop Enabled,9,FALSE,0,NO ERROR,-0.000000,0.000000,-0.000000,0.160416,TRUE,FALSE,FALSE,FALSE,FALSE,FALSE,Disabled,0.043750,0.000000,0.000000,TRUE,0.049728,0.013168,0.000000,0.041107,0.026047,0.000000,-0.054000,-0.052000,0.104000,1.770000,-0.120000,-0.130000,0.318251,Hold,0.000244,0.000000,Hold,-180.000000,2.000000,Suck,-1710.000000,1818.181818,Speed,-1717.500000,1818.181818,Speed,Off,On,0.000000,FALSE,0,,,,,0.000000,0.000000,-0.006250
09:01:06.333 AM 04/28/2016,Teleop Enabled,9,FALSE,0,NO ERROR,-0.000000,0.000000,-0.000000,0.160416,TRUE,FALSE,FALSE,FALSE,FALSE,FALSE,Disabled,0.043750,0.000000,0.000000,TRUE,0.050781,0.014267,0.000000,0.007919,0.000000,0.000000,0.010000,-0.037000,-0.090000,1.770000,-0.120000,-0.130000,0.324909,Hold,0.000244,0.000000,Hold,-180.000000,2.000000,Suck,-1717.500000,1818.181818,Speed,-1710.000000,1818.181818,Speed,Off,On,0.000000,FALSE,0,,,,,0.000000,0.000000,-0.006250
09:01:06.433 AM 04/28/2016,Teleop Enabled,7,FALSE,0,NO ERROR,-0.000000,0.000000,-0.000000,0.160416,TRUE,FALSE,FALSE,FALSE,FALSE,FALSE,Disabled,0.043750,0.000000,0.000000,TRUE,0.051071,0.013046,0.000000,-0.009628,-0.025406,0.000000,0.010000,-0.037000,-0.090000,1.730000,-0.130000,-0.160000,0.327473,Hold,0.000244,0.000000,Hold,-180.000000,2.000000,Suck,-1717.500000,1818.181818,Speed,-1717.500000,1818.181818,Speed,Off,On,0.000000,FALSE,0,,,,,0.000000,0.000000,-0.006250
09:01:06.534 AM 04/28/2016,Teleop Enabled,8,FALSE,0,NO ERROR,-0.000000,0.000000,-0.000000,0.160416,TRUE,FALSE,FALSE,FALSE,FALSE,FALSE,Disabled,0.043750,0.000000,0.000000,TRUE,0.051071,0.012115,0.000000,0.000000,-0.032120,0.000000,0.021000,0.056000,-0.038000,1.750000,-0.130000,-0.180000,0.315287,Hold,0.000244,0.000000,Hold,-180.000000,2.000000,Suck,-1710.000000,1818.181818,Speed,-1725.000000,1818.181818,Speed,Off,On,0.000000,FALSE,0,,,,,0.000000,0.000000,-0.006250
09:01:06.635 AM 04/28/2016,Teleop Enabled,9,FALSE,0,NO ERROR,-0.000000,0.000000,-0.000000,0.160416,TRUE,FALSE,FALSE,FALSE,FALSE,FALSE,Disabled,0.043750,0.000000,0.000000,TRUE,0.051987,0.010162,0.000000,0.023758,-0.030121,0.000000,0.052000,-0.030000,0.040000,1.700000,-0.130000,-0.180000,0.327466,Hold,0.000244,0.000000,Hold,-180.000000,2.000000,Suck,-1717.500000,1818.181818,Speed,-1732.500000,1818.181818,Speed,Off,On,0.000000,FALSE,0,,,,,0.000000,0.000000,-0.006250
09:01:06.736 AM 04/28/2016,Teleop Enabled,5,FALSE,0,NO ERROR,-0.000000,0.000000,-0.000000,0.160416,TRUE,FALSE,FALSE,FALSE,FALSE,FALSE,Disabled,0.043750,0.000000,0.000000,TRUE,0.053070,0.009537,0.000000,0.017502,-0.004532,0.000000,-0.008000,0.029000,-0.001000,1.730000,-0.130000,-0.190000,0.323184,Hold,0.000244,0.000000,Hold,-180.000000,2.000000,Suck,-1725.000000,1818.181818,Speed,-1717.500000,1818.181818,Speed,Off,On,0.000000,FALSE,0,,,,,0.000000,0.000000,-0.006250
09:01:06.837 AM 04/28/2016,Teleop Enabled,10,FALSE,0,NO ERROR,-0.000000,0.000000,-0.000000,0.160416,TRUE,FALSE,FALSE,FALSE,FALSE,FALSE,Disabled,0.043750,0.000000,0.000000,TRUE,0.054001,0.010101,0.000000,0.031952,0.009598,0.000000,-0.008000,0.029000,-0.001000,1.690000,-0.140000,-0.120000,0.330055,Hold,0.000244,0.000000,Hold,-180.000000,2.000000,Suck,-1717.500000,1818.181818,Speed,-1725.000000,1818.181818,Speed,Off,On,0.000000,FALSE,0,,,,,0.000000,0.000000,-0.006250
09:01:06.937 AM 04/28/2016,Teleop Enabled,10,FALSE,0,NO ERROR,-0.000000,0.000000,-0.000000,0.160416,TRUE,FALSE,FALSE,FALSE,FALSE,FALSE,Disabled,0.043750,0.000000,0.000000,TRUE,0.054871,0.010941,0.000000,0.015808,0.004364,0.000000,-0.070000,0.133000,0.079000,1.760000,-0.140000,-0.150000,0.324737,Hold,0.000244,0.000000,Hold,-180.000000,2.000000,Suck,-1710.000000,1818.181818,Speed,-1725.000000,1818.181818,Speed,Off,On,0.000000,FALSE,0,,,,,0.000000,0.000000,-0.006250
09:01:07.038 AM 04/28/2016,Teleop Enabled,11,FALSE,0,NO ERROR,-0.000000,0.000000,-0.000000,0.160416,TRUE,FALSE,FALSE,FALSE,FALSE,FALSE,Disabled,0.043750,0.000000,0.000000,TRUE,0.055405,0.012833,0.000000,0.016357,0.037064,0.000000,-0.025000,-0.027000,0.066000,1.780000,-0.140000,-0.220000,0.330751,Hold,0.000244,0.000000,Hold,-180.000000,2.000000,Suck,-1717.500000,1818.181818,Speed,-1710.000000,1818.181818,Speed,Off,On,0.000000,FALSE,0,,,,,0.000000,0.000000,-0.006250
09:01:07.139 AM 04/28/2016,Teleop Enabled,9,FALSE,0,NO ERROR,-0.000000,0.000000,-0.000000,0.160416,TRUE,FALSE,FALSE,FALSE,FALSE,FALSE,Disabled,0.043750,0.000000,0.000000,TRUE,0.056122,0.015015,0.000000,0.022369,0.044159,0.000000,0.030000,0.012000,0.059000,1.730000,-0.140000,-0.200000,0.337519,Hold,0.000244,0.000000,Hold,-180.000000,2.000000,Suck,-1717.500000,1818.181818,Speed,-1710.000000,1818.181818,Speed,Off,On,0.000000,FALSE,0,,,,,0.000000,0.000000,-0.006250
09:01:07.239 AM 04/28/2016,Teleop Enabled,9,FALSE,0,NO ERROR,-0.000000,0.000000,-0.000000,0.160416,TRUE,FALSE,FALSE,FALSE,FALSE,FALSE,Disabled,0.043750,0.000000,0.000000,TRUE,0.056351,0.015320,0.000000,-0.013458,0.015091,0.000000,0.030000,0.012000,0.059000,1.780000,-0.140000,-0.230000,0.336631,Hold,0.000244,0.000000,Hold,-180.000000,2.000000,Suck,-1717.500000,1818.181818,Speed,-1717.500000,1818.181818,Speed,Off,On,0.000000,FALSE,0,,,,,0.000000,0.000000,-0.006250
09:01:07.340 AM 04/28/2016,Teleop Enabled,11,FALSE,0,NO ERROR,-0.000000,0.000000,-0.000000,0.160416,TRUE,FALSE,FALSE,FALSE,FALSE,FALSE,Disabled,0.043750,0.000000,0.000000,TRUE,0.055954,0.015503,0.000000,-0.013153,0.009567,0.000000,0.060000,-0.115000,-0.084000,1.780000,-0.140000,-0.230000,0.328761,Hold,0.000244,0.000000,Hold,-180.000000,2.000000,Suck,-1695.000000,1818.181818,Speed,-1717.500000,1818.181818,Speed,Off,On,0.000000,FALSE,0,,,,,0.000000,0.000000,-0.006250
09:01:07.440 AM 04/28/2016,Teleop Enabled,11,FALSE,0,NO ERROR,-0.000000,0.000000,-0.000000,0.160416,TRUE,FALSE,FALSE,FALSE,FALSE,FALSE,Disabled,0.043750,0.000000,0.000000,TRUE,0.055298,0.016281,0.000000,-0.020157,0.036911,0.000000,0.009000,-0.107000,-0.038000,1.780000,-0.140000,-0.220000,0.329473,Hold,0.000244,0.000000,Hold,-180.000000,2.000000,Suck,-1717.500000,1818.181818,Speed,-1725.000000,1818.181818,Speed,Off,On,0.000000,FALSE,0,,,,,0.000000,0.000000,-0.006250
09:01:07.541 AM 04/28/2016,Teleop Enabled,10,FALSE,0,NO ERROR,-0.000000,0.000000,-0.000000,0.160416,TRUE,FALSE,FALSE,FALSE,FALSE,FALSE,Disabled,0.043750,0.000000,0.000000,TRUE,0.055252,0.016754,0.000000,0.009750,0.004562,0.000000,0.085000,-0.027000,0.037000,1.770000,-0.140000,-0.140000,0.320089,Hold,0.000244,0.000000,Hold,-180.000000,2.000000,Suck,-1732.500000,1818.181818,Speed,-1717.500000,1818.181818,Speed,Off,On,0.000000,FALSE,0,,,,,0.000000,0.000000,-0.006250
09:01:07.642 AM 04/28/2016,Teleop Enabled,7,FALSE,0,NO ERROR,-0.000000,0.000000,-0.000000,0.160416,TRUE,FALSE,FALSE,FALSE,FALSE,FALSE,Disabled,0.043750,0.000000,0.000000,TRUE,0.055710,0.017075,0.000000,-0.004776,0.018478,0.000000,0.071000,-0.111000,-0.179000,1.750000,-0.140000,-0.150000,0.324196,Hold,0.000244,0.000000,Hold,-180.000000,2.000000,Suck,-1740.000000,1818.181818,Speed,-1710.000000,1818.181818,Speed,Off,On,0.000000,FALSE,0,,,,,0.000000,0.000000,-0.006250
09:01:07.742 AM 04/28/2016,Teleop Enabled,10,FALSE,0,NO ERROR,-0.000000,0.000000,-0.000000,0.160416,TRUE,FALSE,FALSE,FALSE,FALSE,FALSE,Disabled,0.043750,0.000000,0.000000,TRUE,0.056076,0.016937,0.000000,0.010513,0.001038,0.000000,0.071000,-0.111000,-0.179000,1.770000,-0.140000,-0.120000,0.338156,Hold,0.000244,0.000000,Hold,-180.000000,2.000000,Suck,-1732.500000,1818.181818,Speed,-1725.000000,1818.181818,Speed,Off,On,0.000000,FALSE,0,,,,,0.000000,0.000000,-0.006250
09:01:07.842 AM 04/28/2016,Teleop Enabled,7,FALSE,0,NO ERROR,-0.000000,0.000000,-0.000000,0.160416,TRUE,FALSE,FALSE,FALSE,FALSE,FALSE,Disabled,0.043750,0.000000,0.000000,TRUE,0.056564,0.017746,0.000000,-0.001648,0.033630,0.000000,-0.022000,-0.014000,-0.027000,1.790000,-0.140000,-0.100000,0.334723,Hold,0.000244,0.000000,Hold,-180.000000,2.000000,Suck,-1732.500000,1818.181818,Speed,-1717.500000,1818.181818,Speed,Off,On,0.000000,FALSE,0,,,,,0.000000,0.000000,-0.006250
09:01:07.942 AM 04/28/2016,Teleop Enabled,10,FALSE,0,NO ERROR,-0.000000,0.000000,-0.000000,0.160416,TRUE,FALSE,FALSE,FALSE,FALSE,FALSE,Disabled,0.043750,0.000000,0.000000,TRUE,0.056305,0.019318,0.000000,0.002274,0.039719,0.000000,0.017000,-0.024000,-0.056000,1.790000,-0.140000,-0.100000,0.364212,Hold,0.000244,0.000000,Hold,-180.000000,2.000000,Suck,-1732.500000,1818.181818,Speed,-1717.500000,1818.181818,Speed,Off,On,0.000000,FALSE,0,,,,,0.000000,0.000000,-0.006250
09:01:08.042 AM 04/28/2016,Teleop Enabled,9,FALSE,0,NO ERROR,-0.000000,0.000000,-0.000000,0.160416,TRUE,FALSE,FALSE,FALSE,FALSE,FALSE,Disabled,0.043750,0.000000,0.000000,TRUE,0.056686,0.021576,0.000000,0.006516,0.046906,0.000000,-0.034000,-0.035000,-0.007000,1.850000,-0.140000,-0.160000,0.373149,Hold,0.000244,0.000000,Hold,-180.000000,2.000000,Suck,-1740.000000,1818.181818,Speed,-1725.000000,1818.181818,Speed,Off,On,0.000000,FALSE,0,,,,,0.000000,0.000000,-0.006250
09:01:08.142 AM 04/28/2016,Teleop Enabled,11,FALSE,0,NO ERROR,-0.000000,0.000000,-0.000000,0.160416,TRUE,FALSE,FALSE,FALSE,FALSE,FALSE,Disabled,0.043750,0.000000,0.000000,TRUE,0.056381,0.023514,0.000000,-0.001587,-0.008133,0.000000,-0.084000,0.139000,-0.091000,1.840000,-0.140000,-0.190000,0.367855,Hold,0.000244,0.000000,Hold,-180.000000,2.000000,Suck,-1740.000000,1818.181818,Speed,-1732.500000,1818.181818,Speed,Off,On,0.000000,FALSE,0,,,,,0.000000,0.000000,-0.006250
09:01:08.244 AM 04/28/2016,Teleop Enabled,12,FALSE,0,NO ERROR,-0.000000,0.000000,-0.000000,0.160416,TRUE,FALSE,FALSE,FALSE,FALSE,FALSE,Disabled,0.043750,0.000000,0.000000,TRUE,0.055496,0.023636,0.000000,-0.021057,0.017471,0.000000,-0.089000,-0.084000,0.029000,1.820000,-0.130000,-0.260000,0.362123,Hold,0.000244,0.000000,Hold,-180.000000,2.000000,Suck,-1740.000000,1818.181818,Speed,-1717.500000,1818.181818,Speed,Off,On,0.000000,FALSE,0,,,,,0.000000,0.000000,-0.006250
09:01:08.345 AM 04/28/2016,Teleop Enabled,11,FALSE,0,NO ERROR,-0.000000,0.000000,-0.000000,0.160416,TRUE,FALSE,FALSE,FALSE,FALSE,FALSE,Disabled,0.043750,0.000000,0.000000,TRUE,0.053131,0.024490,0.000000,-0.047485,0.006073,0.000000,-0.163000,0.047000,-0.038000,1.810000,-0.130000,-0.320000,0.356436,Hold,0.000244,0.000000,Hold,-180.000000,2.000000,Suck,-1725.000000,1818.181818,Speed,-1725.000000,1818.181818,Speed,Off,On,0.000000,FALSE,0,,,,,0.000000,0.000000,-0.006250
09:01:08.445 AM 04/28/2016,Teleop Enabled,11,FALSE,0,NO ERROR,-0.000000,0.000000,-0.000000,0.160416,TRUE,FALSE,FALSE,FALSE,FALSE,FALSE,Disabled,0.043750,0.000000,0.000000,TRUE,0.051331,0.024475,0.000000,-0.046509,0.003647,0.000000,0.024000,-0.059000,-0.021000,1.810000,-0.130000,-0.320000,0.367917,Hold,0.000244,0.000000,Hold,-180.000000,2.000000,Suck,-1717.500000,1818.181818,Speed,-1717.500000,1818.181818,Speed,Off,On,0.000000,FALSE,0,,,,,0.000000,0.000000,-0.006250
09:01:08.546 AM 04/28/2016,Teleop Enabled,11,FALSE,0,NO ERROR,-0.000000,0.000000,-0.000000,0.160416,TRUE,FALSE,FALSE,FALSE,FALSE,FALSE,Disabled,0.043750,0.000000,0.000000,TRUE,0.051331,0.024475,0.000000,-0.046509,0.003647,0.000000,0.014000,0.009000,0.044000,1.830000,-0.140000,-0.230000,0.381535,Hold,0.000244,0.000000,Hold,-180.000000,2.000000,Suck,-1710.000000,1818.181818,Speed,-1702.500000,1818.181818,Speed,Off,On,0.000000,FALSE,0,,,,,0.000000,0.000000,-0.006250
09:01:08.647 AM 04/28/2016,Teleop Enabled,13,FALSE,0,NO ERROR,-0.000000,0.000000,-0.000000,0.160416,TRUE,FALSE,FALSE,FALSE,FALSE,FALSE,Disabled,0.043750,0.000000,0.000000,TRUE,0.049515,0.025375,0.000000,-0.027008,0.013916,0.000000,0.030000,0.018000,0.067000,1.810000,-0.140000,-0.200000,0.395643,Hold,0.000244,0.000000,Hold,-180.000000,2.000000,Suck,-1695.000000,1818.181818,Speed,-1710.000000,1818.181818,Speed,Off,On,0.000000,FALSE,0,,,,,0.000000,0.000000,-0.006250
09:01:08.747 AM 04/28/2016,Teleop Enabled,11,FALSE,0,NO ERROR,-0.000000,0.000000,-0.000000,0.160416,TRUE,FALSE,FALSE,FALSE,FALSE,FALSE,Disabled,0.043750,0.000000,0.000000,TRUE,0.048660,0.025604,0.000000,-0.004440,0.000000,0.000000,0.005000,0.011000,0.036000,1.810000,-0.140000,-0.200000,0.393223,Hold,0.000244,0.000000,Hold,-180.000000,2.000000,Suck,-1702.500000,1818.181818,Speed,-1732.500000,1818.181818,Speed,Off,On,0.000000,FALSE,0,,,,,0.000000,0.000000,-0.006250
09:01:08.849 AM 04/28/2016,Teleop Enabled,10,FALSE,0,NO ERROR,-0.000000,0.000000,-0.000000,0.160416,TRUE,FALSE,FALSE,FALSE,FALSE,FALSE,Disabled,0.043750,0.000000,0.000000,TRUE,0.048065,0.025375,0.000000,-0.020905,0.005234,0.000000,0.076000,0.008000,-0.057000,1.840000,-0.140000,-0.210000,0.385986,Hold,0.000244,0.000000,Hold,-180.000000,2.000000,Suck,-1717.500000,1818.181818,Speed,-1717.500000,1818.181818,Speed,Off,On,0.000000,FALSE,0,,,,,0.000000,0.000000,-0.006250
09:01:08.954 AM 04/28/2016,Teleop Enabled,11,FALSE,0,NO ERROR,-0.000000,0.000000,-0.000000,0.160416,TRUE,FALSE,FALSE,FALSE,FALSE,FALSE,Disabled,0.043750,0.000000,0.000000,TRUE,0.047729,0.024597,0.000000,-0.008835,-0.036865,0.000000,-0.025000,-0.045000,0.053000,1.790000,-0.140000,-0.210000,0.375728,Hold,0.000244,0.000000,Hold,-180.000000,2.000000,Suck,-1732.500000,1818.181818,Speed,-1702.500000,1818.181818,Speed,Off,On,0.000000,FALSE,0,,,,,0.000000,0.000000,-0.006250
09:01:09.056 AM 04/28/2016,Teleop Enabled,10,FALSE,0,NO ERROR,-0.000000,0.000000,-0.000000,0.160416,TRUE,FALSE,FALSE,FALSE,FALSE,FALSE,Disabled,0.043750,0.000000,0.000000,TRUE,0.047073,0.021576,0.000000,-0.006836,-0.043045,0.000000,0.024000,-0.038000,-0.006000,1.800000,-0.140000,-0.190000,0.385505,Hold,0.000244,0.000000,Hold,-180.000000,2.000000,Suck,-1740.000000,1818.181818,Speed,-1710.000000,1818.181818,Speed,Off,On,0.000000,FALSE,0,,,,,0.000000,0.000000,-0.006250
09:01:09.157 AM 04/28/2016,Teleop Enabled,11,FALSE,0,NO ERROR,-0.000000,0.000000,-0.000000,0.160416,TRUE,FALSE,FALSE,FALSE,FALSE,FALSE,Disabled,0.043750,0.000000,0.000000,TRUE,0.046738,0.018738,0.000000,-0.007507,0.003372,0.000000,-0.089000,0.004000,0.004000,1.780000,-0.140000,-0.150000,0.389508,Hold,0.000244,0.000000,Hold,-180.000000,2.000000,Suck,-1747.500000,1818.181818,Speed,-1717.500000,1818.181818,Speed,Off,On,0.000000,FALSE,0,,,,,0.000000,0.000000,-0.006250
09:01:09.257 AM 04/28/2016,Teleop Enabled,10,FALSE,0,NO ERROR,-0.000000,0.000000,-0.000000,0.160416,TRUE,FALSE,FALSE,FALSE,FALSE,FALSE,Disabled,0.043750,0.000000,0.000000,TRUE,0.046738,0.018738,0.000000,-0.007507,0.003372,0.000000,-0.064000,0.011000,-0.045000,1.810000,-0.140000,-0.240000,0.394848,Hold,0.000244,0.000000,Hold,-180.000000,2.000000,Suck,-1732.500000,1818.181818,Speed,-1732.500000,1818.181818,Speed,Off,On,0.000000,FALSE,0,,,,,0.000000,0.000000,-0.006250
09:01:09.361 AM 04/28/2016,Teleop Enabled,12,FALSE,0,NO ERROR,-0.000000,0.000000,-0.000000,0.160416,TRUE,FALSE,FALSE,FALSE,FALSE,FALSE,Disabled,0.043750,0.000000,0.000000,TRUE,0.045975,0.018707,0.000000,-0.007919,0.001877,0.000000,-0.027000,-0.089000,0.018000,1.780000,-0.140000,-0.310000,0.410983,Hold,0.000244,0.000000,Hold,-180.000000,2.000000,Suck,-1725.000000,1818.181818,Speed,-1725.000000,1818.181818,Speed,Off,On,0.000000,FALSE,0,,,,,0.000000,0.000000,-0.006250
09:01:09.463 AM 04/28/2016,Teleop Enabled,13,FALSE,0,NO ERROR,-0.000000,0.000000,-0.000000,0.160416,TRUE,FALSE,FALSE,FALSE,FALSE,FALSE,Disabled,0.043750,0.000000,0.000000,TRUE,0.045959,0.018204,0.000000,-0.000320,0.002151,0.000000,0.034000,-0.023000,-0.007000,1.720000,-0.140000,-0.260000,0.419004,Hold,0.000244,0.000000,Hold,-179.000000,2.000000,Suck,-1717.500000,1818.181818,Speed,-1717.500000,1818.181818,Speed,Off,On,0.000000,FALSE,0,,,,,0.000000,0.000000,-0.006250
09:01:09.563 AM 04/28/2016,Teleop Enabled,9,FALSE,0,NO ERROR,-0.000000,0.000000,-0.000000,0.160416,TRUE,FALSE,FALSE,FALSE,FALSE,FALSE,Disabled,0.043750,0.000000,0.000000,TRUE,0.046432,0.018997,0.000000,0.003738,0.033005,0.000000,-0.010000,-0.015000,-0.015000,1.740000,-0.140000,-0.250000,0.425177,Hold,0.000244,0.000000,Hold,-179.000000,2.000000,Suck,-1725.000000,1818.181818,Speed,-1717.500000,1818.181818,Speed,Off,On,0.000000,FALSE,0,,,,,0.000000,0.000000,-0.006250
09:01:09.668 AM 04/28/2016,Teleop Enabled,10,FALSE,0,NO ERROR,-0.000000,0.000000,-0.000000,0.160416,TRUE,FALSE,FALSE,FALSE,FALSE,FALSE,Disabled,0.043750,0.000000,0.000000,TRUE,0.045639,0.021057,0.000000,-0.026947,0.034927,0.000000,-0.062000,0.032000,-0.003000,1.750000,-0.130000,-0.300000,0.420836,Hold,0.000244,0.000000,Hold,-179.000000,2.000000,Suck,-1725.000000,1818.181818,Speed,-1710.000000,1818.181818,Speed,Off,On,0.000000,FALSE,0,,,,,0.000000,0.000000,-0.006250
09:01:09.764 AM 04/28/2016,Teleop Enabled,9,FALSE,0,NO ERROR,-0.000000,0.000000,-0.000000,0.160416,TRUE,FALSE,FALSE,FALSE,FALSE,FALSE,Disabled,0.043750,0.000000,0.000000,TRUE,0.044189,0.023163,0.000000,-0.026703,0.042542,0.000000,0.025000,-0.100000,0.032000,1.770000,-0.130000,-0.310000,0.420836,Hold,0.000244,0.000000,Hold,-179.000000,2.000000,Suck,-1732.500000,1818.181818,Speed,-1717.500000,1818.181818,Speed,Off,On,0.000000,FALSE,0,,,,,0.000000,0.000000,-0.006250
09:01:09.865 AM 04/28/2016,Teleop Enabled,10,FALSE,0,NO ERROR,-0.000000,0.000000,-0.000000,0.160416,TRUE,FALSE,FALSE,FALSE,FALSE,FALSE,Disabled,0.043750,0.000000,0.000000,TRUE,0.042450,0.026016,0.000000,-0.046722,0.073364,0.000000,-0.001000,-0.006000,-0.083000,1.780000,-0.130000,-0.390000,0.411007,Hold,0.000244,0.000000,Hold,-179.000000,2.000000,Suck,-1732.500000,1818.181818,Speed,-1732.500000,1818.181818,Speed,Off,On,0.000000,FALSE,0,,,,,0.000000,0.000000,-0.006250
09:01:09.964 AM 04/28/2016,Teleop Enabled,9,FALSE,0,NO ERROR,-0.000000,0.000000,-0.000000,0.160416,TRUE,FALSE,FALSE,FALSE,FALSE,FALSE,Disabled,0.043750,0.000000,0.000000,TRUE,0.039719,0.029190,0.000000,-0.066605,0.063995,0.000000,0.064000,-0.051000,-0.074000,1.760000,-0.130000,-0.410000,0.419407,Hold,0.000244,0.000000,Hold,-179.000000,2.000000,Suck,-1732.500000,1818.181818,Speed,-1732.500000,1818.181818,Speed,Off,On,0.000000,FALSE,0,,,,,0.000000,0.000000,-0.006250
09:01:10.064 AM 04/28/2016,Teleop Enabled,10,FALSE,0,NO ERROR,-0.000000,0.000000,-0.000000,0.160416,TRUE,FALSE,FALSE,FALSE,FALSE,FALSE,Disabled,0.043750,0.000000,0.000000,TRUE,0.037369,0.031708,0.000000,-0.038116,0.049850,0.000000,0.025000,0.000000,0.000000,1.760000,-0.130000,-0.390000,0.428444,Hold,0.000244,0.000000,Hold,-179.000000,2.000000,Suck,-1732.500000,1818.181818,Speed,-1732.500000,1818.181818,Speed,Off,On,0.000000,FALSE,0,,,,,0.000000,0.000000,-0.006250
09:01:10.164 AM 04/28/2016,Teleop Enabled,10,FALSE,0,NO ERROR,-0.000000,0.000000,-0.000000,0.160416,TRUE,FALSE,FALSE,FALSE,FALSE,FALSE,Disabled,0.043750,0.000000,0.000000,TRUE,0.036621,0.033676,0.000000,-0.010986,0.038681,0.000000,-0.013000,0.052000,0.022000,1.710000,-0.130000,-0.290000,0.426805,Hold,0.000244,0.000000,Hold,-179.000000,2.000000,Suck,-1732.500000,1818.181818,Speed,-1725.000000,1818.181818,Speed,Off,On,0.000000,FALSE,0,,,,,0.000000,0.000000,-0.006250
09:01:10.264 AM 04/28/2016,Teleop Enabled,10,FALSE,0,NO ERROR,-0.000000,0.000000,-0.000000,0.160416,TRUE,FALSE,FALSE,FALSE,FALSE,FALSE,Disabled,0.043750,0.000000,0.000000,TRUE,0.037460,0.034851,0.000000,0.029480,0.014664,0.000000,0.034000,0.060000,-0.011000,1.720000,-0.140000,-0.190000,0.430471,Hold,0.000244,0.000000,Hold,-179.000000,2.000000,Suck,-1717.500000,1818.181818,Speed,-1710.000000,1818.181818,Speed,Off,On,0.000000,FALSE,0,,,,,0.000000,0.000000,-0.006250
09:01:10.365 AM 04/28/2016,Teleop Enabled,9,FALSE,0,NO ERROR,-0.000000,0.000000,-0.000000,0.160416,TRUE,FALSE,FALSE,FALSE,FALSE,FALSE,Disabled,0.043750,0.000000,0.000000,TRUE,0.038864,0.036591,0.000000,0.027893,0.033585,0.000000,-0.106000,0.171000,-0.034000,1.720000,-0.140000,-0.200000,0.420391,Hold,0.000244,0.000000,Hold,-179.000000,2.000000,Suck,-1710.000000,1818.181818,Speed,-1725.000000,1818.181818,Speed,Off,On,0.000000,FALSE,0,,,,,0.000000,0.000000,-0.006250
09:01:10.465 AM 04/28/2016,Teleop Enabled,10,FALSE,0,NO ERROR,-0.000000,0.000000,-0.000000,0.160416,TRUE,FALSE,FALSE,FALSE,FALSE,FALSE,Disabled,0.043750,0.000000,0.000000,TRUE,0.039520,0.038849,0.000000,0.015060,0.008240,0.000000,-0.009000,0.020000,0.111000,1.680000,-0.140000,-0.170000,0.422960,Hold,0.000244,0.000000,Hold,-179.000000,2.000000,Suck,-1710.000000,1818.181818,Speed,-1732.500000,1818.181818,Speed,Off,On,0.000000,FALSE,0,,,,,0.000000,0.000000,-0.006250
09:01:10.565 AM 04/28/2016,Teleop Enabled,10,FALSE,0,NO ERROR,-0.000000,0.000000,-0.000000,0.160416,TRUE,FALSE,FALSE,FALSE,FALSE,FALSE,Disabled,0.043750,0.000000,0.000000,TRUE,0.040421,0.040100,0.000000,0.000000,0.037552,0.000000,0.008000,0.082000,-0.058000,1.700000,-0.140000,-0.110000,0.433962,Hold,0.000244,0.000000,Hold,-179.000000,2.000000,Suck,-1732.500000,1818.181818,Speed,-1717.500000,1818.181818,Speed,Off,On,0.000000,FALSE,0,,,,,0.000000,0.000000,-0.006250
09:01:10.665 AM 04/28/2016,Teleop Enabled,10,FALSE,0,NO ERROR,-0.000000,0.000000,-0.000000,0.160416,TRUE,FALSE,FALSE,FALSE,FALSE,FALSE,Disabled,0.043750,0.000000,0.000000,TRUE,0.040649,0.042480,0.000000,0.010040,0.038910,0.000000,0.064000,0.004000,0.011000,1.760000,-0.140000,-0.110000,0.446427,Hold,0.000244,0.000000,Hold,-179.000000,2.000000,Suck,-1747.500000,1818.181818,Speed,-1702.500000,1818.181818,Speed,Off,On,0.000000,FALSE,0,,,,,0.000000,0.000000,-0.006250
09:01:10.766 AM 04/28/2016,Teleop Enabled,10,FALSE,0,NO ERROR,-0.000000,0.000000,-0.000000,0.160416,TRUE,FALSE,FALSE,FALSE,FALSE,FALSE,Disabled,0.043750,0.000000,0.000000,TRUE,0.042130,0.044128,0.000000,0.036194,0.027710,0.000000,0.075000,0.011000,-0.027000,1.760000,-0.140000,-0.080000,0.439711,Hold,0.000244,0.000000,Hold,-179.000000,2.000000,Suck,-1747.500000,1818.181818,Speed,-1710.000000,1818.181818,Speed,Off,On,0.000000,FALSE,0,,,,,0.000000,0.000000,-0.006250
09:01:10.866 AM 04/28/2016,Teleop Enabled,11,FALSE,0,NO ERROR,-0.000000,0.000000,-0.000000,0.160416,TRUE,FALSE,FALSE,FALSE,FALSE,FALSE,Disabled,0.043750,0.000000,0.000000,TRUE,0.044708,0.045837,0.000000,0.053040,0.041183,0.000000,0.004000,0.009000,0.064000,1.780000,-0.150000,0.000000,0.433728,Hold,0.000244,0.000000,Hold,-179.000000,2.000000,Suck,-1732.500000,1818.181818,Speed,-1717.500000,1818.181818,Speed,Off,On,0.000000,FALSE,0,,,,,0.000000,0.000000,-0.006250
09:01:10.966 AM 04/28/2016,Teleop Enabled,9,FALSE,0,NO ERROR,-0.000000,0.000000,-0.000000,0.160416,TRUE,FALSE,FALSE,FALSE,FALSE,FALSE,Disabled,0.043750,0.000000,0.000000,TRUE,0.046967,0.048004,0.000000,0.050430,0.037720,0.000000,-0.005000,-0.010000,0.010000,1.820000,-0.150000,-0.040000,0.453788,Hold,0.000244,0.000000,Hold,-179.000000,2.000000,Suck,-1717.500000,1818.181818,Speed,-1740.000000,1818.181818,Speed,Off,On,0.000000,FALSE,0,,,,,0.000000,0.000000,-0.006250
09:01:11.066 AM 04/28/2016,Teleop Enabled,10,FALSE,0,NO ERROR,-0.000000,0.000000,-0.000000,0.160416,TRUE,FALSE,FALSE,FALSE,FALSE,FALSE,Disabled,0.043750,0.000000,0.000000,TRUE,0.049408,0.049698,0.000000,0.040344,0.036224,0.000000,0.008000,-0.071000,-0.093000,1.810000,-0.140000,-0.120000,0.454755,Hold,0.000244,0.000000,Hold,-179.000000,2.000000,Suck,-1717.500000,1818.181818,Speed,-1732.500000,1818.181818,Speed,Off,On,0.000000,FALSE,0,,,,,0.000000,0.000000,-0.006250
09:01:11.166 AM 04/28/2016,Teleop Enabled,10,FALSE,0,NO ERROR,-0.000000,0.000000,-0.000000,0.160416,TRUE,FALSE,FALSE,FALSE,FALSE,FALSE,Disabled,0.043750,0.000000,0.000000,TRUE,0.051392,0.050919,0.000000,0.039688,0.030670,0.000000,-0.075000,-0.035000,0.042000,1.810000,-0.140000,-0.140000,0.457957,Hold,0.000244,0.000000,Hold,-179.000000,2.000000,Suck,-1710.000000,1818.181818,Speed,-1732.500000,1818.181818,Speed,Off,On,0.000000,FALSE,0,,,,,0.000000,0.000000,-0.006250
09:01:11.266 AM 04/28/2016,Teleop Enabled,10,FALSE,0,NO ERROR,-0.000000,0.000000,-0.000000,0.160416,TRUE,FALSE,FALSE,FALSE,FALSE,FALSE,Disabled,0.043750,0.000000,0.000000,TRUE,0.052856,0.052979,0.000000,0.019547,0.036255,0.000000,-0.070000,-0.017000,0.092000,1.840000,-0.140000,-0.140000,0.459919,Hold,0.000244,0.000000,Hold,-179.000000,2.000000,Suck,-1717.500000,1818.181818,Speed,-1710.000000,1818.181818,Speed,Off,On,0.000000,FALSE,0,,,,,0.000000,0.000000,-0.006250
09:01:11.368 AM 04/28/2016,Teleop Enabled,13,FALSE,0,NO ERROR,-0.000000,0.000000,-0.000000,0.160416,TRUE,FALSE,FALSE,FALSE,FALSE,FALSE,Disabled,0.043750,0.000000,0.000000,TRUE,0.053436,0.054321,0.000000,0.020172,0.022858,0.000000,0.131000,-0.089000,-0.047000,1.830000,-0.130000,-0.260000,0.457261,Hold,0.000244,0.000000,Hold,-179.000000,2.000000,Suck,-1717.500000,1818.181818,Speed,-1710.000000,1818.181818,Speed,Off,On,0.000000,FALSE,0,,,,,0.000000,0.000000,-0.006250
09:01:11.467 AM 04/28/2016,Teleop Enabled,9,FALSE,0,NO ERROR,-0.000000,0.000000,-0.000000,0.160416,TRUE,FALSE,FALSE,FALSE,FALSE,FALSE,Disabled,0.043750,0.000000,0.000000,TRUE,0.054947,0.055267,0.000000,0.035538,0.000000,0.000000,0.026000,-0.008000,0.085000,1.820000,-0.140000,-0.240000,0.467103,Hold,0.000244,0.000000,Hold,-179.000000,2.000000,Suck,-1717.500000,1818.181818,Speed,-1725.000000,1818.181818,Speed,Off,On,0.000000,FALSE,0,,,,,0.000000,0.000000,-0.006250
09:01:11.567 AM 04/28/2016,Teleop Enabled,11,FALSE,0,NO ERROR,-0.000000,0.000000,-0.000000,0.160416,TRUE,FALSE,FALSE,FALSE,FALSE,FALSE,Disabled,0.043750,0.000000,0.000000,TRUE,0.056870,0.054794,0.000000,0.000000,-0.020996,0.000000,0.084000,-0.076000,-0.081000,1.850000,-0.140000,-0.160000,0.461420,Hold,0.000244,0.000000,Hold,-179.000000,2.000000,Suck,-1717.500000,1818.181818,Speed,-1732.500000,1818.181818,Speed,Off,On,0.000000,FALSE,0,,,,,0.000000,0.000000,-0.006250
09:01:11.667 AM 04/28/2016,Teleop Enabled,10,FALSE,0,NO ERROR,-0.000000,0.000000,-0.000000,0.160416,TRUE,FALSE,FALSE,FALSE,FALSE,FALSE,Disabled,0.043750,0.000000,0.000000,TRUE,0.057312,0.051987,0.000000,0.006180,-0.069824,0.000000,0.022000,0.127000,-0.085000,1.810000,-0.140000,-0.140000,0.460191,Hold,0.000244,0.000000,Hold,-179.000000,2.000000,Suck,-1680.000000,1818.181818,Speed,-1732.500000,1818.181818,Speed,Off,On,0.000000,FALSE,0,,,,,0.000000,0.000000,-0.006250
09:01:11.767 AM 04/28/2016,Teleop Enabled,11,FALSE,0,NO ERROR,-0.000000,0.000000,-0.000000,0.160416,TRUE,FALSE,FALSE,FALSE,FALSE,FALSE,Disabled,0.043750,0.000000,0.000000,TRUE,0.057465,0.050995,0.000000,0.001144,-0.003204,0.000000,0.056000,-0.082000,0.007000,1.840000,-0.140000,-0.170000,0.462738,Hold,0.000244,0.000000,Hold,-179.000000,2.000000,Suck,-1672.500000,1818.181818,Speed,-1717.500000,1818.181818,Speed,Off,On,0.000000,FALSE,0,,,,,0.000000,0.000000,-0.006250
09:01:11.867 AM 04/28/2016,Teleop Enabled,9,FALSE,0,NO ERROR,-0.000000,0.000000,-0.000000,0.160416,TRUE,FALSE,FALSE,FALSE,FALSE,FALSE,Disabled,0.043750,0.000000,0.000000,TRUE,0.057571,0.050568,0.000000,-0.011353,-0.004913,0.000000,0.021000,-0.088000,-0.107000,1.850000,-0.140000,-0.180000,0.472374,Hold,0.000244,0.000000,Hold,-179.000000,2.000000,Suck,-1657.500000,1818.181818,Speed,-1717.500000,1818.181818,Speed,Off,On,0.000000,FALSE,0,,,,,0.000000,0.000000,-0.006250
09:01:11.967 AM 04/28/2016,Teleop Enabled,10,FALSE,0,NO ERROR,-0.000000,0.000000,-0.000000,0.160416,TRUE,FALSE,FALSE,FALSE,FALSE,FALSE,Disabled,0.043750,0.000000,0.000000,TRUE,0.057083,0.050323,0.000000,-0.015335,-0.007782,0.000000,0.014000,-0.035000,0.052000,1.850000,-0.140000,-0.160000,0.481731,Hold,0.000244,0.000000,Hold,-179.000000,2.000000,Suck,-1650.000000,1818.181818,Speed,-1740.000000,1818.181818,Speed,Off,On,0.000000,FALSE,0,,,,,0.000000,0.000000,-0.006250
09:01:12.067 AM 04/28/2016,Teleop Enabled,10,FALSE,0,NO ERROR,-0.000000,0.000000,-0.000000,0.160416,TRUE,FALSE,FALSE,FALSE,FALSE,FALSE,Disabled,0.043750,0.000000,0.000000,TRUE,0.056412,0.048248,0.000000,-0.010208,-0.041870,0.000000,-0.064000,0.108000,-0.009000,1.810000,-0.140000,-0.130000,0.493418,Hold,0.000244,0.000000,Hold,-179.000000,2.000000,Suck,-1680.000000,1818.181818,Speed,-1732.500000,1818.181818,Speed,Off,On,0.000000,FALSE,0,,,,,0.000000,0.000000,-0.006250
09:01:12.167 AM 04/28/2016,Teleop Enabled,10,FALSE,0,NO ERROR,-0.000000,0.000000,-0.000000,0.160416,TRUE,FALSE,FALSE,FALSE,FALSE,FALSE,Disabled,0.043750,0.000000,0.000000,TRUE,0.055496,0.046814,0.000000,-0.013199,-0.036255,0.000000,-0.031000,0.092000,0.040000,1.830000,-0.140000,-0.090000,0.508011,Hold,0.000244,0.000000,Hold,-179.000000,2.000000,Suck,-1702.500000,1818.181818,Speed,-1710.000000,1818.181818,Speed,Off,On,0.000000,FALSE,0,,,,,0.000000,0.000000,-0.006250
09:01:12.269 AM 04/28/2016,Teleop Enabled,11,FALSE,0,NO ERROR,-0.000000,0.000000,-0.000000,0.160416,TRUE,FALSE,FALSE,FALSE,FALSE,FALSE,Disabled,0.043750,0.000000,0.000000,TRUE,0.053833,0.046158,0.000000,-0.047302,-0.012192,0.000000,-0.050000,0.031000,0.067000,1.840000,-0.140000,-0.160000,0.523882,Hold,0.000244,0.000000,Hold,-179.000000,2.000000,Suck,-1717.500000,1818.181818,Speed,-1702.500000,1818.181818,Speed,Off,On,0.000000,FALSE,0,,,,,0.000000,0.000000,-0.006250
09:01:12.369 AM 04/28/2016,Teleop Enabled,10,FALSE,0,NO ERROR,-0.000000,0.000000,-0.000000,0.160416,TRUE,FALSE,FALSE,FALSE,FALSE,FALSE,Disabled,0.043750,0.000000,0.000000,TRUE,0.050858,0.045517,0.000000,-0.063004,-0.009109,0.000000,0.032000,-0.016000,0.005000,1.840000,-0.140000,-0.180000,0.531424,Hold,0.000244,0.000000,Hold,-179.000000,2.000000,Suck,-1732.500000,1818.181818,Speed,-1710.000000,1818.181818,Speed,Off,On,0.000000,FALSE,0,,,,,0.000000,0.000000,-0.006250
09:01:12.470 AM 04/28/2016,Teleop Enabled,12,FALSE,0,NO ERROR,-0.000000,0.000000,-0.000000,0.160416,TRUE,FALSE,FALSE,FALSE,FALSE,FALSE,Disabled,0.043750,0.000000,0.000000,TRUE,0.047684,0.044876,0.000000,-0.080841,-0.014404,0.000000,-0.083000,-0.083000,0.037000,1.850000,-0.140000,-0.240000,0.529269,Hold,0.000244,0.000000,Hold,-179.000000,2.000000,Suck,-1732.500000,1818.181818,Speed,-1725.000000,1818.181818,Speed,Off,On,0.000000,FALSE,0,,,,,0.000000,0.000000,-0.006250
09:01:12.570 AM 04/28/2016,Teleop Enabled,11,FALSE,0,NO ERROR,-0.000000,0.000000,-0.000000,0.160416,TRUE,FALSE,FALSE,FALSE,FALSE,FALSE,Disabled,0.043750,0.000000,0.000000,TRUE,0.042648,0.042908,0.000000,-0.102173,-0.041992,0.000000,0.045000,-0.008000,-0.130000,1.840000,-0.140000,-0.280000,0.521892,Hold,0.000244,0.000000,Hold,-179.000000,2.000000,Suck,-1710.000000,1818.181818,Speed,-1747.500000,1818.181818,Speed,Off,On,0.000000,FALSE,0,,,,,0.000000,0.000000,-0.006250
09:01:12.671 AM 04/28/2016,Teleop Enabled,10,FALSE,0,NO ERROR,-0.000000,0.000000,-0.000000,0.160416,TRUE,FALSE,FALSE,FALSE,FALSE,FALSE,Disabled,0.043750,0.000000,0.000000,TRUE,0.037048,0.040787,0.000000,-0.122055,-0.045532,0.000000,-0.051000,0.002000,-0.012000,1.870000,-0.140000,-0.320000,0.524412,Hold,0.000244,0.000000,Hold,-179.000000,2.000000,Suck,-1710.000000,1818.181818,Speed,-1740.000000,1818.181818,Speed,Off,On,0.000000,FALSE,0,,,,,0.000000,0.000000,-0.006250
09:01:12.771 AM 04/28/2016,Teleop Enabled,9,FALSE,0,NO ERROR,-0.000000,0.000000,-0.000000,0.160416,TRUE,FALSE,FALSE,FALSE,FALSE,FALSE,Disabled,0.043750,0.000000,0.000000,TRUE,0.029770,0.036682,0.000000,-0.131332,-0.087952,0.000000,0.024000,-0.120000,-0.078000,1.870000,-0.140000,-0.320000,0.516821,Hold,0.000244,0.000000,Hold,-179.000000,2.000000,Suck,-1702.500000,1818.181818,Speed,-1732.500000,1818.181818,Speed,Off,On,0.000000,FALSE,0,,,,,0.000000,0.000000,-0.006250
