Time,Robot Mode,Loop Time,Error Status,Error Code,Error Source,Left Motor Output,Left Motor Encoder,Right Motor Output,Right Motor Encoder,Is Level,Is Stalled,Ball Detector Photoeye,Vision Enabled,Vision Teleop Control,Vision Auto Control,Vision Current State,Vision X Output,Vision NavX Error,Vision NavX Target,NavX Connection Status,NavX Displacement X,NavX Displacement Y,NavX Displacement Z,NavX Velocity X,NavX Velocity Y,NavX Velocity Z,NavX Acceleration X,NavX Acceleration Y,NavX Acceleration Z,NavX Pitch,NavX Yaw,NavX Roll,Gyro Angle,Roller Arm State,Roller Arm Actual,Roller Arm Desired,Shooter Arm State,Shooter Arm Actual,Shooter Arm Desired,Shooter State,Actual RPM Left,Desired RPM Left,Control Mode Left,Actual RPM Right,Desired RPM Right,Control Mode Right,Ball Shooter Cylinder,Ball Halo Cylinder,Scaler Motor Output,Scaler Solenoid Fire,Auto To Run,Auto Current File,Auto File Status,Auto Current Command,Auto Trimmed Command,Shooter Amps Left,Shooter Amps Right, Vision After Offset
11:35:29.350 AM 04/28/2016,Autonomous Enabled,9,TRUE,-44003,<LOCATION>WPI_CameraIssue HTTP Request with Authentication.vi<CALLSTACK>WPI_CameraIssue HTTP Request with Authentication.vi< <WPI_CameraIssue Get.vi< <WPI_CameraSet Image Appearance Property.vi< <WPI_CameraSet Image Size.vi< <Vision Processing.vi< <Robot Main.vi,0.000000,0.000000,-0.000000,0.000000,TRUE,FALSE,TRUE,TRUE,FALSE,FALSE,Disabled,0.000000,0.000000,0.000000,TRUE,0.000320,0.000107,0.000000,0.000000,0.000000,0.000000,-0.007000,-0.001000,-0.021000,1.630000,-0.550000,0.260000,0.374013,ResetBack,0.000000,-0.000049,ResetBack,0.000000,-0.250000,LowGoal,0.000000,-2181.818182,Speed,0.000000,-2181.818182,Speed,Off,Off,0.000000,FALSE,43,Read: /home/lvuser/scripts/auto_43.bee,File good!,WAIT 1500,WAIT,0.000000,0.000000,-0.050000
11:35:29.452 AM 04/28/2016,Autonomous Enabled,13,TRUE,7,Read from Text File in DoesScriptNumberContainNull.vi->Disabled.vi->Robot Main.vi<APPEND> /home/lvuser/scripts/auto_42.bee,0.000000,0.000000,-0.000000,0.000000,TRUE,FALSE,TRUE,TRUE,FALSE,FALSE,Disabled,0.000000,0.000000,0.000000,TRUE,0.000443,0.000336,0.000000,0.003052,0.009186,0.000000,0.035000,0.009000,0.010000,1.620000,-0.550000,0.260000,0.372175,ResetBack,-0.049072,-0.000049,ResetBack,2738.000000,-0.250000,LowGoal,217.500000,-2181.818182,Speed,15.000000,-2181.818182,Speed,Off,Off,0.000000,FALSE,43,Read: /home/lvuser/scripts/auto_43.bee,File good!,WAIT 1500,WAIT,0.000000,0.000000,-0.050000
11:35:29.554 AM 04/28/2016,Autonomous Enabled,12,TRUE,7,Read from Text File in DoesScriptNumberContainNull.vi->Disabled.vi->Robot Main.vi<APPEND> /home/lvuser/scripts/auto_42.bee,0.000000,0.000000,-0.000000,0.000000,TRUE,FALSE,TRUE,TRUE,FALSE,FALSE,Disabled,0.000000,0.000000,0.000000,TRUE,0.000656,0.000488,0.000000,0.011230,0.011444,0.000000,-0.036000,-0.011000,-0.068000,1.630000,-0.550000,0.380000,0.378509,ResetBack,-0.049316,-0.000049,ResetBack,10886.000000,-0.250000,LowGoal,840.000000,-2181.818182,Speed,397.500000,-2181.818182,Speed,Off,Off,0.000000,FALSE,43,Read: /home/lvuser/scripts/auto_43.bee,File good!,WAIT 1500,WAIT,0.000000,0.000000,-0.050000
11:35:29.654 AM 04/28/2016,Autonomous Enabled,11,TRUE,7,Read from Text File in DoesScriptNumberContainNull.vi->Disabled.vi->Robot Main.vi<APPEND> /home/lvuser/scripts/auto_42.bee,0.000000,0.000000,-0.000000,0.000000,TRUE,FALSE,TRUE,TRUE,FALSE,FALSE,Disabled,0.000000,0.000000,0.000000,TRUE,0.002136,0.001129,0.000000,0.018692,0.019836,0.000000,0.043000,0.001000,-0.004000,1.630000,-0.550000,0.310000,0.385969,Reset,-0.049316,-0.000049,ResetBack,10886.000000,-0.250000,LowGoal,1395.000000,-2181.818182,Speed,1237.500000,-2181.818182,Speed,Off,Off,0.000000,FALSE,43,Read: /home/lvuser/scripts/auto_43.bee,File good!,WAIT 1500,WAIT,0.000000,0.000000,-0.050000
11:35:29.755 AM 04/28/2016,Autonomous Enabled,10,TRUE,7,Read from Text File in DoesScriptNumberContainNull.vi->Disabled.vi->Robot Main.vi<APPEND> /home/lvuser/scripts/auto_42.bee,0.000000,0.000000,-0.000000,0.000000,TRUE,FALSE,TRUE,TRUE,FALSE,FALSE,Disabled,0.000000,0.000000,0.000000,TRUE,0.002350,0.001907,0.000000,0.002106,-0.000702,0.000000,-0.028000,0.029000,-0.030000,1.630000,-0.550000,0.310000,0.371913,Hold,-0.051025,0.000000,ResetBack,18825.000000,-0.250000,LowGoal,1852.500000,-2181.818182,Speed,1237.500000,-2181.818182,Speed,Off,Off,0.000000,FALSE,43,Read: /home/lvuser/scripts/auto_43.bee,File good!,WAIT 1500,WAIT,0.000000,0.000000,-0.050000
11:35:29.854 AM 04/28/2016,Autonomous Enabled,10,TRUE,7,Read from Text File in DoesScriptNumberContainNull.vi->Disabled.vi->Robot Main.vi<APPEND> /home/lvuser/scripts/auto_42.bee,0.000000,0.000000,-0.000000,0.000000,TRUE,FALSE,TRUE,TRUE,FALSE,FALSE,Disabled,0.000000,0.000000,0.000000,TRUE,0.004120,0.000061,0.000000,0.048004,-0.055466,0.000000,0.050000,-0.076000,0.051000,1.680000,-0.570000,0.450000,0.363114,Hold,0.027832,0.000000,ResetBack,18825.000000,-0.250000,LowGoal,1852.500000,-2181.818182,Speed,1815.000000,-2181.818182,Speed,Off,Off,0.000000,FALSE,43,Read: /home/lvuser/scripts/auto_43.bee,File good!,WAIT 1500,WAIT,0.000000,0.000000,-0.050000
11:35:29.957 AM 04/28/2016,Autonomous Enabled,12,TRUE,7,Read from Text File in DoesScriptNumberContainNull.vi->Disabled.vi->Robot Main.vi<APPEND> /home/lvuser/scripts/auto_42.bee,0.000000,0.000000,-0.000000,0.000000,TRUE,FALSE,TRUE,TRUE,FALSE,FALSE,Disabled,0.000000,0.000000,0.000000,TRUE,0.005371,-0.002670,0.000000,0.004837,-0.074814,0.000000,0.041000,-0.076000,0.182000,1.680000,-0.570000,0.450000,0.365159,Hold,0.028076,0.000000,ResetBack,23519.000000,-0.250000,LowGoal,2152.500000,-2181.818182,Speed,2160.000000,-2181.818182,Speed,Off,Off,0.000000,FALSE,43,Read: /home/lvuser/scripts/auto_43.bee,File good!,WAIT 1500,WAIT,0.000000,0.000000,-0.050000
11:35:30.059 AM 04/28/2016,Autonomous Enabled,11,TRUE,7,Read from Text File in DoesScriptNumberContainNull.vi->Disabled.vi->Robot Main.vi<APPEND> /home/lvuser/scripts/auto_42.bee,0.000000,0.000000,-0.000000,0.000000,TRUE,FALSE,TRUE,TRUE,FALSE,FALSE,Disabled,0.000000,0.000000,0.000000,TRUE,0.005371,-0.002670,0.000000,0.004837,-0.074814,0.000000,0.054000,-0.012000,0.182000,1.630000,-0.570000,0.590000,0.369837,Hold,0.028076,0.000000,ResetBack,25497.000000,-0.250000,LowGoal,2137.500000,-2181.818182,Speed,2160.000000,-2181.818182,Speed,Off,Off,0.000000,FALSE,43,Read: /home/lvuser/scripts/auto_43.bee,File good!,WAIT 1500,WAIT,0.000000,0.000000,-0.050000
11:35:30.160 AM 04/28/2016,Autonomous Enabled,9,TRUE,7,Read from Text File in DoesScriptNumberContainNull.vi->Disabled.vi->Robot Main.vi<APPEND> /home/lvuser/scripts/auto_42.bee,0.000000,0.000000,-0.000000,0.000000,TRUE,FALSE,TRUE,TRUE,FALSE,FALSE,Disabled,0.000000,0.000000,0.000000,TRUE,0.007324,-0.006073,0.000000,0.035080,0.008163,0.000000,0.074000,-0.065000,0.043000,1.630000,-0.570000,0.590000,0.371132,Hold,0.028076,0.000000,ResetBack,25762.000000,-0.250000,LowGoal,2107.500000,-2181.818182,Speed,2085.000000,-2181.818182,Speed,Off,Off,0.000000,FALSE,43,Read: /home/lvuser/scripts/auto_43.bee,File good!,WAIT 1500,WAIT,0.000000,0.000000,-0.050000
11:35:30.261 AM 04/28/2016,Autonomous Enabled,11,TRUE,7,Read from Text File in DoesScriptNumberContainNull.vi->Disabled.vi->Robot Main.vi<APPEND> /home/lvuser/scripts/auto_42.bee,0.000000,0.000000,-0.000000,0.000000,TRUE,FALSE,TRUE,TRUE,FALSE,FALSE,Disabled,0.000000,0.000000,0.000000,TRUE,0.009781,-0.005417,0.000000,0.041519,0.023361,0.000000,-0.006000,-0.010000,-0.095000,1.610000,-0.570000,0.630000,0.363727,Hold,0.028076,0.000000,ResetBack,25823.000000,-0.250000,LowGoal,2100.000000,-2181.818182,Speed,2047.500000,-2181.818182,Speed,Off,Off,0.000000,FALSE,43,Read: /home/lvuser/scripts/auto_43.bee,File good!,WAIT 1500,WAIT,0.000000,0.000000,-0.050000
11:35:30.364 AM 04/28/2016,Autonomous Enabled,11,TRUE,7,Read from Text File in DoesScriptNumberContainNull.vi->Disabled.vi->Robot Main.vi<APPEND> /home/lvuser/scripts/auto_42.bee,0.000000,0.000000,-0.000000,0.000000,TRUE,FALSE,TRUE,TRUE,FALSE,FALSE,Disabled,0.000000,0.000000,0.000000,TRUE,0.010086,-0.004807,0.000000,-0.003662,0.000000,0.000000,0.034000,0.017000,-0.060000,1.620000,-0.570000,0.540000,0.363648,Hold,0.028076,0.000000,ResetBack,26173.000000,-0.250000,LowGoal,2115.000000,-2181.818182,Speed,2070.000000,-2181.818182,Speed,Off,Off,0.000000,FALSE,43,Read: /home/lvuser/scripts/auto_43.bee,File good!,WAIT 1500,WAIT,0.000000,0.000000,-0.050000
11:35:30.463 AM 04/28/2016,Autonomous Enabled,9,TRUE,7,Read from Text File in DoesScriptNumberContainNull.vi->Disabled.vi->Robot Main.vi<APPEND> /home/lvuser/scripts/auto_42.bee,0.000000,0.000000,-0.000000,0.000000,TRUE,FALSE,TRUE,TRUE,FALSE,FALSE,Disabled,0.000000,0.000000,0.000000,TRUE,0.009766,-0.003952,0.000000,-0.034729,0.039642,0.000000,-0.134000,0.037000,-0.043000,1.600000,-0.570000,0.540000,0.362539,Hold,0.028076,0.000000,ResetBack,26235.000000,-0.250000,LowGoal,2115.000000,-2181.818182,Speed,2077.500000,-2181.818182,Speed,Off,Off,0.000000,FALSE,43,Read: /home/lvuser/scripts/auto_43.bee,File good!,WAIT 1500,WAIT,0.000000,0.000000,-0.050000
11:35:30.565 AM 04/28/2016,Autonomous Enabled,10,TRUE,7,Read from Text File in DoesScriptNumberContainNull.vi->Disabled.vi->Robot Main.vi<APPEND> /home/lvuser/scripts/auto_42.bee,0.000000,0.000000,-0.000000,0.000000,TRUE,FALSE,TRUE,TRUE,FALSE,FALSE,Disabled,0.000000,0.000000,0.000000,TRUE,-0.000137,0.002777,0.000000,-0.093552,0.066544,0.000000,0.057000,-0.037000,0.049000,1.620000,-0.570000,0.460000,0.368216,Hold,0.028076,0.000000,Reset,26235.000000,2.000000,LowGoal,2115.000000,-2181.818182,Speed,2077.500000,-2181.818182,Speed,Off,Off,0.000000,FALSE,43,Read: /home/lvuser/scripts/auto_43.bee,File good!,WAIT 1500,WAIT,0.000000,0.000000,-0.050000
11:35:30.666 AM 04/28/2016,Autonomous Enabled,10,TRUE,7,Read from Text File in DoesScriptNumberContainNull.vi->Disabled.vi->Robot Main.vi<APPEND> /home/lvuser/scripts/auto_42.bee,0.000000,0.000000,-0.000000,0.000000,TRUE,FALSE,TRUE,TRUE,FALSE,FALSE,Disabled,0.000000,0.000000,0.000000,TRUE,-0.004227,0.004501,0.000000,-0.046249,0.001907,0.000000,-0.042000,-0.035000,-0.075000,1.630000,-0.580000,0.490000,0.372271,Hold,0.028076,0.000000,Hold,26473.000000,2.000000,LowGoal,2115.000000,-2181.818182,Speed,2070.000000,-2181.818182,Speed,Off,Off,0.000000,FALSE,43,Read: /home/lvuser/scripts/auto_43.bee,File good!,WAIT 1500,WAIT,0.000000,0.000000,-0.050000
11:35:30.769 AM 04/28/2016,Autonomous Enabled,12,TRUE,7,Read from Text File in DoesScriptNumberContainNull.vi->Disabled.vi->Robot Main.vi<APPEND> /home/lvuser/scripts/auto_42.bee,0.000000,0.000000,-0.000000,0.000000,TRUE,FALSE,TRUE,TRUE,FALSE,FALSE,Disabled,0.000000,0.000000,0.000000,TRUE,-0.005112,0.000916,0.000000,0.005280,-0.110001,0.000000,0.046000,-0.163000,0.057000,1.670000,-0.580000,0.460000,0.373283,Hold,0.028076,0.000000,Hold,-207.000000,2.000000,LowGoal,2115.000000,-2181.818182,Speed,2070.000000,-2181.818182,Speed,Off,Off,0.000000,FALSE,43,Read: /home/lvuser/scripts/auto_43.bee,File good!,WAIT 1500,WAIT,0.000000,0.000000,-0.050000
11:35:30.871 AM 04/28/2016,Autonomous Enabled,12,TRUE,7,Read from Text File in DoesScriptNumberContainNull.vi->Disabled.vi->Robot Main.vi<APPEND> /home/lvuser/scripts/auto_42.bee,0.000000,0.000000,-0.000000,0.000000,TRUE,FALSE,TRUE,TRUE,FALSE,FALSE,Disabled,0.000000,0.000000,0.000000,TRUE,-0.005325,-0.005112,0.000000,-0.028702,-0.098755,0.000000,-0.002000,-0.078000,0.089000,1.640000,-0.580000,0.440000,0.362901,Hold,0.028076,0.000000,Hold,-192.000000,2.000000,LowGoal,2115.000000,-2181.818182,Speed,2062.500000,-2181.818182,Speed,Off,Off,0.000000,FALSE,43,Read: /home/lvuser/scripts/auto_43.bee,File good!,WAIT 1500,WAIT,0.000000,0.000000,-0.050000
11:35:30.980 AM 04/28/2016,Autonomous Enabled,15,TRUE,7,Read from Text File in DoesScriptNumberContainNull.vi->Disabled.vi->Robot Main.vi<APPEND> /home/lvuser/scripts/auto_42.bee,-0.562500,0.000000,0.562500,0.000000,TRUE,FALSE,TRUE,TRUE,FALSE,FALSE,Disabled,0.000000,0.000000,0.000000,TRUE,-0.008545,-0.007355,0.000000,-0.063843,0.006989,0.000000,-0.070000,0.079000,-0.019000,1.640000,-0.570000,0.400000,-0.001429,Hold,0.028076,0.000000,Hold,-187.000000,2.000000,LowGoal,2115.000000,-2181.818182,Speed,2070.000000,-2181.818182,Speed,Off,Off,0.000000,FALSE,43,Read: /home/lvuser/scripts/auto_43.bee,File good!,DRIVE_STRAIGHT_NAVX_RAMPARTS 200 5000 10,DRIVE_STRAIGHT_NAVX_RAMPARTS,0.000000,0.000000,-0.050000
11:35:31.079 AM 04/28/2016,Autonomous Enabled,14,TRUE,7,Read from Text File in DoesScriptNumberContainNull.vi->Disabled.vi->Robot Main.vi<APPEND> /home/lvuser/scripts/auto_42.bee,-0.562500,-1.552830,0.562500,1.770996,TRUE,FALSE,TRUE,TRUE,FALSE,FALSE,Disabled,0.000000,0.000000,0.000000,TRUE,0.001038,-0.003464,0.000000,0.416077,0.143112,0.000000,-0.037000,0.153000,-0.056000,1.620000,0.000000,0.370000,-0.069109,Hold,0.028320,0.000000,Hold,-187.000000,2.000000,LowGoal,2100.000000,-1818.181818,Speed,2002.500000,-1818.181818,Speed,Off,Off,0.000000,FALSE,43,Read: /home/lvuser/scripts/auto_43.bee,File good!,DRIVE_STRAIGHT_NAVX_RAMPARTS 200 5000 10,DRIVE_STRAIGHT_NAVX_RAMPARTS,0.000000,0.000000,-0.050000
11:35:31.183 AM 04/28/2016,Autonomous Enabled,13,TRUE,7,Read from Text File in DoesScriptNumberContainNull.vi->Disabled.vi->Robot Main.vi<APPEND> /home/lvuser/scripts/auto_42.bee,-0.562500,-4.260657,0.562500,4.664906,FALSE,FALSE,TRUE,TRUE,FALSE,FALSE,Disabled,0.000000,0.000000,0.000000,TRUE,0.022156,0.004318,0.000000,0.588547,0.210449,0.000000,0.308000,0.073000,-0.300000,1.640000,-0.150000,4.600000,-0.381921,Hold,0.028320,0.000000,Hold,-187.000000,2.000000,LowGoal,2010.000000,-1818.181818,Speed,1807.500000,-1818.181818,Speed,Off,Off,0.000000,FALSE,43,Read: /home/lvuser/scripts/auto_43.bee,File good!,DRIVE_STRAIGHT_NAVX_RAMPARTS 200 5000 10,DRIVE_STRAIGHT_NAVX_RAMPARTS,0.000000,0.000000,-0.050000
11:35:31.286 AM 04/28/2016,Autonomous Enabled,11,TRUE,7,Read from Text File in DoesScriptNumberContainNull.vi->Disabled.vi->Robot Main.vi<APPEND> /home/lvuser/scripts/auto_42.bee,-0.562500,-7.796232,0.562500,8.431480,FALSE,FALSE,TRUE,TRUE,FALSE,FALSE,Disabled,0.000000,0.000000,0.000000,TRUE,0.064072,0.015839,0.000000,0.778503,0.181976,0.000000,0.180000,-0.087000,0.231000,1.750000,-0.480000,4.610000,-0.725533,Hold,0.028320,0.000000,Hold,-185.000000,2.000000,LowGoal,1830.000000,-1818.181818,Speed,1635.000000,-1818.181818,Speed,Off,Off,0.000000,FALSE,43,Read: /home/lvuser/scripts/auto_43.bee,File good!,DRIVE_STRAIGHT_NAVX_RAMPARTS 200 5000 10,DRIVE_STRAIGHT_NAVX_RAMPARTS,0.000000,0.000000,-0.050000
11:35:31.387 AM 04/28/2016,Autonomous Enabled,14,TRUE,7,Read from Text File in DoesScriptNumberContainNull.vi->Disabled.vi->Robot Main.vi<APPEND> /home/lvuser/scripts/auto_42.bee,-0.562500,-11.883639,0.562500,12.730637,FALSE,FALSE,TRUE,TRUE,FALSE,FALSE,Disabled,0.000000,0.000000,0.000000,TRUE,0.064072,0.015839,0.000000,0.778503,0.181976,0.000000,0.017000,0.019000,-0.273000,1.660000,-0.930000,4.090000,-1.131614,Hold,0.028564,0.000000,Hold,-185.000000,2.000000,LowGoal,1762.500000,-1818.181818,Speed,1635.000000,-1818.181818,Speed,Off,Off,0.000000,FALSE,43,Read: /home/lvuser/scripts/auto_43.bee,File good!,DRIVE_STRAIGHT_NAVX_RAMPARTS 200 5000 10,DRIVE_STRAIGHT_NAVX_RAMPARTS,0.000000,0.000000,-0.050000
11:35:31.488 AM 04/28/2016,Autonomous Enabled,13,TRUE,7,Read from Text File in DoesScriptNumberContainNull.vi->Disabled.vi->Robot Main.vi<APPEND> /home/lvuser/scripts/auto_42.bee,-0.562500,-16.060879,0.503674,17.177376,FALSE,FALSE,TRUE,TRUE,FALSE,FALSE,Disabled,0.000000,0.000000,0.000000,TRUE,0.070679,0.031296,0.000000,-0.011490,-0.004135,0.000000,-0.042000,0.045000,0.135000,1.730000,-1.250000,4.300000,-1.658187,Hold,0.028809,0.000000,Hold,-183.000000,2.000000,LowGoal,1725.000000,-1818.181818,Speed,1687.500000,-1818.181818,Speed,Off,Off,0.000000,FALSE,43,Read: /home/lvuser/scripts/auto_43.bee,File good!,DRIVE_STRAIGHT_NAVX_RAMPARTS 200 5000 10,DRIVE_STRAIGHT_NAVX_RAMPARTS,0.000000,0.000000,-0.050000
11:35:31.591 AM 04/28/2016,Autonomous Enabled,10,FALSE,0,NO ERROR,-0.562500,-20.494785,0.491569,21.566366,FALSE,FALSE,TRUE,TRUE,FALSE,FALSE,Disabled,0.000000,0.000000,0.000000,TRUE,0.067902,0.031677,0.000000,-0.096298,0.016861,0.000000,-0.002000,0.115000,0.225000,1.800000,-1.640000,3.740000,-1.833868,Hold,0.028809,0.000000,Hold,-183.000000,2.000000,LowGoal,1725.000000,-1818.181818,Speed,1717.500000,-1818.181818,Speed,Off,Off,0.000000,FALSE,43,Read: /home/lvuser/scripts/auto_43.bee,File good!,DRIVE_STRAIGHT_NAVX_RAMPARTS 200 5000 10,DRIVE_STRAIGHT_NAVX_RAMPARTS,0.000000,0.000000,-0.050000
11:35:31.693 AM 04/28/2016,Autonomous Enabled,11,FALSE,0,NO ERROR,-0.562500,-24.922275,0.499255,25.794940,FALSE,FALSE,TRUE,TRUE,FALSE,FALSE,Disabled,0.000000,0.000000,0.000000,TRUE,0.067902,0.031677,0.000000,-0.096298,0.016861,0.000000,-0.016000,0.030000,0.047000,1.820000,-1.850000,3.380000,-1.529350,Hold,0.028809,0.000000,Hold,-181.000000,2.000000,LowGoal,1747.500000,-1818.181818,Speed,1710.000000,-1818.181818,Speed,Off,Off,0.000000,FALSE,43,Read: /home/lvuser/scripts/auto_43.bee,File good!,DRIVE_STRAIGHT_NAVX_RAMPARTS 200 5000 10,DRIVE_STRAIGHT_NAVX_RAMPARTS,0.000000,0.000000,-0.050000
11:35:31.793 AM 04/28/2016,Autonomous Enabled,12,FALSE,0,NO ERROR,-0.562500,-29.221432,0.514433,29.920847,FALSE,FALSE,TRUE,TRUE,FALSE,FALSE,Disabled,0.000000,0.000000,0.000000,TRUE,0.061478,0.032684,0.000000,-0.131454,0.005112,0.000000,-0.085000,-0.014000,0.012000,1.820000,-1.510000,3.240000,-1.143177,Hold,0.028809,0.000000,Hold,-179.000000,2.000000,LowGoal,1755.000000,-1818.181818,Speed,1695.000000,-1818.181818,Speed,Off,Off,0.000000,FALSE,43,Read: /home/lvuser/scripts/auto_43.bee,File good!,DRIVE_STRAIGHT_NAVX_RAMPARTS 200 5000 10,DRIVE_STRAIGHT_NAVX_RAMPARTS,0.000000,0.000000,-0.050000
11:35:31.894 AM 04/28/2016,Autonomous Enabled,11,FALSE,0,NO ERROR,-0.562500,-33.539838,0.523047,34.207170,TRUE,FALSE,TRUE,TRUE,FALSE,FALSE,Disabled,0.000000,0.000000,0.000000,TRUE,0.053238,0.032669,0.000000,-0.175369,0.010086,0.000000,-0.062000,-0.034000,-0.018000,1.760000,-1.140000,2.800000,-0.952277,Hold,0.028809,0.000000,Hold,-179.000000,2.000000,LowGoal,1755.000000,-1818.181818,Speed,1702.500000,-1818.181818,Speed,Off,Off,0.000000,FALSE,43,Read: /home/lvuser/scripts/auto_43.bee,File good!,DRIVE_STRAIGHT_NAVX_RAMPARTS 200 5000 10,DRIVE_STRAIGHT_NAVX_RAMPARTS,0.000000,0.000000,-0.050000
11:35:31.996 AM 04/28/2016,Autonomous Enabled,12,FALSE,0,NO ERROR,-0.562500,-37.761995,0.524176,38.467827,TRUE,FALSE,TRUE,TRUE,FALSE,FALSE,Disabled,0.000000,0.000000,0.000000,TRUE,0.043747,0.032761,0.000000,-0.213287,0.003250,0.000000,0.028000,0.035000,-0.022000,1.740000,-0.980000,2.850000,-1.015586,Hold,0.028809,0.000000,Hold,-179.000000,2.000000,LowGoal,1755.000000,-1818.181818,Speed,1702.500000,-1818.181818,Speed,Off,Off,0.000000,FALSE,43,Read: /home/lvuser/scripts/auto_43.bee,File good!,DRIVE_STRAIGHT_NAVX_RAMPARTS 200 5000 10,DRIVE_STRAIGHT_NAVX_RAMPARTS,0.000000,0.000000,-0.050000
11:35:32.096 AM 04/28/2016,Autonomous Enabled,11,FALSE,0,NO ERROR,-0.562500,-42.048318,0.519668,42.786233,TRUE,FALSE,TRUE,TRUE,FALSE,FALSE,Disabled,0.000000,0.000000,0.000000,TRUE,0.039139,0.033127,0.000000,-0.017365,0.005615,0.000000,-0.005000,-0.050000,-0.060000,1.780000,-1.070000,2.580000,-1.094196,Hold,0.028809,0.000000,Hold,-179.000000,2.000000,LowGoal,1755.000000,-1818.181818,Speed,1710.000000,-1818.181818,Speed,Off,Off,0.000000,FALSE,43,Read: /home/lvuser/scripts/auto_43.bee,File good!,DRIVE_STRAIGHT_NAVX_RAMPARTS 200 5000 10,DRIVE_STRAIGHT_NAVX_RAMPARTS,0.000000,0.000000,-0.050000
11:35:32.200 AM 04/28/2016,Autonomous Enabled,11,FALSE,0,NO ERROR,-0.562500,-46.469391,0.520793,47.078973,TRUE,FALSE,TRUE,TRUE,FALSE,FALSE,Disabled,0.000000,0.000000,0.000000,TRUE,0.037155,0.033127,0.000000,-0.054169,-0.009598,0.000000,-0.020000,-0.043000,0.083000,1.810000,-1.140000,2.600000,-1.003048,Hold,0.028809,0.000000,Hold,-179.000000,2.000000,LowGoal,1755.000000,-1818.181818,Speed,1710.000000,-1818.181818,Speed,Off,Off,0.000000,FALSE,43,Read: /home/lvuser/scripts/auto_43.bee,File good!,DRIVE_STRAIGHT_NAVX_RAMPARTS 200 5000 10,DRIVE_STRAIGHT_NAVX_RAMPARTS,0.000000,0.000000,-0.050000
11:35:32.299 AM 04/28/2016,Autonomous Enabled,13,FALSE,0,NO ERROR,-0.562500,-50.858381,0.527192,51.429463,TRUE,FALSE,TRUE,TRUE,FALSE,FALSE,Disabled,0.000000,0.000000,0.000000,TRUE,0.032822,0.031982,0.000000,-0.127655,-0.020569,0.000000,-0.035000,-0.039000,0.064000,1.760000,-1.030000,2.300000,-0.882689,Hold,0.028809,0.000000,Hold,-179.000000,2.000000,LowGoal,1755.000000,-1818.181818,Speed,1702.500000,-1818.181818,Speed,Off,Off,0.000000,FALSE,43,Read: /home/lvuser/scripts/auto_43.bee,File good!,DRIVE_STRAIGHT_NAVX_RAMPARTS 200 5000 10,DRIVE_STRAIGHT_NAVX_RAMPARTS,0.000000,0.000000,-0.050000
11:35:32.401 AM 04/28/2016,Autonomous Enabled,12,FALSE,0,NO ERROR,-0.562500,-55.048455,0.529838,55.581037,FALSE,FALSE,TRUE,TRUE,FALSE,FALSE,Disabled,0.000000,0.000000,0.000000,TRUE,0.021576,0.030579,0.000000,-0.269867,-0.024216,0.000000,-0.256000,0.009000,-0.071000,1.660000,-0.910000,3.940000,-0.852760,Hold,0.028809,0.000000,Hold,-179.000000,2.000000,LowGoal,1755.000000,-1818.181818,Speed,1710.000000,-1818.181818,Speed,Off,Off,0.000000,FALSE,43,Read: /home/lvuser/scripts/auto_43.bee,File good!,DRIVE_STRAIGHT_NAVX_RAMPARTS 200 5000 10,DRIVE_STRAIGHT_NAVX_RAMPARTS,0.000000,0.000000,-0.050000
11:35:32.505 AM 04/28/2016,Autonomous Enabled,11,FALSE,0,NO ERROR,-0.562500,-59.341195,0.529838,59.578611,FALSE,FALSE,TRUE,TRUE,FALSE,FALSE,Disabled,0.000000,0.000000,0.000000,TRUE,0.006134,0.028351,0.000000,-0.346176,-0.037964,0.000000,-0.052000,-0.067000,-0.055000,1.540000,-0.840000,5.790000,-0.192226,Hold,0.028809,0.000000,Hold,-179.000000,2.000000,LowGoal,1747.500000,-1818.181818,Speed,1717.500000,-1818.181818,Speed,Off,Off,0.000000,FALSE,43,Read: /home/lvuser/scripts/auto_43.bee,File good!,DRIVE_STRAIGHT_NAVX_RAMPARTS 200 5000 10,DRIVE_STRAIGHT_NAVX_RAMPARTS,0.000000,0.000000,-0.050000
11:35:32.609 AM 04/28/2016,Autonomous Enabled,11,FALSE,0,NO ERROR,-0.562500,-63.011519,0.649475,63.223269,FALSE,FALSE,TRUE,TRUE,FALSE,FALSE,Disabled,0.000000,0.000000,0.000000,TRUE,0.006134,0.028351,0.000000,-0.346176,-0.037964,0.000000,-0.463000,0.433000,0.216000,1.270000,0.400000,8.850000,2.830953,Hold,0.028809,0.000000,Hold,-179.000000,2.000000,LowGoal,1747.500000,-1818.181818,Speed,1702.500000,-1818.181818,Speed,Off,Off,0.000000,FALSE,43,Read: /home/lvuser/scripts/auto_43.bee,File good!,DRIVE_STRAIGHT_NAVX_RAMPARTS 200 5000 10,DRIVE_STRAIGHT_NAVX_RAMPARTS,0.000000,0.000000,-0.050000
11:35:32.706 AM 04/28/2016,Autonomous Enabled,10,FALSE,0,NO ERROR,-0.562500,-65.629513,0.696390,67.843258,FALSE,FALSE,TRUE,TRUE,FALSE,FALSE,Disabled,0.000000,0.000000,0.000000,TRUE,-0.030930,0.035446,0.000000,-0.758560,0.087234,0.000000,0.076000,-0.262000,-0.139000,-0.420000,3.440000,12.910000,2.453831,Hold,0.031006,0.000000,Hold,-180.000000,2.000000,LowGoal,1740.000000,-1818.181818,Speed,1710.000000,-1818.181818,Speed,Off,Off,0.000000,FALSE,43,Read: /home/lvuser/scripts/auto_43.bee,File good!,DRIVE_STRAIGHT_NAVX_RAMPARTS 200 5000 10,DRIVE_STRAIGHT_NAVX_RAMPARTS,0.000000,0.000000,-0.050000
11:35:32.812 AM 04/28/2016,Autonomous Enabled,11,FALSE,0,NO ERROR,-0.562500,-68.581173,0.604600,71.455833,FALSE,FALSE,TRUE,TRUE,FALSE,FALSE,Disabled,0.000000,0.000000,0.000000,TRUE,-0.061050,0.034363,0.000000,-0.729797,-0.080765,0.000000,0.380000,-0.332000,-0.234000,0.540000,2.190000,17.520000,1.237383,Hold,0.031006,0.000000,Hold,-180.000000,2.000000,LowGoal,1732.500000,-1818.181818,Speed,1710.000000,-1818.181818,Speed,Off,Off,0.000000,FALSE,43,Read: /home/lvuser/scripts/auto_43.bee,File good!,DRIVE_STRAIGHT_NAVX_RAMPARTS 200 5000 10,DRIVE_STRAIGHT_NAVX_RAMPARTS,0.000000,0.000000,-0.050000
11:35:32.913 AM 04/28/2016,Autonomous Enabled,11,FALSE,0,NO ERROR,-0.562500,-72.097498,0.606218,75.305824,FALSE,FALSE,TRUE,TRUE,FALSE,FALSE,Disabled,0.000000,0.000000,0.000000,TRUE,-0.094055,0.029602,0.000000,-0.399750,0.096039,0.000000,0.199000,-0.096000,-0.465000,1.960000,1.030000,16.890000,1.882429,Hold,0.051270,0.000000,Hold,-186.000000,2.000000,LowGoal,1740.000000,-1818.181818,Speed,1695.000000,-1818.181818,Speed,Off,Off,0.000000,FALSE,43,Read: /home/lvuser/scripts/auto_43.bee,File good!,DRIVE_STRAIGHT_NAVX_RAMPARTS 200 5000 10,DRIVE_STRAIGHT_NAVX_RAMPARTS,0.000000,0.000000,-0.050000
11:35:33.015 AM 04/28/2016,Autonomous Enabled,10,FALSE,0,NO ERROR,-0.562500,-75.620240,0.803963,78.616816,FALSE,FALSE,TRUE,TRUE,FALSE,FALSE,Disabled,0.000000,0.000000,0.000000,TRUE,-0.127991,0.016541,0.000000,-0.379471,-0.116623,0.000000,-0.045000,0.224000,0.307000,1.000000,2.270000,13.610000,6.417944,Hold,0.051270,0.000000,Hold,-186.000000,2.000000,LowGoal,1725.000000,-1818.181818,Speed,1687.500000,-1818.181818,Speed,Off,Off,0.000000,FALSE,43,Read: /home/lvuser/scripts/auto_43.bee,File good!,DRIVE_STRAIGHT_NAVX_RAMPARTS 200 5000 10,DRIVE_STRAIGHT_NAVX_RAMPARTS,0.000000,0.000000,-0.050000
11:35:33.115 AM 04/28/2016,Autonomous Enabled,12,FALSE,0,NO ERROR,-0.562500,-78.520566,1.000000,84.603552,FALSE,FALSE,TRUE,TRUE,FALSE,FALSE,Disabled,0.000000,0.000000,0.000000,TRUE,-0.127991,0.016541,0.000000,-0.379471,-0.116623,0.000000,-0.021000,-0.125000,-0.162000,-1.960000,8.110000,13.610000,9.568153,Hold,0.085938,0.000000,Hold,-183.000000,2.000000,LowGoal,1725.000000,-1818.181818,Speed,1695.000000,-1818.181818,Speed,Off,Off,0.000000,FALSE,43,Read: /home/lvuser/scripts/auto_43.bee,File good!,DRIVE_STRAIGHT_NAVX_RAMPARTS 200 5000 10,DRIVE_STRAIGHT_NAVX_RAMPARTS,0.000000,0.000000,-0.050000
11:35:33.216 AM 04/28/2016,Autonomous Enabled,10,FALSE,0,NO ERROR,-0.562500,-81.119310,0.945873,84.603552,FALSE,FALSE,TRUE,TRUE,FALSE,FALSE,Disabled,0.000000,0.000000,0.000000,TRUE,-0.149780,0.003433,0.000000,-0.476807,-0.461334,0.000000,-0.024000,-0.390000,0.261000,-3.150000,10.670000,14.420000,5.599224,Hold,0.085938,0.000000,Hold,-179.000000,2.000000,LowGoal,1725.000000,-1818.181818,Speed,1695.000000,-1818.181818,Speed,Off,Off,0.000000,FALSE,43,Read: /home/lvuser/scripts/auto_43.bee,File good!,DRIVE_STRAIGHT_NAVX_RAMPARTS 200 5000 10,DRIVE_STRAIGHT_NAVX_RAMPARTS,0.000000,0.000000,-0.050000
11:35:33.316 AM 04/28/2016,Autonomous Enabled,12,FALSE,0,NO ERROR,-0.562500,-81.119310,0.650313,90.372122,FALSE,FALSE,TRUE,TRUE,FALSE,FALSE,Disabled,0.000000,0.000000,0.000000,TRUE,-0.172241,-0.030106,0.000000,-0.210022,-0.414459,0.000000,0.395000,0.470000,-0.337000,0.250000,4.010000,18.920000,5.599224,Hold,0.096924,0.000000,Hold,-169.000000,2.000000,LowGoal,1725.000000,-1818.181818,Speed,1687.500000,-1818.181818,Speed,Off,Off,0.000000,FALSE,43,Read: /home/lvuser/scripts/auto_43.bee,File good!,DRIVE_STRAIGHT_NAVX_RAMPARTS 200 5000 10,DRIVE_STRAIGHT_NAVX_RAMPARTS,0.000000,0.000000,-0.050000
11:35:33.416 AM 04/28/2016,Autonomous Enabled,11,FALSE,0,NO ERROR,-0.562500,-84.430303,0.624574,96.166358,FALSE,FALSE,TRUE,TRUE,FALSE,FALSE,Disabled,0.000000,0.000000,0.000000,TRUE,-0.171967,-0.057770,0.000000,0.177597,-1.055328,0.000000,0.178000,0.171000,-2.301000,-1.060000,1.270000,12.910000,1.031941,Hold,0.104248,0.000000,Hold,-172.000000,2.000000,LowGoal,1732.500000,-1818.181818,Speed,1672.500000,-1818.181818,Speed,Off,Off,0.000000,FALSE,43,Read: /home/lvuser/scripts/auto_43.bee,File good!,DRIVE_STRAIGHT_NAVX_RAMPARTS 200 5000 10,DRIVE_STRAIGHT_NAVX_RAMPARTS,0.000000,0.000000,-0.050000
11:35:33.516 AM 04/28/2016,Autonomous Enabled,11,FALSE,0,NO ERROR,-0.562500,-87.471795,0.709469,100.273016,FALSE,FALSE,TRUE,TRUE,FALSE,FALSE,Disabled,0.000000,0.000000,0.000000,TRUE,-0.153290,-0.114517,0.000000,0.444672,-0.680389,0.000000,-0.024000,0.100000,-0.305000,1.110000,3.290000,6.320000,2.847636,Hold,0.104248,0.000000,Hold,-171.000000,2.000000,LowGoal,1702.500000,-1818.181818,Speed,1695.000000,-1818.181818,Speed,Off,Off,0.000000,FALSE,43,Read: /home/lvuser/scripts/auto_43.bee,File good!,DRIVE_STRAIGHT_NAVX_RAMPARTS 200 5000 10,DRIVE_STRAIGHT_NAVX_RAMPARTS,0.000000,0.000000,-0.050000
11:35:33.617 AM 04/28/2016,Autonomous Enabled,9,FALSE,0,NO ERROR,-0.562500,-90.923954,0.674862,103.879174,TRUE,FALSE,TRUE,TRUE,FALSE,FALSE,Disabled,0.000000,0.000000,0.000000,TRUE,-0.133224,-0.154144,0.000000,0.599579,-1.112061,0.000000,0.784000,0.738000,-0.036000,-0.430000,3.330000,1.520000,3.142646,Hold,0.105225,0.000000,Hold,-170.000000,2.000000,LowGoal,1717.500000,-1818.181818,Speed,1702.500000,-1818.181818,Speed,Off,Off,0.000000,FALSE,43,Read: /home/lvuser/scripts/auto_43.bee,File good!,DRIVE_STRAIGHT_NAVX_RAMPARTS 200 5000 10,DRIVE_STRAIGHT_NAVX_RAMPARTS,0.000000,0.000000,-0.050000
11:35:33.718 AM 04/28/2016,Autonomous Enabled,11,FALSE,0,NO ERROR,-0.562500,-94.485196,0.558607,109.038162,FALSE,FALSE,TRUE,TRUE,FALSE,FALSE,Disabled,0.000000,0.000000,0.000000,TRUE,-0.094406,-0.197433,0.000000,0.777710,-0.924850,0.000000,0.117000,-0.445000,0.164000,4.570000,1.110000,-3.080000,1.313301,Hold,0.106689,0.000000,Hold,-170.000000,2.000000,LowGoal,1725.000000,-1818.181818,Speed,1710.000000,-1818.181818,Speed,Off,Off,0.000000,FALSE,43,Read: /home/lvuser/scripts/auto_43.bee,File good!,DRIVE_STRAIGHT_NAVX_RAMPARTS 200 5000 10,DRIVE_STRAIGHT_NAVX_RAMPARTS,0.000000,0.000000,-0.050000
11:35:33.819 AM 04/28/2016,Autonomous Enabled,12,FALSE,0,NO ERROR,-0.562500,-97.969438,0.435653,113.876317,FALSE,FALSE,TRUE,TRUE,FALSE,FALSE,Disabled,0.000000,0.000000,0.000000,TRUE,-0.043350,-0.260742,0.000000,0.890106,-1.030273,0.000000,0.141000,-0.067000,-0.464000,8.060000,-2.250000,-10.000000,-2.273847,Hold,0.106689,0.000000,Hold,-169.000000,2.000000,LowGoal,1740.000000,-1818.181818,Speed,1717.500000,-1818.181818,Speed,Off,Off,0.000000,FALSE,43,Read: /home/lvuser/scripts/auto_43.bee,File good!,DRIVE_STRAIGHT_NAVX_RAMPARTS 200 5000 10,DRIVE_STRAIGHT_NAVX_RAMPARTS,0.000000,0.000000,-0.050000
11:35:33.921 AM 04/28/2016,Autonomous Enabled,10,FALSE,0,NO ERROR,-0.562500,-102.223678,0.346379,118.746556,FALSE,FALSE,TRUE,TRUE,FALSE,FALSE,Disabled,0.000000,0.000000,0.000000,TRUE,0.005371,-0.312561,0.000000,1.000488,-1.005051,0.000000,-0.035000,0.240000,-0.905000,6.270000,-5.330000,-12.720000,-4.972813,Hold,0.106689,0.000000,Hold,-169.000000,2.000000,LowGoal,1755.000000,-1818.181818,Speed,1702.500000,-1818.181818,Speed,Off,Off,0.000000,FALSE,43,Read: /home/lvuser/scripts/auto_43.bee,File good!,DRIVE_STRAIGHT_NAVX_RAMPARTS 200 5000 10,DRIVE_STRAIGHT_NAVX_RAMPARTS,0.000000,0.000000,-0.050000
11:35:34.020 AM 04/28/2016,Autonomous Enabled,9,FALSE,0,NO ERROR,-0.562500,-106.535668,0.303711,124.264876,FALSE,FALSE,TRUE,TRUE,FALSE,FALSE,Disabled,0.000000,0.000000,0.000000,TRUE,0.049423,-0.356186,0.000000,0.650772,-0.638611,0.000000,-0.122000,-0.558000,-0.466000,5.520000,-7.810000,-13.240000,-6.858199,Hold,0.129150,0.000000,Hold,-169.000000,2.000000,LowGoal,1740.000000,-1818.181818,Speed,1702.500000,-1818.181818,Speed,Off,Off,0.000000,FALSE,43,Read: /home/lvuser/scripts/auto_43.bee,File good!,DRIVE_STRAIGHT_NAVX_RAMPARTS 200 5000 10,DRIVE_STRAIGHT_NAVX_RAMPARTS,0.000000,0.000000,-0.050000
11:35:34.120 AM 04/28/2016,Autonomous Enabled,11,FALSE,0,NO ERROR,-0.562500,-110.821991,0.341500,127.915951,FALSE,FALSE,TRUE,TRUE,FALSE,FALSE,Disabled,0.000000,0.000000,0.000000,TRUE,0.079025,-0.399246,0.000000,0.584946,-0.949631,0.000000,0.005000,0.067000,-0.796000,4.700000,-6.690000,-8.260000,-6.757394,Hold,0.220215,0.000000,Hold,-169.000000,2.000000,LowGoal,1732.500000,-1818.181818,Speed,1702.500000,-1818.181818,Speed,Off,Off,0.000000,FALSE,43,Read: /home/lvuser/scripts/auto_43.bee,File good!,DRIVE_STRAIGHT_NAVX_RAMPARTS 200 5000 10,DRIVE_STRAIGHT_NAVX_RAMPARTS,0.000000,0.000000,-0.050000
11:35:34.220 AM 04/28/2016,Autonomous Enabled,10,FALSE,0,NO ERROR,-0.562500,-116.147812,0.397732,131.233360,TRUE,FALSE,TRUE,TRUE,FALSE,FALSE,Disabled,0.000000,0.000000,0.000000,TRUE,0.115219,-0.455078,0.000000,0.659866,-0.960587,0.000000,0.265000,-0.239000,-1.145000,2.770000,-5.070000,-2.650000,-5.064271,Hold,0.326904,0.000000,Hold,-169.000000,2.000000,LowGoal,1732.500000,-1818.181818,Speed,1740.000000,-1818.181818,Speed,Off,Off,0.000000,FALSE,43,Read: /home/lvuser/scripts/auto_43.bee,File good!,DRIVE_STRAIGHT_NAVX_RAMPARTS 200 5000 10,DRIVE_STRAIGHT_NAVX_RAMPARTS,0.000000,0.000000,-0.050000
11:35:34.321 AM 04/28/2016,Autonomous Enabled,10,FALSE,0,NO ERROR,-0.562500,-120.588135,0.362789,135.378517,FALSE,FALSE,TRUE,TRUE,FALSE,FALSE,Disabled,0.000000,0.000000,0.000000,TRUE,0.132782,-0.497528,0.000000,0.131012,-0.988220,0.000000,0.004000,0.148000,-1.031000,3.210000,-5.070000,-1.600000,-4.604459,Hold,0.342529,0.000000,Hold,-146.000000,2.000000,LowGoal,1740.000000,-1818.181818,Speed,1710.000000,-1818.181818,Speed,Off,Off,0.000000,FALSE,43,Read: /home/lvuser/scripts/auto_43.bee,File good!,DRIVE_STRAIGHT_NAVX_RAMPARTS 200 5000 10,DRIVE_STRAIGHT_NAVX_RAMPARTS,0.000000,0.000000,-0.050000
11:35:34.421 AM 04/28/2016,Autonomous Enabled,9,FALSE,0,NO ERROR,-0.562500,-0.853415,0.562500,0.731498,TRUE,FALSE,TRUE,TRUE,FALSE,FALSE,Disabled,0.000000,0.000000,0.000000,TRUE,0.142349,-0.547058,0.000000,0.270920,-1.015869,0.000000,0.501000,-0.150000,-0.969000,2.320000,-6.680000,0.230000,-6.104189,Hold,1.983887,0.000000,Hold,-155.000000,2.000000,LowGoal,1740.000000,-1818.181818,Speed,1725.000000,-1818.181818,Speed,Off,Off,0.000000,FALSE,43,Read: /home/lvuser/scripts/auto_43.bee,File good!,DRIVE_STRAIGHT_TARGET 12 0 10000 75,DRIVE_STRAIGHT_TARGET,0.000000,0.000000,-0.050000
11:35:34.523 AM 04/28/2016,Autonomous Enabled,10,FALSE,0,NO ERROR,-0.562500,-4.786822,0.562500,5.139738,TRUE,FALSE,TRUE,TRUE,FALSE,FALSE,Disabled,0.000000,0.000000,0.000000,TRUE,0.153397,-0.591141,0.000000,0.050262,-0.963547,0.000000,0.234000,0.206000,-1.394000,2.140000,-7.050000,1.480000,-6.742043,Hold,1.683594,0.000000,Hold,-155.000000,2.000000,LowGoal,1740.000000,-1818.181818,Speed,1717.500000,-1818.181818,Speed,Off,Off,0.000000,FALSE,43,Read: /home/lvuser/scripts/auto_43.bee,File good!,DRIVE_STRAIGHT_TARGET 12 0 10000 75,DRIVE_STRAIGHT_TARGET,0.000000,0.000000,-0.050000
11:35:34.623 AM 04/28/2016,Autonomous Enabled,10,FALSE,0,NO ERROR,-0.562500,-8.104231,0.562500,8.842146,TRUE,FALSE,TRUE,TRUE,FALSE,FALSE,Disabled,0.000000,0.000000,0.000000,TRUE,0.160110,-0.639587,0.000000,0.121979,-0.997864,0.000000,0.260000,-0.027000,-0.100000,2.450000,-7.760000,0.140000,-7.437334,Hold,1.166260,0.000000,Hold,-156.000000,2.000000,LowGoal,1732.500000,-1818.181818,Speed,1725.000000,-1818.181818,Speed,Off,Off,0.000000,FALSE,43,Read: /home/lvuser/scripts/auto_43.bee,File good!,DRIVE_STRAIGHT_TARGET 12 0 10000 75,DRIVE_STRAIGHT_TARGET,0.000000,0.000000,-0.050000
11:35:34.723 AM 04/28/2016,Autonomous Enabled,9,FALSE,0,NO ERROR,-0.250000,-12.217305,-0.250000,13.064303,TRUE,FALSE,TRUE,TRUE,FALSE,FALSE,Disabled,0.000000,0.000000,0.000000,TRUE,0.172363,-0.690384,0.000000,0.301086,-1.028152,0.000000,0.041000,-0.092000,-0.279000,2.380000,-8.110000,0.990000,-7.820036,Hold,1.153320,0.000000,Hold,-155.000000,2.000000,LowGoal,1732.500000,-1818.181818,Speed,1725.000000,-1818.181818,Speed,Off,Off,0.000000,FALSE,43,Read: /home/lvuser/scripts/auto_43.bee,File good!,SET_HEADING 0,SET_HEADING,0.000000,0.000000,-0.050000
11:35:34.823 AM 04/28/2016,Autonomous Enabled,7,FALSE,0,NO ERROR,-0.250000,-15.650213,-0.250000,14.796799,TRUE,FALSE,TRUE,TRUE,FALSE,FALSE,Disabled,0.000000,0.000000,0.000000,TRUE,0.183426,-0.741959,0.000000,0.052887,-0.982620,0.000000,-0.364000,0.191000,0.495000,2.880000,-7.110000,-1.420000,-7.004356,Hold,1.147949,0.000000,Hold,-155.000000,2.000000,LowGoal,1740.000000,-1818.181818,Speed,1717.500000,-1818.181818,Speed,Off,Off,0.000000,FALSE,43,Read: /home/lvuser/scripts/auto_43.bee,File good!,SET_HEADING 0,SET_HEADING,0.000000,0.000000,-0.050000
11:35:34.923 AM 04/28/2016,Autonomous Enabled,10,FALSE,0,NO ERROR,-0.250000,-18.428624,-0.250000,14.995715,FALSE,FALSE,TRUE,TRUE,FALSE,FALSE,Disabled,0.000000,0.000000,0.000000,TRUE,0.172363,-0.787781,0.000000,-0.382187,-0.887512,0.000000,-0.150000,-0.050000,-0.638000,3.600000,-1.710000,-3.990000,-1.489943,Hold,1.214111,0.000000,Hold,-170.000000,2.000000,LowGoal,1740.000000,-1818.181818,Speed,1702.500000,-1818.181818,Speed,Off,Off,0.000000,FALSE,43,Read: /home/lvuser/scripts/auto_43.bee,File good!,SET_HEADING 0,SET_HEADING,0.000000,0.000000,-0.050000
11:35:35.023 AM 04/28/2016,Autonomous Enabled,9,FALSE,0,NO ERROR,0.250000,-20.360036,0.250000,14.636382,TRUE,FALSE,TRUE,TRUE,FALSE,FALSE,Disabled,0.000000,0.000000,0.000000,TRUE,0.148544,-0.837982,0.000000,-0.566315,-1.233261,0.000000,-0.494000,-0.846000,0.348000,0.610000,2.680000,-2.800000,3.172469,Hold,1.337158,0.000000,Hold,-169.000000,2.000000,LowGoal,1747.500000,-1818.181818,Speed,1710.000000,-1818.181818,Speed,Off,Off,0.000000,FALSE,43,Read: /home/lvuser/scripts/auto_43.bee,File good!,SET_HEADING 0,SET_HEADING,0.000000,0.000000,-0.050000
11:35:35.123 AM 04/28/2016,Autonomous Enabled,9,FALSE,0,NO ERROR,0.250000,-20.558952,0.250000,14.424633,FALSE,FALSE,TRUE,TRUE,FALSE,FALSE,Disabled,0.000000,0.000000,0.000000,TRUE,0.116653,-0.909409,0.000000,-0.577744,-1.338928,0.000000,0.096000,0.452000,0.647000,1.630000,5.770000,-3.240000,6.384978,Hold,1.204590,0.000000,Hold,-169.000000,2.000000,LowGoal,1755.000000,-1818.181818,Speed,1755.000000,-1818.181818,Speed,Off,Off,0.000000,FALSE,43,Read: /home/lvuser/scripts/auto_43.bee,File good!,SET_HEADING 0,SET_HEADING,0.000000,0.000000,-0.050000
11:35:35.224 AM 04/28/2016,Autonomous Enabled,9,FALSE,0,NO ERROR,0.250000,-19.878787,0.250000,15.361464,FALSE,FALSE,TRUE,TRUE,FALSE,FALSE,Disabled,0.000000,0.000000,0.000000,TRUE,0.087662,-0.973358,0.000000,-0.594223,-1.341858,0.000000,0.091000,-0.193000,0.295000,0.900000,3.130000,-3.350000,3.878427,Hold,1.196045,0.000000,Hold,-165.000000,2.000000,LowGoal,1762.500000,-1818.181818,Speed,1740.000000,-1818.181818,Speed,Off,Off,0.000000,FALSE,43,Read: /home/lvuser/scripts/auto_43.bee,File good!,SET_HEADING 0,SET_HEADING,0.000000,0.000000,-0.050000
11:35:35.325 AM 04/28/2016,Autonomous Enabled,10,FALSE,0,NO ERROR,0.000000,-19.172955,-0.000000,16.086546,FALSE,FALSE,TRUE,TRUE,FALSE,FALSE,Disabled,0.000000,0.000000,0.000000,TRUE,0.061096,-1.043335,0.000000,-0.485474,-1.381897,0.000000,0.124000,-0.076000,-0.171000,1.230000,0.130000,-3.000000,0.719849,Hold,1.178223,0.000000,Hold,-164.000000,2.000000,LowGoal,1762.500000,-1818.181818,Speed,1725.000000,-1818.181818,Speed,Off,Off,0.000000,FALSE,43,Read: /home/lvuser/scripts/auto_43.bee,File good!,WAIT_FOR_PID,WAIT_FOR_PID,0.000000,0.000000,-0.050000
11:35:35.425 AM 04/28/2016,Autonomous Enabled,9,FALSE,0,NO ERROR,0.000000,-18.864956,-0.000000,16.522878,TRUE,FALSE,TRUE,TRUE,FALSE,TRUE,Disabled,0.000000,0.000000,0.000000,TRUE,0.036362,-1.125443,0.000000,-0.367081,-1.314835,0.000000,0.180000,0.250000,-0.005000,1.590000,-1.950000,-2.430000,-1.493502,Hold,1.171631,50.000000,Hold,-163.000000,71680.000000,LowGoal,1762.500000,-3272.727273,Speed,1732.500000,-3272.727273,Speed,Off,Off,0.000000,FALSE,43,Read: /home/lvuser/scripts/auto_43.bee,File good!,SEARCH_FOR_GOAL,SEARCH_FOR_GOAL,0.000000,0.000000,-0.050000
11:35:35.525 AM 04/28/2016,Autonomous Enabled,10,FALSE,0,NO ERROR,0.000000,-18.993289,-0.000000,16.330378,TRUE,FALSE,TRUE,TRUE,FALSE,TRUE,Disabled,0.000000,0.000000,0.000000,TRUE,0.024231,-1.176590,0.000000,-0.291885,-1.305893,0.000000,-0.019000,-0.010000,-0.028000,1.400000,-1.260000,-2.210000,-0.881505,Hold,2.066162,50.000000,Hold,-6062.000000,71680.000000,LowGoal,1830.000000,-3272.727273,Speed,1785.000000,-3272.727273,Speed,Off,Off,0.000000,FALSE,43,Read: /home/lvuser/scripts/auto_43.bee,File good!,SEARCH_FOR_GOAL,SEARCH_FOR_GOAL,0.000000,0.000000,-0.050000
11:35:35.626 AM 04/28/2016,Autonomous Enabled,8,FALSE,0,NO ERROR,0.000000,-18.993289,-0.000000,16.323962,TRUE,FALSE,TRUE,TRUE,FALSE,TRUE,Disabled,0.000000,0.000000,0.000000,TRUE,0.006760,-1.254028,0.000000,-0.275528,-1.248093,0.000000,0.070000,0.062000,-0.202000,1.570000,-1.230000,-2.020000,-0.768179,Hold,3.370361,50.000000,Hold,-24685.000000,71680.000000,LowGoal,2100.000000,-3272.727273,Speed,2047.500000,-3272.727273,Speed,Off,Off,0.000000,FALSE,43,Read: /home/lvuser/scripts/auto_43.bee,File good!,SEARCH_FOR_GOAL,SEARCH_FOR_GOAL,0.000000,0.000000,-0.050000
11:35:35.726 AM 04/28/2016,Autonomous Enabled,9,FALSE,0,NO ERROR,0.000000,-18.993289,-0.000000,16.291879,TRUE,FALSE,TRUE,TRUE,FALSE,TRUE,Disabled,0.000000,0.000000,0.000000,TRUE,-0.006256,-1.317230,0.000000,-0.242996,-1.291733,0.000000,0.080000,-0.047000,-0.061000,1.450000,-1.240000,-1.790000,-0.788360,Hold,5.550537,50.000000,Hold,-41762.000000,71680.000000,LowGoal,2467.500000,-3272.727273,Speed,2415.000000,-3272.727273,Speed,Off,Off,0.000000,FALSE,43,Read: /home/lvuser/scripts/auto_43.bee,File good!,SEARCH_FOR_GOAL,SEARCH_FOR_GOAL,0.000000,0.000000,-0.050000
11:35:35.826 AM 04/28/2016,Autonomous Enabled,9,FALSE,0,NO ERROR,0.000000,-18.993289,-0.000000,16.285462,TRUE,FALSE,TRUE,TRUE,FALSE,TRUE,Disabled,0.000000,0.000000,0.000000,TRUE,-0.008072,-1.380219,0.000000,0.022797,-1.261032,0.000000,-0.141000,0.083000,0.066000,1.440000,-1.230000,-1.640000,-0.761191,Hold,7.608154,50.000000,Hold,-41762.000000,71680.000000,LowGoal,2767.500000,-3272.727273,Speed,2722.500000,-3272.727273,Speed,Off,Off,0.000000,FALSE,43,Read: /home/lvuser/scripts/auto_43.bee,File good!,SEARCH_FOR_GOAL,SEARCH_FOR_GOAL,0.000000,0.000000,-0.050000
11:35:35.926 AM 04/28/2016,Autonomous Enabled,10,FALSE,0,NO ERROR,0.000000,-19.025372,-0.000000,16.285462,TRUE,FALSE,TRUE,TRUE,FALSE,TRUE,Disabled,0.000000,0.000000,0.000000,TRUE,-0.007919,-1.442429,0.000000,0.004196,-1.249893,0.000000,-0.114000,-0.017000,-0.045000,1.450000,-1.230000,-1.630000,-0.745121,Hold,10.709961,50.000000,Hold,-58627.000000,71680.000000,LowGoal,3007.500000,-3272.727273,Speed,2985.000000,-3272.727273,Speed,Off,Off,0.000000,FALSE,43,Read: /home/lvuser/scripts/auto_43.bee,File good!,SEARCH_FOR_GOAL,SEARCH_FOR_GOAL,0.000000,0.000000,-0.050000
11:35:36.027 AM 04/28/2016,Autonomous Enabled,8,FALSE,0,NO ERROR,0.000000,-19.025372,-0.000000,16.285462,TRUE,FALSE,TRUE,TRUE,FALSE,TRUE,Disabled,0.000000,0.000000,0.000000,TRUE,-0.005447,-1.514954,0.000000,0.116058,-1.181656,0.000000,0.135000,0.130000,-0.097000,1.500000,-1.250000,-1.730000,-0.735757,Hold,14.337891,50.000000,Hold,-72858.000000,71680.000000,LowGoal,3165.000000,-3272.727273,Speed,3157.500000,-3272.727273,Speed,Off,Off,0.000000,FALSE,43,Read: /home/lvuser/scripts/auto_43.bee,File good!,SEARCH_FOR_GOAL,SEARCH_FOR_GOAL,0.000000,0.000000,-0.050000
11:35:36.127 AM 04/28/2016,Autonomous Enabled,9,FALSE,0,NO ERROR,0.000000,-19.269205,-0.000000,16.445878,TRUE,FALSE,TRUE,TRUE,FALSE,TRUE,Disabled,0.000000,0.000000,0.000000,TRUE,-0.000168,-1.564362,0.000000,0.122238,-1.255341,0.000000,-0.159000,0.075000,0.436000,1.430000,-1.790000,-1.230000,-1.337275,Hold,19.158691,50.000000,Hold,-71622.000000,71680.000000,LowGoal,3202.500000,-3272.727273,Speed,3172.500000,-3272.727273,Speed,Off,Off,0.000000,FALSE,43,Read: /home/lvuser/scripts/auto_43.bee,File good!,SEARCH_FOR_GOAL,SEARCH_FOR_GOAL,0.000000,0.000000,-0.050000
11:35:36.227 AM 04/28/2016,Autonomous Enabled,8,FALSE,0,NO ERROR,0.000000,-19.269205,-0.000000,16.445878,TRUE,FALSE,TRUE,TRUE,FALSE,TRUE,PID,-0.065625,4.509375,-5.969375,TRUE,0.002808,-1.625412,0.000000,0.037750,-1.210754,0.000000,-0.067000,-0.100000,0.114000,1.490000,-1.460000,-1.550000,-0.998838,Hold,25.174561,50.000000,Hold,-71578.000000,71680.000000,LowGoal,3180.000000,-3272.727273,Speed,3150.000000,-3272.727273,Speed,Off,Off,0.000000,FALSE,43,Read: /home/lvuser/scripts/auto_43.bee,File good!,SEARCH_FOR_GOAL,SEARCH_FOR_GOAL,0.000000,0.000000,-0.115625
11:35:36.327 AM 04/28/2016,Autonomous Enabled,9,FALSE,0,NO ERROR,0.274306,-18.929122,0.274306,16.503628,TRUE,FALSE,TRUE,TRUE,FALSE,TRUE,PID,-0.065625,4.509375,-5.969375,TRUE,0.004364,-1.686371,0.000000,0.047653,-1.229538,0.000000,0.300000,0.006000,-0.229000,1.410000,-1.430000,-1.450000,-0.991818,Hold,32.312500,50.000000,Hold,-71638.000000,71680.000000,LowGoal,3172.500000,-3272.727273,Speed,3150.000000,-3272.727273,Speed,Off,Off,0.000000,FALSE,43,Read: /home/lvuser/scripts/auto_43.bee,File good!,SEARCH_FOR_GOAL,SEARCH_FOR_GOAL,0.000000,0.000000,-0.115625
11:35:36.427 AM 04/28/2016,Autonomous Enabled,8,FALSE,0,NO ERROR,0.239236,-18.300291,0.239236,17.222293,TRUE,FALSE,TRUE,TRUE,FALSE,TRUE,PID,-0.065625,4.509375,-5.969375,TRUE,0.009750,-1.752655,0.000000,0.129456,-1.420563,0.000000,-0.145000,-0.129000,-0.166000,0.670000,-3.830000,-1.920000,-3.501426,Hold,39.393799,50.000000,Hold,-71638.000000,71680.000000,LowGoal,3180.000000,-3272.727273,Speed,3150.000000,-3272.727273,Speed,Off,Off,0.000000,FALSE,43,Read: /home/lvuser/scripts/auto_43.bee,File good!,SEARCH_FOR_GOAL,SEARCH_FOR_GOAL,0.000000,0.000000,-0.115625
11:35:36.527 AM 04/28/2016,Autonomous Enabled,10,FALSE,0,NO ERROR,-0.228850,-17.793375,-0.228850,18.017958,TRUE,FALSE,TRUE,TRUE,FALSE,TRUE,PID,-0.065625,4.509375,-5.969375,TRUE,0.015976,-1.823471,0.000000,0.134171,-1.338531,0.000000,0.069000,0.160000,0.246000,1.660000,-6.950000,-1.360000,-6.406260,Hold,49.494385,50.000000,Hold,-71804.000000,71680.000000,LowGoal,3180.000000,-3272.727273,Speed,3142.500000,-3272.727273,Speed,Off,Off,0.000000,FALSE,43,Read: /home/lvuser/scripts/auto_43.bee,File good!,SEARCH_FOR_GOAL,SEARCH_FOR_GOAL,0.000000,0.000000,-0.115625
11:35:36.628 AM 04/28/2016,Autonomous Enabled,9,FALSE,0,NO ERROR,-0.236568,-18.319540,-0.236568,17.504626,TRUE,FALSE,TRUE,TRUE,FALSE,TRUE,PID,-0.065625,4.509375,-5.969375,TRUE,0.023331,-1.886398,0.000000,0.171936,-1.286484,0.000000,0.081000,0.119000,0.120000,1.580000,-6.940000,-1.190000,-7.029380,Hold,55.727539,50.000000,Hold,-71737.000000,71680.000000,LowGoal,3172.500000,-3272.727273,Speed,3157.500000,-3272.727273,Speed,Off,Off,0.000000,FALSE,43,Read: /home/lvuser/scripts/auto_43.bee,File good!,SEARCH_FOR_GOAL,SEARCH_FOR_GOAL,0.000000,0.000000,-0.115625
11:35:36.731 AM 04/28/2016,Autonomous Enabled,9,FALSE,0,NO ERROR,0.243165,-19.179372,0.243165,16.721794,TRUE,FALSE,TRUE,TRUE,FALSE,TRUE,PID,-0.065625,4.509375,-5.969375,TRUE,0.037231,-1.957291,0.000000,0.239990,-1.130966,0.000000,-0.104000,-0.005000,0.003000,1.820000,-3.540000,-0.770000,-3.710017,Hold,56.711426,50.000000,Hold,-71807.000000,71680.000000,LowGoal,3172.500000,-3272.727273,Speed,3157.500000,-3272.727273,Speed,Off,Off,0.000000,FALSE,43,Read: /home/lvuser/scripts/auto_43.bee,File good!,SEARCH_FOR_GOAL,SEARCH_FOR_GOAL,0.000000,0.000000,-0.115625
11:35:36.831 AM 04/28/2016,Autonomous Enabled,9,FALSE,0,NO ERROR,0.258310,-18.428624,0.258310,17.292876,TRUE,FALSE,TRUE,TRUE,FALSE,TRUE,PID,-0.065625,4.509375,-5.969375,TRUE,0.045975,-2.022049,0.000000,0.129990,-1.399429,0.000000,-0.156000,-0.360000,0.138000,1.120000,-3.270000,-1.330000,-2.967685,Hold,56.396729,50.000000,Hold,-71775.000000,71680.000000,LowGoal,3180.000000,-3272.727273,Speed,3157.500000,-3272.727273,Speed,Off,Off,0.000000,FALSE,43,Read: /home/lvuser/scripts/auto_43.bee,File good!,SEARCH_FOR_GOAL,SEARCH_FOR_GOAL,0.000000,0.000000,-0.115625
11:35:36.932 AM 04/28/2016,Autonomous Enabled,12,FALSE,0,NO ERROR,0.000000,-17.690709,-0.000000,18.133458,TRUE,FALSE,TRUE,TRUE,FALSE,TRUE,Suspended,-0.065625,4.509375,-5.969375,TRUE,0.051208,-2.092789,0.000000,0.125351,-1.408035,0.000000,0.146000,0.244000,-0.138000,0.940000,-7.340000,-1.220000,-7.150975,Hold,56.396729,50.000000,Hold,-71785.000000,71680.000000,LowGoal,3195.000000,-3272.727273,Speed,3142.500000,-3272.727273,Speed,Off,Off,0.000000,FALSE,43,Read: /home/lvuser/scripts/auto_43.bee,File good!,SEARCH_FOR_GOAL,SEARCH_FOR_GOAL,0.000000,0.000000,-0.115625
11:35:37.032 AM 04/28/2016,Autonomous Enabled,11,FALSE,0,NO ERROR,0.000000,-17.838292,-0.000000,17.998708,TRUE,FALSE,TRUE,TRUE,FALSE,TRUE,Suspended,-0.065625,4.509375,-5.969375,TRUE,0.060852,-2.156845,0.000000,0.233521,-1.183884,0.000000,0.007000,-0.181000,0.093000,1.720000,-7.270000,-0.710000,-6.974306,Hold,56.396240,50.000000,Hold,-71783.000000,71680.000000,LowGoal,3187.500000,-3272.727273,Speed,3150.000000,-3272.727273,Speed,Off,Off,0.000000,FALSE,43,Read: /home/lvuser/scripts/auto_43.bee,File good!,SEARCH_FOR_GOAL,SEARCH_FOR_GOAL,0.000000,0.000000,-0.115625
11:35:37.138 AM 04/28/2016,Autonomous Enabled,9,FALSE,0,NO ERROR,0.000000,-17.953791,-0.000000,17.844708,TRUE,FALSE,TRUE,TRUE,FALSE,TRUE,Suspended,-0.065625,4.509375,-5.969375,TRUE,0.062515,-2.218124,0.000000,-0.031448,-1.270370,0.000000,-0.019000,0.004000,0.038000,1.360000,-6.470000,-0.940000,-6.213797,Hold,56.396240,50.000000,Hold,-71783.000000,71680.000000,LowGoal,3180.000000,-3272.727273,Speed,3180.000000,-3272.727273,Speed,Off,Off,0.000000,FALSE,43,Read: /home/lvuser/scripts/auto_43.bee,File good!,SEARCH_FOR_GOAL,SEARCH_FOR_GOAL,0.000000,0.000000,-0.115625
11:35:37.238 AM 04/28/2016,Autonomous Enabled,10,FALSE,0,NO ERROR,0.000000,-17.953791,-0.000000,17.844708,TRUE,FALSE,TRUE,TRUE,FALSE,TRUE,Suspended,0.059375,-0.365625,-6.224375,TRUE,0.062393,-2.281494,0.000000,0.010178,-1.247543,0.000000,0.006000,0.099000,-0.163000,1.420000,-6.640000,-0.830000,-6.374378,Hold,56.396240,50.000000,Hold,-71782.000000,71680.000000,LowGoal,3187.500000,-3272.727273,Speed,3172.500000,-3272.727273,Speed,Off,Off,0.000000,FALSE,43,Read: /home/lvuser/scripts/auto_43.bee,File good!,SEARCH_FOR_GOAL,SEARCH_FOR_GOAL,0.000000,0.000000,0.009375
11:35:37.338 AM 04/28/2016,Autonomous Enabled,11,FALSE,0,NO ERROR,0.000000,-17.953791,-0.000000,17.844708,TRUE,FALSE,TRUE,TRUE,FALSE,TRUE,Suspended,0.059375,-0.365625,-6.224375,TRUE,0.062714,-2.342896,0.000000,0.012283,-1.234344,0.000000,0.040000,0.094000,-0.132000,1.430000,-6.540000,-0.820000,-6.279560,Hold,56.396240,50.000000,Hold,-71781.000000,71680.000000,LowGoal,3195.000000,-3272.727273,Speed,3172.500000,-3272.727273,Speed,Off,Off,0.000000,FALSE,43,Read: /home/lvuser/scripts/auto_43.bee,File good!,SEARCH_FOR_GOAL,SEARCH_FOR_GOAL,0.000000,0.000000,0.009375
11:35:37.438 AM 04/28/2016,Autonomous Enabled,10,FALSE,0,NO ERROR,0.000000,-17.953791,-0.000000,17.844708,TRUE,FALSE,TRUE,TRUE,FALSE,TRUE,Suspended,0.059375,-0.365625,-6.224375,TRUE,0.063858,-2.405563,0.000000,0.021332,-1.264847,0.000000,0.032000,0.011000,0.024000,1.410000,-6.580000,-0.730000,-6.308966,Hold,56.396240,50.000000,Hold,-71781.000000,71680.000000,Shoot,3202.500000,-3272.727273,Speed,3172.500000,-3272.727273,Speed,Off,On,0.000000,FALSE,43,Read: /home/lvuser/scripts/auto_43.bee,File good!,SEARCH_FOR_GOAL,SEARCH_FOR_GOAL,0.000000,0.000000,0.009375
11:35:37.538 AM 04/28/2016,Autonomous Enabled,11,FALSE,0,NO ERROR,0.000000,-17.953791,-0.000000,17.844708,TRUE,FALSE,TRUE,TRUE,FALSE,FALSE,Disabled,0.059375,-0.365625,-6.224375,TRUE,0.065247,-2.469101,0.000000,0.049515,-1.269867,0.000000,-0.097000,0.050000,-0.039000,1.420000,-6.590000,-0.720000,-6.278338,Hold,56.396240,50.000000,Hold,-71780.000000,71680.000000,Shoot,3195.000000,-3272.727273,Speed,3172.500000,-3272.727273,Speed,Off,On,0.000000,FALSE,43,Read: /home/lvuser/scripts/auto_43.bee,File good!,WAIT 500,WAIT,0.000000,0.000000,0.009375
11:35:37.638 AM 04/28/2016,Autonomous Enabled,11,FALSE,0,NO ERROR,0.000000,-17.953791,-0.000000,17.844708,TRUE,FALSE,TRUE,TRUE,FALSE,FALSE,Disabled,0.059375,-0.365625,-6.224375,TRUE,0.066467,-2.531586,0.000000,0.008362,-1.235855,0.000000,-0.024000,-0.092000,0.092000,1.500000,-6.590000,-0.800000,-6.278424,Hold,56.396240,50.000000,Hold,-71778.000000,71680.000000,Shoot,3195.000000,-3272.727273,Speed,3172.500000,-3272.727273,Speed,Off,On,0.000000,FALSE,43,Read: /home/lvuser/scripts/auto_43.bee,File good!,WAIT 500,WAIT,0.000000,0.000000,0.009375
11:35:37.738 AM 04/28/2016,Autonomous Enabled,10,FALSE,0,NO ERROR,0.000000,-17.953791,-0.000000,17.844708,TRUE,FALSE,TRUE,TRUE,FALSE,FALSE,Disabled,0.059375,-0.365625,-6.224375,TRUE,0.066742,-2.606567,0.000000,-0.005508,-1.269211,0.000000,0.009000,-0.006000,-0.078000,1.500000,-6.590000,-0.800000,-6.271652,Hold,56.396240,50.000000,Hold,-71778.000000,71680.000000,Shoot,3195.000000,-3272.727273,Speed,3165.000000,-3272.727273,Speed,On,On,0.000000,FALSE,43,Read: /home/lvuser/scripts/auto_43.bee,File good!,WAIT 500,WAIT,0.000000,0.000000,0.009375
11:35:37.839 AM 04/28/2016,Autonomous Enabled,12,FALSE,0,NO ERROR,0.000000,-17.953791,-0.000000,17.819042,TRUE,FALSE,FALSE,TRUE,FALSE,FALSE,Disabled,0.059375,-0.365625,-6.224375,TRUE,0.065735,-2.669220,0.000000,-0.050247,-1.228806,0.000000,0.009000,-0.006000,-0.078000,1.490000,-6.600000,-0.670000,-6.290962,Hold,56.396240,50.000000,Hold,-71778.000000,71680.000000,Shoot,3202.500000,-3272.727273,Speed,3150.000000,-3272.727273,Speed,On,On,0.000000,FALSE,43,Read: /home/lvuser/scripts/auto_43.bee,File good!,WAIT 500,WAIT,0.000000,0.000000,0.009375
11:35:37.939 AM 04/28/2016,Autonomous Enabled,10,FALSE,0,NO ERROR,0.000000,-17.953791,-0.000000,17.812625,TRUE,FALSE,FALSE,TRUE,FALSE,FALSE,Disabled,0.059375,-0.365625,-6.224375,TRUE,0.064178,-2.731247,0.000000,-0.022552,-1.226990,0.000000,-0.045000,0.091000,-0.085000,1.400000,-6.650000,-0.470000,-6.383446,Hold,56.396240,50.000000,Hold,-71775.000000,71680.000000,Shoot,2370.000000,-3272.727273,Speed,2467.500000,-3272.727273,Speed,On,On,0.000000,FALSE,43,Read: /home/lvuser/scripts/auto_43.bee,File good!,WAIT 500,WAIT,0.000000,0.000000,0.009375
11:35:38.041 AM 04/28/2016,Autonomous Enabled,11,FALSE,0,NO ERROR,0.000000,-17.953791,-0.000000,17.812625,TRUE,FALSE,FALSE,TRUE,FALSE,FALSE,Disabled,0.059375,-0.365625,-6.224375,TRUE,0.062332,-2.790421,0.000000,-0.024811,-1.185791,0.000000,-0.045000,0.091000,-0.085000,1.350000,-6.570000,-0.590000,-6.299892,Hold,56.396240,50.000000,Hold,-71775.000000,71680.000000,Shoot,2362.500000,-3272.727273,Speed,2317.500000,-3272.727273,Speed,On,On,0.000000,FALSE,43,Read: /home/lvuser/scripts/auto_43.bee,File good!,WAIT 500,WAIT,0.000000,0.000000,0.009375
11:35:38.146 AM 04/28/2016,Autonomous Enabled,10,FALSE,0,NO ERROR,0.000000,-17.953791,-0.000000,17.812625,TRUE,FALSE,FALSE,TRUE,FALSE,FALSE,Disabled,0.059375,-0.365625,-6.224375,TRUE,0.060852,-2.850388,0.000000,-0.026398,-1.210388,0.000000,0.060000,0.172000,-0.116000,1.320000,-6.630000,-0.510000,-6.366068,Hold,56.396240,50.000000,Hold,-71779.000000,71680.000000,Shoot,2707.500000,-3272.727273,Speed,2662.500000,-3272.727273,Speed,On,On,0.000000,FALSE,43,Read: /home/lvuser/scripts/auto_43.bee,File good!,WAIT 500,WAIT,0.000000,0.000000,0.009375
11:35:38.246 AM 04/28/2016,Autonomous Enabled,9,FALSE,0,NO ERROR,0.000000,-17.953791,-0.000000,17.812625,TRUE,FALSE,FALSE,TRUE,FALSE,FALSE,Disabled,0.059375,-0.365625,-6.224375,TRUE,0.060760,-2.910873,0.000000,0.004669,-1.215485,0.000000,0.002000,0.025000,-0.103000,1.250000,-6.580000,-0.470000,-6.339784,Hold,56.396240,50.000000,Hold,-71779.000000,71680.000000,Shoot,2992.500000,-3272.727273,Speed,2962.500000,-3272.727273,Speed,On,On,0.000000,FALSE,43,Read: /home/lvuser/scripts/auto_43.bee,File good!,WAIT 500,WAIT,0.000000,0.000000,0.009375
11:35:38.347 AM 04/28/2016,Autonomous Enabled,9,FALSE,0,NO ERROR,0.000000,-17.953791,-0.000000,17.812625,TRUE,FALSE,FALSE,TRUE,FALSE,FALSE,Disabled,0.059375,-0.365625,-6.224375,TRUE,0.061661,-2.970917,0.000000,0.028763,-1.197647,0.000000,0.010000,0.048000,0.122000,1.260000,-6.600000,-0.470000,-6.351220,Hold,56.396240,50.000000,Hold,-71779.000000,71680.000000,Shoot,3165.000000,-3272.727273,Speed,3150.000000,-3272.727273,Speed,On,On,0.000000,FALSE,43,Read: /home/lvuser/scripts/auto_43.bee,File good!,WAIT 500,WAIT,0.000000,0.000000,0.009375
11:35:38.447 AM 04/28/2016,Autonomous Enabled,10,FALSE,0,NO ERROR,0.000000,-17.953791,-0.000000,17.812625,TRUE,FALSE,FALSE,TRUE,FALSE,FALSE,Disabled,0.059375,-0.365625,-6.224375,TRUE,0.064178,-3.041275,0.000000,0.051376,-1.150467,0.000000,0.010000,0.048000,0.122000,1.290000,-6.600000,-0.550000,-6.348242,Hold,56.396240,50.000000,Hold,-71779.000000,71680.000000,Shoot,3240.000000,-3272.727273,Speed,3232.500000,-3272.727273,Speed,On,On,0.000000,FALSE,43,Read: /home/lvuser/scripts/auto_43.bee,File good!,WAIT 500,WAIT,0.000000,0.000000,0.009375
11:35:38.548 AM 04/28/2016,Autonomous Enabled,12,FALSE,0,NO ERROR,0.000000,-17.953791,-0.000000,17.812625,TRUE,FALSE,FALSE,TRUE,FALSE,FALSE,Disabled,0.059375,-0.365625,-6.224375,TRUE,0.067169,-3.097961,0.000000,0.063278,-1.133865,0.000000,0.085000,0.076000,-0.110000,1.290000,-6.600000,-0.550000,-6.340937,Hold,56.396240,50.000000,Hold,-71779.000000,71680.000000,Shoot,3217.500000,-3272.727273,Speed,3187.500000,-3272.727273,Speed,On,On,0.000000,FALSE,43,Read: /home/lvuser/scripts/auto_43.bee,File good!,WAIT 500,WAIT,0.000000,0.000000,0.009375
11:35:38.651 AM 04/28/2016,Autonomous Enabled,11,FALSE,0,NO ERROR,0.000000,-17.953791,-0.000000,17.812625,TRUE,FALSE,FALSE,TRUE,FALSE,FALSE,Disabled,0.059375,-0.365625,-6.224375,TRUE,0.067963,-3.156036,0.000000,0.006622,-1.165848,0.000000,0.006000,0.031000,-0.070000,1.330000,-6.600000,-0.540000,-6.354549,Hold,56.396240,50.000000,Hold,-71778.000000,71680.000000,Shoot,3187.500000,-3272.727273,Speed,3150.000000,-3272.727273,Speed,On,On,0.000000,FALSE,43,Read: /home/lvuser/scripts/auto_43.bee,File good!,STOP_ALL,STOP_ALL,0.000000,0.000000,0.009375
11:35:38.751 AM 04/28/2016,Autonomous Enabled,11,FALSE,0,NO ERROR,0.000000,-17.953791,-0.000000,17.812625,TRUE,FALSE,FALSE,TRUE,FALSE,FALSE,Disabled,0.059375,-0.365625,-6.224375,TRUE,0.067917,-3.213791,0.000000,-0.005508,-1.150116,0.000000,-0.028000,-0.011000,-0.093000,1.350000,-6.600000,-0.540000,-6.339354,Hold,56.396240,50.000000,Hold,-71778.000000,71680.000000,Shoot,3187.500000,-3272.727273,Speed,3165.000000,-3272.727273,Speed,On,On,0.000000,FALSE,43,Read: /home/lvuser/scripts/auto_43.bee,File good!,STOP_ALL,STOP_ALL,0.000000,0.000000,0.009375
11:35:38.851 AM 04/28/2016,Autonomous Enabled,10,FALSE,0,NO ERROR,0.000000,-17.953791,-0.000000,17.812625,TRUE,FALSE,FALSE,TRUE,FALSE,FALSE,Disabled,0.059375,-0.365625,-6.224375,TRUE,0.067902,-3.270782,0.000000,0.006516,-1.151382,0.000000,-0.031000,-0.074000,0.091000,1.350000,-6.590000,-0.540000,-6.359259,Hold,56.396240,50.000000,Hold,-71778.000000,71680.000000,Shoot,3195.000000,-3272.727273,Speed,3172.500000,-3272.727273,Speed,On,On,0.000000,FALSE,43,Read: /home/lvuser/scripts/auto_43.bee,File good!,STOP_ALL,STOP_ALL,0.000000,0.000000,0.009375
11:35:38.952 AM 04/28/2016,Autonomous Enabled,11,FALSE,0,NO ERROR,0.000000,-17.953791,-0.000000,17.812625,TRUE,FALSE,FALSE,TRUE,FALSE,FALSE,Disabled,0.059375,-0.365625,-6.224375,TRUE,0.067047,-3.329483,0.000000,-0.032059,-1.175278,0.000000,-0.018000,-0.001000,-0.034000,1.350000,-6.600000,-0.500000,-6.369035,Hold,56.396240,50.000000,Hold,-71778.000000,71680.000000,Shoot,3195.000000,-3272.727273,Speed,3180.000000,-3272.727273,Speed,On,On,0.000000,FALSE,43,Read: /home/lvuser/scripts/auto_43.bee,File good!,STOP_ALL,STOP_ALL,0.000000,0.000000,0.009375
11:35:39.051 AM 04/28/2016,Autonomous Enabled,12,FALSE,0,NO ERROR,0.000000,-17.953791,-0.000000,17.812625,TRUE,FALSE,FALSE,TRUE,FALSE,FALSE,Disabled,0.059375,-0.365625,-6.224375,TRUE,0.067047,-3.329483,0.000000,-0.032059,-1.175278,0.000000,-0.047000,-0.063000,-0.117000,1.360000,-6.600000,-0.530000,-6.378372,Hold,56.396240,50.000000,Hold,-71778.000000,71680.000000,Dwell,3202.500000,-3272.727273,Speed,3180.000000,-3272.727273,Speed,Off,On,0.000000,FALSE,43,Read: /home/lvuser/scripts/auto_43.bee,File good!,STOP_ALL,STOP_ALL,0.000000,0.000000,0.009375
11:35:39.152 AM 04/28/2016,Autonomous Enabled,11,FALSE,0,NO ERROR,0.000000,-17.953791,-0.000000,17.812625,TRUE,FALSE,FALSE,TRUE,FALSE,FALSE,Disabled,0.059375,-0.365625,-6.224375,TRUE,0.064880,-3.387817,0.000000,-0.049789,-1.149506,0.000000,-0.009000,0.026000,0.094000,1.390000,-6.600000,-0.530000,-6.372010,Hold,56.396240,50.000000,Hold,-71778.000000,71680.000000,Dwell,3202.500000,-3272.727273,Speed,3165.000000,-3272.727273,Speed,Off,On,0.000000,FALSE,43,Read: /home/lvuser/scripts/auto_43.bee,File good!,STOP_ALL,STOP_ALL,0.000000,0.000000,0.009375
11:35:39.252 AM 04/28/2016,Autonomous Enabled,11,FALSE,0,NO ERROR,0.000000,-17.953791,-0.000000,17.812625,TRUE,FALSE,FALSE,TRUE,FALSE,FALSE,Disabled,0.059375,-0.365625,-6.224375,TRUE,0.062195,-3.455780,0.000000,-0.038666,-1.144516,0.000000,0.019000,0.058000,0.014000,1.400000,-6.600000,-0.540000,-6.372010,Hold,56.396240,50.000000,Hold,-71778.000000,71680.000000,Dwell,3202.500000,-3272.727273,Speed,3180.000000,-3272.727273,Speed,Off,On,0.000000,FALSE,43,Read: /home/lvuser/scripts/auto_43.bee,File good!,STOP_ALL,STOP_ALL,0.000000,0.000000,0.009375
