Time,Robot Mode,Loop Time,Error Status,Error Code,Error Source,Left Motor Output,Left Motor Encoder,Right Motor Output,Right Motor Encoder,Is Level,Is Stalled,Ball Detector Photoeye,Vision Enabled,Vision Teleop Control,Vision Auto Control,Vision Current State,Vision X Output,Vision NavX Error,Vision NavX Target,NavX Connection Status,NavX Displacement X,NavX Displacement Y,NavX Displacement Z,NavX Velocity X,NavX Velocity Y,NavX Velocity Z,NavX Acceleration X,NavX Acceleration Y,NavX Acceleration Z,NavX Pitch,NavX Yaw,NavX Roll,Gyro Angle,Roller Arm State,Roller Arm Actual,Roller Arm Desired,Shooter Arm State,Shooter Arm Actual,Shooter Arm Desired,Shooter State,Actual RPM Left,Desired RPM Left,Control Mode Left,Actual RPM Right,Desired RPM Right,Control Mode Right,Ball Shooter Cylinder,Ball Halo Cylinder,Scaler Motor Output,Scaler Solenoid Fire,Auto To Run,Auto Current File,Auto File Status,Auto Current Command,Auto Trimmed Command,Shooter Amps Left,Shooter Amps Right, Vision After Offset
04:12:44.037 PM 04/28/2016,Autonomous Enabled,15,TRUE,-44003,<LOCATION>WPI_CameraIssue HTTP Request with Authentication.vi<CALLSTACK>WPI_CameraIssue HTTP Request with Authentication.vi< <WPI_CameraIssue Get.vi< <WPI_CameraSet Image Appearance Property.vi< <WPI_CameraSet Image Size.vi< <Vision Processing.vi< <Robot Main.vi,0.000000,0.000000,-0.000000,0.000000,TRUE,FALSE,TRUE,TRUE,FALSE,FALSE,Disabled,0.000000,0.000000,0.000000,TRUE,-0.000168,0.000381,0.000000,-0.005890,0.017090,0.000000,0.001000,0.000000,-0.002000,1.880000,-1.340000,-0.010000,-2.493018,ResetBack,0.000000,-0.000049,ResetBack,324.000000,-0.250000,LowGoal,30.000000,-2181.818182,Speed,0.000000,-2181.818182,Speed,Off,Off,0.000000,FALSE,35,Read: /home/lvuser/scripts/auto_35.bee,File good!,WAIT 1500,WAIT,0.000000,0.000000,-0.050000
04:12:44.138 PM 04/28/2016,Autonomous Enabled,9,TRUE,7,Read from Text File in DoesScriptNumberContainNull.vi->Disabled.vi->Robot Main.vi<APPEND> /home/lvuser/scripts/auto_32.bee,0.000000,0.000000,-0.000000,0.000000,TRUE,FALSE,TRUE,TRUE,FALSE,FALSE,Disabled,0.000000,0.000000,0.000000,TRUE,-0.000809,0.000336,0.000000,0.000000,-0.014221,0.000000,-0.055000,0.016000,-0.087000,1.880000,-1.350000,0.000000,-2.497920,ResetBack,-1.259277,-0.000049,ResetBack,6773.000000,-0.250000,LowGoal,495.000000,-2181.818182,Speed,82.500000,-2181.818182,Speed,Off,Off,0.000000,FALSE,35,Read: /home/lvuser/scripts/auto_35.bee,File good!,WAIT 1500,WAIT,0.000000,0.000000,-0.050000
04:12:44.239 PM 04/28/2016,Autonomous Enabled,10,TRUE,7,Read from Text File in DoesScriptNumberContainNull.vi->Disabled.vi->Robot Main.vi<APPEND> /home/lvuser/scripts/auto_32.bee,0.000000,0.000000,-0.000000,0.000000,TRUE,FALSE,TRUE,TRUE,FALSE,FALSE,Disabled,0.000000,0.000000,0.000000,TRUE,-0.000504,-0.000671,0.000000,0.002380,-0.011520,0.000000,0.030000,-0.028000,0.002000,1.900000,-1.340000,0.000000,-2.491854,ResetBack,-1.281006,-0.000049,ResetBack,8437.000000,-0.250000,LowGoal,997.500000,-2181.818182,Speed,487.500000,-2181.818182,Speed,Off,Off,0.000000,FALSE,35,Read: /home/lvuser/scripts/auto_35.bee,File good!,WAIT 1500,WAIT,0.000000,0.000000,-0.050000
04:12:44.345 PM 04/28/2016,Autonomous Enabled,14,TRUE,7,Read from Text File in DoesScriptNumberContainNull.vi->Disabled.vi->Robot Main.vi<APPEND> /home/lvuser/scripts/auto_32.bee,0.000000,0.000000,-0.000000,0.000000,TRUE,FALSE,TRUE,TRUE,FALSE,FALSE,Disabled,0.000000,0.000000,0.000000,TRUE,-0.001144,-0.002289,0.000000,-0.015381,-0.041412,0.000000,0.003000,-0.080000,0.001000,1.920000,-1.340000,-0.120000,-2.497256,Reset,-1.281006,-0.000049,ResetBack,8445.000000,-0.250000,LowGoal,1530.000000,-2181.818182,Speed,1365.000000,-2181.818182,Speed,Off,Off,0.000000,FALSE,35,Read: /home/lvuser/scripts/auto_35.bee,File good!,WAIT 1500,WAIT,0.000000,0.000000,-0.050000
04:12:44.446 PM 04/28/2016,Autonomous Enabled,11,TRUE,7,Read from Text File in DoesScriptNumberContainNull.vi->Disabled.vi->Robot Main.vi<APPEND> /home/lvuser/scripts/auto_32.bee,0.000000,0.000000,-0.000000,0.000000,TRUE,FALSE,TRUE,TRUE,FALSE,FALSE,Disabled,0.000000,0.000000,0.000000,TRUE,-0.002838,-0.003540,0.000000,-0.045609,-0.011108,0.000000,-0.048000,0.020000,-0.075000,1.910000,-1.340000,-0.150000,-2.487300,Hold,0.020752,0.000000,ResetBack,8561.000000,-0.250000,LowGoal,1965.000000,-2181.818182,Speed,1365.000000,-2181.818182,Speed,Off,Off,0.000000,FALSE,35,Read: /home/lvuser/scripts/auto_35.bee,File good!,WAIT 1500,WAIT,0.000000,0.000000,-0.050000
04:12:44.547 PM 04/28/2016,Autonomous Enabled,11,TRUE,7,Read from Text File in DoesScriptNumberContainNull.vi->Disabled.vi->Robot Main.vi<APPEND> /home/lvuser/scripts/auto_32.bee,0.000000,0.000000,-0.000000,0.000000,TRUE,FALSE,TRUE,TRUE,FALSE,FALSE,Disabled,0.000000,0.000000,0.000000,TRUE,-0.005524,-0.002640,0.000000,-0.063446,0.045715,0.000000,-0.005000,0.048000,-0.071000,1.910000,-1.340000,-0.150000,-2.489803,Hold,0.020752,0.000000,ResetBack,8561.000000,-0.250000,LowGoal,2182.500000,-2181.818182,Speed,2107.500000,-2181.818182,Speed,Off,Off,0.000000,FALSE,35,Read: /home/lvuser/scripts/auto_35.bee,File good!,WAIT 1500,WAIT,0.000000,0.000000,-0.050000
04:12:44.652 PM 04/28/2016,Autonomous Enabled,10,TRUE,7,Read from Text File in DoesScriptNumberContainNull.vi->Disabled.vi->Robot Main.vi<APPEND> /home/lvuser/scripts/auto_32.bee,0.000000,0.000000,-0.000000,0.000000,TRUE,FALSE,TRUE,TRUE,FALSE,FALSE,Disabled,0.000000,0.000000,0.000000,TRUE,-0.010605,0.001343,0.000000,-0.135101,0.094177,0.000000,-0.067000,-0.017000,0.022000,1.890000,-1.340000,-0.070000,-2.471213,Hold,0.020752,0.000000,ResetBack,8725.000000,-0.250000,LowGoal,2160.000000,-2181.818182,Speed,2152.500000,-2181.818182,Speed,Off,Off,0.000000,FALSE,35,Read: /home/lvuser/scripts/auto_35.bee,File good!,WAIT 1500,WAIT,0.000000,0.000000,-0.050000
04:12:44.752 PM 04/28/2016,Autonomous Enabled,12,TRUE,7,Read from Text File in DoesScriptNumberContainNull.vi->Disabled.vi->Robot Main.vi<APPEND> /home/lvuser/scripts/auto_32.bee,0.000000,0.000000,-0.000000,0.000000,TRUE,FALSE,TRUE,TRUE,FALSE,FALSE,Disabled,0.000000,0.000000,0.000000,TRUE,-0.018494,0.002426,0.000000,-0.155853,0.007355,0.000000,0.048000,-0.024000,0.047000,1.920000,-1.340000,-0.090000,-2.460083,Hold,0.020996,0.000000,ResetBack,8725.000000,-0.250000,LowGoal,2130.000000,-2181.818182,Speed,2002.500000,-2181.818182,Speed,Off,Off,0.000000,FALSE,35,Read: /home/lvuser/scripts/auto_35.bee,File good!,WAIT 1500,WAIT,0.000000,0.000000,-0.050000
04:12:44.853 PM 04/28/2016,Autonomous Enabled,12,TRUE,7,Read from Text File in DoesScriptNumberContainNull.vi->Disabled.vi->Robot Main.vi<APPEND> /home/lvuser/scripts/auto_32.bee,0.000000,0.000000,-0.000000,0.000000,TRUE,FALSE,TRUE,TRUE,FALSE,FALSE,Disabled,0.000000,0.000000,0.000000,TRUE,-0.025589,0.001770,0.000000,-0.090057,-0.037521,0.000000,0.048000,-0.024000,0.047000,1.940000,-1.340000,-0.090000,-2.461711,Hold,0.020996,0.000000,ResetBack,8805.000000,-0.250000,LowGoal,2107.500000,-2181.818182,Speed,2025.000000,-2181.818182,Speed,Off,Off,0.000000,FALSE,35,Read: /home/lvuser/scripts/auto_35.bee,File good!,WAIT 1500,WAIT,0.000000,0.000000,-0.050000
04:12:44.955 PM 04/28/2016,Autonomous Enabled,8,TRUE,7,Read from Text File in DoesScriptNumberContainNull.vi->Disabled.vi->Robot Main.vi<APPEND> /home/lvuser/scripts/auto_32.bee,0.000000,0.000000,-0.000000,0.000000,TRUE,FALSE,TRUE,TRUE,FALSE,FALSE,Disabled,0.000000,0.000000,0.000000,TRUE,-0.028778,-0.003754,0.000000,0.000000,-0.153091,0.000000,0.009000,-0.140000,0.099000,1.940000,-1.340000,-0.070000,-2.470906,Hold,0.020996,0.000000,ResetBack,8818.000000,-0.250000,LowGoal,2107.500000,-2181.818182,Speed,2115.000000,-2181.818182,Speed,Off,Off,0.000000,FALSE,35,Read: /home/lvuser/scripts/auto_35.bee,File good!,WAIT 1500,WAIT,0.000000,0.000000,-0.050000
04:12:45.057 PM 04/28/2016,Autonomous Enabled,12,TRUE,7,Read from Text File in DoesScriptNumberContainNull.vi->Disabled.vi->Robot Main.vi<APPEND> /home/lvuser/scripts/auto_32.bee,0.000000,0.000000,-0.000000,0.000000,TRUE,FALSE,TRUE,TRUE,FALSE,FALSE,Disabled,0.000000,0.000000,0.000000,TRUE,-0.027786,-0.013626,0.000000,0.024445,-0.221786,0.000000,0.065000,-0.075000,0.052000,1.950000,-1.340000,-0.180000,-2.479654,Hold,0.020996,0.000000,ResetBack,8829.000000,-0.250000,LowGoal,2115.000000,-2181.818182,Speed,2017.500000,-2181.818182,Speed,Off,Off,0.000000,FALSE,35,Read: /home/lvuser/scripts/auto_35.bee,File good!,WAIT 1500,WAIT,0.000000,0.000000,-0.050000
04:12:45.160 PM 04/28/2016,Autonomous Enabled,10,TRUE,7,Read from Text File in DoesScriptNumberContainNull.vi->Disabled.vi->Robot Main.vi<APPEND> /home/lvuser/scripts/auto_32.bee,0.000000,0.000000,-0.000000,0.000000,TRUE,FALSE,TRUE,TRUE,FALSE,FALSE,Disabled,0.000000,0.000000,0.000000,TRUE,-0.027664,-0.026566,0.000000,0.009979,-0.276108,0.000000,-0.016000,-0.089000,0.028000,2.010000,-1.340000,-0.240000,-2.480594,Hold,0.020996,0.000000,ResetBack,8835.000000,-0.250000,LowGoal,2115.000000,-2181.818182,Speed,2077.500000,-2181.818182,Speed,Off,Off,0.000000,FALSE,35,Read: /home/lvuser/scripts/auto_35.bee,File good!,WAIT 1500,WAIT,0.000000,0.000000,-0.050000
04:12:45.258 PM 04/28/2016,Autonomous Enabled,11,TRUE,7,Read from Text File in DoesScriptNumberContainNull.vi->Disabled.vi->Robot Main.vi<APPEND> /home/lvuser/scripts/auto_32.bee,0.000000,0.000000,-0.000000,0.000000,TRUE,FALSE,TRUE,TRUE,FALSE,FALSE,Disabled,0.000000,0.000000,0.000000,TRUE,-0.025772,-0.041992,0.000000,0.054749,-0.329010,0.000000,0.021000,-0.044000,0.043000,2.010000,-1.340000,-0.240000,-2.489534,Hold,0.020996,0.000000,Reset,8839.000000,2.000000,LowGoal,2115.000000,-2181.818182,Speed,2070.000000,-2181.818182,Speed,Off,Off,0.000000,FALSE,35,Read: /home/lvuser/scripts/auto_35.bee,File good!,WAIT 1500,WAIT,0.000000,0.000000,-0.050000
04:12:45.363 PM 04/28/2016,Autonomous Enabled,10,TRUE,7,Read from Text File in DoesScriptNumberContainNull.vi->Disabled.vi->Robot Main.vi<APPEND> /home/lvuser/scripts/auto_32.bee,0.000000,0.000000,-0.000000,0.000000,TRUE,FALSE,TRUE,TRUE,FALSE,FALSE,Disabled,0.000000,0.000000,0.000000,TRUE,-0.025131,-0.059372,0.000000,0.028946,-0.355103,0.000000,0.009000,-0.033000,0.048000,1.960000,-1.340000,-0.140000,-2.492133,Hold,0.020996,0.000000,Hold,8839.000000,2.000000,LowGoal,2115.000000,-2181.818182,Speed,2040.000000,-2181.818182,Speed,Off,Off,0.000000,FALSE,35,Read: /home/lvuser/scripts/auto_35.bee,File good!,WAIT 1500,WAIT,0.000000,0.000000,-0.050000
04:12:45.467 PM 04/28/2016,Autonomous Enabled,12,TRUE,7,Read from Text File in DoesScriptNumberContainNull.vi->Disabled.vi->Robot Main.vi<APPEND> /home/lvuser/scripts/auto_32.bee,0.000000,0.000000,-0.000000,0.000000,TRUE,FALSE,TRUE,TRUE,FALSE,FALSE,Disabled,0.000000,0.000000,0.000000,TRUE,-0.021835,-0.076401,0.000000,0.087585,-0.322998,0.000000,0.061000,0.022000,0.013000,2.000000,-1.340000,-0.130000,-2.483561,Hold,0.020996,0.000000,Hold,-22.000000,2.000000,LowGoal,2115.000000,-2181.818182,Speed,2032.500000,-2181.818182,Speed,Off,Off,0.000000,FALSE,35,Read: /home/lvuser/scripts/auto_35.bee,File good!,WAIT 1500,WAIT,0.000000,0.000000,-0.050000
04:12:45.566 PM 04/28/2016,Autonomous Enabled,12,TRUE,7,Read from Text File in DoesScriptNumberContainNull.vi->Disabled.vi->Robot Main.vi<APPEND> /home/lvuser/scripts/auto_32.bee,0.000000,0.000000,-0.000000,0.000000,TRUE,FALSE,TRUE,TRUE,FALSE,FALSE,Disabled,0.000000,0.000000,0.000000,TRUE,-0.021835,-0.076401,0.000000,0.087585,-0.322998,0.000000,0.026000,-0.015000,-0.015000,2.000000,-1.340000,-0.130000,-2.463367,Hold,0.020996,0.000000,Hold,-169.000000,2.000000,LowGoal,2115.000000,-2181.818182,Speed,2100.000000,-2181.818182,Speed,Off,Off,0.000000,FALSE,35,Read: /home/lvuser/scripts/auto_35.bee,File good!,NAVX_ZERO_YAW,NAVX_ZERO_YAW,0.000000,0.000000,-0.050000
04:12:45.671 PM 04/28/2016,Autonomous Enabled,13,TRUE,7,Read from Text File in DoesScriptNumberContainNull.vi->Disabled.vi->Robot Main.vi<APPEND> /home/lvuser/scripts/auto_34.bee,-0.562500,-0.025667,0.562500,0.147583,TRUE,FALSE,TRUE,TRUE,FALSE,FALSE,Disabled,0.000000,0.000000,0.000000,TRUE,-0.006790,-0.076004,0.000000,0.133469,0.024536,0.000000,0.022000,0.048000,-0.028000,1.960000,-1.350000,-0.050000,-0.007760,Hold,0.020996,0.000000,Hold,-169.000000,2.000000,LowGoal,2122.500000,-2181.818182,Speed,2047.500000,-2181.818182,Speed,Off,Off,0.000000,FALSE,35,Read: /home/lvuser/scripts/auto_35.bee,File good!,DRIVE_STRAIGHT_TARGET 42 0 10000 75,DRIVE_STRAIGHT_TARGET,0.000000,0.000000,-0.050000
04:12:45.772 PM 04/28/2016,Autonomous Enabled,10,TRUE,7,Read from Text File in DoesScriptNumberContainNull.vi->Disabled.vi->Robot Main.vi<APPEND> /home/lvuser/scripts/auto_34.bee,-0.562500,-1.969912,0.562500,2.200912,TRUE,FALSE,TRUE,TRUE,FALSE,FALSE,Disabled,0.000000,0.000000,0.000000,TRUE,0.005325,-0.075470,0.000000,0.490158,0.024765,0.000000,-0.116000,-0.007000,-0.056000,1.980000,0.000000,-0.140000,-0.324038,Hold,0.020996,0.000000,Hold,-178.000000,2.000000,LowGoal,2047.500000,-1818.181818,Speed,2047.500000,-1818.181818,Speed,Off,Off,0.000000,FALSE,35,Read: /home/lvuser/scripts/auto_35.bee,File good!,DRIVE_STRAIGHT_TARGET 42 0 10000 75,DRIVE_STRAIGHT_TARGET,0.000000,0.000000,-0.050000
04:12:45.875 PM 04/28/2016,Autonomous Enabled,11,TRUE,7,Read from Text File in DoesScriptNumberContainNull.vi->Disabled.vi->Robot Main.vi<APPEND> /home/lvuser/scripts/auto_34.bee,-0.562500,-4.857405,0.562500,5.268071,FALSE,FALSE,TRUE,TRUE,FALSE,FALSE,Disabled,0.000000,0.000000,0.000000,TRUE,0.005325,-0.075470,0.000000,0.490158,0.024765,0.000000,0.360000,0.071000,-0.314000,1.860000,-0.340000,4.180000,-0.605429,Hold,0.020996,0.000000,Hold,-178.000000,2.000000,LowGoal,1890.000000,-1818.181818,Speed,1822.500000,-1818.181818,Speed,Off,Off,0.000000,FALSE,35,Read: /home/lvuser/scripts/auto_35.bee,File good!,DRIVE_STRAIGHT_TARGET 42 0 10000 75,DRIVE_STRAIGHT_TARGET,0.000000,0.000000,-0.050000
04:12:45.982 PM 04/28/2016,Autonomous Enabled,9,TRUE,7,Read from Text File in DoesScriptNumberContainNull.vi->Disabled.vi->Robot Main.vi<APPEND> /home/lvuser/scripts/auto_34.bee,-0.562500,-8.540563,0.562500,9.201478,FALSE,FALSE,TRUE,TRUE,FALSE,FALSE,Disabled,0.000000,0.000000,0.000000,TRUE,0.088409,-0.066498,0.000000,0.956772,0.084244,0.000000,0.188000,0.021000,0.220000,1.870000,-0.790000,3.410000,-0.884472,Hold,0.020996,0.000000,Hold,-178.000000,2.000000,LowGoal,1732.500000,-1818.181818,Speed,1620.000000,-1818.181818,Speed,Off,Off,0.000000,FALSE,35,Read: /home/lvuser/scripts/auto_35.bee,File good!,DRIVE_STRAIGHT_TARGET 42 0 10000 75,DRIVE_STRAIGHT_TARGET,0.000000,0.000000,-0.050000
04:12:46.083 PM 04/28/2016,Autonomous Enabled,15,TRUE,7,Read from Text File in DoesScriptNumberContainNull.vi->Disabled.vi->Robot Main.vi<APPEND> /home/lvuser/scripts/auto_34.bee,-0.562500,-12.749887,0.562500,13.417219,FALSE,FALSE,TRUE,TRUE,FALSE,FALSE,Disabled,0.000000,0.000000,0.000000,TRUE,0.086624,-0.064255,0.000000,-0.063782,0.000000,0.000000,-0.009000,-0.095000,-0.265000,1.870000,-1.040000,4.250000,-1.063392,Hold,0.020996,0.000000,Hold,-178.000000,2.000000,LowGoal,1687.500000,-1818.181818,Speed,1567.500000,-1818.181818,Speed,Off,Off,0.000000,FALSE,35,Read: /home/lvuser/scripts/auto_35.bee,File good!,DRIVE_STRAIGHT_TARGET 42 0 10000 75,DRIVE_STRAIGHT_TARGET,0.000000,0.000000,-0.050000
04:12:46.184 PM 04/28/2016,Autonomous Enabled,12,TRUE,7,Read from Text File in DoesScriptNumberContainNull.vi->Disabled.vi->Robot Main.vi<APPEND> /home/lvuser/scripts/auto_34.bee,-0.584751,-17.093960,0.540681,17.780542,FALSE,FALSE,TRUE,TRUE,FALSE,FALSE,Disabled,0.000000,0.000000,0.000000,TRUE,0.083115,-0.064560,0.000000,-0.083176,0.000488,0.000000,0.015000,0.063000,-0.085000,1.850000,-1.150000,3.660000,-1.065647,Hold,0.020996,0.000000,Hold,-178.000000,2.000000,LowGoal,1702.500000,-1818.181818,Speed,1657.500000,-1818.181818,Speed,Off,Off,0.000000,FALSE,35,Read: /home/lvuser/scripts/auto_35.bee,File good!,DRIVE_STRAIGHT_TARGET 42 0 10000 75,DRIVE_STRAIGHT_TARGET,0.000000,0.000000,-0.050000
04:12:46.284 PM 04/28/2016,Autonomous Enabled,11,TRUE,7,Read from Text File in DoesScriptNumberContainNull.vi->Disabled.vi->Robot Main.vi<APPEND> /home/lvuser/scripts/auto_34.bee,-0.585149,-21.515033,0.540299,22.131032,FALSE,FALSE,TRUE,TRUE,FALSE,FALSE,Disabled,0.000000,0.000000,0.000000,TRUE,0.078384,-0.064499,0.000000,-0.121613,-0.004272,0.000000,-0.186000,0.084000,0.222000,1.750000,-1.110000,3.780000,-1.095236,Hold,0.020996,0.000000,Hold,-178.000000,2.000000,LowGoal,1732.500000,-1818.181818,Speed,1710.000000,-1818.181818,Speed,Off,Off,0.000000,FALSE,35,Read: /home/lvuser/scripts/auto_35.bee,File good!,DRIVE_STRAIGHT_TARGET 42 0 10000 75,DRIVE_STRAIGHT_TARGET,0.000000,0.000000,-0.050000
04:12:46.388 PM 04/28/2016,Autonomous Enabled,12,TRUE,7,Read from Text File in DoesScriptNumberContainNull.vi->Disabled.vi->Robot Main.vi<APPEND> /home/lvuser/scripts/auto_34.bee,-0.582963,-26.070856,0.542403,26.590604,FALSE,FALSE,TRUE,TRUE,FALSE,FALSE,Disabled,0.000000,0.000000,0.000000,TRUE,0.069275,-0.064270,0.000000,-0.176666,0.026733,0.000000,-0.016000,-0.014000,-0.112000,1.730000,-1.110000,3.420000,-0.987883,Hold,0.020996,0.000000,Hold,-178.000000,2.000000,LowGoal,1740.000000,-1818.181818,Speed,1687.500000,-1818.181818,Speed,Off,Off,0.000000,FALSE,35,Read: /home/lvuser/scripts/auto_35.bee,File good!,DRIVE_STRAIGHT_TARGET 42 0 10000 75,DRIVE_STRAIGHT_TARGET,0.000000,0.000000,-0.050000
04:12:46.490 PM 04/28/2016,Autonomous Enabled,11,TRUE,7,Read from Text File in DoesScriptNumberContainNull.vi->Disabled.vi->Robot Main.vi<APPEND> /home/lvuser/scripts/auto_34.bee,-0.581574,-30.517595,0.543744,31.037344,FALSE,FALSE,TRUE,TRUE,FALSE,FALSE,Disabled,0.000000,0.000000,0.000000,TRUE,0.061279,-0.064438,0.000000,-0.212067,-0.002609,0.000000,-0.079000,-0.018000,-0.093000,1.770000,-1.010000,3.170000,-0.892473,Hold,0.020996,0.000000,Hold,-178.000000,2.000000,LowGoal,1755.000000,-1818.181818,Speed,1560.000000,-1818.181818,Speed,Off,Off,0.000000,FALSE,35,Read: /home/lvuser/scripts/auto_35.bee,File good!,DRIVE_STRAIGHT_TARGET 42 0 10000 75,DRIVE_STRAIGHT_TARGET,0.000000,0.000000,-0.050000
04:12:46.592 PM 04/28/2016,Autonomous Enabled,11,TRUE,7,Read from Text File in DoesScriptNumberContainNull.vi->Disabled.vi->Robot Main.vi<APPEND> /home/lvuser/scripts/auto_34.bee,-0.579593,-35.041335,0.545663,35.548250,TRUE,FALSE,TRUE,TRUE,FALSE,FALSE,Disabled,0.000000,0.000000,0.000000,TRUE,0.049667,-0.064377,0.000000,-0.239929,-0.020813,0.000000,-0.049000,0.074000,0.073000,1.810000,-0.920000,2.690000,-0.803524,Hold,0.020996,0.000000,Hold,-178.000000,2.000000,LowGoal,1740.000000,-1818.181818,Speed,1755.000000,-1818.181818,Speed,Off,Off,0.000000,FALSE,35,Read: /home/lvuser/scripts/auto_35.bee,File good!,DRIVE_STRAIGHT_TARGET 42 0 10000 75,DRIVE_STRAIGHT_TARGET,0.000000,0.000000,-0.050000
04:12:46.695 PM 04/28/2016,Autonomous Enabled,11,TRUE,7,Read from Text File in DoesScriptNumberContainNull.vi->Disabled.vi->Robot Main.vi<APPEND> /home/lvuser/scripts/auto_34.bee,-0.576233,-39.577907,0.548933,39.994990,TRUE,FALSE,TRUE,TRUE,FALSE,FALSE,Disabled,0.000000,0.000000,0.000000,TRUE,0.035919,-0.065781,0.000000,-0.315674,-0.021164,0.000000,-0.076000,-0.013000,0.220000,1.770000,-0.840000,2.610000,-0.571826,Hold,0.020996,0.000000,Hold,-178.000000,2.000000,LowGoal,1740.000000,-1818.181818,Speed,1717.500000,-1818.181818,Speed,Off,Off,0.000000,FALSE,35,Read: /home/lvuser/scripts/auto_35.bee,File good!,DRIVE_STRAIGHT_TARGET 42 0 10000 75,DRIVE_STRAIGHT_TARGET,0.000000,0.000000,-0.050000
04:12:46.792 PM 04/28/2016,Autonomous Enabled,14,TRUE,7,Read from Text File in DoesScriptNumberContainNull.vi->Disabled.vi->Robot Main.vi<APPEND> /home/lvuser/scripts/auto_34.bee,0.000000,-44.120897,-0.000000,44.576479,TRUE,FALSE,TRUE,TRUE,FALSE,FALSE,Disabled,0.000000,0.000000,0.000000,TRUE,0.029144,-0.066757,0.000000,-0.005096,-0.014069,0.000000,-0.094000,-0.025000,-0.123000,1.650000,-0.480000,2.180000,-0.457478,Hold,0.020996,58.000000,Hold,-178.000000,2.000000,LowGoal,1747.500000,-1818.181818,Speed,1755.000000,-1818.181818,Speed,Off,Off,0.000000,FALSE,35,Read: /home/lvuser/scripts/auto_35.bee,File good!,WAIT 1000,WAIT,0.000000,0.000000,-0.050000
04:12:46.894 PM 04/28/2016,Autonomous Enabled,10,TRUE,7,Read from Text File in DoesScriptNumberContainNull.vi->Disabled.vi->Robot Main.vi<APPEND> /home/lvuser/scripts/auto_34.bee,0.000000,-46.174225,-0.000000,46.719641,TRUE,FALSE,TRUE,TRUE,FALSE,FALSE,Disabled,0.000000,0.000000,0.000000,TRUE,0.014069,-0.066498,0.000000,-0.557831,0.014191,0.000000,-0.157000,-0.079000,0.065000,1.650000,-0.480000,2.180000,-0.677106,Hold,0.020996,58.000000,Hold,-178.000000,2.000000,LowGoal,1740.000000,-1818.181818,Speed,1642.500000,-1818.181818,Speed,Off,Off,0.000000,FALSE,35,Read: /home/lvuser/scripts/auto_35.bee,File good!,WAIT 1000,WAIT,0.000000,0.000000,-0.050000
04:12:46.996 PM 04/28/2016,Autonomous Enabled,13,TRUE,7,Read from Text File in DoesScriptNumberContainNull.vi->Disabled.vi->Robot Main.vi<APPEND> /home/lvuser/scripts/auto_34.bee,0.000000,-47.046890,-0.000000,47.560222,TRUE,FALSE,TRUE,TRUE,FALSE,FALSE,Disabled,0.000000,0.000000,0.000000,TRUE,-0.024643,-0.065628,0.000000,-0.915268,0.008438,0.000000,-0.427000,-0.041000,-0.344000,1.670000,-0.600000,-2.610000,-0.935732,Hold,2.770752,58.000000,Hold,-189.000000,2.000000,LowGoal,1740.000000,-1818.181818,Speed,1530.000000,-1818.181818,Speed,Off,Off,0.000000,FALSE,35,Read: /home/lvuser/scripts/auto_35.bee,File good!,WAIT 1000,WAIT,0.000000,0.000000,-0.050000
04:12:47.100 PM 04/28/2016,Autonomous Enabled,10,TRUE,7,Read from Text File in DoesScriptNumberContainNull.vi->Disabled.vi->Robot Main.vi<APPEND> /home/lvuser/scripts/auto_34.bee,0.000000,-46.995557,-0.000000,47.560222,TRUE,FALSE,TRUE,TRUE,FALSE,FALSE,Disabled,0.000000,0.000000,0.000000,TRUE,-0.076004,-0.064072,0.000000,-1.042648,0.062820,0.000000,-0.351000,-0.006000,1.008000,1.680000,-0.780000,-1.360000,-1.020595,Hold,7.328369,58.000000,Hold,-188.000000,2.000000,LowGoal,1732.500000,-1818.181818,Speed,1725.000000,-1818.181818,Speed,Off,Off,0.000000,FALSE,35,Read: /home/lvuser/scripts/auto_35.bee,File good!,WAIT 1000,WAIT,0.000000,0.000000,-0.050000
04:12:47.203 PM 04/28/2016,Autonomous Enabled,8,TRUE,7,Read from Text File in DoesScriptNumberContainNull.vi->Disabled.vi->Robot Main.vi<APPEND> /home/lvuser/scripts/auto_34.bee,0.000000,-46.899307,-0.000000,47.399806,TRUE,FALSE,TRUE,TRUE,FALSE,FALSE,Disabled,0.000000,0.000000,0.000000,TRUE,-0.126801,-0.062210,0.000000,-0.999039,0.020599,0.000000,0.052000,-0.071000,-0.053000,1.690000,-0.870000,-1.530000,-1.116862,Hold,11.365234,58.000000,Hold,-187.000000,2.000000,LowGoal,1740.000000,-1818.181818,Speed,1537.500000,-1818.181818,Speed,Off,Off,0.000000,FALSE,35,Read: /home/lvuser/scripts/auto_35.bee,File good!,WAIT 1000,WAIT,0.000000,0.000000,-0.050000
04:12:47.304 PM 04/28/2016,Autonomous Enabled,11,FALSE,0,NO ERROR,0.000000,-46.758141,-0.000000,47.239390,TRUE,FALSE,TRUE,TRUE,FALSE,FALSE,Disabled,0.000000,0.000000,0.000000,TRUE,-0.172272,-0.060074,0.000000,-0.873093,0.048279,0.000000,0.256000,0.090000,-0.410000,1.770000,-0.900000,-1.190000,-1.047333,Hold,15.398193,58.000000,Hold,-187.000000,2.000000,LowGoal,1747.500000,-1818.181818,Speed,1530.000000,-1818.181818,Speed,Off,Off,0.000000,FALSE,35,Read: /home/lvuser/scripts/auto_35.bee,File good!,WAIT 1000,WAIT,0.000000,0.000000,-0.050000
04:12:47.405 PM 04/28/2016,Autonomous Enabled,12,FALSE,0,NO ERROR,0.000000,-46.758141,-0.000000,47.232973,TRUE,FALSE,TRUE,TRUE,FALSE,FALSE,Disabled,0.000000,0.000000,0.000000,TRUE,-0.214417,-0.056671,0.000000,-0.833694,0.089981,0.000000,0.079000,0.008000,-0.348000,1.790000,-0.890000,-0.990000,-1.041907,Hold,27.010986,58.000000,Hold,-187.000000,2.000000,LowGoal,1747.500000,-1818.181818,Speed,2002.500000,-1818.181818,Speed,Off,Off,0.000000,FALSE,35,Read: /home/lvuser/scripts/auto_35.bee,File good!,WAIT 1000,WAIT,0.000000,0.000000,-0.050000
04:12:47.507 PM 04/28/2016,Autonomous Enabled,11,FALSE,0,NO ERROR,0.000000,-46.758141,-0.000000,47.239390,TRUE,FALSE,TRUE,TRUE,FALSE,FALSE,Disabled,0.000000,0.000000,0.000000,TRUE,-0.254486,-0.051376,0.000000,-0.792892,0.108688,0.000000,0.061000,0.032000,-0.046000,1.770000,-0.880000,-0.860000,-1.027015,Hold,34.414307,58.000000,Hold,-186.000000,2.000000,LowGoal,1755.000000,-1818.181818,Speed,2025.000000,-1818.181818,Speed,Off,Off,0.000000,FALSE,35,Read: /home/lvuser/scripts/auto_35.bee,File good!,WAIT 1000,WAIT,0.000000,0.000000,-0.050000
04:12:47.610 PM 04/28/2016,Autonomous Enabled,13,FALSE,0,NO ERROR,0.000000,-46.758141,-0.000000,47.239390,TRUE,FALSE,TRUE,TRUE,FALSE,FALSE,Disabled,0.000000,0.000000,0.000000,TRUE,-0.299164,-0.045425,0.000000,-0.693741,0.089371,0.000000,0.084000,-0.032000,-0.112000,1.740000,-0.920000,-0.720000,-1.020247,Hold,44.322021,58.000000,Hold,-186.000000,2.000000,LowGoal,1755.000000,-1818.181818,Speed,1815.000000,-1818.181818,Speed,Off,Off,0.000000,FALSE,35,Read: /home/lvuser/scripts/auto_35.bee,File good!,WAIT 1000,WAIT,0.000000,0.000000,-0.050000
04:12:47.711 PM 04/28/2016,Autonomous Enabled,10,FALSE,0,NO ERROR,0.000000,-46.758141,-0.000000,47.239390,TRUE,FALSE,TRUE,TRUE,FALSE,FALSE,Disabled,0.000000,0.000000,0.000000,TRUE,-0.331299,-0.048279,0.000000,-0.670898,-0.125366,0.000000,0.039000,-0.070000,0.034000,1.670000,-1.010000,-0.210000,-1.046107,Hold,50.297852,58.000000,Hold,-185.000000,2.000000,LowGoal,1755.000000,-1818.181818,Speed,1665.000000,-1818.181818,Speed,Off,Off,0.000000,FALSE,35,Read: /home/lvuser/scripts/auto_35.bee,File good!,WAIT 1000,WAIT,0.000000,0.000000,-0.050000
04:12:47.824 PM 04/28/2016,Autonomous Enabled,12,FALSE,0,NO ERROR,0.000000,-46.758141,-0.000000,47.239390,TRUE,FALSE,TRUE,TRUE,FALSE,FALSE,Disabled,0.000000,0.000000,0.000000,TRUE,-0.331299,-0.048279,0.000000,-0.670898,-0.125366,0.000000,-0.091000,-0.586000,-0.336000,1.670000,-1.010000,-0.210000,-0.976726,Hold,50.297852,58.000000,Hold,-184.000000,2.000000,LowGoal,1755.000000,-1818.181818,Speed,1612.500000,-1818.181818,Speed,Off,Off,0.000000,FALSE,35,Read: /home/lvuser/scripts/auto_35.bee,File good!,DRIVE_STRAIGHT_TARGET 78 0 10000 75,DRIVE_STRAIGHT_TARGET,0.000000,0.000000,-0.050000
04:12:47.916 PM 04/28/2016,Autonomous Enabled,14,FALSE,0,NO ERROR,-0.562500,-0.423499,0.562500,0.545415,TRUE,FALSE,TRUE,TRUE,FALSE,FALSE,Disabled,0.000000,0.000000,0.000000,TRUE,-0.399902,-0.073288,0.000000,-0.593842,-0.263260,0.000000,-0.013000,-0.028000,0.129000,1.590000,-0.880000,-0.250000,-1.043952,Hold,53.293457,58.000000,Hold,-184.000000,2.000000,LowGoal,1755.000000,-1818.181818,Speed,1665.000000,-1818.181818,Speed,Off,Off,0.000000,FALSE,35,Read: /home/lvuser/scripts/auto_35.bee,File good!,DRIVE_STRAIGHT_TARGET 78 0 10000 75,DRIVE_STRAIGHT_TARGET,0.000000,0.000000,-0.050000
04:12:48.019 PM 04/28/2016,Autonomous Enabled,11,FALSE,0,NO ERROR,-0.562500,-2.483244,0.562500,2.727077,TRUE,FALSE,TRUE,TRUE,FALSE,FALSE,Disabled,0.000000,0.000000,0.000000,TRUE,-0.409912,-0.087280,0.000000,-0.060379,-0.268860,0.000000,1.210000,-0.031000,-0.222000,1.520000,-0.990000,1.120000,-1.018512,Hold,55.777100,58.000000,Hold,-184.000000,2.000000,LowGoal,1740.000000,-1818.181818,Speed,1770.000000,-1818.181818,Speed,Off,Off,0.000000,FALSE,35,Read: /home/lvuser/scripts/auto_35.bee,File good!,DRIVE_STRAIGHT_TARGET 78 0 10000 75,DRIVE_STRAIGHT_TARGET,0.000000,0.000000,-0.050000
04:12:48.118 PM 04/28/2016,Autonomous Enabled,15,FALSE,0,NO ERROR,-0.562500,-5.473404,0.562500,5.736487,FALSE,FALSE,TRUE,TRUE,FALSE,FALSE,Disabled,0.000000,0.000000,0.000000,TRUE,-0.405762,-0.102203,0.000000,0.126907,-0.303238,0.000000,0.233000,-0.017000,-0.132000,1.340000,-0.960000,4.120000,-1.125372,Hold,60.525391,58.000000,Hold,-183.000000,2.000000,LowGoal,1732.500000,-1818.181818,Speed,1755.000000,-1818.181818,Speed,Off,Off,0.000000,FALSE,35,Read: /home/lvuser/scripts/auto_35.bee,File good!,DRIVE_STRAIGHT_TARGET 78 0 10000 75,DRIVE_STRAIGHT_TARGET,0.000000,0.000000,-0.050000
04:12:48.219 PM 04/28/2016,Autonomous Enabled,11,FALSE,0,NO ERROR,-0.562500,-9.118062,0.562500,9.438895,FALSE,FALSE,TRUE,TRUE,FALSE,FALSE,Disabled,0.000000,0.000000,0.000000,TRUE,-0.396423,-0.117065,0.000000,0.206940,-0.288834,0.000000,0.183000,0.023000,0.062000,1.310000,-1.110000,6.700000,-1.317109,Hold,59.409180,58.000000,Hold,-183.000000,2.000000,LowGoal,1732.500000,-1818.181818,Speed,1710.000000,-1818.181818,Speed,Off,Off,0.000000,FALSE,35,Read: /home/lvuser/scripts/auto_35.bee,File good!,DRIVE_STRAIGHT_TARGET 78 0 10000 75,DRIVE_STRAIGHT_TARGET,0.000000,0.000000,-0.050000
04:12:48.322 PM 04/28/2016,Autonomous Enabled,12,FALSE,0,NO ERROR,-0.562500,-12.923136,0.562500,13.192636,FALSE,FALSE,TRUE,TRUE,FALSE,FALSE,Disabled,0.000000,0.000000,0.000000,TRUE,-0.387268,-0.131866,0.000000,0.165817,-0.303482,0.000000,-0.065000,-0.072000,0.197000,1.310000,-1.260000,8.840000,-1.438287,Hold,59.409180,58.000000,Hold,-183.000000,2.000000,LowGoal,1747.500000,-1818.181818,Speed,1672.500000,-1818.181818,Speed,Off,Off,0.000000,FALSE,35,Read: /home/lvuser/scripts/auto_35.bee,File good!,DRIVE_STRAIGHT_TARGET 78 0 10000 75,DRIVE_STRAIGHT_TARGET,0.000000,0.000000,-0.050000
04:12:48.423 PM 04/28/2016,Autonomous Enabled,16,FALSE,0,NO ERROR,-0.589932,-16.651211,0.535722,16.933544,FALSE,FALSE,TRUE,TRUE,FALSE,FALSE,Disabled,0.000000,0.000000,0.000000,TRUE,-0.380554,-0.146652,0.000000,0.113815,-0.294205,0.000000,0.007000,0.160000,-0.044000,1.120000,-1.300000,12.710000,-1.685180,Hold,59.708740,58.000000,Hold,-183.000000,2.000000,LowGoal,1747.500000,-1818.181818,Speed,1665.000000,-1818.181818,Speed,Off,Off,0.000000,FALSE,35,Read: /home/lvuser/scripts/auto_35.bee,File good!,DRIVE_STRAIGHT_TARGET 78 0 10000 75,DRIVE_STRAIGHT_TARGET,0.000000,0.000000,-0.050000
04:12:48.524 PM 04/28/2016,Autonomous Enabled,10,FALSE,0,NO ERROR,-0.589333,-20.372869,0.536293,20.591035,FALSE,FALSE,TRUE,TRUE,FALSE,FALSE,Disabled,0.000000,0.000000,0.000000,TRUE,-0.375809,-0.159958,0.000000,0.083893,-0.278702,0.000000,0.052000,0.114000,0.159000,1.030000,-1.480000,15.270000,-1.602266,Hold,60.433105,58.000000,Hold,-183.000000,2.000000,LowGoal,1747.500000,-1818.181818,Speed,1717.500000,-1818.181818,Speed,Off,Off,0.000000,FALSE,35,Read: /home/lvuser/scripts/auto_35.bee,File good!,DRIVE_STRAIGHT_TARGET 78 0 10000 75,DRIVE_STRAIGHT_TARGET,0.000000,0.000000,-0.050000
04:12:48.624 PM 04/28/2016,Autonomous Enabled,12,FALSE,0,NO ERROR,-0.588335,-23.882777,0.537245,23.998277,FALSE,FALSE,TRUE,TRUE,FALSE,FALSE,Disabled,0.000000,0.000000,0.000000,TRUE,-0.375809,-0.159958,0.000000,0.083893,-0.278702,0.000000,0.024000,0.010000,-0.062000,0.930000,-1.300000,19.590000,-1.608122,Hold,60.433105,58.000000,Hold,-183.000000,2.000000,LowGoal,1747.500000,-1818.181818,Speed,1747.500000,-1818.181818,Speed,Off,Off,0.000000,FALSE,35,Read: /home/lvuser/scripts/auto_35.bee,File good!,DRIVE_STRAIGHT_TARGET 78 0 10000 75,DRIVE_STRAIGHT_TARGET,0.000000,0.000000,-0.050000
04:12:48.727 PM 04/28/2016,Autonomous Enabled,10,FALSE,0,NO ERROR,-0.586143,-27.238686,0.539343,27.315686,FALSE,FALSE,TRUE,TRUE,FALSE,FALSE,Disabled,0.000000,0.000000,0.000000,TRUE,-0.376801,-0.176865,0.000000,-0.027191,-0.003937,0.000000,0.099000,0.002000,-0.273000,0.960000,-1.280000,20.820000,-1.563173,Hold,60.435547,58.000000,Hold,-183.000000,2.000000,LowGoal,1747.500000,-1818.181818,Speed,1732.500000,-1818.181818,Speed,Off,Off,0.000000,FALSE,35,Read: /home/lvuser/scripts/auto_35.bee,File good!,DRIVE_STRAIGHT_TARGET 78 0 10000 75,DRIVE_STRAIGHT_TARGET,0.000000,0.000000,-0.050000
04:12:48.828 PM 04/28/2016,Autonomous Enabled,16,FALSE,0,NO ERROR,-0.586342,-30.498345,0.539152,30.562512,FALSE,FALSE,TRUE,TRUE,FALSE,FALSE,Disabled,0.000000,0.000000,0.000000,TRUE,-0.383621,-0.177078,0.000000,-0.113693,0.000488,0.000000,-0.242000,-0.026000,0.252000,0.960000,-1.210000,22.280000,-1.606366,Hold,60.435547,58.000000,Hold,-183.000000,2.000000,LowGoal,1747.500000,-1818.181818,Speed,1732.500000,-1818.181818,Speed,Off,Off,0.000000,FALSE,35,Read: /home/lvuser/scripts/auto_35.bee,File good!,DRIVE_STRAIGHT_TARGET 78 0 10000 75,DRIVE_STRAIGHT_TARGET,0.000000,0.000000,-0.050000
04:12:48.929 PM 04/28/2016,Autonomous Enabled,8,FALSE,0,NO ERROR,-0.585745,-33.783671,0.539725,33.764421,FALSE,FALSE,TRUE,TRUE,FALSE,FALSE,Disabled,0.000000,0.000000,0.000000,TRUE,-0.390945,-0.177734,0.000000,-0.185516,-0.024994,0.000000,0.000000,0.001000,0.083000,0.940000,-1.220000,23.760000,-1.514591,Hold,60.471924,58.000000,Hold,-183.000000,2.000000,LowGoal,1755.000000,-1818.181818,Speed,1702.500000,-1818.181818,Speed,Off,Off,0.000000,FALSE,35,Read: /home/lvuser/scripts/auto_35.bee,File good!,DRIVE_STRAIGHT_TARGET 78 0 10000 75,DRIVE_STRAIGHT_TARGET,0.000000,0.000000,-0.050000
04:12:49.031 PM 04/28/2016,Autonomous Enabled,12,FALSE,0,NO ERROR,-0.578208,-36.741747,0.547008,36.626248,FALSE,FALSE,TRUE,TRUE,FALSE,FALSE,Disabled,0.000000,0.000000,0.000000,TRUE,-0.400528,-0.178406,0.000000,-0.262695,-0.002914,0.000000,-0.135000,0.039000,0.140000,0.750000,-1.010000,24.600000,-1.315143,Hold,60.685791,58.000000,Hold,-182.000000,2.000000,LowGoal,1747.500000,-1818.181818,Speed,1710.000000,-1818.181818,Speed,Off,Off,0.000000,FALSE,35,Read: /home/lvuser/scripts/auto_35.bee,File good!,DRIVE_STRAIGHT_TARGET 78 0 10000 75,DRIVE_STRAIGHT_TARGET,0.000000,0.000000,-0.050000
04:12:49.134 PM 04/28/2016,Autonomous Enabled,10,FALSE,0,NO ERROR,-0.576430,-39.776824,0.548740,39.571491,FALSE,FALSE,TRUE,TRUE,FALSE,FALSE,Disabled,0.000000,0.000000,0.000000,TRUE,-0.400528,-0.178406,0.000000,-0.262695,-0.002914,0.000000,0.165000,-0.021000,-0.159000,0.790000,-0.800000,24.400000,-1.249397,Hold,60.685791,58.000000,Hold,-182.000000,2.000000,LowGoal,1747.500000,-1818.181818,Speed,1710.000000,-1818.181818,Speed,Off,Off,0.000000,FALSE,35,Read: /home/lvuser/scripts/auto_35.bee,File good!,DRIVE_STRAIGHT_TARGET 78 0 10000 75,DRIVE_STRAIGHT_TARGET,0.000000,0.000000,-0.050000
04:12:49.240 PM 04/28/2016,Autonomous Enabled,11,FALSE,0,NO ERROR,-0.576825,-42.715650,0.548355,42.542401,FALSE,FALSE,TRUE,TRUE,FALSE,FALSE,Disabled,0.000000,0.000000,0.000000,TRUE,-0.422485,-0.178986,0.000000,-0.148758,-0.016327,0.000000,0.153000,-0.033000,-0.163000,0.830000,-0.720000,23.480000,-1.295059,Hold,60.685791,58.000000,Hold,-182.000000,2.000000,LowGoal,1747.500000,-1818.181818,Speed,1717.500000,-1818.181818,Speed,Off,Off,0.000000,FALSE,35,Read: /home/lvuser/scripts/auto_35.bee,File good!,DRIVE_STRAIGHT_TARGET 78 0 10000 75,DRIVE_STRAIGHT_TARGET,0.000000,0.000000,-0.050000
04:12:49.342 PM 04/28/2016,Autonomous Enabled,12,FALSE,0,NO ERROR,-0.579395,-45.615977,0.545855,45.481227,FALSE,FALSE,TRUE,TRUE,FALSE,FALSE,Disabled,0.000000,0.000000,0.000000,TRUE,-0.422485,-0.178986,0.000000,-0.148758,-0.016327,0.000000,-0.018000,-0.077000,0.119000,0.690000,-0.780000,22.720000,-1.383495,Hold,60.685791,58.000000,Hold,-182.000000,2.000000,LowGoal,1740.000000,-1818.181818,Speed,1717.500000,-1818.181818,Speed,Off,Off,0.000000,FALSE,35,Read: /home/lvuser/scripts/auto_35.bee,File good!,DRIVE_STRAIGHT_TARGET 78 0 10000 75,DRIVE_STRAIGHT_TARGET,0.000000,0.000000,-0.050000
04:12:49.444 PM 04/28/2016,Autonomous Enabled,12,FALSE,0,NO ERROR,-0.581376,-48.471387,0.543936,48.503470,FALSE,FALSE,TRUE,TRUE,FALSE,FALSE,Disabled,0.000000,0.000000,0.000000,TRUE,-0.414536,-0.184235,0.000000,0.201141,-0.065460,0.000000,0.143000,0.014000,-0.115000,0.790000,-0.950000,19.520000,-1.370451,Hold,60.599365,58.000000,Hold,-182.000000,2.000000,LowGoal,1740.000000,-1818.181818,Speed,1717.500000,-1818.181818,Speed,Off,Off,0.000000,FALSE,35,Read: /home/lvuser/scripts/auto_35.bee,File good!,DRIVE_STRAIGHT_TARGET 78 0 10000 75,DRIVE_STRAIGHT_TARGET,0.000000,0.000000,-0.050000
04:12:49.544 PM 04/28/2016,Autonomous Enabled,10,FALSE,0,NO ERROR,-0.583956,-51.852962,0.541446,51.801629,FALSE,FALSE,TRUE,TRUE,FALSE,FALSE,Disabled,0.000000,0.000000,0.000000,TRUE,-0.390152,-0.186203,0.000000,0.546539,0.000549,0.000000,0.303000,-0.047000,-0.301000,0.620000,-0.950000,12.940000,-1.336232,Hold,60.483154,58.000000,Hold,-182.000000,2.000000,LowGoal,1740.000000,-1818.181818,Speed,1717.500000,-1818.181818,Speed,Off,Off,0.000000,FALSE,35,Read: /home/lvuser/scripts/auto_35.bee,File good!,DRIVE_STRAIGHT_TARGET 78 0 10000 75,DRIVE_STRAIGHT_TARGET,0.000000,0.000000,-0.050000
04:12:49.645 PM 04/28/2016,Autonomous Enabled,10,FALSE,0,NO ERROR,-0.585149,-56.197035,0.540299,56.081536,FALSE,FALSE,TRUE,TRUE,FALSE,FALSE,Disabled,0.000000,0.000000,0.000000,TRUE,-0.364777,-0.184860,0.000000,0.669128,0.103378,0.000000,0.345000,0.030000,-0.698000,1.380000,-1.140000,3.270000,-1.221110,Hold,60.251221,58.000000,Hold,-181.000000,2.000000,LowGoal,1740.000000,-1818.181818,Speed,1717.500000,-1818.181818,Speed,Off,Off,0.000000,FALSE,35,Read: /home/lvuser/scripts/auto_35.bee,File good!,DRIVE_STRAIGHT_TARGET 78 0 10000 75,DRIVE_STRAIGHT_TARGET,0.000000,0.000000,-0.050000
04:12:49.746 PM 04/28/2016,Autonomous Enabled,11,FALSE,0,NO ERROR,-0.576628,-61.972022,0.548548,61.798772,FALSE,FALSE,TRUE,TRUE,FALSE,FALSE,Disabled,0.000000,0.000000,0.000000,TRUE,-0.364777,-0.184860,0.000000,0.669128,0.103378,0.000000,0.040000,0.012000,-1.585000,2.360000,-1.150000,-8.250000,-0.823178,Hold,59.266113,58.000000,Hold,-482.000000,2.000000,LowGoal,1725.000000,-1818.181818,Speed,1627.500000,-1818.181818,Speed,Off,Off,0.000000,FALSE,35,Read: /home/lvuser/scripts/auto_35.bee,File good!,DRIVE_STRAIGHT_TARGET 78 0 10000 75,DRIVE_STRAIGHT_TARGET,0.000000,0.000000,-0.050000
04:12:49.848 PM 04/28/2016,Autonomous Enabled,15,FALSE,0,NO ERROR,-0.567973,-67.047593,0.557053,66.675427,FALSE,FALSE,TRUE,TRUE,FALSE,FALSE,Disabled,0.000000,0.000000,0.000000,TRUE,-0.322739,-0.204849,0.000000,0.312546,-0.187790,0.000000,-0.098000,0.048000,-0.994000,2.320000,-0.520000,-3.990000,-0.297502,Hold,59.241699,58.000000,Hold,-482.000000,2.000000,LowGoal,1672.500000,-1818.181818,Speed,1672.500000,-1818.181818,Speed,Off,Off,0.000000,FALSE,35,Read: /home/lvuser/scripts/auto_35.bee,File good!,DRIVE_STRAIGHT_TARGET 78 0 10000 75,DRIVE_STRAIGHT_TARGET,0.000000,0.000000,-0.050000
04:12:49.950 PM 04/28/2016,Autonomous Enabled,11,FALSE,0,NO ERROR,-0.560746,-71.834415,0.564256,71.795915,FALSE,FALSE,TRUE,TRUE,FALSE,FALSE,Disabled,0.356250,0.000000,0.000000,TRUE,-0.322739,-0.204849,0.000000,0.312546,-0.187790,0.000000,0.132000,-0.266000,-0.498000,3.310000,-0.140000,3.120000,0.534602,Hold,59.238770,58.000000,Hold,-265.000000,2.000000,LowGoal,1650.000000,-1818.181818,Speed,1762.500000,-1818.181818,Speed,Off,Off,0.000000,FALSE,35,Read: /home/lvuser/scripts/auto_35.bee,File good!,DRIVE_STRAIGHT_TARGET 78 0 10000 75,DRIVE_STRAIGHT_TARGET,0.000000,0.000000,0.306250
04:12:50.052 PM 04/28/2016,Autonomous Enabled,9,FALSE,0,NO ERROR,-0.532112,-76.807320,0.593732,76.409488,TRUE,FALSE,TRUE,TRUE,FALSE,FALSE,Disabled,0.356250,0.000000,0.000000,TRUE,-0.309097,-0.223724,0.000000,0.118317,-0.389099,0.000000,0.095000,0.556000,1.018000,1.750000,0.990000,0.510000,1.625855,Hold,59.238770,58.000000,Hold,-76.000000,2.000000,LowGoal,1710.000000,-1818.181818,Speed,1702.500000,-1818.181818,Speed,Off,Off,0.000000,FALSE,35,Read: /home/lvuser/scripts/auto_35.bee,File good!,DRIVE_STRAIGHT_TARGET 78 0 10000 75,DRIVE_STRAIGHT_TARGET,0.000000,0.000000,0.306250
04:12:50.153 PM 04/28/2016,Autonomous Enabled,10,FALSE,0,NO ERROR,0.000000,-81.626226,-0.000000,81.202727,TRUE,FALSE,TRUE,TRUE,FALSE,TRUE,Disabled,0.356250,0.000000,0.000000,TRUE,-0.301682,-0.240540,0.000000,0.178711,-0.424866,0.000000,-0.689000,0.512000,-0.686000,1.410000,1.900000,-0.250000,1.473215,Hold,61.119385,50.000000,Hold,-124.000000,71680.000000,LowGoal,1710.000000,-3272.727273,Speed,1680.000000,-3272.727273,Speed,Off,Off,0.000000,FALSE,35,Read: /home/lvuser/scripts/auto_35.bee,File good!,SEARCH_FOR_GOAL,SEARCH_FOR_GOAL,0.000000,0.000000,0.306250
04:12:50.255 PM 04/28/2016,Autonomous Enabled,10,FALSE,0,NO ERROR,0.000000,-83.326638,-0.000000,82.954473,TRUE,FALSE,TRUE,TRUE,FALSE,TRUE,Disabled,0.356250,0.000000,0.000000,TRUE,-0.327682,-0.268173,0.000000,-0.803070,-0.282425,0.000000,-1.511000,0.237000,0.981000,1.410000,1.900000,-0.250000,1.249776,Hold,61.119385,50.000000,Hold,-3961.000000,71680.000000,LowGoal,1702.500000,-3272.727273,Speed,1642.500000,-3272.727273,Speed,Off,Off,0.000000,FALSE,35,Read: /home/lvuser/scripts/auto_35.bee,File good!,SEARCH_FOR_GOAL,SEARCH_FOR_GOAL,0.000000,0.000000,0.306250
04:12:50.356 PM 04/28/2016,Autonomous Enabled,12,FALSE,0,NO ERROR,0.000000,-84.032470,-0.000000,83.679554,FALSE,FALSE,TRUE,TRUE,FALSE,TRUE,Disabled,0.356250,0.000000,0.000000,TRUE,-0.327682,-0.268173,0.000000,-0.803070,-0.282425,0.000000,-0.439000,-0.033000,-0.453000,1.550000,1.600000,-4.510000,1.142898,Hold,56.215820,50.000000,Hold,-22335.000000,71680.000000,LowGoal,1702.500000,-3272.727273,Speed,1867.500000,-3272.727273,Speed,Off,Off,0.000000,FALSE,35,Read: /home/lvuser/scripts/auto_35.bee,File good!,SEARCH_FOR_GOAL,SEARCH_FOR_GOAL,0.000000,0.000000,0.306250
04:12:50.458 PM 04/28/2016,Autonomous Enabled,11,FALSE,0,NO ERROR,0.000000,-84.083803,-0.000000,83.724471,FALSE,FALSE,TRUE,TRUE,FALSE,TRUE,Disabled,0.356250,0.000000,0.000000,TRUE,-0.426239,-0.301315,0.000000,-1.015884,-0.401047,0.000000,-0.061000,-0.082000,0.258000,1.550000,1.600000,-4.510000,1.034492,Hold,55.940430,50.000000,Hold,-45485.000000,71680.000000,LowGoal,2280.000000,-3272.727273,Speed,2280.000000,-3272.727273,Speed,Off,Off,0.000000,FALSE,35,Read: /home/lvuser/scripts/auto_35.bee,File good!,SEARCH_FOR_GOAL,SEARCH_FOR_GOAL,0.000000,0.000000,0.306250
04:12:50.560 PM 04/28/2016,Autonomous Enabled,10,FALSE,0,NO ERROR,0.000000,-84.083803,-0.000000,83.724471,FALSE,FALSE,TRUE,TRUE,FALSE,TRUE,Disabled,0.356250,0.000000,0.000000,TRUE,-0.474777,-0.323166,0.000000,-0.958511,-0.413559,0.000000,0.130000,-0.152000,-0.118000,1.480000,1.520000,-3.820000,1.019352,Hold,55.940430,50.000000,Hold,-66697.000000,71680.000000,LowGoal,2535.000000,-3272.727273,Speed,2640.000000,-3272.727273,Speed,Off,Off,0.000000,FALSE,35,Read: /home/lvuser/scripts/auto_35.bee,File good!,SEARCH_FOR_GOAL,SEARCH_FOR_GOAL,0.000000,0.000000,0.306250
04:12:50.660 PM 04/28/2016,Autonomous Enabled,11,FALSE,0,NO ERROR,0.000000,-84.083803,-0.000000,83.724471,FALSE,FALSE,TRUE,TRUE,FALSE,TRUE,Disabled,0.356250,0.000000,0.000000,TRUE,-0.474777,-0.323166,0.000000,-0.958511,-0.413559,0.000000,0.190000,-0.100000,-0.097000,1.570000,1.500000,-3.670000,1.006287,Hold,55.901367,50.000000,Hold,-66697.000000,71680.000000,LowGoal,2805.000000,-3272.727273,Speed,2910.000000,-3272.727273,Speed,Off,Off,0.000000,FALSE,35,Read: /home/lvuser/scripts/auto_35.bee,File good!,SEARCH_FOR_GOAL,SEARCH_FOR_GOAL,0.000000,0.000000,0.306250
04:12:50.764 PM 04/28/2016,Autonomous Enabled,11,FALSE,0,NO ERROR,0.000000,-84.186470,-0.000000,83.814304,FALSE,FALSE,TRUE,TRUE,FALSE,TRUE,Disabled,0.356250,0.000000,0.000000,TRUE,-0.527039,-0.348129,0.000000,-0.807541,-0.412018,0.000000,0.227000,-0.212000,0.121000,1.590000,1.480000,-3.420000,1.170614,Hold,55.969238,50.000000,Hold,-72485.000000,71680.000000,LowGoal,3022.500000,-3272.727273,Speed,3052.500000,-3272.727273,Speed,Off,Off,0.000000,FALSE,35,Read: /home/lvuser/scripts/auto_35.bee,File good!,SEARCH_FOR_GOAL,SEARCH_FOR_GOAL,0.000000,0.000000,0.306250
04:12:50.865 PM 04/28/2016,Autonomous Enabled,11,FALSE,0,NO ERROR,0.000000,-84.205720,-0.000000,83.820721,FALSE,FALSE,TRUE,TRUE,FALSE,TRUE,Disabled,0.343750,0.000000,0.000000,TRUE,-0.564087,-0.369476,0.000000,-0.773514,-0.411713,0.000000,0.004000,-0.146000,0.026000,1.680000,1.630000,-3.460000,1.157946,Hold,55.701416,50.000000,Hold,-71980.000000,71680.000000,LowGoal,3172.500000,-3272.727273,Speed,3195.000000,-3272.727273,Speed,Off,Off,0.000000,FALSE,35,Read: /home/lvuser/scripts/auto_35.bee,File good!,SEARCH_FOR_GOAL,SEARCH_FOR_GOAL,0.000000,0.000000,0.293750
04:12:50.968 PM 04/28/2016,Autonomous Enabled,11,FALSE,0,NO ERROR,-0.377245,-84.449553,-0.377245,83.326638,TRUE,FALSE,TRUE,TRUE,FALSE,TRUE,PID,0.343750,-11.456250,13.036250,TRUE,-0.566971,-0.418213,0.000000,0.128922,-0.533997,0.000000,0.058000,-0.039000,-0.438000,1.550000,1.630000,-2.980000,1.047195,Hold,55.701416,50.000000,Hold,-71889.000000,71680.000000,LowGoal,3202.500000,-3272.727273,Speed,3195.000000,-3272.727273,Speed,Off,Off,0.000000,FALSE,35,Read: /home/lvuser/scripts/auto_35.bee,File good!,SEARCH_FOR_GOAL,SEARCH_FOR_GOAL,0.000000,0.000000,0.293750
04:12:51.069 PM 04/28/2016,Autonomous Enabled,10,FALSE,0,NO ERROR,-0.359344,-85.508300,-0.359344,82.178058,TRUE,FALSE,TRUE,TRUE,FALSE,TRUE,PID,0.343750,-11.456250,13.036250,TRUE,-0.566971,-0.418213,0.000000,0.128922,-0.533997,0.000000,0.653000,0.046000,-0.132000,1.580000,1.500000,-2.890000,4.497131,Hold,55.693604,50.000000,Hold,-71889.000000,71680.000000,LowGoal,3172.500000,-3272.727273,Speed,3112.500000,-3272.727273,Speed,Off,Off,0.000000,FALSE,35,Read: /home/lvuser/scripts/auto_35.bee,File good!,SEARCH_FOR_GOAL,SEARCH_FOR_GOAL,0.000000,0.000000,0.293750
04:12:51.172 PM 04/28/2016,Autonomous Enabled,9,FALSE,0,NO ERROR,-0.270871,-86.599131,-0.270871,80.856228,TRUE,FALSE,TRUE,TRUE,FALSE,TRUE,PID,0.343750,-11.456250,13.036250,TRUE,-0.550842,-0.439606,0.000000,0.408524,-0.342010,0.000000,-0.105000,-0.196000,-0.221000,2.440000,5.710000,-2.280000,9.993185,Hold,55.651855,50.000000,Hold,-71757.000000,71680.000000,LowGoal,3150.000000,-3272.727273,Speed,3082.500000,-3272.727273,Speed,Off,Off,0.000000,FALSE,35,Read: /home/lvuser/scripts/auto_35.bee,File good!,SEARCH_FOR_GOAL,SEARCH_FOR_GOAL,0.000000,0.000000,0.293750
04:12:51.275 PM 04/28/2016,Autonomous Enabled,11,FALSE,0,NO ERROR,0.000000,-87.356296,-0.000000,79.938646,TRUE,FALSE,TRUE,TRUE,FALSE,TRUE,Suspended,0.343750,-11.456250,13.036250,TRUE,-0.513214,-0.487793,0.000000,0.399918,-0.431473,0.000000,0.023000,0.070000,0.018000,1.170000,10.750000,-2.270000,13.838643,Hold,55.626953,50.000000,Hold,-71757.000000,71680.000000,LowGoal,3157.500000,-3272.727273,Speed,3097.500000,-3272.727273,Speed,Off,Off,0.000000,FALSE,35,Read: /home/lvuser/scripts/auto_35.bee,File good!,SEARCH_FOR_GOAL,SEARCH_FOR_GOAL,0.000000,0.000000,0.293750
04:12:51.376 PM 04/28/2016,Autonomous Enabled,11,FALSE,0,NO ERROR,0.000000,-87.491045,-0.000000,79.823147,TRUE,FALSE,TRUE,TRUE,FALSE,TRUE,Suspended,0.343750,-11.456250,13.036250,TRUE,-0.496094,-0.514908,0.000000,0.267624,-0.663910,0.000000,-0.013000,-0.137000,0.096000,1.840000,14.170000,-2.330000,15.148096,Hold,55.601318,50.000000,Hold,-71771.000000,71680.000000,LowGoal,3172.500000,-3272.727273,Speed,3120.000000,-3272.727273,Speed,Off,Off,0.000000,FALSE,35,Read: /home/lvuser/scripts/auto_35.bee,File good!,SEARCH_FOR_GOAL,SEARCH_FOR_GOAL,0.000000,0.000000,0.293750
04:12:51.480 PM 04/28/2016,Autonomous Enabled,13,FALSE,0,NO ERROR,0.000000,-87.298546,-0.000000,79.996396,TRUE,FALSE,TRUE,TRUE,FALSE,TRUE,Suspended,0.343750,-11.456250,13.036250,TRUE,-0.480927,-0.545456,0.000000,0.334808,-0.558075,0.000000,0.129000,0.211000,-0.112000,0.650000,15.000000,-2.450000,14.284878,Hold,55.601318,50.000000,Hold,-71771.000000,71680.000000,LowGoal,3187.500000,-3272.727273,Speed,3172.500000,-3272.727273,Speed,Off,Off,0.000000,FALSE,35,Read: /home/lvuser/scripts/auto_35.bee,File good!,SEARCH_FOR_GOAL,SEARCH_FOR_GOAL,0.000000,0.000000,0.293750
04:12:51.576 PM 04/28/2016,Autonomous Enabled,12,FALSE,0,NO ERROR,0.000000,-87.285713,-0.000000,79.996396,TRUE,FALSE,TRUE,TRUE,FALSE,TRUE,Suspended,0.343750,-11.456250,13.036250,TRUE,-0.462173,-0.573868,0.000000,0.397766,-0.585083,0.000000,0.102000,-0.193000,0.232000,1.120000,14.100000,-2.120000,14.272385,Hold,55.601318,50.000000,Hold,-71771.000000,71680.000000,LowGoal,3187.500000,-3272.727273,Speed,3157.500000,-3272.727273,Speed,Off,Off,0.000000,FALSE,35,Read: /home/lvuser/scripts/auto_35.bee,File good!,SEARCH_FOR_GOAL,SEARCH_FOR_GOAL,0.000000,0.000000,0.293750
04:12:51.679 PM 04/28/2016,Autonomous Enabled,9,FALSE,0,NO ERROR,0.000000,-87.285713,-0.000000,79.996396,TRUE,FALSE,TRUE,TRUE,FALSE,TRUE,Suspended,0.343750,-11.456250,13.036250,TRUE,-0.442001,-0.604919,0.000000,0.402145,-0.638657,0.000000,0.006000,0.057000,-0.180000,1.110000,14.040000,-1.950000,14.233015,Hold,55.601074,50.000000,Hold,-71771.000000,71680.000000,LowGoal,3187.500000,-3272.727273,Speed,3142.500000,-3272.727273,Speed,Off,Off,0.000000,FALSE,35,Read: /home/lvuser/scripts/auto_35.bee,File good!,SEARCH_FOR_GOAL,SEARCH_FOR_GOAL,0.000000,0.000000,0.293750
04:12:51.783 PM 04/28/2016,Autonomous Enabled,11,FALSE,0,NO ERROR,0.000000,-87.285713,-0.000000,80.002813,TRUE,FALSE,TRUE,TRUE,FALSE,TRUE,Suspended,0.343750,-11.456250,13.036250,TRUE,-0.421249,-0.634857,0.000000,0.435898,-0.574249,0.000000,0.050000,0.108000,0.044000,1.190000,14.060000,-1.900000,14.234682,Hold,55.601074,50.000000,Hold,-71771.000000,71680.000000,LowGoal,3195.000000,-3272.727273,Speed,3157.500000,-3272.727273,Speed,Off,Off,0.000000,FALSE,35,Read: /home/lvuser/scripts/auto_35.bee,File good!,SEARCH_FOR_GOAL,SEARCH_FOR_GOAL,0.000000,0.000000,0.293750
04:12:51.884 PM 04/28/2016,Autonomous Enabled,11,FALSE,0,NO ERROR,0.000000,-87.285713,-0.000000,79.996396,TRUE,FALSE,TRUE,TRUE,FALSE,TRUE,Enable,0.015625,-11.456250,13.036250,TRUE,-0.398315,-0.665237,0.000000,0.477112,-0.643204,0.000000,-0.046000,-0.149000,0.044000,1.240000,14.060000,-1.750000,14.222288,Hold,55.599365,50.000000,Hold,-71771.000000,71680.000000,LowGoal,3187.500000,-3272.727273,Speed,3157.500000,-3272.727273,Speed,Off,Off,0.000000,FALSE,35,Read: /home/lvuser/scripts/auto_35.bee,File good!,SEARCH_FOR_GOAL,SEARCH_FOR_GOAL,0.000000,0.000000,-0.034375
04:12:51.986 PM 04/28/2016,Autonomous Enabled,11,FALSE,0,NO ERROR,0.236811,-86.971297,0.236811,80.336479,TRUE,FALSE,TRUE,TRUE,FALSE,TRUE,PID,0.015625,1.340625,12.719375,TRUE,-0.375351,-0.698135,0.000000,0.443008,-0.655334,0.000000,0.019000,0.055000,-0.020000,1.250000,14.060000,-1.730000,14.197654,Hold,55.599365,50.000000,Hold,-71771.000000,71680.000000,LowGoal,3187.500000,-3272.727273,Speed,3150.000000,-3272.727273,Speed,Off,Off,0.000000,FALSE,35,Read: /home/lvuser/scripts/auto_35.bee,File good!,SEARCH_FOR_GOAL,SEARCH_FOR_GOAL,0.000000,0.000000,-0.034375
04:12:52.089 PM 04/28/2016,Autonomous Enabled,14,FALSE,0,NO ERROR,0.222202,-86.265465,0.222202,81.029477,TRUE,FALSE,TRUE,TRUE,FALSE,TRUE,Suspended,0.015625,1.340625,12.719375,TRUE,-0.354294,-0.731094,0.000000,0.385376,-0.688629,0.000000,0.039000,0.109000,-0.017000,0.940000,12.830000,-1.880000,12.181743,Hold,55.599365,50.000000,Hold,-71771.000000,71680.000000,LowGoal,3187.500000,-3272.727273,Speed,3112.500000,-3272.727273,Speed,Off,Off,0.000000,FALSE,35,Read: /home/lvuser/scripts/auto_35.bee,File good!,SEARCH_FOR_GOAL,SEARCH_FOR_GOAL,0.000000,0.000000,-0.034375
04:12:52.190 PM 04/28/2016,Autonomous Enabled,15,FALSE,0,NO ERROR,0.000000,-86.008799,-0.000000,81.305393,TRUE,FALSE,TRUE,TRUE,FALSE,TRUE,Suspended,0.015625,1.340625,12.719375,TRUE,-0.329285,-0.772827,0.000000,0.465988,-0.672455,0.000000,0.082000,-0.095000,0.035000,1.200000,10.370000,-1.550000,10.171458,Hold,55.599121,50.000000,Hold,-71771.000000,71680.000000,LowGoal,3180.000000,-3272.727273,Speed,3180.000000,-3272.727273,Speed,Off,Off,0.000000,FALSE,35,Read: /home/lvuser/scripts/auto_35.bee,File good!,SEARCH_FOR_GOAL,SEARCH_FOR_GOAL,0.000000,0.000000,-0.034375
04:12:52.292 PM 04/28/2016,Autonomous Enabled,10,FALSE,0,NO ERROR,0.000000,-86.015216,-0.000000,81.151394,TRUE,FALSE,TRUE,TRUE,FALSE,TRUE,Suspended,0.015625,1.340625,12.719375,TRUE,-0.329285,-0.772827,0.000000,0.465988,-0.672455,0.000000,0.072000,0.146000,0.230000,1.200000,10.370000,-1.550000,10.959511,Hold,55.598633,50.000000,Hold,-71771.000000,71680.000000,LowGoal,3187.500000,-3272.727273,Speed,3157.500000,-3272.727273,Speed,Off,Off,0.000000,FALSE,35,Read: /home/lvuser/scripts/auto_35.bee,File good!,SEARCH_FOR_GOAL,SEARCH_FOR_GOAL,0.000000,0.000000,-0.034375
04:12:52.392 PM 04/28/2016,Autonomous Enabled,11,FALSE,0,NO ERROR,0.000000,-86.015216,-0.000000,81.138560,TRUE,FALSE,TRUE,TRUE,FALSE,TRUE,Suspended,0.015625,1.340625,12.719375,TRUE,-0.303787,-0.802505,0.000000,0.511093,-0.584930,0.000000,-0.028000,-0.126000,0.190000,1.540000,10.980000,-1.380000,11.011363,Hold,55.598633,50.000000,Hold,-71771.000000,71680.000000,LowGoal,3195.000000,-3272.727273,Speed,3165.000000,-3272.727273,Speed,Off,Off,0.000000,FALSE,35,Read: /home/lvuser/scripts/auto_35.bee,File good!,SEARCH_FOR_GOAL,SEARCH_FOR_GOAL,0.000000,0.000000,-0.034375
04:12:52.496 PM 04/28/2016,Autonomous Enabled,11,FALSE,0,NO ERROR,0.000000,-86.015216,-0.000000,81.138560,TRUE,FALSE,TRUE,TRUE,FALSE,TRUE,Suspended,0.015625,1.340625,12.719375,TRUE,-0.277420,-0.832443,0.000000,0.548660,-0.632858,0.000000,0.075000,0.022000,-0.127000,1.510000,10.970000,-1.370000,11.018788,Hold,55.598633,50.000000,Hold,-71771.000000,71680.000000,LowGoal,3195.000000,-3272.727273,Speed,3172.500000,-3272.727273,Speed,Off,Off,0.000000,FALSE,35,Read: /home/lvuser/scripts/auto_35.bee,File good!,SEARCH_FOR_GOAL,SEARCH_FOR_GOAL,0.000000,0.000000,-0.034375
04:12:52.599 PM 04/28/2016,Autonomous Enabled,10,FALSE,0,NO ERROR,0.000000,-86.015216,-0.000000,81.138560,TRUE,FALSE,TRUE,TRUE,FALSE,TRUE,Suspended,0.015625,1.340625,12.719375,TRUE,-0.223022,-0.899323,0.000000,0.548859,-0.654251,0.000000,-0.065000,0.002000,0.030000,1.550000,10.990000,-1.300000,11.006791,Hold,55.598633,50.000000,Hold,-71771.000000,71680.000000,LowGoal,3202.500000,-3272.727273,Speed,3172.500000,-3272.727273,Speed,Off,Off,0.000000,FALSE,35,Read: /home/lvuser/scripts/auto_35.bee,File good!,SEARCH_FOR_GOAL,SEARCH_FOR_GOAL,0.000000,0.000000,-0.034375
04:12:52.704 PM 04/28/2016,Autonomous Enabled,13,FALSE,0,NO ERROR,0.000000,-86.015216,-0.000000,81.138560,TRUE,FALSE,TRUE,TRUE,FALSE,TRUE,Suspended,0.015625,1.340625,12.719375,TRUE,-0.193909,-0.932037,0.000000,0.602768,-0.662704,0.000000,0.038000,-0.036000,0.107000,1.590000,10.990000,-1.210000,10.990621,Hold,55.598633,50.000000,Hold,-71771.000000,71680.000000,LowGoal,3195.000000,-3272.727273,Speed,3157.500000,-3272.727273,Speed,Off,Off,0.000000,FALSE,35,Read: /home/lvuser/scripts/auto_35.bee,File good!,SEARCH_FOR_GOAL,SEARCH_FOR_GOAL,0.000000,0.000000,-0.034375
04:12:52.804 PM 04/28/2016,Autonomous Enabled,12,FALSE,0,NO ERROR,0.000000,-86.015216,-0.000000,81.138560,TRUE,FALSE,TRUE,TRUE,FALSE,TRUE,Suspended,0.015625,1.340625,12.719375,TRUE,-0.163269,-0.966248,0.000000,0.611221,-0.697189,0.000000,0.034000,0.024000,0.094000,1.600000,10.990000,-1.180000,10.995906,Hold,55.598633,50.000000,Hold,-71771.000000,71680.000000,LowGoal,3195.000000,-3272.727273,Speed,3142.500000,-3272.727273,Speed,Off,Off,0.000000,FALSE,35,Read: /home/lvuser/scripts/auto_35.bee,File good!,SEARCH_FOR_GOAL,SEARCH_FOR_GOAL,0.000000,0.000000,-0.034375
04:12:52.906 PM 04/28/2016,Autonomous Enabled,10,FALSE,0,NO ERROR,0.000000,-86.015216,-0.000000,81.138560,TRUE,FALSE,TRUE,TRUE,FALSE,TRUE,PID,0.093750,-1.706250,12.686250,TRUE,-0.132309,-1.000092,0.000000,0.621262,-0.654449,0.000000,0.042000,0.106000,-0.182000,1.600000,10.980000,-1.190000,11.003648,Hold,55.598633,50.000000,Hold,-71771.000000,71680.000000,LowGoal,3195.000000,-3272.727273,Speed,3165.000000,-3272.727273,Speed,Off,Off,0.000000,FALSE,35,Read: /home/lvuser/scripts/auto_35.bee,File good!,SEARCH_FOR_GOAL,SEARCH_FOR_GOAL,0.000000,0.000000,0.043750
04:12:53.007 PM 04/28/2016,Autonomous Enabled,10,FALSE,0,NO ERROR,-0.241158,-86.522131,-0.241158,80.657311,TRUE,FALSE,TRUE,TRUE,FALSE,TRUE,PID,0.093750,-1.706250,12.686250,TRUE,-0.099945,-1.031509,0.000000,0.666458,-0.632080,0.000000,0.008000,-0.081000,0.355000,1.690000,11.000000,-1.180000,11.016475,Hold,55.598633,50.000000,Hold,-71771.000000,71680.000000,LowGoal,3202.500000,-3272.727273,Speed,3157.500000,-3272.727273,Speed,Off,Off,0.000000,FALSE,35,Read: /home/lvuser/scripts/auto_35.bee,File good!,SEARCH_FOR_GOAL,SEARCH_FOR_GOAL,0.000000,0.000000,0.043750
04:12:53.108 PM 04/28/2016,Autonomous Enabled,10,FALSE,0,NO ERROR,0.223182,-87.170213,0.223182,79.970730,TRUE,FALSE,TRUE,TRUE,FALSE,TRUE,Suspended,0.093750,-1.706250,12.686250,TRUE,-0.063400,-1.063309,0.000000,0.749222,-0.641739,0.000000,0.079000,0.059000,-0.209000,1.990000,12.880000,-0.870000,13.257487,Hold,55.598389,50.000000,Hold,-71771.000000,71680.000000,LowGoal,3187.500000,-3272.727273,Speed,3165.000000,-3272.727273,Speed,Off,Off,0.000000,FALSE,35,Read: /home/lvuser/scripts/auto_35.bee,File good!,SEARCH_FOR_GOAL,SEARCH_FOR_GOAL,0.000000,0.000000,0.043750
04:12:53.212 PM 04/28/2016,Autonomous Enabled,12,FALSE,0,NO ERROR,0.000000,-87.195879,-0.000000,79.957896,TRUE,FALSE,TRUE,TRUE,FALSE,TRUE,Suspended,0.093750,-1.706250,12.686250,TRUE,-0.028946,-1.063187,0.000000,0.623260,-0.007721,0.000000,0.045000,0.015000,0.101000,1.560000,14.640000,-1.240000,14.698890,Hold,55.598145,50.000000,Hold,-71771.000000,71680.000000,LowGoal,3187.500000,-3272.727273,Speed,3150.000000,-3272.727273,Speed,Off,Off,0.000000,FALSE,35,Read: /home/lvuser/scripts/auto_35.bee,File good!,SEARCH_FOR_GOAL,SEARCH_FOR_GOAL,0.000000,0.000000,0.043750
04:12:53.313 PM 04/28/2016,Autonomous Enabled,13,FALSE,0,NO ERROR,0.000000,-87.035463,-0.000000,80.137563,TRUE,FALSE,TRUE,TRUE,FALSE,TRUE,Suspended,0.093750,-1.706250,12.686250,TRUE,0.001663,-1.065552,0.000000,0.655518,-0.058350,0.000000,0.084000,-0.032000,-0.155000,1.550000,13.330000,-1.100000,13.442787,Hold,55.598145,50.000000,Hold,-71771.000000,71680.000000,LowGoal,3187.500000,-3272.727273,Speed,3150.000000,-3272.727273,Speed,Off,Off,0.000000,FALSE,35,Read: /home/lvuser/scripts/auto_35.bee,File good!,SEARCH_FOR_GOAL,SEARCH_FOR_GOAL,0.000000,0.000000,0.043750
04:12:53.417 PM 04/28/2016,Autonomous Enabled,13,FALSE,0,NO ERROR,0.000000,-87.035463,-0.000000,80.137563,TRUE,FALSE,TRUE,TRUE,FALSE,TRUE,Suspended,0.093750,-1.706250,12.686250,TRUE,0.041245,-1.070740,0.000000,0.636276,-0.098434,0.000000,0.084000,0.112000,-0.068000,1.670000,13.450000,-1.030000,13.535477,Hold,55.598145,50.000000,Hold,-71771.000000,71680.000000,LowGoal,3195.000000,-3272.727273,Speed,3157.500000,-3272.727273,Speed,Off,Off,0.000000,FALSE,35,Read: /home/lvuser/scripts/auto_35.bee,File good!,SEARCH_FOR_GOAL,SEARCH_FOR_GOAL,0.000000,0.000000,0.043750
04:12:53.516 PM 04/28/2016,Autonomous Enabled,9,FALSE,0,NO ERROR,0.000000,-87.035463,-0.000000,80.137563,TRUE,FALSE,TRUE,TRUE,FALSE,TRUE,Suspended,0.093750,-1.706250,12.686250,TRUE,0.072922,-1.073883,0.000000,0.639740,-0.039536,0.000000,-0.026000,0.056000,0.043000,1.670000,13.450000,-1.030000,13.513672,Hold,55.598145,50.000000,Hold,-71771.000000,71680.000000,LowGoal,3195.000000,-3272.727273,Speed,3180.000000,-3272.727273,Speed,Off,Off,0.000000,FALSE,35,Read: /home/lvuser/scripts/auto_35.bee,File good!,SEARCH_FOR_GOAL,SEARCH_FOR_GOAL,0.000000,0.000000,0.043750
04:12:53.622 PM 04/28/2016,Autonomous Enabled,12,FALSE,0,NO ERROR,0.000000,-87.035463,-0.000000,80.137563,TRUE,FALSE,TRUE,TRUE,FALSE,TRUE,Suspended,0.093750,-1.706250,12.686250,TRUE,0.091827,-1.076721,0.000000,0.000000,-0.075577,0.000000,-0.025000,0.033000,-0.169000,1.630000,13.410000,-0.930000,13.503255,Hold,55.598145,50.000000,Hold,-71771.000000,71680.000000,LowGoal,3202.500000,-3272.727273,Speed,3172.500000,-3272.727273,Speed,Off,Off,0.000000,FALSE,35,Read: /home/lvuser/scripts/auto_35.bee,File good!,SEARCH_FOR_GOAL,SEARCH_FOR_GOAL,0.000000,0.000000,0.043750
04:12:53.720 PM 04/28/2016,Autonomous Enabled,10,FALSE,0,NO ERROR,0.000000,-87.035463,-0.000000,80.137563,TRUE,FALSE,TRUE,TRUE,FALSE,TRUE,Suspended,0.093750,-1.706250,12.686250,TRUE,0.091064,-1.081482,0.000000,-0.026733,-0.096710,0.000000,-0.036000,-0.031000,-0.111000,1.650000,13.400000,-0.920000,13.488635,Hold,55.598145,50.000000,Hold,-71771.000000,71680.000000,LowGoal,3202.500000,-3272.727273,Speed,3172.500000,-3272.727273,Speed,Off,Off,0.000000,FALSE,35,Read: /home/lvuser/scripts/auto_35.bee,File good!,SEARCH_FOR_GOAL,SEARCH_FOR_GOAL,0.000000,0.000000,0.043750
04:12:53.828 PM 04/28/2016,Autonomous Enabled,11,FALSE,0,NO ERROR,0.000000,-87.035463,-0.000000,80.137563,TRUE,FALSE,TRUE,TRUE,FALSE,TRUE,Suspended,0.093750,-1.706250,12.686250,TRUE,0.089630,-1.084793,0.000000,-0.024338,-0.041946,0.000000,-0.090000,-0.061000,0.205000,1.700000,13.410000,-0.960000,13.498866,Hold,55.598145,50.000000,Hold,-71771.000000,71680.000000,LowGoal,3202.500000,-3272.727273,Speed,3172.500000,-3272.727273,Speed,Off,Off,0.000000,FALSE,35,Read: /home/lvuser/scripts/auto_35.bee,File good!,SEARCH_FOR_GOAL,SEARCH_FOR_GOAL,0.000000,0.000000,0.043750
