Time,Robot Mode,Loop Time,Error Status,Error Code,Error Source,Left Motor Output,Left Motor Encoder,Right Motor Output,Right Motor Encoder,Is Level,Is Stalled,Ball Detector Photoeye,Vision Enabled,Vision Teleop Control,Vision Auto Control,Vision Current State,Vision X Output,Vision NavX Error,Vision NavX Target,NavX Connection Status,NavX Displacement X,NavX Displacement Y,NavX Displacement Z,NavX Velocity X,NavX Velocity Y,NavX Velocity Z,NavX Acceleration X,NavX Acceleration Y,NavX Acceleration Z,NavX Pitch,NavX Yaw,NavX Roll,Gyro Angle,Roller Arm State,Roller Arm Actual,Roller Arm Desired,Shooter Arm State,Shooter Arm Actual,Shooter Arm Desired,Shooter State,Actual RPM Left,Desired RPM Left,Control Mode Left,Actual RPM Right,Desired RPM Right,Control Mode Right,Ball Shooter Cylinder,Ball Halo Cylinder,Scaler Motor Output,Scaler Solenoid Fire,Auto To Run,Auto Current File,Auto File Status,Auto Current Command,Auto Trimmed Command,Shooter Amps Left,Shooter Amps Right, Vision After Offset
04:43:09.381 PM 04/28/2016,Teleop Enabled,13,FALSE,0,NO ERROR,0.000000,-18.216874,0.000000,27.572352,TRUE,FALSE,TRUE,TRUE,FALSE,FALSE,Disabled,0.000000,0.000000,0.000000,TRUE,2.075470,-11.504990,0.000000,0.000000,0.000000,0.000000,0.002000,0.000000,0.002000,1.800000,-15.500000,0.110000,29.875655,ResetBack,0.943115,-0.000049,ResetBack,-30933.000000,-0.250000,LowGoal,0.000000,-2181.818182,Speed,0.000000,-2181.818182,Speed,Off,Off,0.000000,FALSE,0,,,,,0.000000,0.000000,-0.050000
04:43:09.484 PM 04/28/2016,Teleop Enabled,11,FALSE,0,NO ERROR,-0.000000,-18.216874,-0.000000,27.572352,TRUE,FALSE,TRUE,FALSE,FALSE,FALSE,Disabled,0.000000,0.000000,0.000000,TRUE,2.075470,-11.504990,0.000000,0.000000,0.000000,0.000000,0.009000,0.003000,-0.001000,1.790000,-15.490000,0.160000,29.923552,ResetBack,0.755127,-0.000049,ResetBack,-30933.000000,-0.250000,LowGoal,105.000000,-2181.818182,Speed,0.000000,-2181.818182,Speed,Off,Off,0.000000,FALSE,0,,,,,0.000000,0.000000,-0.050000
04:43:09.586 PM 04/28/2016,Teleop Enabled,12,FALSE,0,NO ERROR,-0.000000,-18.216874,-0.000000,27.572352,TRUE,FALSE,TRUE,FALSE,FALSE,FALSE,Disabled,0.000000,0.000000,0.000000,TRUE,2.076080,-11.504608,0.000000,0.023499,0.010574,0.000000,-0.059000,0.003000,0.065000,1.820000,-15.460000,0.050000,29.984413,ResetBack,-0.041748,-0.000049,ResetBack,-27301.000000,-0.250000,LowGoal,637.500000,-2181.818182,Speed,7.500000,-2181.818182,Speed,Off,Off,0.000000,FALSE,0,,,,,0.000000,0.000000,-0.050000
04:43:09.690 PM 04/28/2016,Teleop Enabled,8,FALSE,0,NO ERROR,-0.000000,-18.216874,-0.000000,27.565936,TRUE,FALSE,TRUE,FALSE,FALSE,FALSE,Disabled,0.000000,0.000000,0.000000,TRUE,2.075287,-11.505219,0.000000,-0.021606,0.000000,0.000000,-0.050000,-0.001000,0.046000,1.820000,-15.460000,0.080000,30.011450,Reset,-0.041992,-0.000049,ResetBack,-20714.000000,-0.250000,LowGoal,1177.500000,-2181.818182,Speed,352.500000,-2181.818182,Speed,Off,Off,0.000000,FALSE,0,,,,,0.000000,0.000000,-0.050000
04:43:09.795 PM 04/28/2016,Teleop Enabled,11,FALSE,0,NO ERROR,-0.000000,-18.216874,-0.000000,27.546686,TRUE,FALSE,TRUE,FALSE,FALSE,FALSE,Disabled,0.000000,0.000000,0.000000,TRUE,2.074341,-11.505249,0.000000,-0.041199,0.005386,0.000000,-0.004000,0.001000,0.046000,1.820000,-15.460000,0.080000,30.043866,Hold,-0.042969,0.000000,ResetBack,-12237.000000,-0.250000,LowGoal,1545.000000,-2181.818182,Speed,1530.000000,-2181.818182,Speed,Off,Off,0.000000,FALSE,0,,,,,0.000000,0.000000,-0.050000
04:43:09.900 PM 04/28/2016,Teleop Enabled,12,FALSE,0,NO ERROR,-0.000000,-18.216874,-0.000000,27.540269,TRUE,FALSE,TRUE,FALSE,FALSE,FALSE,Disabled,0.000000,0.000000,0.000000,TRUE,2.072861,-11.503860,0.000000,-0.011398,0.034042,0.000000,0.027000,0.053000,-0.268000,1.780000,-15.480000,0.170000,30.051446,Hold,0.071777,0.000000,ResetBack,-4355.000000,-0.250000,LowGoal,1950.000000,-2181.818182,Speed,1882.500000,-2181.818182,Speed,Off,Off,0.000000,FALSE,0,,,,,0.000000,0.000000,-0.050000
04:43:10.002 PM 04/28/2016,Teleop Enabled,18,FALSE,0,NO ERROR,-0.000000,-18.216874,-0.000000,27.540269,TRUE,FALSE,TRUE,FALSE,FALSE,FALSE,Disabled,0.000000,0.000000,0.000000,TRUE,2.073807,-11.503845,0.000000,0.039001,-0.024994,0.000000,0.056000,-0.033000,0.158000,1.760000,-15.480000,0.230000,30.082312,Hold,0.071777,0.000000,ResetBack,-661.000000,-0.250000,LowGoal,2167.500000,-2181.818182,Speed,2182.500000,-2181.818182,Speed,Off,Off,0.000000,FALSE,0,,,,,0.000000,0.000000,-0.050000
04:43:10.102 PM 04/28/2016,Teleop Enabled,10,FALSE,0,NO ERROR,-0.000000,-18.216874,-0.000000,27.540269,TRUE,FALSE,TRUE,FALSE,FALSE,FALSE,Disabled,0.000000,0.000000,0.000000,TRUE,2.076218,-11.507263,0.000000,0.000000,-0.101669,0.000000,0.054000,-0.035000,0.111000,1.760000,-15.480000,0.230000,30.087094,Hold,0.071777,0.000000,ResetBack,358.000000,-0.250000,LowGoal,2167.500000,-2181.818182,Speed,2205.000000,-2181.818182,Speed,Off,Off,0.000000,FALSE,0,,,,,0.000000,0.000000,-0.050000
04:43:10.204 PM 04/28/2016,Teleop Enabled,11,FALSE,0,NO ERROR,-0.000000,-18.216874,-0.000000,27.540269,TRUE,FALSE,TRUE,FALSE,FALSE,FALSE,Disabled,0.000000,0.000000,0.000000,TRUE,2.077744,-11.515152,0.000000,0.055588,-0.149643,0.000000,0.015000,-0.079000,0.091000,1.740000,-15.490000,0.280000,30.121691,Hold,0.071777,0.000000,ResetBack,422.000000,-0.250000,LowGoal,2137.500000,-2181.818182,Speed,2115.000000,-2181.818182,Speed,Off,Off,0.000000,FALSE,0,,,,,0.000000,0.000000,-0.050000
04:43:10.305 PM 04/28/2016,Teleop Enabled,15,FALSE,0,NO ERROR,-0.000000,-18.216874,-0.000000,27.540269,TRUE,FALSE,TRUE,FALSE,FALSE,FALSE,Disabled,0.000000,0.000000,0.000000,TRUE,2.077744,-11.515152,0.000000,0.055588,-0.149643,0.000000,0.053000,-0.059000,0.008000,1.730000,-15.490000,0.280000,30.160702,Hold,0.071777,0.000000,ResetBack,442.000000,-0.250000,LowGoal,2115.000000,-2181.818182,Speed,2040.000000,-2181.818182,Speed,Off,Off,0.000000,FALSE,0,,,,,0.000000,0.000000,-0.050000
04:43:10.413 PM 04/28/2016,Teleop Enabled,11,FALSE,0,NO ERROR,-0.000000,-18.216874,-0.000000,27.540269,TRUE,FALSE,TRUE,FALSE,FALSE,FALSE,Disabled,0.000000,0.000000,0.000000,TRUE,2.085281,-11.528473,0.000000,0.056946,0.000000,0.000000,-0.029000,-0.024000,-0.042000,1.730000,-15.480000,0.270000,30.202743,Hold,0.071777,0.000000,ResetBack,546.000000,-0.250000,LowGoal,2115.000000,-2181.818182,Speed,2040.000000,-2181.818182,Speed,Off,Off,0.000000,FALSE,0,,,,,0.000000,0.000000,-0.050000
04:43:10.513 PM 04/28/2016,Teleop Enabled,11,FALSE,0,NO ERROR,0.889764,-17.376293,0.889764,28.214017,TRUE,FALSE,TRUE,FALSE,FALSE,FALSE,Disabled,0.000000,0.000000,0.000000,TRUE,2.085419,-11.528320,0.000000,-0.080505,-0.035583,0.000000,-0.042000,0.059000,-0.135000,1.740000,-15.490000,0.210000,30.198612,Hold,0.071777,0.000000,ResetBack,546.000000,-0.250000,LowGoal,2122.500000,-2181.818182,Speed,2092.500000,-2181.818182,Speed,Off,Off,0.000000,FALSE,0,,,,,0.000000,0.000000,-0.050000
04:43:10.614 PM 04/28/2016,Teleop Enabled,14,FALSE,0,NO ERROR,-0.000000,-16.003129,-0.000000,29.401098,TRUE,FALSE,TRUE,FALSE,FALSE,FALSE,Disabled,0.000000,0.000000,0.000000,TRUE,2.077744,-11.532379,0.000000,-0.157883,-0.053833,0.000000,-0.392000,-0.135000,-0.002000,1.370000,-16.860000,-0.400000,23.648329,Hold,0.072266,0.000000,Reset,540.000000,2.000000,LowGoal,2085.000000,-2181.818182,Speed,2070.000000,-2181.818182,Speed,Off,Off,0.000000,FALSE,0,,,,,0.000000,0.000000,-0.050000
04:43:10.717 PM 04/28/2016,Teleop Enabled,11,FALSE,0,NO ERROR,-0.000000,-15.765713,-0.000000,29.426765,TRUE,FALSE,TRUE,FALSE,FALSE,FALSE,Disabled,0.000000,0.000000,0.000000,TRUE,2.074387,-11.530273,0.000000,0.000641,0.091614,0.000000,0.073000,0.249000,-0.033000,1.760000,-23.030000,0.650000,22.490962,Hold,0.072266,0.000000,Hold,-237.000000,2.000000,LowGoal,2055.000000,-2181.818182,Speed,2032.500000,-2181.818182,Speed,Off,Off,0.000000,FALSE,0,,,,,0.000000,0.000000,-0.050000
04:43:10.819 PM 04/28/2016,Teleop Enabled,9,FALSE,0,NO ERROR,-0.000000,-16.054462,-0.000000,28.958349,TRUE,FALSE,TRUE,FALSE,FALSE,FALSE,Disabled,0.000000,0.000000,0.000000,TRUE,2.073380,-11.525131,0.000000,-0.033020,0.092545,0.000000,-0.065000,0.059000,-0.040000,1.950000,-21.210000,0.210000,24.365645,Hold,0.072266,0.000000,Hold,-175.000000,2.000000,LowGoal,2085.000000,-2181.818182,Speed,2055.000000,-2181.818182,Speed,Off,Off,0.000000,FALSE,0,,,,,0.000000,0.000000,-0.050000
04:43:10.918 PM 04/28/2016,Teleop Enabled,10,FALSE,0,NO ERROR,-0.000000,-16.054462,-0.000000,28.971182,TRUE,FALSE,TRUE,FALSE,FALSE,FALSE,Disabled,0.000000,0.000000,0.000000,TRUE,2.069656,-11.522003,0.000000,-0.115341,0.081741,0.000000,-0.037000,-0.142000,-0.094000,1.740000,-21.770000,0.250000,23.822065,Hold,0.072266,0.000000,Hold,-175.000000,2.000000,LowGoal,2115.000000,-2181.818182,Speed,2085.000000,-2181.818182,Speed,Off,Off,0.000000,FALSE,0,,,,,0.000000,0.000000,-0.050000
04:43:11.019 PM 04/28/2016,Teleop Enabled,10,FALSE,0,NO ERROR,-0.000000,-16.054462,-0.000000,28.971182,TRUE,FALSE,TRUE,FALSE,FALSE,FALSE,Disabled,0.000000,0.000000,0.000000,TRUE,2.061584,-11.514023,0.000000,-0.190170,0.201675,0.000000,-0.106000,0.158000,-0.079000,1.740000,-21.770000,0.250000,24.041786,Hold,0.072266,0.000000,Hold,-175.000000,2.000000,LowGoal,2130.000000,-2181.818182,Speed,2107.500000,-2181.818182,Speed,Off,Off,0.000000,FALSE,0,,,,,0.000000,0.000000,-0.050000
04:43:11.120 PM 04/28/2016,Teleop Enabled,11,FALSE,0,NO ERROR,0.236220,-15.810630,0.236220,29.170098,TRUE,FALSE,TRUE,FALSE,FALSE,FALSE,Disabled,0.000000,0.000000,0.000000,TRUE,2.049744,-11.502625,0.000000,-0.287521,0.229996,0.000000,-0.048000,0.032000,0.004000,1.790000,-21.560000,0.240000,23.720100,Hold,0.072266,0.000000,Hold,-175.000000,2.000000,LowGoal,2137.500000,-2181.818182,Speed,2122.500000,-2181.818182,Speed,Off,Off,0.000000,FALSE,0,,,,,0.000000,0.000000,-0.050000
04:43:11.222 PM 04/28/2016,Teleop Enabled,14,FALSE,0,NO ERROR,-0.000000,-15.688713,-0.000000,29.221432,TRUE,FALSE,TRUE,FALSE,FALSE,FALSE,Disabled,0.000000,0.000000,0.000000,TRUE,2.035126,-11.489975,0.000000,-0.275711,0.272537,0.000000,-0.020000,0.023000,-0.107000,1.810000,-22.400000,0.020000,23.065466,Hold,0.072266,0.000000,Hold,-175.000000,2.000000,LowGoal,2130.000000,-2181.818182,Speed,2100.000000,-2181.818182,Speed,Off,Off,0.000000,FALSE,0,,,,,0.000000,0.000000,-0.050000
04:43:11.322 PM 04/28/2016,Teleop Enabled,12,FALSE,0,NO ERROR,-0.000000,-15.829880,-0.000000,29.028932,TRUE,FALSE,TRUE,FALSE,FALSE,FALSE,Disabled,0.000000,0.000000,0.000000,TRUE,2.022903,-11.478683,0.000000,-0.219604,0.207626,0.000000,0.020000,-0.138000,-0.023000,1.860000,-22.410000,0.370000,24.007946,Hold,0.072266,0.000000,Hold,-175.000000,2.000000,LowGoal,2122.500000,-2181.818182,Speed,2085.000000,-2181.818182,Speed,Off,Off,0.000000,FALSE,0,,,,,0.000000,0.000000,-0.050000
04:43:11.425 PM 04/28/2016,Teleop Enabled,6,FALSE,0,NO ERROR,-0.000000,-15.823463,-0.000000,29.028932,TRUE,FALSE,TRUE,FALSE,FALSE,FALSE,Disabled,0.000000,0.000000,0.000000,TRUE,2.012039,-11.480560,0.000000,-0.135956,-0.070129,0.000000,0.039000,-0.019000,0.081000,1.860000,-21.710000,0.140000,23.829439,Hold,0.072266,0.000000,Hold,-175.000000,2.000000,LowGoal,2130.000000,-2181.818182,Speed,2085.000000,-2181.818182,Speed,Off,Off,0.000000,FALSE,0,,,,,0.000000,0.000000,-0.050000
04:43:11.524 PM 04/28/2016,Teleop Enabled,9,FALSE,0,NO ERROR,-0.000000,-15.823463,-0.000000,29.028932,TRUE,FALSE,TRUE,FALSE,FALSE,FALSE,Disabled,0.000000,0.000000,0.000000,TRUE,2.012039,-11.480560,0.000000,-0.135956,-0.070129,0.000000,0.035000,-0.036000,-0.001000,1.820000,-21.910000,0.140000,23.979813,Hold,0.072266,0.000000,Hold,-175.000000,2.000000,LowGoal,2137.500000,-2181.818182,Speed,2092.500000,-2181.818182,Speed,Off,Off,0.000000,FALSE,0,,,,,0.000000,0.000000,-0.050000
04:43:11.627 PM 04/28/2016,Teleop Enabled,11,FALSE,0,NO ERROR,-0.000000,-15.823463,-0.000000,29.028932,TRUE,FALSE,TRUE,FALSE,FALSE,FALSE,Disabled,0.000000,0.000000,0.000000,TRUE,2.003174,-11.491516,0.000000,-0.038559,-0.141693,0.000000,0.054000,-0.093000,-0.030000,1.810000,-21.830000,0.190000,23.976188,Hold,0.072266,0.000000,Hold,-175.000000,2.000000,LowGoal,2137.500000,-2181.818182,Speed,2092.500000,-2181.818182,Speed,Off,Off,0.000000,FALSE,0,,,,,0.000000,0.000000,-0.050000
04:43:11.728 PM 04/28/2016,Teleop Enabled,11,FALSE,0,NO ERROR,-0.000000,-15.823463,-0.000000,29.028932,TRUE,FALSE,TRUE,FALSE,FALSE,FALSE,Disabled,0.000000,0.000000,0.000000,TRUE,2.002090,-11.499298,0.000000,-0.015320,-0.161606,0.000000,0.045000,0.009000,0.004000,1.820000,-21.840000,0.180000,23.994837,Hold,0.072266,0.000000,Hold,-175.000000,2.000000,LowGoal,2137.500000,-2181.818182,Speed,2092.500000,-2181.818182,Speed,Off,Off,0.000000,FALSE,0,,,,,0.000000,0.000000,-0.050000
04:43:11.832 PM 04/28/2016,Teleop Enabled,10,FALSE,0,NO ERROR,-0.000000,-15.823463,-0.000000,29.028932,TRUE,FALSE,TRUE,FALSE,FALSE,FALSE,Disabled,0.000000,0.000000,0.000000,TRUE,2.001801,-11.501068,0.000000,-0.009735,-0.008072,0.000000,0.014000,0.018000,-0.021000,1.800000,-21.860000,0.180000,24.023499,Hold,0.072266,0.000000,Hold,-175.000000,2.000000,LowGoal,2137.500000,-2181.818182,Speed,2100.000000,-2181.818182,Speed,Off,Off,0.000000,FALSE,0,,,,,0.000000,0.000000,-0.050000
04:43:11.935 PM 04/28/2016,Teleop Enabled,9,FALSE,0,NO ERROR,-0.000000,-15.823463,-0.000000,29.028932,TRUE,FALSE,TRUE,FALSE,FALSE,FALSE,Disabled,0.000000,0.000000,0.000000,TRUE,1.999069,-11.500061,0.000000,-0.095871,0.049210,0.000000,-0.064000,-0.018000,-0.046000,1.740000,-21.860000,0.340000,24.059949,Hold,0.072266,0.000000,Hold,-175.000000,2.000000,LowGoal,2145.000000,-2181.818182,Speed,2115.000000,-2181.818182,Speed,Off,Off,0.000000,FALSE,0,,,,,0.000000,0.000000,-0.050000
04:43:12.038 PM 04/28/2016,Teleop Enabled,10,FALSE,0,NO ERROR,-0.000000,-15.823463,-0.000000,29.028932,TRUE,FALSE,TRUE,FALSE,FALSE,FALSE,Disabled,0.000000,0.000000,0.000000,TRUE,1.991791,-11.494827,0.000000,-0.165359,0.133774,0.000000,-0.104000,0.088000,-0.043000,1.740000,-21.860000,0.220000,24.089373,Hold,0.072266,0.000000,Hold,-175.000000,2.000000,LowGoal,2145.000000,-2181.818182,Speed,2107.500000,-2181.818182,Speed,Off,Off,0.000000,FALSE,0,,,,,0.000000,0.000000,-0.050000
04:43:12.137 PM 04/28/2016,Teleop Enabled,12,FALSE,0,NO ERROR,-0.000000,-15.823463,-0.000000,29.028932,TRUE,FALSE,TRUE,FALSE,FALSE,FALSE,Disabled,0.000000,0.000000,0.000000,TRUE,1.983521,-11.486526,0.000000,-0.170410,0.186615,0.000000,-0.006000,0.067000,-0.081000,1.740000,-21.860000,0.220000,24.111284,Hold,0.072266,0.000000,Hold,-175.000000,2.000000,LowGoal,2137.500000,-2181.818182,Speed,2100.000000,-2181.818182,Speed,Off,Off,0.000000,FALSE,0,,,,,0.000000,0.000000,-0.050000
04:43:12.240 PM 04/28/2016,Teleop Enabled,11,FALSE,0,NO ERROR,-0.000000,-15.823463,-0.000000,29.028932,TRUE,FALSE,TRUE,FALSE,FALSE,FALSE,Disabled,0.000000,0.000000,0.000000,TRUE,1.972031,-11.478790,0.000000,-0.274734,0.000000,0.000000,-0.095000,0.017000,0.028000,1.770000,-21.860000,0.150000,24.127489,Hold,0.072266,0.000000,Hold,-175.000000,2.000000,LowGoal,2145.000000,-2181.818182,Speed,2092.500000,-2181.818182,Speed,Off,Off,0.000000,FALSE,0,,,,,0.000000,0.000000,-0.050000
04:43:12.338 PM 04/28/2016,Teleop Enabled,13,FALSE,0,NO ERROR,-0.000000,-15.823463,-0.000000,29.028932,TRUE,FALSE,TRUE,FALSE,FALSE,FALSE,Disabled,0.000000,0.000000,0.000000,TRUE,1.957840,-11.479660,0.000000,-0.267654,-0.026581,0.000000,-0.059000,-0.048000,0.062000,1.790000,-21.860000,0.120000,24.154995,Hold,0.072266,0.000000,Hold,-175.000000,2.000000,LowGoal,2137.500000,-2181.818182,Speed,2107.500000,-2181.818182,Speed,Off,Off,0.000000,FALSE,0,,,,,0.000000,0.000000,-0.050000
04:43:12.440 PM 04/28/2016,Teleop Enabled,13,FALSE,0,NO ERROR,-0.000000,-15.823463,-0.000000,29.028932,TRUE,FALSE,TRUE,FALSE,FALSE,FALSE,Disabled,0.000000,0.000000,0.000000,TRUE,1.946838,-11.481354,0.000000,-0.188171,-0.049286,0.000000,0.112000,0.023000,0.057000,1.760000,-21.870000,0.240000,24.192546,Hold,0.072266,0.000000,Hold,-175.000000,2.000000,LowGoal,2145.000000,-2181.818182,Speed,2122.500000,-2181.818182,Speed,Off,Off,0.000000,FALSE,0,,,,,0.000000,0.000000,-0.050000
04:43:12.542 PM 04/28/2016,Teleop Enabled,12,FALSE,0,NO ERROR,-0.000000,-15.823463,-0.000000,29.028932,TRUE,FALSE,TRUE,FALSE,FALSE,FALSE,Disabled,0.000000,0.000000,0.000000,TRUE,1.938614,-11.485031,0.000000,-0.162827,-0.089600,0.000000,0.045000,-0.041000,0.095000,1.830000,-21.870000,0.070000,24.230548,Hold,0.072266,0.000000,Hold,-175.000000,2.000000,LowGoal,2145.000000,-2181.818182,Speed,2107.500000,-2181.818182,Speed,Off,Off,0.000000,FALSE,0,,,,,0.000000,0.000000,-0.050000
04:43:12.646 PM 04/28/2016,Teleop Enabled,8,FALSE,0,NO ERROR,-0.000000,-15.823463,-0.000000,29.028932,TRUE,FALSE,TRUE,FALSE,FALSE,FALSE,Disabled,0.000000,0.000000,0.000000,TRUE,1.939194,-11.490662,0.000000,0.028030,-0.120361,0.000000,0.069000,-0.030000,0.026000,1.830000,-21.870000,0.070000,24.264093,Hold,0.072266,0.000000,Hold,-175.000000,2.000000,LowGoal,2145.000000,-2181.818182,Speed,2100.000000,-2181.818182,Speed,Off,Off,0.000000,FALSE,0,,,,,0.000000,0.000000,-0.050000
04:43:12.744 PM 04/28/2016,Teleop Enabled,11,FALSE,0,NO ERROR,-0.000000,-15.823463,-0.000000,29.028932,TRUE,FALSE,TRUE,FALSE,FALSE,FALSE,Disabled,0.000000,0.000000,0.000000,TRUE,1.943771,-11.496109,0.000000,0.112991,-0.004105,0.000000,0.069000,-0.030000,0.026000,1.800000,-21.870000,0.130000,24.290711,Hold,0.072266,0.000000,Hold,-175.000000,2.000000,LowGoal,2145.000000,-2181.818182,Speed,2100.000000,-2181.818182,Speed,Off,Off,0.000000,FALSE,0,,,,,0.000000,0.000000,-0.050000
04:43:12.846 PM 04/28/2016,Teleop Enabled,9,FALSE,0,NO ERROR,-0.000000,-15.823463,-0.000000,29.028932,TRUE,FALSE,TRUE,FALSE,FALSE,FALSE,Disabled,0.000000,0.000000,0.000000,TRUE,1.951172,-11.497299,0.000000,0.172318,-0.039612,0.000000,0.070000,-0.013000,-0.023000,1.780000,-21.870000,0.250000,24.327481,Hold,0.072266,0.000000,Hold,-175.000000,2.000000,LowGoal,2145.000000,-2181.818182,Speed,2115.000000,-2181.818182,Speed,Off,Off,0.000000,FALSE,0,,,,,0.000000,0.000000,-0.050000
04:43:12.945 PM 04/28/2016,Teleop Enabled,8,FALSE,0,NO ERROR,-0.000000,-15.823463,-0.000000,29.028932,TRUE,FALSE,TRUE,FALSE,FALSE,FALSE,Disabled,0.000000,0.000000,0.000000,TRUE,1.961273,-11.500031,0.000000,0.231323,-0.063553,0.000000,0.041000,-0.011000,0.024000,1.830000,-21.870000,0.110000,24.382369,Hold,0.072266,0.000000,Hold,-175.000000,2.000000,LowGoal,2137.500000,-2181.818182,Speed,2107.500000,-2181.818182,Speed,Off,Off,0.000000,FALSE,0,,,,,0.000000,0.000000,-0.050000
04:43:13.049 PM 04/28/2016,Teleop Enabled,7,FALSE,0,NO ERROR,-0.000000,-15.823463,-0.000000,29.028932,TRUE,FALSE,TRUE,FALSE,FALSE,FALSE,Disabled,0.000000,0.000000,0.000000,TRUE,1.961273,-11.500031,0.000000,0.231323,-0.063553,0.000000,0.048000,-0.016000,-0.017000,1.760000,-21.880000,0.240000,24.414188,Hold,0.072266,0.000000,Hold,-175.000000,2.000000,LowGoal,2145.000000,-2181.818182,Speed,2092.500000,-2181.818182,Speed,Off,Off,0.000000,FALSE,0,,,,,0.000000,0.000000,-0.050000
04:43:13.149 PM 04/28/2016,Teleop Enabled,7,FALSE,0,NO ERROR,-0.000000,-15.823463,-0.000000,29.028932,TRUE,FALSE,TRUE,FALSE,FALSE,FALSE,Disabled,0.000000,0.000000,0.000000,TRUE,1.982132,-11.499557,0.000000,0.158920,0.008453,0.000000,-0.107000,0.023000,-0.052000,1.800000,-21.880000,0.200000,24.455416,Hold,0.072266,0.000000,Hold,-175.000000,2.000000,LowGoal,2145.000000,-2181.818182,Speed,2100.000000,-2181.818182,Speed,Off,Off,0.000000,FALSE,0,,,,,0.000000,0.000000,-0.050000
04:43:13.250 PM 04/28/2016,Teleop Enabled,9,FALSE,0,NO ERROR,-0.000000,-15.823463,-0.000000,29.028932,TRUE,FALSE,TRUE,FALSE,FALSE,FALSE,Disabled,0.000000,0.000000,0.000000,TRUE,1.989273,-11.498276,0.000000,0.131607,0.042053,0.000000,-0.004000,0.013000,-0.116000,1.830000,-21.880000,0.130000,24.475762,Hold,0.072266,0.000000,Hold,-175.000000,2.000000,LowGoal,2145.000000,-2181.818182,Speed,2107.500000,-2181.818182,Speed,Off,Off,0.000000,FALSE,0,,,,,0.000000,0.000000,-0.050000
04:43:13.351 PM 04/28/2016,Teleop Enabled,11,FALSE,0,NO ERROR,-0.000000,-15.823463,-0.000000,29.028932,TRUE,FALSE,TRUE,FALSE,FALSE,FALSE,Disabled,0.000000,0.000000,0.000000,TRUE,1.994736,-11.495804,0.000000,0.090057,0.058273,0.000000,-0.043000,-0.020000,-0.077000,1.800000,-21.880000,0.180000,24.497161,Hold,0.072266,0.000000,Hold,-175.000000,2.000000,LowGoal,2145.000000,-2181.818182,Speed,2107.500000,-2181.818182,Speed,Off,Off,0.000000,FALSE,0,,,,,0.000000,0.000000,-0.050000
04:43:13.450 PM 04/28/2016,Teleop Enabled,11,FALSE,0,NO ERROR,-0.000000,-15.823463,-0.000000,29.028932,TRUE,FALSE,TRUE,FALSE,FALSE,FALSE,Disabled,0.000000,0.000000,0.000000,TRUE,1.994736,-11.495804,0.000000,0.090057,0.058273,0.000000,-0.052000,0.021000,0.025000,1.840000,-21.880000,0.160000,24.538182,Hold,0.072266,0.000000,Hold,-175.000000,2.000000,LowGoal,2137.500000,-2181.818182,Speed,2107.500000,-2181.818182,Speed,Off,Off,0.000000,FALSE,0,,,,,0.000000,0.000000,-0.050000
04:43:13.552 PM 04/28/2016,Teleop Enabled,13,FALSE,0,NO ERROR,-0.000000,-15.823463,-0.000000,29.028932,TRUE,FALSE,TRUE,FALSE,FALSE,FALSE,Disabled,0.000000,0.000000,0.000000,TRUE,1.996277,-11.494446,0.000000,-0.042847,-0.008331,0.000000,-0.121000,-0.016000,0.069000,1.840000,-21.880000,0.160000,24.573741,Hold,0.072266,0.000000,Hold,-175.000000,2.000000,LowGoal,2145.000000,-2181.818182,Speed,2115.000000,-2181.818182,Speed,Off,Off,0.000000,FALSE,0,,,,,0.000000,0.000000,-0.050000
04:43:13.655 PM 04/28/2016,Teleop Enabled,10,FALSE,0,NO ERROR,-0.000000,-15.823463,-0.000000,29.028932,TRUE,FALSE,TRUE,FALSE,FALSE,FALSE,Disabled,0.000000,0.000000,0.000000,TRUE,1.996277,-11.494446,0.000000,-0.042847,-0.008331,0.000000,-0.036000,-0.009000,0.068000,1.820000,-21.890000,0.210000,24.627878,Hold,0.072266,0.000000,Hold,-175.000000,2.000000,LowGoal,2145.000000,-2181.818182,Speed,2107.500000,-2181.818182,Speed,Off,Off,0.000000,FALSE,0,,,,,0.000000,0.000000,-0.050000
04:43:13.759 PM 04/28/2016,Teleop Enabled,13,FALSE,0,NO ERROR,-0.000000,-15.823463,-0.000000,29.028932,TRUE,FALSE,TRUE,FALSE,FALSE,FALSE,Disabled,0.000000,0.000000,0.000000,TRUE,1.993774,-11.494400,0.000000,0.000000,0.018158,0.000000,-0.020000,0.000000,0.083000,1.810000,-21.890000,0.190000,24.660400,Hold,0.072266,0.000000,Hold,-175.000000,2.000000,LowGoal,2137.500000,-2181.818182,Speed,2100.000000,-2181.818182,Speed,Off,Off,0.000000,FALSE,0,,,,,0.000000,0.000000,-0.050000
04:43:13.857 PM 04/28/2016,Teleop Enabled,10,FALSE,0,NO ERROR,-0.000000,-15.823463,-0.000000,29.028932,TRUE,FALSE,TRUE,FALSE,FALSE,FALSE,Disabled,0.000000,0.000000,0.000000,TRUE,1.994644,-11.494400,0.000000,0.041718,-0.014008,0.000000,0.001000,0.014000,0.086000,1.820000,-21.880000,0.130000,24.679596,Hold,0.072266,0.000000,Hold,-175.000000,2.000000,LowGoal,2145.000000,-2181.818182,Speed,2122.500000,-2181.818182,Speed,Off,Off,0.000000,FALSE,0,,,,,0.000000,0.000000,-0.050000
04:43:13.958 PM 04/28/2016,Teleop Enabled,13,FALSE,0,NO ERROR,-0.000000,-15.823463,-0.000000,29.028932,TRUE,FALSE,TRUE,FALSE,FALSE,FALSE,Disabled,0.000000,0.000000,0.000000,TRUE,1.994644,-11.494400,0.000000,0.041718,-0.014008,0.000000,0.053000,-0.017000,0.058000,1.820000,-21.880000,0.130000,24.698354,Hold,0.072266,0.000000,Hold,-175.000000,2.000000,LowGoal,2145.000000,-2181.818182,Speed,2122.500000,-2181.818182,Speed,Off,Off,0.000000,FALSE,0,,,,,0.000000,0.000000,-0.050000
04:43:14.060 PM 04/28/2016,Teleop Enabled,11,FALSE,0,NO ERROR,-0.000000,-15.823463,-0.000000,29.028932,TRUE,FALSE,TRUE,FALSE,FALSE,FALSE,Disabled,0.000000,0.000000,0.000000,TRUE,2.004684,-11.499588,0.000000,0.141327,-0.088348,0.000000,0.061000,-0.033000,0.001000,1.820000,-21.890000,0.150000,24.727351,Hold,0.072266,0.000000,Hold,-175.000000,2.000000,LowGoal,2145.000000,-2181.818182,Speed,2115.000000,-2181.818182,Speed,Off,Off,0.000000,FALSE,0,,,,,0.000000,0.000000,-0.050000
04:43:14.159 PM 04/28/2016,Teleop Enabled,10,FALSE,0,NO ERROR,-0.000000,-15.823463,-0.000000,29.028932,TRUE,FALSE,TRUE,FALSE,FALSE,FALSE,Disabled,0.000000,0.000000,0.000000,TRUE,2.004684,-11.499588,0.000000,0.141327,-0.088348,0.000000,0.072000,-0.038000,-0.004000,1.820000,-21.890000,0.150000,24.775154,Hold,0.072266,0.000000,Hold,-175.000000,2.000000,LowGoal,2145.000000,-2181.818182,Speed,2115.000000,-2181.818182,Speed,Off,Off,0.000000,FALSE,0,,,,,0.000000,0.000000,-0.050000
04:43:14.260 PM 04/28/2016,Teleop Enabled,13,FALSE,0,NO ERROR,-0.000000,-15.823463,-0.000000,29.028932,TRUE,FALSE,TRUE,FALSE,FALSE,FALSE,Disabled,0.000000,0.000000,0.000000,TRUE,2.028046,-11.506393,0.000000,0.258957,-0.012192,0.000000,0.035000,-0.010000,0.000000,1.820000,-21.890000,0.120000,24.798144,Hold,0.072266,0.000000,Hold,-175.000000,2.000000,LowGoal,2145.000000,-2181.818182,Speed,2115.000000,-2181.818182,Speed,Off,Off,0.000000,FALSE,0,,,,,0.000000,0.000000,-0.050000
04:43:14.365 PM 04/28/2016,Teleop Enabled,11,FALSE,0,NO ERROR,-0.000000,-15.823463,-0.000000,29.028932,TRUE,FALSE,TRUE,FALSE,FALSE,FALSE,Disabled,0.000000,0.000000,0.000000,TRUE,2.030640,-11.507019,0.000000,-0.005035,0.000000,0.000000,0.043000,0.014000,-0.064000,1.800000,-21.890000,0.130000,24.835137,Hold,0.072266,0.000000,Hold,-175.000000,2.000000,LowGoal,2145.000000,-2181.818182,Speed,2115.000000,-2181.818182,Speed,Off,Off,0.000000,FALSE,0,,,,,0.000000,0.000000,-0.050000
04:43:14.466 PM 04/28/2016,Teleop Enabled,11,FALSE,0,NO ERROR,-0.000000,-15.823463,-0.000000,29.028932,TRUE,FALSE,TRUE,FALSE,FALSE,FALSE,Disabled,0.000000,0.000000,0.000000,TRUE,2.030640,-11.507019,0.000000,-0.005035,0.000000,0.000000,-0.030000,-0.002000,-0.116000,1.780000,-21.890000,0.170000,24.867305,Hold,0.072266,0.000000,Hold,-175.000000,2.000000,LowGoal,2145.000000,-2181.818182,Speed,2115.000000,-2181.818182,Speed,Off,Off,0.000000,FALSE,0,,,,,0.000000,0.000000,-0.050000
04:43:14.568 PM 04/28/2016,Teleop Enabled,10,FALSE,0,NO ERROR,-0.000000,-15.823463,-0.000000,29.028932,TRUE,FALSE,TRUE,FALSE,FALSE,FALSE,Disabled,0.000000,0.000000,0.000000,TRUE,2.024918,-11.504196,0.000000,-0.091782,0.060287,0.000000,-0.032000,0.034000,-0.088000,1.810000,-21.890000,0.080000,24.906798,Hold,0.072266,0.000000,Hold,-175.000000,2.000000,LowGoal,2145.000000,-2181.818182,Speed,2115.000000,-2181.818182,Speed,Off,Off,0.000000,FALSE,0,,,,,0.000000,0.000000,-0.050000
04:43:14.673 PM 04/28/2016,Teleop Enabled,10,FALSE,0,NO ERROR,-0.000000,-15.823463,-0.000000,29.028932,TRUE,FALSE,TRUE,FALSE,FALSE,FALSE,Disabled,0.000000,0.000000,0.000000,TRUE,2.019760,-11.500412,0.000000,-0.108032,0.082520,0.000000,-0.034000,0.016000,-0.048000,1.830000,-21.880000,0.050000,24.946449,Hold,0.072266,0.000000,Hold,-175.000000,2.000000,LowGoal,2145.000000,-2181.818182,Speed,2122.500000,-2181.818182,Speed,Off,Off,0.000000,FALSE,0,,,,,0.000000,0.000000,-0.050000
04:43:14.774 PM 04/28/2016,Teleop Enabled,9,FALSE,0,NO ERROR,-0.000000,-15.823463,-0.000000,29.028932,TRUE,FALSE,TRUE,FALSE,FALSE,FALSE,Disabled,0.000000,0.000000,0.000000,TRUE,2.019760,-11.500412,0.000000,-0.108032,0.082520,0.000000,-0.014000,0.001000,0.061000,1.820000,-21.890000,0.090000,24.974833,Hold,0.072266,0.000000,Hold,-175.000000,2.000000,LowGoal,2145.000000,-2181.818182,Speed,2122.500000,-2181.818182,Speed,Off,Off,0.000000,FALSE,0,,,,,0.000000,0.000000,-0.050000
04:43:14.875 PM 04/28/2016,Teleop Enabled,11,FALSE,0,NO ERROR,-0.000000,-15.823463,-0.000000,29.028932,TRUE,FALSE,TRUE,FALSE,FALSE,FALSE,Disabled,0.000000,0.000000,0.000000,TRUE,2.016632,-11.495728,0.000000,-0.046783,-0.003830,0.000000,-0.044000,-0.019000,0.055000,1.770000,-21.890000,0.190000,25.007042,Hold,0.072266,0.000000,Hold,-175.000000,2.000000,LowGoal,2145.000000,-2181.818182,Speed,2115.000000,-2181.818182,Speed,Off,Off,0.000000,FALSE,0,,,,,0.000000,0.000000,-0.050000
04:43:14.978 PM 04/28/2016,Teleop Enabled,12,FALSE,0,NO ERROR,-0.000000,-15.823463,-0.000000,29.028932,TRUE,FALSE,TRUE,FALSE,FALSE,FALSE,Disabled,0.000000,0.000000,0.000000,TRUE,2.016632,-11.495728,0.000000,-0.046783,-0.003830,0.000000,0.015000,0.001000,0.038000,1.770000,-21.890000,0.190000,25.046899,Hold,0.072266,0.000000,Hold,-175.000000,2.000000,LowGoal,2145.000000,-2181.818182,Speed,2130.000000,-2181.818182,Speed,Off,Off,0.000000,FALSE,0,,,,,0.000000,0.000000,-0.050000
04:43:15.079 PM 04/28/2016,Teleop Enabled,14,FALSE,0,NO ERROR,-0.000000,-15.823463,-0.000000,29.028932,TRUE,FALSE,TRUE,FALSE,FALSE,FALSE,Disabled,0.000000,0.000000,0.000000,TRUE,2.014648,-11.495880,0.000000,-0.018341,0.006424,0.000000,-0.011000,-0.009000,0.052000,1.820000,-21.900000,0.140000,25.086651,Hold,0.072266,0.000000,Hold,-175.000000,2.000000,LowGoal,2145.000000,-2181.818182,Speed,2122.500000,-2181.818182,Speed,Off,Off,0.000000,FALSE,0,,,,,0.000000,0.000000,-0.050000
04:43:15.178 PM 04/28/2016,Teleop Enabled,12,FALSE,0,NO ERROR,-0.000000,-15.823463,-0.000000,29.028932,TRUE,FALSE,TRUE,FALSE,FALSE,FALSE,Disabled,0.000000,0.000000,0.000000,TRUE,2.014648,-11.495880,0.000000,-0.018341,0.006424,0.000000,0.037000,0.020000,0.064000,1.820000,-21.900000,0.120000,25.124502,Hold,0.072266,0.000000,Hold,-175.000000,2.000000,LowGoal,2145.000000,-2181.818182,Speed,2115.000000,-2181.818182,Speed,Off,Off,0.000000,FALSE,0,,,,,0.000000,0.000000,-0.050000
04:43:15.279 PM 04/28/2016,Teleop Enabled,13,FALSE,0,NO ERROR,-0.000000,-15.823463,-0.000000,29.028932,TRUE,FALSE,TRUE,FALSE,FALSE,FALSE,Disabled,0.000000,0.000000,0.000000,TRUE,2.014984,-11.496048,0.000000,0.036713,-0.015594,0.000000,0.068000,-0.021000,0.058000,1.790000,-21.900000,0.180000,25.163575,Hold,0.072266,0.000000,Hold,-175.000000,2.000000,LowGoal,2145.000000,-2181.818182,Speed,2122.500000,-2181.818182,Speed,Off,Off,0.000000,FALSE,0,,,,,0.000000,0.000000,-0.050000
04:43:15.380 PM 04/28/2016,Teleop Enabled,11,FALSE,0,NO ERROR,-0.000000,-15.823463,-0.000000,29.028932,TRUE,FALSE,TRUE,FALSE,FALSE,FALSE,Disabled,0.000000,0.000000,0.000000,TRUE,2.018433,-11.497711,0.000000,0.082291,-0.043900,0.000000,0.026000,-0.023000,-0.020000,1.790000,-21.900000,0.180000,25.208552,Hold,0.072266,0.000000,Hold,-175.000000,2.000000,LowGoal,2145.000000,-2181.818182,Speed,2122.500000,-2181.818182,Speed,Off,Off,0.000000,FALSE,0,,,,,0.000000,0.000000,-0.050000
04:43:15.480 PM 04/28/2016,Teleop Enabled,11,FALSE,0,NO ERROR,-0.000000,-15.823463,-0.000000,29.028932,TRUE,FALSE,TRUE,FALSE,FALSE,FALSE,Disabled,0.000000,0.000000,0.000000,TRUE,2.022888,-11.500839,0.000000,0.095078,-0.076660,0.000000,0.030000,-0.040000,-0.036000,1.830000,-21.900000,0.100000,25.248155,Hold,0.072266,0.000000,Hold,-175.000000,2.000000,LowGoal,2152.500000,-2181.818182,Speed,2122.500000,-2181.818182,Speed,Off,Off,0.000000,FALSE,0,,,,,0.000000,0.000000,-0.050000
04:43:15.582 PM 04/28/2016,Teleop Enabled,11,FALSE,0,NO ERROR,-0.000000,-15.823463,-0.000000,29.028932,TRUE,FALSE,TRUE,FALSE,FALSE,FALSE,Disabled,0.000000,0.000000,0.000000,TRUE,2.029480,-11.505814,0.000000,0.160370,-0.115616,0.000000,0.065000,-0.049000,-0.016000,1.820000,-21.900000,0.110000,25.288371,Hold,0.072266,0.000000,Hold,-175.000000,2.000000,LowGoal,2145.000000,-2181.818182,Speed,2130.000000,-2181.818182,Speed,Off,Off,0.000000,FALSE,0,,,,,0.000000,0.000000,-0.050000
04:43:15.685 PM 04/28/2016,Teleop Enabled,10,FALSE,0,NO ERROR,-0.000000,-15.823463,-0.000000,29.028932,TRUE,FALSE,TRUE,FALSE,FALSE,FALSE,Disabled,0.000000,0.000000,0.000000,TRUE,2.037140,-11.512344,0.000000,0.000000,-0.134308,0.000000,-0.009000,0.007000,-0.047000,1.750000,-21.910000,0.240000,25.338553,Hold,0.072266,0.000000,Hold,-175.000000,2.000000,LowGoal,2145.000000,-2181.818182,Speed,2122.500000,-2181.818182,Speed,Off,Off,0.000000,FALSE,0,,,,,0.000000,0.000000,-0.050000
04:43:15.784 PM 04/28/2016,Teleop Enabled,9,FALSE,0,NO ERROR,-0.000000,-15.823463,-0.000000,29.028932,TRUE,FALSE,TRUE,FALSE,FALSE,FALSE,Disabled,0.000000,0.000000,0.000000,TRUE,2.036148,-11.512314,0.000000,-0.041107,0.003113,0.000000,-0.070000,-0.012000,-0.064000,1.790000,-21.910000,0.210000,25.373984,Hold,0.072266,0.000000,Hold,-175.000000,2.000000,LowGoal,2145.000000,-2181.818182,Speed,2115.000000,-2181.818182,Speed,Off,Off,0.000000,FALSE,0,,,,,0.000000,0.000000,-0.050000
04:43:15.888 PM 04/28/2016,Teleop Enabled,14,FALSE,0,NO ERROR,-0.000000,-15.823463,-0.000000,29.028932,TRUE,FALSE,TRUE,FALSE,FALSE,FALSE,Disabled,0.000000,0.000000,0.000000,TRUE,2.032425,-11.511505,0.000000,-0.095200,0.036255,0.000000,-0.038000,0.057000,-0.084000,1.820000,-21.910000,0.110000,25.421536,Hold,0.072266,0.000000,Hold,-175.000000,2.000000,LowGoal,2145.000000,-2181.818182,Speed,2122.500000,-2181.818182,Speed,Off,Off,0.000000,FALSE,0,,,,,0.000000,0.000000,-0.050000
04:43:15.988 PM 04/28/2016,Teleop Enabled,9,FALSE,0,NO ERROR,-0.000000,-15.823463,-0.000000,29.028932,TRUE,FALSE,TRUE,FALSE,FALSE,FALSE,Disabled,0.000000,0.000000,0.000000,TRUE,2.027924,-11.508057,0.000000,0.000000,0.090439,0.000000,-0.011000,0.027000,-0.073000,1.820000,-21.910000,0.100000,25.446143,Hold,0.072266,0.000000,Hold,-175.000000,2.000000,LowGoal,2145.000000,-2181.818182,Speed,2137.500000,-2181.818182,Speed,Off,Off,0.000000,FALSE,0,,,,,0.000000,0.000000,-0.050000
04:43:16.089 PM 04/28/2016,Teleop Enabled,10,FALSE,0,NO ERROR,-0.000000,-15.823463,-0.000000,29.028932,TRUE,FALSE,TRUE,FALSE,FALSE,FALSE,Disabled,0.000000,0.000000,0.000000,TRUE,2.027924,-11.502106,0.000000,0.000000,0.138382,0.000000,0.007000,0.066000,0.011000,1.760000,-21.910000,0.270000,25.500660,Hold,0.072266,0.000000,Hold,-175.000000,2.000000,LowGoal,2152.500000,-2181.818182,Speed,2130.000000,-2181.818182,Speed,Off,Off,0.000000,FALSE,0,,,,,0.000000,0.000000,-0.050000
04:43:16.189 PM 04/28/2016,Teleop Enabled,7,FALSE,0,NO ERROR,-0.000000,-15.823463,-0.000000,29.028932,TRUE,FALSE,TRUE,FALSE,FALSE,FALSE,Disabled,0.000000,0.000000,0.000000,TRUE,2.026993,-11.491760,0.000000,-0.043915,0.192642,0.000000,-0.052000,0.003000,0.041000,1.730000,-21.920000,0.350000,25.551393,Hold,0.072266,0.000000,Hold,-175.000000,2.000000,LowGoal,2145.000000,-2181.818182,Speed,2115.000000,-2181.818182,Speed,Off,Off,0.000000,FALSE,0,,,,,0.000000,0.000000,-0.050000
04:43:16.290 PM 04/28/2016,Teleop Enabled,11,FALSE,0,NO ERROR,-0.000000,-15.823463,-0.000000,29.028932,TRUE,FALSE,TRUE,FALSE,FALSE,FALSE,Disabled,0.000000,0.000000,0.000000,TRUE,2.022049,-11.481522,0.000000,-0.137711,0.204880,0.000000,-0.052000,-0.050000,0.022000,1.770000,-21.920000,0.220000,25.577415,Hold,0.072266,0.000000,Hold,-175.000000,2.000000,LowGoal,2152.500000,-2181.818182,Speed,2115.000000,-2181.818182,Speed,Off,Off,0.000000,FALSE,0,,,,,0.000000,0.000000,-0.050000
04:43:16.390 PM 04/28/2016,Teleop Enabled,10,FALSE,0,NO ERROR,-0.000000,-15.823463,-0.000000,29.028932,TRUE,FALSE,TRUE,FALSE,FALSE,FALSE,Disabled,0.000000,0.000000,0.000000,TRUE,2.019135,-11.472305,0.000000,0.014114,0.169067,0.000000,0.104000,-0.030000,0.022000,1.790000,-21.920000,0.170000,25.577415,Hold,0.072266,0.000000,Hold,-175.000000,2.000000,LowGoal,2152.500000,-2181.818182,Speed,2122.500000,-2181.818182,Speed,Off,Off,0.000000,FALSE,0,,,,,0.000000,0.000000,-0.050000
04:43:16.490 PM 04/28/2016,Teleop Enabled,9,FALSE,0,NO ERROR,-0.000000,-15.823463,-0.000000,29.028932,TRUE,FALSE,TRUE,FALSE,FALSE,FALSE,Disabled,0.000000,0.000000,0.000000,TRUE,2.022552,-11.464706,0.000000,0.104034,0.138870,0.000000,0.101000,-0.055000,0.080000,1.750000,-21.930000,0.270000,25.622419,Hold,0.072266,0.000000,Hold,-175.000000,2.000000,LowGoal,2145.000000,-2181.818182,Speed,2137.500000,-2181.818182,Speed,Off,Off,0.000000,FALSE,0,,,,,0.000000,0.000000,-0.050000
04:43:16.591 PM 04/28/2016,Teleop Enabled,9,FALSE,0,NO ERROR,-0.000000,-15.823463,-0.000000,29.028932,TRUE,FALSE,TRUE,FALSE,FALSE,FALSE,Disabled,0.000000,0.000000,0.000000,TRUE,2.030090,-11.458969,0.000000,0.179047,0.099274,0.000000,0.077000,-0.054000,0.083000,1.750000,-21.930000,0.290000,25.661809,Hold,0.072266,0.000000,Hold,-175.000000,2.000000,LowGoal,2145.000000,-2181.818182,Speed,2130.000000,-2181.818182,Speed,Off,Off,0.000000,FALSE,0,,,,,0.000000,0.000000,-0.050000
04:43:16.691 PM 04/28/2016,Teleop Enabled,10,FALSE,0,NO ERROR,-0.000000,-15.823463,-0.000000,29.028932,TRUE,FALSE,TRUE,FALSE,FALSE,FALSE,Disabled,0.000000,0.000000,0.000000,TRUE,2.041214,-11.455826,0.000000,0.257309,0.033371,0.000000,0.086000,-0.079000,0.001000,1.750000,-21.930000,0.320000,25.700676,Hold,0.072266,0.000000,Hold,-175.000000,2.000000,LowGoal,2145.000000,-2181.818182,Speed,2130.000000,-2181.818182,Speed,Off,Off,0.000000,FALSE,0,,,,,0.000000,0.000000,-0.050000
04:43:16.792 PM 04/28/2016,Teleop Enabled,9,FALSE,0,NO ERROR,-0.000000,-15.823463,-0.000000,29.028932,TRUE,FALSE,TRUE,FALSE,FALSE,FALSE,Disabled,0.000000,0.000000,0.000000,TRUE,2.056427,-11.456696,0.000000,0.330963,-0.051483,0.000000,0.050000,-0.074000,-0.004000,1.740000,-21.930000,0.330000,25.731005,Hold,0.072266,0.000000,Hold,-175.000000,2.000000,LowGoal,2145.000000,-2181.818182,Speed,2130.000000,-2181.818182,Speed,Off,Off,0.000000,FALSE,0,,,,,0.000000,0.000000,-0.050000
04:43:16.893 PM 04/28/2016,Teleop Enabled,9,FALSE,0,NO ERROR,-0.000000,-15.823463,-0.000000,29.028932,TRUE,FALSE,TRUE,FALSE,FALSE,FALSE,Disabled,0.000000,0.000000,0.000000,TRUE,2.074036,-11.461487,0.000000,0.360275,-0.120834,0.000000,0.026000,-0.046000,-0.063000,1.780000,-21.930000,0.190000,25.768749,Hold,0.072266,0.000000,Hold,-175.000000,2.000000,LowGoal,2145.000000,-2181.818182,Speed,2122.500000,-2181.818182,Speed,Off,Off,0.000000,FALSE,0,,,,,0.000000,0.000000,-0.050000
04:43:16.993 PM 04/28/2016,Teleop Enabled,9,FALSE,0,NO ERROR,-0.000000,-15.823463,-0.000000,29.028932,TRUE,FALSE,TRUE,FALSE,FALSE,FALSE,Disabled,0.000000,0.000000,0.000000,TRUE,2.085037,-11.468903,0.000000,0.000000,-0.164871,0.000000,0.013000,-0.012000,-0.059000,1.800000,-21.930000,0.080000,25.796940,Hold,0.072266,0.000000,Hold,-175.000000,2.000000,LowGoal,2145.000000,-2181.818182,Speed,2122.500000,-2181.818182,Speed,Off,Off,0.000000,FALSE,0,,,,,0.000000,0.000000,-0.050000
04:43:17.095 PM 04/28/2016,Teleop Enabled,11,FALSE,0,NO ERROR,-0.000000,-15.823463,-0.000000,29.028932,TRUE,FALSE,TRUE,FALSE,FALSE,FALSE,Disabled,0.000000,0.000000,0.000000,TRUE,2.085449,-11.470764,0.000000,0.015137,-0.004120,0.000000,-0.012000,0.039000,-0.053000,1.790000,-21.930000,0.140000,25.823117,Hold,0.072266,0.000000,Hold,-175.000000,2.000000,LowGoal,2152.500000,-2181.818182,Speed,2122.500000,-2181.818182,Speed,Off,Off,0.000000,FALSE,0,,,,,0.000000,0.000000,-0.050000
04:43:17.198 PM 04/28/2016,Teleop Enabled,11,FALSE,0,NO ERROR,-0.000000,-15.823463,-0.000000,29.028932,TRUE,FALSE,TRUE,FALSE,FALSE,FALSE,Disabled,0.000000,0.000000,0.000000,TRUE,2.086151,-11.470291,0.000000,0.010071,0.018890,0.000000,-0.046000,0.030000,-0.077000,1.730000,-21.930000,0.300000,25.852489,Hold,0.072266,0.000000,Hold,-175.000000,2.000000,LowGoal,2152.500000,-2181.818182,Speed,2137.500000,-2181.818182,Speed,Off,Off,0.000000,FALSE,0,,,,,0.000000,0.000000,-0.050000
04:43:17.298 PM 04/28/2016,Teleop Enabled,11,FALSE,0,NO ERROR,-0.000000,-15.823463,-0.000000,29.028932,TRUE,FALSE,TRUE,FALSE,FALSE,FALSE,Disabled,0.000000,0.000000,0.000000,TRUE,2.084976,-11.469894,0.000000,-0.046814,0.005722,0.000000,-0.078000,0.011000,-0.076000,1.730000,-21.930000,0.320000,25.872828,Hold,0.072266,0.000000,Hold,-175.000000,2.000000,LowGoal,2152.500000,-2181.818182,Speed,2137.500000,-2181.818182,Speed,Off,Off,0.000000,FALSE,0,,,,,0.000000,0.000000,-0.050000
04:43:17.399 PM 04/28/2016,Teleop Enabled,11,FALSE,0,NO ERROR,-0.000000,-15.823463,-0.000000,29.028932,TRUE,FALSE,TRUE,FALSE,FALSE,FALSE,Disabled,0.000000,0.000000,0.000000,TRUE,2.079941,-11.468445,0.000000,-0.133957,0.055313,0.000000,-0.071000,0.125000,-0.013000,1.770000,-21.940000,0.230000,25.900919,Hold,0.072266,0.000000,Hold,-175.000000,2.000000,LowGoal,2145.000000,-2181.818182,Speed,2130.000000,-2181.818182,Speed,Off,Off,0.000000,FALSE,0,,,,,0.000000,0.000000,-0.050000
04:43:17.499 PM 04/28/2016,Teleop Enabled,11,FALSE,0,NO ERROR,-0.000000,-15.823463,-0.000000,29.028932,TRUE,FALSE,TRUE,FALSE,FALSE,FALSE,Disabled,0.000000,0.000000,0.000000,TRUE,2.070984,-11.462509,0.000000,-0.219559,0.156006,0.000000,-0.087000,0.088000,-0.034000,1.770000,-21.930000,0.170000,25.942240,Hold,0.072266,0.000000,Hold,-175.000000,2.000000,LowGoal,2152.500000,-2181.818182,Speed,2130.000000,-2181.818182,Speed,Off,Off,0.000000,FALSE,0,,,,,0.000000,0.000000,-0.050000
04:43:17.599 PM 04/28/2016,Teleop Enabled,11,FALSE,0,NO ERROR,-0.000000,-15.823463,-0.000000,29.028932,TRUE,FALSE,TRUE,FALSE,FALSE,FALSE,Disabled,0.000000,0.000000,0.000000,TRUE,2.052933,-11.449280,0.000000,-0.365005,0.257446,0.000000,-0.106000,0.038000,0.101000,1.750000,-21.930000,0.160000,25.982718,Hold,0.072266,0.000000,Hold,-175.000000,2.000000,LowGoal,2145.000000,-2181.818182,Speed,2130.000000,-2181.818182,Speed,Off,Off,0.000000,FALSE,0,,,,,0.000000,0.000000,-0.050000
04:43:17.700 PM 04/28/2016,Teleop Enabled,11,FALSE,0,NO ERROR,-0.000000,-15.823463,-0.000000,29.028932,TRUE,FALSE,TRUE,FALSE,FALSE,FALSE,Disabled,0.000000,0.000000,0.000000,TRUE,2.036316,-11.437897,0.000000,-0.443314,0.300659,0.000000,-0.116000,0.040000,0.079000,1.750000,-21.940000,0.160000,26.017845,Hold,0.072266,0.000000,Hold,-175.000000,2.000000,LowGoal,2152.500000,-2181.818182,Speed,2137.500000,-2181.818182,Speed,Off,Off,0.000000,FALSE,0,,,,,0.000000,0.000000,-0.050000
04:43:17.800 PM 04/28/2016,Teleop Enabled,11,FALSE,0,NO ERROR,-0.000000,-15.823463,-0.000000,29.028932,TRUE,FALSE,TRUE,FALSE,FALSE,FALSE,Disabled,0.000000,0.000000,0.000000,TRUE,2.011734,-11.421844,0.000000,-0.519196,0.335632,0.000000,-0.018000,0.110000,0.067000,1.690000,-21.940000,0.300000,26.051889,Hold,0.072266,0.000000,Hold,-175.000000,2.000000,LowGoal,2145.000000,-2181.818182,Speed,2130.000000,-2181.818182,Speed,Off,Off,0.000000,FALSE,0,,,,,0.000000,0.000000,-0.050000
04:43:17.899 PM 04/28/2016,Teleop Enabled,11,FALSE,0,NO ERROR,-0.000000,-15.823463,-0.000000,29.028932,TRUE,FALSE,TRUE,FALSE,FALSE,FALSE,Disabled,0.000000,0.000000,0.000000,TRUE,2.001724,-11.394806,0.000000,0.030594,0.423904,0.000000,0.051000,0.042000,0.085000,1.650000,-21.950000,0.410000,26.073766,Hold,0.072266,0.000000,Hold,-175.000000,2.000000,LowGoal,2145.000000,-2181.818182,Speed,2130.000000,-2181.818182,Speed,Off,Off,0.000000,FALSE,0,,,,,0.000000,0.000000,-0.050000
04:43:18.000 PM 04/28/2016,Teleop Enabled,11,FALSE,0,NO ERROR,-0.000000,-15.823463,-0.000000,29.028932,TRUE,FALSE,TRUE,FALSE,FALSE,FALSE,Disabled,0.000000,0.000000,0.000000,TRUE,2.004349,-11.371948,0.000000,0.056946,0.479050,0.000000,-0.018000,0.088000,0.112000,1.690000,-21.950000,0.370000,26.096002,Hold,0.072266,0.000000,Hold,-175.000000,2.000000,LowGoal,2152.500000,-2181.818182,Speed,2137.500000,-2181.818182,Speed,Off,Off,0.000000,FALSE,0,,,,,0.000000,0.000000,-0.050000
04:43:18.101 PM 04/28/2016,Teleop Enabled,11,FALSE,0,NO ERROR,-0.000000,-15.823463,-0.000000,29.028932,TRUE,FALSE,TRUE,FALSE,FALSE,FALSE,Disabled,0.000000,0.000000,0.000000,TRUE,2.006363,-11.351852,0.000000,0.052628,0.514206,0.000000,0.070000,0.056000,0.082000,1.780000,-21.950000,0.110000,26.122275,Hold,0.072266,0.000000,Hold,-175.000000,2.000000,LowGoal,2145.000000,-2181.818182,Speed,2145.000000,-2181.818182,Speed,Off,Off,0.000000,FALSE,0,,,,,0.000000,0.000000,-0.050000
04:43:18.201 PM 04/28/2016,Teleop Enabled,10,FALSE,0,NO ERROR,-0.000000,-15.823463,-0.000000,29.028932,TRUE,FALSE,TRUE,FALSE,FALSE,FALSE,Disabled,0.000000,0.000000,0.000000,TRUE,2.012726,-11.321381,0.000000,0.157074,0.490021,0.000000,0.127000,-0.043000,0.005000,1.810000,-21.950000,0.040000,26.153131,Hold,0.072266,0.000000,Hold,-175.000000,2.000000,LowGoal,2152.500000,-2181.818182,Speed,2122.500000,-2181.818182,Speed,Off,Off,0.000000,FALSE,0,,,,,0.000000,0.000000,-0.050000
04:43:18.301 PM 04/28/2016,Teleop Enabled,10,FALSE,0,NO ERROR,-0.000000,-15.823463,-0.000000,29.028932,TRUE,FALSE,TRUE,FALSE,FALSE,FALSE,Disabled,0.000000,0.000000,0.000000,TRUE,2.024078,-11.298935,0.000000,0.274857,0.412079,0.000000,0.119000,-0.111000,-0.040000,1.780000,-21.950000,0.180000,26.182868,Hold,0.072266,0.000000,Hold,-175.000000,2.000000,LowGoal,2152.500000,-2181.818182,Speed,2130.000000,-2181.818182,Speed,Off,Off,0.000000,FALSE,0,,,,,0.000000,0.000000,-0.050000
04:43:18.401 PM 04/28/2016,Teleop Enabled,11,FALSE,0,NO ERROR,-0.000000,-15.823463,-0.000000,29.028932,TRUE,FALSE,TRUE,FALSE,FALSE,FALSE,Disabled,0.000000,0.000000,0.000000,TRUE,2.041229,-11.281174,0.000000,0.386826,0.318222,0.000000,0.158000,-0.115000,-0.058000,1.760000,-21.960000,0.270000,26.217789,Hold,0.072266,0.000000,Hold,-175.000000,2.000000,LowGoal,2145.000000,-2181.818182,Speed,2145.000000,-2181.818182,Speed,Off,Off,0.000000,FALSE,0,,,,,0.000000,0.000000,-0.050000
04:43:18.501 PM 04/28/2016,Teleop Enabled,11,FALSE,0,NO ERROR,-0.000000,-15.823463,-0.000000,29.028932,TRUE,FALSE,TRUE,FALSE,FALSE,FALSE,Disabled,0.000000,0.000000,0.000000,TRUE,2.059189,-11.270279,0.000000,0.485580,0.244553,0.000000,0.100000,-0.075000,-0.098000,1.720000,-21.960000,0.320000,26.245423,Hold,0.072266,0.000000,Hold,-175.000000,2.000000,LowGoal,2152.500000,-2181.818182,Speed,2145.000000,-2181.818182,Speed,Off,Off,0.000000,FALSE,0,,,,,0.000000,0.000000,-0.050000
04:43:18.601 PM 04/28/2016,Teleop Enabled,11,FALSE,0,NO ERROR,-0.000000,-15.823463,-0.000000,29.028932,TRUE,FALSE,TRUE,FALSE,FALSE,FALSE,Disabled,0.000000,0.000000,0.000000,TRUE,2.086929,-11.260651,0.000000,0.594772,0.165558,0.000000,0.075000,-0.040000,-0.082000,1.660000,-21.960000,0.420000,26.269758,Hold,0.072266,0.000000,Hold,-175.000000,2.000000,LowGoal,2152.500000,-2181.818182,Speed,2130.000000,-2181.818182,Speed,Off,Off,0.000000,FALSE,0,,,,,0.000000,0.000000,-0.050000
04:43:18.702 PM 04/28/2016,Teleop Enabled,11,FALSE,0,NO ERROR,-0.000000,-15.823463,-0.000000,29.028932,TRUE,FALSE,TRUE,FALSE,FALSE,FALSE,Disabled,0.000000,0.000000,0.000000,TRUE,2.112244,-11.252884,0.000000,-0.004578,0.091629,0.000000,-0.032000,-0.063000,-0.096000,1.670000,-21.960000,0.410000,26.297099,Hold,0.072266,0.000000,Hold,-175.000000,2.000000,LowGoal,2152.500000,-2181.818182,Speed,2130.000000,-2181.818182,Speed,Off,Off,0.000000,FALSE,0,,,,,0.000000,0.000000,-0.050000
04:43:18.802 PM 04/28/2016,Teleop Enabled,10,FALSE,0,NO ERROR,-0.000000,-15.823463,-0.000000,29.028932,TRUE,FALSE,TRUE,FALSE,FALSE,FALSE,Disabled,0.000000,0.000000,0.000000,TRUE,2.110489,-11.249695,0.000000,-0.061096,0.048248,0.000000,-0.099000,-0.062000,-0.162000,1.740000,-21.960000,0.260000,26.338031,Hold,0.072266,0.000000,Hold,-175.000000,2.000000,LowGoal,2152.500000,-2181.818182,Speed,2137.500000,-2181.818182,Speed,Off,Off,0.000000,FALSE,0,,,,,0.000000,0.000000,-0.050000
04:43:18.902 PM 04/28/2016,Teleop Enabled,11,FALSE,0,NO ERROR,-0.000000,-15.823463,-0.000000,29.028932,TRUE,FALSE,TRUE,FALSE,FALSE,FALSE,Disabled,0.000000,0.000000,0.000000,TRUE,2.107132,-11.248840,0.000000,-0.096695,0.000000,0.000000,-0.016000,-0.004000,-0.137000,1.780000,-21.950000,0.100000,26.390960,Hold,0.072266,0.000000,Hold,-175.000000,2.000000,LowGoal,2145.000000,-2181.818182,Speed,2145.000000,-2181.818182,Speed,Off,Off,0.000000,FALSE,0,,,,,0.000000,0.000000,-0.050000
04:43:19.002 PM 04/28/2016,Teleop Enabled,11,FALSE,0,NO ERROR,-0.000000,-15.823463,-0.000000,29.028932,TRUE,FALSE,TRUE,FALSE,FALSE,FALSE,Disabled,0.000000,0.000000,0.000000,TRUE,2.100143,-11.247833,0.000000,-0.084946,0.036865,0.000000,0.044000,0.018000,-0.067000,1.740000,-21.960000,0.210000,26.421551,Hold,0.072266,0.000000,Hold,-175.000000,2.000000,LowGoal,2152.500000,-2181.818182,Speed,2137.500000,-2181.818182,Speed,Off,Off,0.000000,FALSE,0,,,,,0.000000,0.000000,-0.050000
04:43:19.102 PM 04/28/2016,Teleop Enabled,11,FALSE,0,NO ERROR,-0.000000,-15.823463,-0.000000,29.028932,TRUE,FALSE,TRUE,FALSE,FALSE,FALSE,Disabled,0.000000,0.000000,0.000000,TRUE,2.097549,-11.247589,0.000000,0.000000,0.017960,0.000000,-0.040000,0.056000,0.018000,1.700000,-21.960000,0.340000,26.443755,Hold,0.072266,0.000000,Hold,-175.000000,2.000000,LowGoal,2152.500000,-2181.818182,Speed,2137.500000,-2181.818182,Speed,Off,Off,0.000000,FALSE,0,,,,,0.000000,0.000000,-0.050000
04:43:19.202 PM 04/28/2016,Teleop Enabled,10,FALSE,0,NO ERROR,-0.000000,-15.823463,-0.000000,29.028932,TRUE,FALSE,TRUE,FALSE,FALSE,FALSE,Disabled,0.000000,0.000000,0.000000,TRUE,2.096802,-11.245926,0.000000,-0.034302,0.042526,0.000000,-0.116000,0.004000,0.061000,1.680000,-21.960000,0.330000,26.482618,Hold,0.072266,0.000000,Hold,-175.000000,2.000000,LowGoal,2145.000000,-2181.818182,Speed,2137.500000,-2181.818182,Speed,Off,Off,0.000000,FALSE,0,,,,,0.000000,0.000000,-0.050000
04:43:19.303 PM 04/28/2016,Teleop Enabled,10,FALSE,0,NO ERROR,-0.000000,-15.823463,-0.000000,29.028932,TRUE,FALSE,TRUE,FALSE,FALSE,FALSE,Disabled,0.000000,0.000000,0.000000,TRUE,2.092377,-11.245590,0.000000,-0.117020,-0.006668,0.000000,-0.068000,0.024000,0.071000,1.700000,-21.960000,0.310000,26.519034,Hold,0.072266,0.000000,Hold,-175.000000,2.000000,LowGoal,2152.500000,-2181.818182,Speed,2145.000000,-2181.818182,Speed,Off,Off,0.000000,FALSE,0,,,,,0.000000,0.000000,-0.050000
04:43:19.403 PM 04/28/2016,Teleop Enabled,10,FALSE,0,NO ERROR,-0.000000,-15.823463,-0.000000,29.028932,TRUE,FALSE,TRUE,FALSE,FALSE,FALSE,Disabled,0.000000,0.000000,0.000000,TRUE,2.084900,-11.246124,0.000000,-0.170776,-0.019455,0.000000,-0.046000,-0.015000,0.056000,1.700000,-21.960000,0.320000,26.548044,Hold,0.072266,0.000000,Hold,-175.000000,2.000000,LowGoal,2152.500000,-2181.818182,Speed,2130.000000,-2181.818182,Speed,Off,Off,0.000000,FALSE,0,,,,,0.000000,0.000000,-0.050000
04:43:19.505 PM 04/28/2016,Teleop Enabled,9,FALSE,0,NO ERROR,-0.000000,-15.823463,-0.000000,29.028932,TRUE,FALSE,TRUE,FALSE,FALSE,FALSE,Disabled,0.000000,0.000000,0.000000,TRUE,2.073746,-11.246460,0.000000,-0.193466,0.000000,0.000000,0.005000,0.002000,0.101000,1.720000,-21.950000,0.270000,26.574159,Hold,0.072266,0.000000,Hold,-175.000000,2.000000,LowGoal,2152.500000,-2181.818182,Speed,2130.000000,-2181.818182,Speed,Off,Off,0.000000,FALSE,0,,,,,0.000000,0.000000,-0.050000
04:43:19.608 PM 04/28/2016,Teleop Enabled,10,FALSE,0,NO ERROR,-0.000000,-15.823463,-0.000000,29.028932,TRUE,FALSE,TRUE,FALSE,FALSE,FALSE,Disabled,0.000000,0.000000,0.000000,TRUE,2.065872,-11.246689,0.000000,-0.201691,-0.010895,0.000000,0.019000,-0.006000,0.083000,1.780000,-21.940000,0.150000,26.609800,Hold,0.072266,0.000000,Hold,-175.000000,2.000000,LowGoal,2152.500000,-2181.818182,Speed,2137.500000,-2181.818182,Speed,Off,Off,0.000000,FALSE,0,,,,,0.000000,0.000000,-0.050000
04:43:19.709 PM 04/28/2016,Teleop Enabled,11,FALSE,0,NO ERROR,-0.000000,-15.823463,-0.000000,29.028932,TRUE,FALSE,TRUE,FALSE,FALSE,FALSE,Disabled,0.000000,0.000000,0.000000,TRUE,2.065750,-11.247711,0.000000,-0.001251,-0.027969,0.000000,0.046000,-0.023000,0.052000,1.860000,-21.930000,-0.010000,26.654447,Hold,0.072266,0.000000,Hold,-175.000000,2.000000,LowGoal,2145.000000,-2181.818182,Speed,2145.000000,-2181.818182,Speed,Off,Off,0.000000,FALSE,0,,,,,0.000000,0.000000,-0.050000
04:43:19.810 PM 04/28/2016,Teleop Enabled,9,FALSE,0,NO ERROR,-0.000000,-15.823463,-0.000000,29.028932,TRUE,FALSE,TRUE,FALSE,FALSE,FALSE,Disabled,0.000000,0.000000,0.000000,TRUE,2.066406,-11.250259,0.000000,0.025070,-0.065353,0.000000,0.068000,-0.032000,0.003000,1.880000,-21.920000,-0.080000,26.692807,Hold,0.072266,0.000000,Hold,-175.000000,2.000000,LowGoal,2152.500000,-2181.818182,Speed,2137.500000,-2181.818182,Speed,Off,Off,0.000000,FALSE,0,,,,,0.000000,0.000000,-0.050000
04:43:19.910 PM 04/28/2016,Teleop Enabled,5,FALSE,0,NO ERROR,-0.000000,-15.823463,-0.000000,29.028932,TRUE,FALSE,TRUE,FALSE,FALSE,FALSE,Disabled,0.000000,0.000000,0.000000,TRUE,2.068420,-11.254639,0.000000,0.000000,-0.100815,0.000000,0.067000,-0.023000,-0.010000,1.870000,-21.920000,-0.050000,26.730748,Hold,0.072266,0.000000,Hold,-175.000000,2.000000,LowGoal,2152.500000,-2181.818182,Speed,2137.500000,-2181.818182,Speed,Off,Off,0.000000,FALSE,0,,,,,0.000000,0.000000,-0.050000
04:43:20.010 PM 04/28/2016,Teleop Enabled,3,FALSE,0,NO ERROR,-0.000000,-15.823463,-0.000000,29.028932,TRUE,FALSE,TRUE,FALSE,FALSE,FALSE,Disabled,0.000000,0.000000,0.000000,TRUE,2.068802,-11.262085,0.000000,0.000000,-0.143494,0.000000,0.022000,-0.042000,-0.047000,1.860000,-21.920000,-0.020000,26.771342,Hold,0.072266,0.000000,Hold,-175.000000,2.000000,LowGoal,2152.500000,-2181.818182,Speed,2137.500000,-2181.818182,Speed,Off,Off,0.000000,FALSE,0,,,,,0.000000,0.000000,-0.050000
04:43:20.110 PM 04/28/2016,Teleop Enabled,2,FALSE,0,NO ERROR,-0.000000,-15.823463,-0.000000,29.028932,TRUE,FALSE,TRUE,FALSE,FALSE,FALSE,Disabled,0.000000,0.000000,0.000000,TRUE,2.069565,-11.270187,0.000000,0.033096,-0.174225,0.000000,0.069000,0.004000,-0.050000,1.830000,-21.920000,0.020000,26.797884,Hold,0.072266,0.000000,Hold,-175.000000,2.000000,LowGoal,2152.500000,-2181.818182,Speed,2137.500000,-2181.818182,Speed,Off,Off,0.000000,FALSE,0,,,,,0.000000,0.000000,-0.050000
04:43:20.210 PM 04/28/2016,Teleop Enabled,9,FALSE,0,NO ERROR,-0.000000,-15.823463,-0.000000,29.028932,TRUE,FALSE,TRUE,FALSE,FALSE,FALSE,Disabled,0.000000,0.000000,0.000000,TRUE,2.072678,-11.273819,0.000000,0.075760,-0.006836,0.000000,0.019000,0.007000,-0.026000,1.790000,-21.910000,0.180000,26.834079,Hold,0.072266,0.000000,Hold,-175.000000,2.000000,LowGoal,2152.500000,-2181.818182,Speed,2137.500000,-2181.818182,Speed,Off,Off,0.000000,FALSE,0,,,,,0.000000,0.000000,-0.050000
04:43:20.310 PM 04/28/2016,Teleop Enabled,10,FALSE,0,NO ERROR,-0.000000,-15.823463,-0.000000,29.028932,TRUE,FALSE,TRUE,FALSE,FALSE,FALSE,Disabled,0.000000,0.000000,0.000000,TRUE,2.073471,-11.273834,0.000000,0.000000,0.000000,0.000000,-0.024000,0.031000,-0.069000,1.760000,-21.920000,0.290000,26.871476,Hold,0.072266,0.000000,Hold,-175.000000,2.000000,LowGoal,2152.500000,-2181.818182,Speed,2145.000000,-2181.818182,Speed,Off,Off,0.000000,FALSE,0,,,,,0.000000,0.000000,-0.050000
04:43:20.410 PM 04/28/2016,Teleop Enabled,20,FALSE,0,NO ERROR,-0.000000,-15.823463,-0.000000,29.028932,TRUE,FALSE,TRUE,FALSE,FALSE,FALSE,Disabled,0.000000,0.000000,0.000000,TRUE,2.072220,-11.273560,0.000000,-0.052399,0.004715,0.000000,-0.024000,0.031000,-0.069000,1.730000,-21.920000,0.330000,26.903960,Hold,0.072266,0.000000,Hold,-175.000000,2.000000,LowGoal,2152.500000,-2181.818182,Speed,2152.500000,-2181.818182,Speed,Off,Off,0.000000,FALSE,0,,,,,0.000000,0.000000,-0.050000
04:43:20.511 PM 04/28/2016,Teleop Enabled,6,FALSE,0,NO ERROR,-0.000000,-15.823463,-0.000000,29.028932,TRUE,FALSE,TRUE,FALSE,FALSE,FALSE,Disabled,0.000000,0.000000,0.000000,TRUE,2.067001,-11.272522,0.000000,-0.136841,0.033707,0.000000,-0.074000,0.071000,-0.035000,1.760000,-21.910000,0.260000,26.925166,Hold,0.072266,0.000000,Hold,-175.000000,2.000000,LowGoal,2152.500000,-2181.818182,Speed,2137.500000,-2181.818182,Speed,Off,Off,0.000000,FALSE,0,,,,,0.000000,0.000000,-0.050000
04:43:20.610 PM 04/28/2016,Teleop Enabled,10,FALSE,0,NO ERROR,-0.000000,-15.823463,-0.000000,29.028932,TRUE,FALSE,TRUE,FALSE,FALSE,FALSE,Disabled,0.000000,0.000000,0.000000,TRUE,2.057968,-11.268616,0.000000,-0.210922,0.117203,0.000000,-0.115000,0.131000,-0.005000,1.780000,-21.890000,0.200000,26.958270,Hold,0.072266,0.000000,Hold,-175.000000,2.000000,LowGoal,2152.500000,-2181.818182,Speed,2130.000000,-2181.818182,Speed,Off,Off,0.000000,FALSE,0,,,,,0.000000,0.000000,-0.050000
04:43:20.711 PM 04/28/2016,Teleop Enabled,12,FALSE,0,NO ERROR,-0.000000,-15.823463,-0.000000,29.028932,TRUE,FALSE,TRUE,FALSE,FALSE,FALSE,Disabled,0.000000,0.000000,0.000000,TRUE,2.044754,-11.259201,0.000000,-0.294037,0.235748,0.000000,-0.115000,0.131000,-0.005000,1.780000,-21.890000,0.180000,26.994905,Hold,0.072266,0.000000,Hold,-175.000000,2.000000,LowGoal,2152.500000,-2181.818182,Speed,2137.500000,-2181.818182,Speed,Off,Off,0.000000,FALSE,0,,,,,0.000000,0.000000,-0.050000
04:43:20.812 PM 04/28/2016,Teleop Enabled,10,FALSE,0,NO ERROR,-0.000000,-15.823463,-0.000000,29.028932,TRUE,FALSE,TRUE,FALSE,FALSE,FALSE,Disabled,0.000000,0.000000,0.000000,TRUE,2.027451,-11.244431,0.000000,-0.393051,0.336426,0.000000,-0.153000,0.163000,0.101000,1.790000,-21.890000,0.180000,27.040519,Hold,0.072266,0.000000,Hold,-175.000000,2.000000,LowGoal,2152.500000,-2181.818182,Speed,2152.500000,-2181.818182,Speed,Off,Off,0.000000,FALSE,0,,,,,0.000000,0.000000,-0.050000
04:43:20.912 PM 04/28/2016,Teleop Enabled,9,FALSE,0,NO ERROR,-0.000000,-15.823463,-0.000000,29.028932,TRUE,FALSE,TRUE,FALSE,FALSE,FALSE,Disabled,0.000000,0.000000,0.000000,TRUE,2.003525,-11.224503,0.000000,-0.532806,0.431152,0.000000,-0.136000,0.076000,0.101000,1.860000,-21.880000,0.030000,27.078876,Hold,0.072266,0.000000,Hold,-175.000000,2.000000,LowGoal,2152.500000,-2181.818182,Speed,2152.500000,-2181.818182,Speed,Off,Off,0.000000,FALSE,0,,,,,0.000000,0.000000,-0.050000
04:43:21.012 PM 04/28/2016,Teleop Enabled,9,FALSE,0,NO ERROR,-0.000000,-15.823463,-0.000000,29.028932,TRUE,FALSE,TRUE,FALSE,FALSE,FALSE,Disabled,0.000000,0.000000,0.000000,TRUE,1.972748,-11.200729,0.000000,-0.676559,0.500977,0.000000,-0.136000,0.076000,0.101000,1.920000,-21.870000,-0.080000,27.114321,Hold,0.072266,0.000000,Hold,-175.000000,2.000000,LowGoal,2152.500000,-2181.818182,Speed,2145.000000,-2181.818182,Speed,Off,Off,0.000000,FALSE,0,,,,,0.000000,0.000000,-0.050000
04:43:21.112 PM 04/28/2016,Teleop Enabled,6,FALSE,0,NO ERROR,-0.000000,-15.823463,-0.000000,29.028932,TRUE,FALSE,TRUE,FALSE,FALSE,FALSE,Disabled,0.000000,0.000000,0.000000,TRUE,1.926788,-11.168625,0.000000,-0.807083,0.554047,0.000000,-0.177000,0.045000,0.126000,1.930000,-21.870000,-0.140000,27.155996,Hold,0.072266,0.000000,Hold,-175.000000,2.000000,LowGoal,2152.500000,-2181.818182,Speed,2130.000000,-2181.818182,Speed,Off,Off,0.000000,FALSE,0,,,,,0.000000,0.000000,-0.050000
04:43:21.211 PM 04/28/2016,Teleop Enabled,5,FALSE,0,NO ERROR,-0.000000,-15.823463,-0.000000,29.028932,TRUE,FALSE,TRUE,FALSE,FALSE,FALSE,Disabled,0.000000,0.000000,0.000000,TRUE,1.886093,-11.139893,0.000000,-0.812027,0.587997,0.000000,-0.023000,0.058000,0.086000,1.930000,-21.870000,-0.140000,27.198361,Hold,0.072266,0.000000,Hold,-175.000000,2.000000,LowGoal,2160.000000,-2181.818182,Speed,2145.000000,-2181.818182,Speed,Off,Off,0.000000,FALSE,0,,,,,0.000000,0.000000,-0.050000
04:43:21.313 PM 04/28/2016,Teleop Enabled,7,FALSE,0,NO ERROR,-0.000000,-15.823463,-0.000000,29.028932,TRUE,FALSE,TRUE,FALSE,FALSE,FALSE,Disabled,0.000000,0.000000,0.000000,TRUE,1.886093,-11.139893,0.000000,-0.812027,0.587997,0.000000,0.044000,0.028000,0.033000,1.850000,-21.870000,0.040000,27.221267,Hold,0.072266,0.000000,Hold,-175.000000,2.000000,LowGoal,2152.500000,-2181.818182,Speed,2145.000000,-2181.818182,Speed,Off,Off,0.000000,FALSE,0,,,,,0.000000,0.000000,-0.050000
04:43:21.415 PM 04/28/2016,Teleop Enabled,9,FALSE,0,NO ERROR,-0.000000,-15.823463,-0.000000,29.028932,TRUE,FALSE,TRUE,FALSE,FALSE,FALSE,Disabled,0.000000,0.000000,0.000000,TRUE,1.807373,-11.077988,0.000000,-0.760406,0.641891,0.000000,0.036000,0.041000,0.105000,1.830000,-21.870000,0.170000,27.256980,Hold,0.072266,0.000000,Hold,-175.000000,2.000000,LowGoal,2152.500000,-2181.818182,Speed,2145.000000,-2181.818182,Speed,Off,Off,0.000000,FALSE,0,,,,,0.000000,0.000000,-0.050000
04:43:21.515 PM 04/28/2016,Teleop Enabled,9,FALSE,0,NO ERROR,-0.000000,-15.823463,-0.000000,29.028932,TRUE,FALSE,TRUE,FALSE,FALSE,FALSE,Disabled,0.000000,0.000000,0.000000,TRUE,1.770828,-11.058792,0.000000,-0.707245,0.000000,0.000000,0.057000,-0.024000,0.095000,1.840000,-21.860000,0.160000,27.280882,Hold,0.072266,0.000000,Hold,-175.000000,2.000000,LowGoal,2152.500000,-2181.818182,Speed,2137.500000,-2181.818182,Speed,Off,Off,0.000000,FALSE,0,,,,,0.000000,0.000000,-0.050000
04:43:21.617 PM 04/28/2016,Teleop Enabled,10,FALSE,0,NO ERROR,-0.000000,-15.823463,-0.000000,29.028932,TRUE,FALSE,TRUE,FALSE,FALSE,FALSE,Disabled,0.000000,0.000000,0.000000,TRUE,1.738174,-11.059692,0.000000,-0.613678,-0.035217,0.000000,0.081000,-0.042000,0.110000,1.760000,-21.860000,0.320000,27.297558,Hold,0.072266,0.000000,Hold,-175.000000,2.000000,LowGoal,2152.500000,-2181.818182,Speed,2137.500000,-2181.818182,Speed,Off,Off,0.000000,FALSE,0,,,,,0.000000,0.000000,-0.050000
04:43:21.717 PM 04/28/2016,Teleop Enabled,11,FALSE,0,NO ERROR,-0.000000,-15.823463,-0.000000,29.028932,TRUE,FALSE,TRUE,FALSE,FALSE,FALSE,Disabled,0.000000,0.000000,0.000000,TRUE,1.710388,-11.062531,0.000000,-0.521866,-0.076202,0.000000,0.068000,-0.012000,0.051000,1.680000,-21.860000,0.440000,27.327191,Hold,0.072266,0.000000,Hold,-175.000000,2.000000,LowGoal,2152.500000,-2181.818182,Speed,2137.500000,-2181.818182,Speed,Off,Off,0.000000,FALSE,0,,,,,0.000000,0.000000,-0.050000
