Time,Robot Mode,Loop Time,Error Status,Error Code,Error Source,Left Motor Output,Left Motor Encoder,Right Motor Output,Right Motor Encoder,Is Level,Is Stalled,Ball Detector Photoeye,Vision Enabled,Vision Teleop Control,Vision Auto Control,Vision Current State,Vision X Output,Vision NavX Error,Vision NavX Target,NavX Connection Status,NavX Displacement X,NavX Displacement Y,NavX Displacement Z,NavX Velocity X,NavX Velocity Y,NavX Velocity Z,NavX Acceleration X,NavX Acceleration Y,NavX Acceleration Z,NavX Pitch,NavX Yaw,NavX Roll,Gyro Angle,Roller Arm State,Roller Arm Actual,Roller Arm Desired,Shooter Arm State,Shooter Arm Actual,Shooter Arm Desired,Shooter State,Actual RPM Left,Desired RPM Left,Control Mode Left,Actual RPM Right,Desired RPM Right,Control Mode Right,Ball Shooter Cylinder,Ball Halo Cylinder,Scaler Motor Output,Scaler Solenoid Fire,Auto To Run,Auto Current File,Auto File Status,Auto Current Command,Auto Trimmed Command,Shooter Amps Left,Shooter Amps Right, Vision After Offset
03:58:17.465 PM 04/28/2016,Teleop Enabled,18,TRUE,-44003,<LOCATION>WPI_CameraIssue HTTP Request with Authentication.vi<CALLSTACK>WPI_CameraIssue HTTP Request with Authentication.vi< <WPI_CameraIssue Get.vi< <WPI_CameraSet Image Appearance Property.vi< <WPI_CameraSet Image Size.vi< <Vision Processing.vi< <Robot Main.vi,-0.000000,0.000000,-0.000000,0.000000,TRUE,FALSE,FALSE,FALSE,FALSE,FALSE,Disabled,0.000000,0.000000,0.000000,TRUE,0.001328,0.000244,0.000000,0.000000,0.000000,0.000000,0.015000,0.003000,0.047000,1.980000,-0.110000,0.140000,0.580739,ResetBack,-60.121582,-0.000049,ResetBack,86324.000000,-0.250000,Suck,0.000000,1818.181818,Speed,0.000000,1818.181818,Speed,Off,On,0.000000,FALSE,0,,,,,0.000000,0.000000,-0.050000
03:58:17.565 PM 04/28/2016,Teleop Enabled,20,FALSE,0,NO ERROR,-0.000000,0.006417,-0.000000,0.000000,TRUE,FALSE,FALSE,FALSE,FALSE,FALSE,Disabled,0.000000,0.000000,0.000000,TRUE,0.002228,0.000168,0.000000,0.055771,0.000320,0.000000,0.015000,0.003000,0.047000,1.980000,-0.130000,0.180000,0.527582,ResetBack,-60.553711,-0.000049,ResetBack,87880.000000,-0.250000,Suck,-60.000000,1818.181818,Speed,-67.500000,1818.181818,Speed,Off,On,0.000000,FALSE,0,,,,,0.000000,0.000000,-0.050000
03:58:17.665 PM 04/28/2016,Teleop Enabled,13,FALSE,0,NO ERROR,-0.000000,0.006417,-0.000000,0.000000,TRUE,FALSE,FALSE,FALSE,FALSE,FALSE,Disabled,0.000000,0.000000,0.000000,TRUE,0.002838,0.000778,0.000000,0.009750,0.015106,0.000000,-0.014000,0.017000,-0.022000,1.990000,-0.130000,0.070000,0.528860,ResetBack,-60.554688,-0.000049,ResetBack,92763.000000,-0.250000,Suck,-562.500000,1818.181818,Speed,-465.000000,1818.181818,Speed,Off,On,0.000000,FALSE,0,,,,,0.000000,0.000000,-0.050000
03:58:17.765 PM 04/28/2016,Teleop Enabled,6,FALSE,0,NO ERROR,-0.000000,0.006417,-0.000000,0.000000,TRUE,FALSE,FALSE,FALSE,FALSE,FALSE,Disabled,0.000000,0.000000,0.000000,TRUE,0.003540,0.000183,0.000000,0.028992,-0.020935,0.000000,0.017000,0.006000,-0.021000,1.960000,-0.130000,0.220000,0.527937,Reset,-60.556885,0.000000,ResetBack,92763.000000,-0.250000,Suck,-1125.000000,1818.181818,Speed,-982.500000,1818.181818,Speed,Off,On,0.000000,FALSE,0,,,,,0.000000,0.000000,-0.050000
03:58:17.866 PM 04/28/2016,Teleop Enabled,4,FALSE,0,NO ERROR,-0.000000,0.006417,-0.000000,0.000000,TRUE,FALSE,FALSE,FALSE,FALSE,FALSE,Disabled,0.000000,0.000000,0.000000,TRUE,0.005264,0.000015,0.000000,0.046585,0.003250,0.000000,0.010000,0.034000,-0.003000,1.910000,-0.140000,0.190000,0.525937,Hold,-0.003662,0.000000,ResetBack,99535.000000,-0.250000,Suck,-1590.000000,1818.181818,Speed,-1410.000000,1818.181818,Speed,Off,On,0.000000,FALSE,0,,,,,0.000000,0.000000,-0.050000
03:58:17.965 PM 04/28/2016,Teleop Enabled,13,FALSE,0,NO ERROR,-0.000000,0.006417,-0.000000,0.000000,TRUE,FALSE,FALSE,FALSE,FALSE,FALSE,Disabled,0.000000,0.000000,0.000000,TRUE,0.007477,0.001389,0.000000,0.022247,0.025375,0.000000,0.074000,-0.051000,0.012000,1.930000,-0.140000,0.200000,0.524154,Hold,-0.003662,0.000000,ResetBack,107457.000000,-0.250000,Suck,-1815.000000,1818.181818,Speed,-1725.000000,1818.181818,Speed,Off,On,0.000000,FALSE,0,,,,,0.000000,0.000000,-0.050000
03:58:18.067 PM 04/28/2016,Teleop Enabled,12,FALSE,0,NO ERROR,-0.000000,0.012833,-0.000000,0.000000,TRUE,FALSE,FALSE,FALSE,FALSE,FALSE,Disabled,0.000000,0.000000,0.000000,TRUE,0.008606,0.001709,0.000000,0.021805,0.005646,0.000000,0.037000,0.065000,-0.039000,1.960000,-0.130000,0.160000,0.523176,Hold,-0.003662,0.000000,ResetBack,116048.000000,-0.250000,Suck,-1792.500000,1818.181818,Speed,-1807.500000,1818.181818,Speed,Off,On,0.000000,FALSE,0,,,,,0.000000,0.000000,-0.050000
03:58:18.168 PM 04/28/2016,Teleop Enabled,11,FALSE,0,NO ERROR,-0.000000,0.019250,-0.000000,0.000000,TRUE,FALSE,FALSE,FALSE,FALSE,FALSE,Disabled,0.000000,0.000000,0.000000,TRUE,0.008911,0.002670,0.000000,-0.001999,0.008652,0.000000,-0.050000,0.019000,0.057000,2.000000,-0.150000,0.100000,0.499853,Hold,-0.003662,0.000000,ResetBack,122366.000000,-0.250000,Suck,-1755.000000,1818.181818,Speed,-1740.000000,1818.181818,Speed,Off,On,0.000000,FALSE,0,,,,,0.000000,0.000000,-0.050000
03:58:18.269 PM 04/28/2016,Teleop Enabled,11,FALSE,0,NO ERROR,-0.000000,0.019250,-0.000000,0.000000,TRUE,FALSE,FALSE,FALSE,FALSE,FALSE,Disabled,0.000000,0.000000,0.000000,TRUE,0.007324,0.003754,0.000000,-0.041946,0.020645,0.000000,-0.050000,0.019000,0.057000,2.080000,-0.140000,0.020000,0.492554,Hold,-0.003662,0.000000,ResetBack,123826.000000,-0.250000,Suck,-1732.500000,1818.181818,Speed,-1665.000000,1818.181818,Speed,Off,On,0.000000,FALSE,0,,,,,0.000000,0.000000,-0.050000
03:58:18.369 PM 04/28/2016,Teleop Enabled,10,FALSE,0,NO ERROR,-0.000000,0.019250,-0.000000,0.000000,TRUE,FALSE,FALSE,FALSE,FALSE,FALSE,Disabled,0.000000,0.000000,0.000000,TRUE,0.005112,0.004318,0.000000,-0.040726,-0.004852,0.000000,-0.032000,0.054000,-0.008000,2.110000,-0.150000,0.060000,0.480106,Hold,-0.003662,0.000000,ResetBack,124340.000000,-0.250000,Suck,-1725.000000,1818.181818,Speed,-1657.500000,1818.181818,Speed,Off,On,0.000000,FALSE,0,,,,,0.000000,0.000000,-0.050000
03:58:18.469 PM 04/28/2016,Teleop Enabled,11,FALSE,0,NO ERROR,-0.000000,0.019250,-0.000000,0.000000,TRUE,FALSE,FALSE,FALSE,FALSE,FALSE,Disabled,0.000000,0.000000,0.000000,TRUE,0.003555,0.003693,0.000000,-0.023605,-0.007797,0.000000,0.003000,-0.038000,-0.033000,2.110000,-0.150000,0.060000,0.471613,Hold,-0.003662,0.000000,ResetBack,124340.000000,-0.250000,Suck,-1732.500000,1818.181818,Speed,-1680.000000,1818.181818,Speed,Off,On,0.000000,FALSE,0,,,,,0.000000,0.000000,-0.050000
03:58:18.570 PM 04/28/2016,Teleop Enabled,5,FALSE,0,NO ERROR,-0.000000,0.019250,-0.000000,0.000000,TRUE,FALSE,FALSE,FALSE,FALSE,FALSE,Disabled,0.000000,0.000000,0.000000,TRUE,0.003296,0.003265,0.000000,-0.002930,-0.015015,0.000000,0.047000,0.010000,-0.002000,2.020000,-0.160000,0.150000,0.480526,Hold,-0.003662,0.000000,ResetBack,124340.000000,-0.250000,Suck,-1732.500000,1818.181818,Speed,-1702.500000,1818.181818,Speed,Off,On,0.000000,FALSE,0,,,,,0.000000,0.000000,-0.050000
03:58:18.670 PM 04/28/2016,Teleop Enabled,8,FALSE,0,NO ERROR,-0.000000,0.019250,-0.000000,0.000000,TRUE,FALSE,FALSE,FALSE,FALSE,FALSE,Disabled,0.000000,0.000000,0.000000,TRUE,0.003204,0.003220,0.000000,-0.002502,0.000000,0.000000,0.009000,0.013000,-0.060000,1.970000,-0.160000,0.150000,0.481514,Hold,-0.003662,0.000000,Reset,124359.000000,2.000000,Suck,-1740.000000,1818.181818,Speed,-1702.500000,1818.181818,Speed,Off,On,0.000000,FALSE,0,,,,,0.000000,0.000000,-0.050000
03:58:18.772 PM 04/28/2016,Teleop Enabled,9,FALSE,0,NO ERROR,-0.000000,0.019250,-0.000000,0.000000,TRUE,FALSE,FALSE,FALSE,FALSE,FALSE,Disabled,0.000000,0.000000,0.000000,TRUE,0.003189,0.002716,0.000000,0.000000,-0.011108,0.000000,-0.002000,-0.062000,-0.089000,1.910000,-0.160000,0.150000,0.478144,Hold,-0.003662,0.000000,Hold,-225.000000,2.000000,Suck,-1740.000000,1818.181818,Speed,-1695.000000,1818.181818,Speed,Off,On,0.000000,FALSE,0,,,,,0.000000,0.000000,-0.050000
03:58:18.871 PM 04/28/2016,Teleop Enabled,7,FALSE,0,NO ERROR,-0.000000,0.019250,-0.000000,0.000000,TRUE,FALSE,FALSE,FALSE,FALSE,FALSE,Disabled,0.000000,0.000000,0.000000,TRUE,0.003494,0.002197,0.000000,0.000000,-0.013596,0.000000,0.016000,-0.008000,0.004000,1.870000,-0.160000,0.200000,0.470839,Hold,-0.003662,0.000000,Hold,-160.000000,2.000000,Suck,-1740.000000,1818.181818,Speed,-1695.000000,1818.181818,Speed,Off,On,0.000000,FALSE,0,,,,,0.000000,0.000000,-0.050000
03:58:18.973 PM 04/28/2016,Teleop Enabled,10,FALSE,0,NO ERROR,-0.000000,0.019250,-0.000000,0.000000,TRUE,FALSE,FALSE,FALSE,FALSE,FALSE,Disabled,0.000000,0.000000,0.000000,TRUE,0.002899,0.001862,0.000000,-0.022064,-0.006454,0.000000,-0.034000,0.009000,-0.022000,1.870000,-0.160000,0.200000,0.468470,Hold,-0.003662,0.000000,Hold,-160.000000,2.000000,Suck,-1747.500000,1818.181818,Speed,-1702.500000,1818.181818,Speed,Off,On,0.000000,FALSE,0,,,,,0.000000,0.000000,-0.050000
03:58:19.078 PM 04/28/2016,Teleop Enabled,9,FALSE,0,NO ERROR,-0.000000,0.019250,-0.000000,0.000000,TRUE,FALSE,FALSE,FALSE,FALSE,FALSE,Disabled,0.000000,0.000000,0.000000,TRUE,0.001541,0.001434,0.000000,0.000000,-0.018936,0.000000,-0.036000,0.061000,-0.025000,1.830000,-0.170000,0.170000,0.464666,Hold,-0.003662,0.000000,Hold,-160.000000,2.000000,Suck,-1740.000000,1818.181818,Speed,-1702.500000,1818.181818,Speed,Off,On,0.000000,FALSE,0,,,,,0.000000,0.000000,-0.050000
03:58:19.182 PM 04/28/2016,Teleop Enabled,10,FALSE,0,NO ERROR,-0.000000,0.019250,-0.000000,0.000000,TRUE,FALSE,FALSE,FALSE,FALSE,FALSE,Disabled,0.000000,0.000000,0.000000,TRUE,0.001602,0.000412,0.000000,-0.009003,-0.014893,0.000000,0.024000,-0.020000,0.025000,1.830000,-0.170000,0.130000,0.479115,Hold,-0.003662,0.000000,Hold,-160.000000,2.000000,Suck,-1747.500000,1818.181818,Speed,-1710.000000,1818.181818,Speed,Off,On,0.000000,FALSE,0,,,,,0.000000,0.000000,-0.050000
03:58:19.281 PM 04/28/2016,Teleop Enabled,10,FALSE,0,NO ERROR,-0.000000,0.019250,-0.000000,0.000000,TRUE,FALSE,FALSE,FALSE,FALSE,FALSE,Disabled,0.000000,0.000000,0.000000,TRUE,0.001068,-0.000687,0.000000,-0.001541,-0.014450,0.000000,-0.042000,-0.055000,0.039000,1.830000,-0.170000,0.130000,0.483518,Hold,-0.003662,0.000000,Hold,-160.000000,2.000000,Suck,-1747.500000,1818.181818,Speed,-1702.500000,1818.181818,Speed,Off,On,0.000000,FALSE,0,,,,,0.000000,0.000000,-0.050000
03:58:19.382 PM 04/28/2016,Teleop Enabled,10,FALSE,0,NO ERROR,-0.000000,0.019250,-0.000000,0.000000,TRUE,FALSE,FALSE,FALSE,FALSE,FALSE,Disabled,0.000000,0.000000,0.000000,TRUE,0.001099,-0.000641,0.000000,-0.003525,0.003418,0.000000,0.017000,0.001000,0.064000,1.860000,-0.170000,0.160000,0.486616,Hold,-0.003662,0.000000,Hold,-160.000000,2.000000,Suck,-1747.500000,1818.181818,Speed,-1702.500000,1818.181818,Speed,Off,On,0.000000,FALSE,0,,,,,0.000000,0.000000,-0.050000
03:58:19.484 PM 04/28/2016,Teleop Enabled,11,FALSE,0,NO ERROR,-0.000000,0.019250,-0.000000,0.000000,TRUE,FALSE,FALSE,FALSE,FALSE,FALSE,Disabled,0.000000,0.000000,0.000000,TRUE,0.001053,-0.000122,0.000000,0.007080,0.002274,0.000000,-0.009000,0.016000,0.036000,1.890000,-0.170000,0.190000,0.481566,Hold,-0.003662,0.000000,Hold,-160.000000,2.000000,Suck,-1747.500000,1818.181818,Speed,-1695.000000,1818.181818,Speed,Off,On,0.000000,FALSE,0,,,,,0.000000,0.000000,-0.050000
03:58:19.589 PM 04/28/2016,Teleop Enabled,11,FALSE,0,NO ERROR,-0.000000,0.019250,-0.000000,0.000000,TRUE,FALSE,FALSE,FALSE,FALSE,FALSE,Disabled,0.000000,0.000000,0.000000,TRUE,0.002029,0.000229,0.000000,0.016907,0.018204,0.000000,0.084000,-0.010000,0.024000,1.880000,-0.180000,0.240000,0.479252,Hold,-0.003662,0.000000,Hold,-160.000000,2.000000,Suck,-1740.000000,1818.181818,Speed,-1702.500000,1818.181818,Speed,Off,On,0.000000,FALSE,0,,,,,0.000000,0.000000,-0.050000
03:58:19.689 PM 04/28/2016,Teleop Enabled,10,FALSE,0,NO ERROR,-0.000000,0.019250,-0.000000,0.000000,TRUE,FALSE,FALSE,FALSE,FALSE,FALSE,Disabled,0.000000,0.000000,0.000000,TRUE,0.002914,0.001251,0.000000,0.012527,0.029617,0.000000,0.030000,-0.047000,0.050000,1.940000,-0.190000,0.300000,0.480519,Hold,-0.003662,0.000000,Hold,-160.000000,2.000000,Suck,-1740.000000,1818.181818,Speed,-1702.500000,1818.181818,Speed,Off,On,0.000000,FALSE,0,,,,,0.000000,0.000000,-0.050000
03:58:19.789 PM 04/28/2016,Teleop Enabled,10,FALSE,0,NO ERROR,-0.000000,0.019250,-0.000000,0.000000,TRUE,FALSE,FALSE,FALSE,FALSE,FALSE,Disabled,0.000000,0.000000,0.000000,TRUE,0.002701,0.001953,0.000000,-0.010880,0.013657,0.000000,-0.008000,-0.005000,0.053000,1.940000,-0.190000,0.300000,0.476302,Hold,-0.003662,0.000000,Hold,-160.000000,2.000000,Suck,-1747.500000,1818.181818,Speed,-1702.500000,1818.181818,Speed,Off,On,0.000000,FALSE,0,,,,,0.000000,0.000000,-0.050000
03:58:19.890 PM 04/28/2016,Teleop Enabled,9,FALSE,0,NO ERROR,-0.000000,0.019250,-0.000000,0.000000,TRUE,FALSE,FALSE,FALSE,FALSE,FALSE,Disabled,0.000000,0.000000,0.000000,TRUE,0.002289,0.002823,0.000000,0.000000,0.014008,0.000000,-0.021000,0.026000,0.022000,2.020000,-0.190000,0.250000,0.482685,Hold,-0.003662,0.000000,Hold,-160.000000,2.000000,Suck,-1747.500000,1818.181818,Speed,-1702.500000,1818.181818,Speed,Off,On,0.000000,FALSE,0,,,,,0.000000,0.000000,-0.050000
03:58:19.991 PM 04/28/2016,Teleop Enabled,9,FALSE,0,NO ERROR,-0.000000,0.019250,-0.000000,0.000000,TRUE,FALSE,FALSE,FALSE,FALSE,FALSE,Disabled,0.000000,0.000000,0.000000,TRUE,0.002106,0.004044,0.000000,0.003357,0.022232,0.000000,-0.019000,0.056000,0.001000,2.070000,-0.180000,0.210000,0.500204,Hold,-0.003662,0.000000,Hold,-160.000000,2.000000,Suck,-1747.500000,1818.181818,Speed,-1710.000000,1818.181818,Speed,Off,On,0.000000,FALSE,0,,,,,0.000000,0.000000,-0.050000
03:58:20.096 PM 04/28/2016,Teleop Enabled,10,FALSE,0,NO ERROR,-0.000000,0.019250,-0.000000,0.000000,TRUE,FALSE,FALSE,FALSE,FALSE,FALSE,Disabled,0.000000,0.000000,0.000000,TRUE,0.002029,0.005264,0.000000,0.000031,0.031616,0.000000,0.036000,-0.031000,0.022000,2.070000,-0.180000,0.210000,0.501777,Hold,-0.003662,0.000000,Hold,-160.000000,2.000000,Suck,-1747.500000,1818.181818,Speed,-1710.000000,1818.181818,Speed,Off,On,0.000000,FALSE,0,,,,,0.000000,0.000000,-0.050000
03:58:20.195 PM 04/28/2016,Teleop Enabled,9,FALSE,0,NO ERROR,-0.000000,0.019250,-0.000000,0.000000,TRUE,FALSE,FALSE,FALSE,FALSE,FALSE,Disabled,0.000000,0.000000,0.000000,TRUE,0.001648,0.006927,0.000000,-0.020676,0.046005,0.000000,0.055000,-0.024000,0.014000,2.150000,-0.180000,0.160000,0.509530,Hold,-0.003662,0.000000,Hold,-160.000000,2.000000,Suck,-1740.000000,1818.181818,Speed,-1710.000000,1818.181818,Speed,Off,On,0.000000,FALSE,0,,,,,0.000000,0.000000,-0.050000
03:58:20.297 PM 04/28/2016,Teleop Enabled,9,FALSE,0,NO ERROR,-0.000000,0.019250,-0.000000,0.000000,TRUE,FALSE,FALSE,FALSE,FALSE,FALSE,Disabled,0.000000,0.000000,0.000000,TRUE,0.000519,0.008774,0.000000,-0.032196,0.000000,0.000000,-0.017000,-0.035000,-0.028000,2.170000,-0.180000,0.090000,0.522876,Hold,-0.003662,0.000000,Hold,-160.000000,2.000000,Suck,-1747.500000,1818.181818,Speed,-1702.500000,1818.181818,Speed,Off,On,0.000000,FALSE,0,,,,,0.000000,0.000000,-0.050000
03:58:20.397 PM 04/28/2016,Teleop Enabled,9,FALSE,0,NO ERROR,-0.000000,0.019250,-0.000000,0.000000,TRUE,FALSE,FALSE,FALSE,FALSE,FALSE,Disabled,0.000000,0.000000,0.000000,TRUE,-0.000854,0.008514,0.000000,0.000000,-0.007339,0.000000,-0.028000,-0.033000,-0.012000,2.140000,-0.190000,0.070000,0.505071,Hold,-0.003662,0.000000,Hold,-160.000000,2.000000,Suck,-1747.500000,1818.181818,Speed,-1710.000000,1818.181818,Speed,Off,On,0.000000,FALSE,0,,,,,0.000000,0.000000,-0.050000
03:58:20.505 PM 04/28/2016,Teleop Enabled,15,FALSE,0,NO ERROR,-0.000000,0.019250,-0.000000,0.000000,TRUE,FALSE,FALSE,FALSE,FALSE,FALSE,Disabled,0.000000,0.000000,0.000000,TRUE,-0.001038,0.007996,0.000000,0.002106,-0.013596,0.000000,0.026000,-0.037000,0.000000,2.140000,-0.190000,0.070000,0.509912,Hold,-0.003662,0.000000,Hold,-160.000000,2.000000,Suck,-1755.000000,1818.181818,Speed,-1717.500000,1818.181818,Speed,Off,On,0.000000,FALSE,0,,,,,0.000000,0.000000,-0.050000
03:58:20.609 PM 04/28/2016,Teleop Enabled,12,FALSE,0,NO ERROR,-0.000000,0.019250,-0.000000,0.000000,TRUE,FALSE,FALSE,FALSE,FALSE,FALSE,Disabled,0.000000,0.000000,0.000000,TRUE,-0.000259,0.006897,0.000000,0.021637,0.000000,0.000000,0.026000,-0.037000,0.000000,2.100000,-0.190000,0.030000,0.515465,Hold,-0.003662,0.000000,Hold,-160.000000,2.000000,Suck,-1755.000000,1818.181818,Speed,-1717.500000,1818.181818,Speed,Off,On,0.000000,FALSE,0,,,,,0.000000,0.000000,-0.050000
03:58:20.708 PM 04/28/2016,Teleop Enabled,12,FALSE,0,NO ERROR,-0.000000,0.019250,-0.000000,0.000000,TRUE,FALSE,FALSE,FALSE,FALSE,FALSE,Disabled,0.000000,0.000000,0.000000,TRUE,0.001266,0.006485,0.000000,0.033401,0.000000,0.000000,-0.002000,-0.022000,0.050000,2.060000,-0.200000,0.080000,0.494864,Hold,-0.003662,0.000000,Hold,-160.000000,2.000000,Suck,-1747.500000,1818.181818,Speed,-1710.000000,1818.181818,Speed,Off,On,0.000000,FALSE,0,,,,,0.000000,0.000000,-0.050000
03:58:20.812 PM 04/28/2016,Teleop Enabled,10,FALSE,0,NO ERROR,-0.000000,0.019250,-0.000000,0.000000,TRUE,FALSE,FALSE,FALSE,FALSE,FALSE,Disabled,0.000000,0.000000,0.000000,TRUE,0.001755,0.006058,0.000000,-0.006363,-0.007721,0.000000,-0.029000,0.000000,0.066000,2.010000,-0.200000,0.130000,0.500748,Hold,-0.003662,0.000000,Hold,-160.000000,2.000000,Suck,-1755.000000,1818.181818,Speed,-1717.500000,1818.181818,Speed,Off,On,0.000000,FALSE,0,,,,,0.000000,0.000000,-0.050000
03:58:20.917 PM 04/28/2016,Teleop Enabled,13,FALSE,0,NO ERROR,-0.000000,0.019250,-0.000000,0.000000,TRUE,FALSE,FALSE,FALSE,FALSE,FALSE,Disabled,0.000000,0.000000,0.000000,TRUE,0.001312,0.005753,0.000000,-0.009964,-0.013535,0.000000,-0.023000,0.000000,0.070000,2.010000,-0.210000,0.190000,0.510879,Hold,-0.003662,0.000000,Hold,-160.000000,2.000000,Suck,-1755.000000,1818.181818,Speed,-1717.500000,1818.181818,Speed,Off,On,0.000000,FALSE,0,,,,,0.000000,0.000000,-0.050000
03:58:21.017 PM 04/28/2016,Teleop Enabled,7,FALSE,0,NO ERROR,-0.000000,0.019250,-0.000000,0.000000,TRUE,FALSE,FALSE,FALSE,FALSE,FALSE,Disabled,0.000000,0.000000,0.000000,TRUE,0.001068,0.006058,0.000000,-0.001404,-0.000732,0.000000,0.018000,0.014000,0.024000,2.040000,-0.210000,0.230000,0.507970,Hold,-0.003662,0.000000,Hold,-160.000000,2.000000,Suck,-1747.500000,1818.181818,Speed,-1725.000000,1818.181818,Speed,Off,On,0.000000,FALSE,0,,,,,0.000000,0.000000,-0.050000
03:58:21.119 PM 04/28/2016,Teleop Enabled,8,FALSE,0,NO ERROR,-0.000000,0.019250,-0.000000,0.000000,TRUE,FALSE,FALSE,FALSE,FALSE,FALSE,Disabled,0.000000,0.000000,0.000000,TRUE,0.001007,0.006500,0.000000,0.000000,0.009583,0.000000,0.015000,0.031000,-0.022000,2.070000,-0.210000,0.260000,0.512435,Hold,-0.003662,0.000000,Hold,-160.000000,2.000000,Suck,-1755.000000,1818.181818,Speed,-1725.000000,1818.181818,Speed,Off,On,0.000000,FALSE,0,,,,,0.000000,0.000000,-0.050000
03:58:21.222 PM 04/28/2016,Teleop Enabled,11,FALSE,0,NO ERROR,-0.000000,0.019250,-0.000000,0.000000,TRUE,FALSE,FALSE,FALSE,FALSE,FALSE,Disabled,0.000000,0.000000,0.000000,TRUE,0.000595,0.007385,0.000000,-0.014526,0.018860,0.000000,-0.026000,0.065000,-0.022000,2.080000,-0.210000,0.220000,0.510986,Hold,-0.003662,0.000000,Hold,-160.000000,2.000000,Suck,-1755.000000,1818.181818,Speed,-1717.500000,1818.181818,Speed,Off,On,0.000000,FALSE,0,,,,,0.000000,0.000000,-0.050000
03:58:21.322 PM 04/28/2016,Teleop Enabled,10,FALSE,0,NO ERROR,-0.000000,0.019250,-0.000000,0.000000,TRUE,FALSE,FALSE,FALSE,FALSE,FALSE,Disabled,0.000000,0.000000,0.000000,TRUE,-0.000824,0.008072,0.000000,-0.039658,0.016266,0.000000,-0.039000,0.042000,0.011000,2.070000,-0.210000,0.160000,0.514253,Hold,-0.003662,0.000000,Hold,-160.000000,2.000000,Suck,-1755.000000,1818.181818,Speed,-1725.000000,1818.181818,Speed,Off,On,0.000000,FALSE,0,,,,,0.000000,0.000000,-0.050000
03:58:21.424 PM 04/28/2016,Teleop Enabled,12,FALSE,0,NO ERROR,-0.000000,0.019250,-0.000000,0.000000,TRUE,FALSE,FALSE,FALSE,FALSE,FALSE,Disabled,0.000000,0.000000,0.000000,TRUE,-0.002686,0.008759,0.000000,0.000000,0.003128,0.000000,-0.032000,0.025000,0.026000,2.070000,-0.210000,0.120000,0.511939,Hold,-0.003662,0.000000,Hold,-160.000000,2.000000,Suck,-1755.000000,1818.181818,Speed,-1725.000000,1818.181818,Speed,Off,On,0.000000,FALSE,0,,,,,0.000000,0.000000,-0.050000
03:58:21.524 PM 04/28/2016,Teleop Enabled,13,FALSE,0,NO ERROR,-0.000000,0.019250,-0.000000,0.000000,TRUE,FALSE,FALSE,FALSE,FALSE,FALSE,Disabled,0.000000,0.000000,0.000000,TRUE,-0.002502,0.009567,0.000000,0.006256,0.018707,0.000000,-0.004000,0.074000,0.040000,2.080000,-0.220000,0.100000,0.509485,Hold,-0.003662,0.000000,Hold,-160.000000,2.000000,Suck,-1755.000000,1818.181818,Speed,-1725.000000,1818.181818,Speed,Off,On,0.000000,FALSE,0,,,,,0.000000,0.000000,-0.050000
03:58:21.627 PM 04/28/2016,Teleop Enabled,10,FALSE,0,NO ERROR,-0.000000,0.019250,-0.000000,0.000000,TRUE,FALSE,FALSE,FALSE,FALSE,FALSE,Disabled,0.000000,0.000000,0.000000,TRUE,-0.002304,0.009613,0.000000,0.009048,0.000000,0.000000,0.000000,-0.015000,-0.021000,2.080000,-0.220000,0.100000,0.503388,Hold,-0.003662,0.000000,Hold,-160.000000,2.000000,Suck,-1755.000000,1818.181818,Speed,-1725.000000,1818.181818,Speed,Off,On,0.000000,FALSE,0,,,,,0.000000,0.000000,-0.050000
03:58:21.728 PM 04/28/2016,Teleop Enabled,11,FALSE,0,NO ERROR,-0.000000,0.019250,-0.000000,0.000000,TRUE,FALSE,FALSE,FALSE,FALSE,FALSE,Disabled,0.000000,0.000000,0.000000,TRUE,-0.002518,0.009933,0.000000,-0.009979,0.013870,0.000000,0.001000,-0.010000,0.081000,2.150000,-0.230000,0.120000,0.506510,Hold,-0.003662,0.000000,Hold,-160.000000,2.000000,Suck,-1755.000000,1818.181818,Speed,-1725.000000,1818.181818,Speed,Off,On,0.000000,FALSE,0,,,,,0.000000,0.000000,-0.050000
03:58:21.827 PM 04/28/2016,Teleop Enabled,9,FALSE,0,NO ERROR,-0.000000,0.019250,-0.000000,0.000000,TRUE,FALSE,FALSE,FALSE,FALSE,FALSE,Disabled,0.000000,0.000000,0.000000,TRUE,-0.003082,0.010315,0.000000,-0.016632,0.003647,0.000000,0.017000,-0.026000,0.020000,2.210000,-0.220000,0.090000,0.505612,Hold,-0.003662,0.000000,Hold,-160.000000,2.000000,Suck,-1755.000000,1818.181818,Speed,-1725.000000,1818.181818,Speed,Off,On,0.000000,FALSE,0,,,,,0.000000,0.000000,-0.050000
03:58:21.927 PM 04/28/2016,Teleop Enabled,12,FALSE,0,NO ERROR,-0.000000,0.019250,-0.000000,0.000000,TRUE,FALSE,FALSE,FALSE,FALSE,FALSE,Disabled,0.000000,0.000000,0.000000,TRUE,-0.003403,0.010651,0.000000,-0.009918,0.006134,0.000000,-0.003000,0.020000,0.036000,2.220000,-0.220000,0.060000,0.504583,Hold,-0.003662,0.000000,Hold,-160.000000,2.000000,Suck,-1755.000000,1818.181818,Speed,-1725.000000,1818.181818,Speed,Off,On,0.000000,FALSE,0,,,,,0.000000,0.000000,-0.050000
03:58:22.032 PM 04/28/2016,Teleop Enabled,12,FALSE,0,NO ERROR,-0.000000,0.019250,-0.000000,0.000000,TRUE,FALSE,FALSE,FALSE,FALSE,FALSE,Disabled,0.000000,0.000000,0.000000,TRUE,-0.003387,0.011002,0.000000,0.004318,0.004929,0.000000,0.002000,-0.020000,-0.040000,2.190000,-0.230000,0.060000,0.512184,Hold,-0.003662,0.000000,Hold,-160.000000,2.000000,Suck,-1762.500000,1818.181818,Speed,-1732.500000,1818.181818,Speed,Off,On,0.000000,FALSE,0,,,,,0.000000,0.000000,-0.050000
03:58:22.131 PM 04/28/2016,Teleop Enabled,9,FALSE,0,NO ERROR,-0.000000,0.019250,-0.000000,0.000000,TRUE,FALSE,FALSE,FALSE,FALSE,FALSE,Disabled,0.000000,0.000000,0.000000,TRUE,-0.003189,0.011200,0.000000,0.006577,0.009491,0.000000,-0.017000,0.008000,0.010000,2.230000,-0.220000,0.090000,0.513912,Hold,-0.003662,0.000000,Hold,-160.000000,2.000000,Suck,-1755.000000,1818.181818,Speed,-1725.000000,1818.181818,Speed,Off,On,0.000000,FALSE,0,,,,,0.000000,0.000000,-0.050000
03:58:22.234 PM 04/28/2016,Teleop Enabled,9,FALSE,0,NO ERROR,-0.000000,0.019250,-0.000000,0.000000,TRUE,FALSE,FALSE,FALSE,FALSE,FALSE,Disabled,0.000000,0.000000,0.000000,TRUE,-0.002380,0.011368,0.000000,0.018341,0.006042,0.000000,-0.017000,0.008000,0.010000,2.260000,-0.230000,0.160000,0.511065,Hold,-0.003662,0.000000,Hold,-160.000000,2.000000,Suck,-1755.000000,1818.181818,Speed,-1725.000000,1818.181818,Speed,Off,On,0.000000,FALSE,0,,,,,0.000000,0.000000,-0.050000
03:58:22.338 PM 04/28/2016,Teleop Enabled,13,FALSE,0,NO ERROR,-0.000000,0.019250,-0.000000,0.000000,TRUE,FALSE,FALSE,FALSE,FALSE,FALSE,Disabled,0.000000,0.000000,0.000000,TRUE,-0.000046,0.011658,0.000000,0.045929,0.011581,0.000000,0.009000,-0.020000,-0.025000,2.240000,-0.230000,0.190000,0.508593,Hold,-0.003662,0.000000,Hold,-160.000000,2.000000,Suck,-1762.500000,1818.181818,Speed,-1732.500000,1818.181818,Speed,Off,On,0.000000,FALSE,0,,,,,0.000000,0.000000,-0.050000
03:58:22.440 PM 04/28/2016,Teleop Enabled,10,FALSE,0,NO ERROR,-0.000000,0.019250,-0.000000,0.000000,TRUE,FALSE,FALSE,FALSE,FALSE,FALSE,Disabled,0.000000,0.000000,0.000000,TRUE,0.002274,0.011917,0.000000,0.043762,0.000580,0.000000,0.027000,-0.025000,0.000000,2.240000,-0.230000,0.190000,0.510428,Hold,-0.003662,0.000000,Hold,-160.000000,2.000000,Suck,-1762.500000,1818.181818,Speed,-1732.500000,1818.181818,Speed,Off,On,0.000000,FALSE,0,,,,,0.000000,0.000000,-0.050000
03:58:22.545 PM 04/28/2016,Teleop Enabled,11,FALSE,0,NO ERROR,-0.000000,0.019250,-0.000000,0.000000,TRUE,FALSE,FALSE,FALSE,FALSE,FALSE,Disabled,0.000000,0.000000,0.000000,TRUE,0.004639,0.011887,0.000000,0.051071,-0.001404,0.000000,0.030000,0.019000,-0.036000,2.200000,-0.230000,0.200000,0.515647,Hold,-0.003662,0.000000,Hold,-160.000000,2.000000,Suck,-1755.000000,1818.181818,Speed,-1732.500000,1818.181818,Speed,Off,On,0.000000,FALSE,0,,,,,0.000000,0.000000,-0.050000
03:58:22.644 PM 04/28/2016,Teleop Enabled,12,FALSE,0,NO ERROR,-0.000000,0.019250,-0.000000,0.000000,TRUE,FALSE,FALSE,FALSE,FALSE,FALSE,Disabled,0.000000,0.000000,0.000000,TRUE,0.008163,0.011612,0.000000,0.074371,0.000854,0.000000,0.040000,-0.027000,-0.041000,2.180000,-0.250000,0.340000,0.530319,Hold,-0.003662,0.000000,Hold,-160.000000,2.000000,Suck,-1762.500000,1818.181818,Speed,-1740.000000,1818.181818,Speed,Off,On,0.000000,FALSE,0,,,,,0.000000,0.000000,-0.050000
03:58:22.748 PM 04/28/2016,Teleop Enabled,13,FALSE,0,NO ERROR,-0.000000,0.019250,-0.000000,0.000000,TRUE,FALSE,FALSE,FALSE,FALSE,FALSE,Disabled,0.000000,0.000000,0.000000,TRUE,0.012222,0.011368,0.000000,0.076523,0.003662,0.000000,0.023000,-0.027000,-0.032000,2.180000,-0.250000,0.340000,0.547336,Hold,-0.003662,0.000000,Hold,-160.000000,2.000000,Suck,-1755.000000,1818.181818,Speed,-1740.000000,1818.181818,Speed,Off,On,0.000000,FALSE,0,,,,,0.000000,0.000000,-0.050000
03:58:22.846 PM 04/28/2016,Teleop Enabled,12,FALSE,0,NO ERROR,-0.000000,0.019250,-0.000000,0.000000,TRUE,FALSE,FALSE,FALSE,FALSE,FALSE,Disabled,0.000000,0.000000,0.000000,TRUE,0.015381,0.011017,0.000000,-0.006424,-0.009155,0.000000,-0.009000,-0.013000,-0.059000,2.150000,-0.250000,0.370000,0.534471,Hold,-0.003662,0.000000,Hold,-160.000000,2.000000,Suck,-1755.000000,1818.181818,Speed,-1732.500000,1818.181818,Speed,Off,On,0.000000,FALSE,0,,,,,0.000000,0.000000,-0.050000
03:58:22.949 PM 04/28/2016,Teleop Enabled,11,FALSE,0,NO ERROR,-0.000000,0.019250,-0.000000,0.000000,TRUE,FALSE,FALSE,FALSE,FALSE,FALSE,Disabled,0.000000,0.000000,0.000000,TRUE,0.015106,0.010529,0.000000,0.000000,-0.020905,0.000000,-0.063000,-0.016000,-0.055000,2.080000,-0.250000,0.310000,0.527455,Hold,-0.003662,0.000000,Hold,-160.000000,2.000000,Suck,-1762.500000,1818.181818,Speed,-1732.500000,1818.181818,Speed,Off,On,0.000000,FALSE,0,,,,,0.000000,0.000000,-0.050000
03:58:23.052 PM 04/28/2016,Teleop Enabled,9,FALSE,0,NO ERROR,-0.000000,0.019250,-0.000000,0.000000,TRUE,FALSE,FALSE,FALSE,FALSE,FALSE,Disabled,0.000000,0.000000,0.000000,TRUE,0.015076,0.009964,0.000000,0.000000,-0.012695,0.000000,0.022000,-0.005000,-0.052000,2.090000,-0.260000,0.240000,0.528323,Hold,-0.003662,0.000000,Hold,-160.000000,2.000000,Suck,-1762.500000,1818.181818,Speed,-1732.500000,1818.181818,Speed,Off,On,0.000000,FALSE,0,,,,,0.000000,0.000000,-0.050000
03:58:23.154 PM 04/28/2016,Teleop Enabled,11,FALSE,0,NO ERROR,-0.000000,0.019250,-0.000000,0.000000,TRUE,FALSE,FALSE,FALSE,FALSE,FALSE,Disabled,0.000000,0.000000,0.000000,TRUE,0.014420,0.009689,0.000000,-0.017151,0.000916,0.000000,-0.058000,0.013000,-0.017000,2.140000,-0.250000,0.170000,0.530102,Hold,-0.003662,0.000000,Hold,-160.000000,2.000000,Suck,-1762.500000,1818.181818,Speed,-1732.500000,1818.181818,Speed,Off,On,0.000000,FALSE,0,,,,,0.000000,0.000000,-0.050000
03:58:23.257 PM 04/28/2016,Teleop Enabled,12,FALSE,0,NO ERROR,-0.000000,0.019250,-0.000000,0.000000,TRUE,FALSE,FALSE,FALSE,FALSE,FALSE,Disabled,0.000000,0.000000,0.000000,TRUE,0.014664,0.009003,0.000000,0.007767,-0.013031,0.000000,0.008000,0.013000,0.055000,2.140000,-0.250000,0.170000,0.535252,Hold,-0.003662,0.000000,Hold,-160.000000,2.000000,Suck,-1762.500000,1818.181818,Speed,-1740.000000,1818.181818,Speed,Off,On,0.000000,FALSE,0,,,,,0.000000,0.000000,-0.050000
03:58:23.356 PM 04/28/2016,Teleop Enabled,9,FALSE,0,NO ERROR,-0.000000,0.019250,-0.000000,0.000000,TRUE,FALSE,FALSE,FALSE,FALSE,FALSE,Disabled,0.000000,0.000000,0.000000,TRUE,0.015289,0.007736,0.000000,0.000000,-0.029770,0.000000,0.048000,0.032000,0.044000,2.150000,-0.250000,0.190000,0.549518,Hold,-0.003662,0.000000,Hold,-160.000000,2.000000,Suck,-1762.500000,1818.181818,Speed,-1740.000000,1818.181818,Speed,Off,On,0.000000,FALSE,0,,,,,0.000000,0.000000,-0.050000
03:58:23.455 PM 04/28/2016,Teleop Enabled,12,FALSE,0,NO ERROR,-0.000000,0.019250,-0.000000,0.000000,TRUE,FALSE,FALSE,FALSE,FALSE,FALSE,Disabled,0.000000,0.000000,0.000000,TRUE,0.015320,0.007050,0.000000,-0.008041,-0.012192,0.000000,0.041000,-0.016000,-0.053000,2.100000,-0.260000,0.220000,0.557553,Hold,-0.003662,0.000000,Hold,-160.000000,2.000000,Suck,-1762.500000,1818.181818,Speed,-1732.500000,1818.181818,Speed,Off,On,0.000000,FALSE,0,,,,,0.000000,0.000000,-0.050000
03:58:23.555 PM 04/28/2016,Teleop Enabled,10,FALSE,0,NO ERROR,-0.000000,0.019250,-0.000000,0.000000,TRUE,FALSE,FALSE,FALSE,FALSE,FALSE,Disabled,0.000000,0.000000,0.000000,TRUE,0.015320,0.007050,0.000000,-0.008041,-0.012192,0.000000,0.051000,-0.022000,-0.023000,2.060000,-0.260000,0.300000,0.553047,Hold,-0.003662,0.000000,Hold,-160.000000,2.000000,Suck,-1762.500000,1818.181818,Speed,-1740.000000,1818.181818,Speed,Off,On,0.000000,FALSE,0,,,,,0.000000,0.000000,-0.050000
03:58:23.657 PM 04/28/2016,Teleop Enabled,12,FALSE,0,NO ERROR,-0.000000,0.019250,-0.000000,0.000000,TRUE,FALSE,FALSE,FALSE,FALSE,FALSE,Disabled,0.000000,0.000000,0.000000,TRUE,0.015610,0.006607,0.000000,0.004944,0.010300,0.000000,0.015000,-0.018000,-0.028000,2.060000,-0.260000,0.300000,0.559247,Hold,-0.003662,0.000000,Hold,-160.000000,2.000000,Suck,-1762.500000,1818.181818,Speed,-1740.000000,1818.181818,Speed,Off,On,0.000000,FALSE,0,,,,,0.000000,0.000000,-0.050000
03:58:23.758 PM 04/28/2016,Teleop Enabled,10,FALSE,0,NO ERROR,-0.000000,0.019250,-0.000000,0.000000,TRUE,FALSE,FALSE,FALSE,FALSE,FALSE,Disabled,0.000000,0.000000,0.000000,TRUE,0.015182,0.006897,0.000000,-0.021088,0.007492,0.000000,-0.019000,0.019000,0.027000,2.070000,-0.270000,0.310000,0.567550,Hold,-0.003662,0.000000,Hold,-160.000000,2.000000,Suck,-1762.500000,1818.181818,Speed,-1747.500000,1818.181818,Speed,Off,On,0.000000,FALSE,0,,,,,0.000000,0.000000,-0.050000
03:58:23.861 PM 04/28/2016,Teleop Enabled,10,FALSE,0,NO ERROR,-0.000000,0.019250,-0.000000,0.000000,TRUE,FALSE,FALSE,FALSE,FALSE,FALSE,Disabled,0.000000,0.000000,0.000000,TRUE,0.013458,0.007339,0.000000,-0.036499,0.001251,0.000000,-0.052000,0.045000,0.016000,2.100000,-0.270000,0.230000,0.573720,Hold,-0.003662,0.000000,Hold,-160.000000,2.000000,Suck,-1762.500000,1818.181818,Speed,-1740.000000,1818.181818,Speed,Off,On,0.000000,FALSE,0,,,,,0.000000,0.000000,-0.050000
03:58:23.961 PM 04/28/2016,Teleop Enabled,9,FALSE,0,NO ERROR,-0.000000,0.019250,-0.000000,0.000000,TRUE,FALSE,FALSE,FALSE,FALSE,FALSE,Disabled,0.000000,0.000000,0.000000,TRUE,0.013458,0.007339,0.000000,-0.036499,0.001251,0.000000,-0.008000,0.074000,0.039000,2.070000,-0.270000,0.190000,0.562552,Hold,-0.003662,0.000000,Hold,-160.000000,2.000000,Suck,-1762.500000,1818.181818,Speed,-1740.000000,1818.181818,Speed,Off,On,0.000000,FALSE,0,,,,,0.000000,0.000000,-0.050000
03:58:24.063 PM 04/28/2016,Teleop Enabled,12,FALSE,0,NO ERROR,-0.000000,0.019250,-0.000000,0.000000,TRUE,FALSE,FALSE,FALSE,FALSE,FALSE,Disabled,0.000000,0.000000,0.000000,TRUE,0.012421,0.007385,0.000000,0.013077,0.004196,0.000000,0.026000,0.000000,0.000000,2.040000,-0.270000,0.230000,0.566762,Hold,-0.003662,0.000000,Hold,-160.000000,2.000000,Suck,-1762.500000,1818.181818,Speed,-1747.500000,1818.181818,Speed,Off,On,0.000000,FALSE,0,,,,,0.000000,0.000000,-0.050000
03:58:24.166 PM 04/28/2016,Teleop Enabled,11,FALSE,0,NO ERROR,-0.000000,0.019250,-0.000000,0.000000,TRUE,FALSE,FALSE,FALSE,FALSE,FALSE,Disabled,0.000000,0.000000,0.000000,TRUE,0.012421,0.007385,0.000000,0.013077,0.004196,0.000000,-0.037000,-0.012000,0.017000,2.070000,-0.280000,0.230000,0.569069,Hold,-0.003662,0.000000,Hold,-160.000000,2.000000,Suck,-1762.500000,1818.181818,Speed,-1747.500000,1818.181818,Speed,Off,On,0.000000,FALSE,0,,,,,0.000000,0.000000,-0.050000
03:58:24.265 PM 04/28/2016,Teleop Enabled,13,FALSE,0,NO ERROR,-0.000000,0.019250,-0.000000,0.000000,TRUE,FALSE,FALSE,FALSE,FALSE,FALSE,Disabled,0.000000,0.000000,0.000000,TRUE,0.012146,0.007202,0.000000,0.003250,-0.006454,0.000000,-0.085000,0.015000,0.021000,2.070000,-0.280000,0.230000,0.564246,Hold,-0.003662,0.000000,Hold,-160.000000,2.000000,Suck,-1762.500000,1818.181818,Speed,-1732.500000,1818.181818,Speed,Off,On,0.000000,FALSE,0,,,,,0.000000,0.000000,-0.050000
03:58:24.365 PM 04/28/2016,Teleop Enabled,10,FALSE,0,NO ERROR,-0.000000,0.019250,-0.000000,0.000000,TRUE,FALSE,FALSE,FALSE,FALSE,FALSE,Disabled,0.000000,0.000000,0.000000,TRUE,0.012146,0.007202,0.000000,0.003250,-0.006454,0.000000,-0.014000,-0.061000,-0.001000,2.050000,-0.280000,0.210000,0.560879,Hold,-0.003662,0.000000,Hold,-160.000000,2.000000,Suck,-1762.500000,1818.181818,Speed,-1732.500000,1818.181818,Speed,Off,On,0.000000,FALSE,0,,,,,0.000000,0.000000,-0.050000
03:58:24.465 PM 04/28/2016,Teleop Enabled,11,FALSE,0,NO ERROR,-0.000000,0.019250,-0.000000,0.000000,TRUE,FALSE,FALSE,FALSE,FALSE,FALSE,Disabled,0.000000,0.000000,0.000000,TRUE,0.012543,0.007065,0.000000,0.013382,-0.001556,0.000000,0.026000,0.045000,0.064000,2.040000,-0.280000,0.230000,0.568053,Hold,-0.003662,0.000000,Hold,-160.000000,2.000000,Suck,-1770.000000,1818.181818,Speed,-1747.500000,1818.181818,Speed,Off,On,0.000000,FALSE,0,,,,,0.000000,0.000000,-0.050000
03:58:24.566 PM 04/28/2016,Teleop Enabled,11,FALSE,0,NO ERROR,-0.000000,0.019250,-0.000000,0.000000,TRUE,FALSE,FALSE,FALSE,FALSE,FALSE,Disabled,0.000000,0.000000,0.000000,TRUE,0.014191,0.007187,0.000000,0.036285,-0.002121,0.000000,0.018000,-0.109000,0.015000,2.040000,-0.280000,0.310000,0.585128,Hold,-0.003662,0.000000,Hold,-160.000000,2.000000,Suck,-1770.000000,1818.181818,Speed,-1747.500000,1818.181818,Speed,Off,On,0.000000,FALSE,0,,,,,0.000000,0.000000,-0.050000
03:58:24.666 PM 04/28/2016,Teleop Enabled,10,FALSE,0,NO ERROR,-0.000000,0.019250,-0.000000,0.000000,TRUE,FALSE,FALSE,FALSE,FALSE,FALSE,Disabled,0.000000,0.000000,0.000000,TRUE,0.013596,0.007019,0.000000,-0.024384,-0.004349,0.000000,-0.004000,-0.107000,0.003000,2.040000,-0.280000,0.240000,0.585128,Hold,-0.003662,0.000000,Hold,-160.000000,2.000000,Suck,-1762.500000,1818.181818,Speed,-1747.500000,1818.181818,Speed,Off,On,0.000000,FALSE,0,,,,,0.000000,0.000000,-0.050000
03:58:24.768 PM 04/28/2016,Teleop Enabled,10,FALSE,0,NO ERROR,-0.000000,0.019250,-0.000000,0.000000,TRUE,FALSE,FALSE,FALSE,FALSE,FALSE,Disabled,0.000000,0.000000,0.000000,TRUE,0.012131,0.006561,0.000000,-0.033203,-0.002365,0.000000,0.034000,-0.005000,-0.031000,2.060000,-0.280000,0.190000,0.594103,Hold,-0.003662,0.000000,Hold,-160.000000,2.000000,Suck,-1770.000000,1818.181818,Speed,-1755.000000,1818.181818,Speed,Off,On,0.000000,FALSE,0,,,,,0.000000,0.000000,-0.050000
03:58:24.867 PM 04/28/2016,Teleop Enabled,11,FALSE,0,NO ERROR,-0.000000,0.019250,-0.000000,0.000000,TRUE,FALSE,FALSE,FALSE,FALSE,FALSE,Disabled,0.000000,0.000000,0.000000,TRUE,0.010818,0.006241,0.000000,-0.021790,-0.014297,0.000000,0.021000,0.065000,-0.002000,2.070000,-0.280000,0.260000,0.596723,Hold,-0.003662,0.000000,Hold,-160.000000,2.000000,Suck,-1762.500000,1818.181818,Speed,-1747.500000,1818.181818,Speed,Off,On,0.000000,FALSE,0,,,,,0.000000,0.000000,-0.050000
03:58:24.968 PM 04/28/2016,Teleop Enabled,11,FALSE,0,NO ERROR,-0.000000,0.019250,-0.000000,0.000000,TRUE,FALSE,FALSE,FALSE,FALSE,FALSE,Disabled,0.000000,0.000000,0.000000,TRUE,0.009705,0.005859,0.000000,-0.017776,-0.018036,0.000000,0.079000,0.056000,0.012000,2.080000,-0.290000,0.260000,0.604059,Hold,-0.003662,0.000000,Hold,-160.000000,2.000000,Suck,-1762.500000,1818.181818,Speed,-1740.000000,1818.181818,Speed,Off,On,0.000000,FALSE,0,,,,,0.000000,0.000000,-0.050000
03:58:25.068 PM 04/28/2016,Teleop Enabled,10,FALSE,0,NO ERROR,-0.000000,0.019250,-0.000000,0.000000,TRUE,FALSE,FALSE,FALSE,FALSE,FALSE,Disabled,0.000000,0.000000,0.000000,TRUE,0.009583,0.004837,0.000000,0.008606,-0.031082,0.000000,0.032000,-0.068000,-0.036000,1.970000,-0.290000,0.290000,0.609725,Hold,-0.003662,0.000000,Hold,-160.000000,2.000000,Suck,-1770.000000,1818.181818,Speed,-1747.500000,1818.181818,Speed,Off,On,0.000000,FALSE,0,,,,,0.000000,0.000000,-0.050000
03:58:25.169 PM 04/28/2016,Teleop Enabled,11,FALSE,0,NO ERROR,-0.000000,0.019250,-0.000000,0.000000,TRUE,FALSE,FALSE,FALSE,FALSE,FALSE,Disabled,0.000000,0.000000,0.000000,TRUE,0.009903,0.003113,0.000000,-0.000519,-0.029541,0.000000,0.014000,0.009000,-0.023000,1.990000,-0.290000,0.270000,0.615047,Hold,-0.003662,0.000000,Hold,-160.000000,2.000000,Suck,-1770.000000,1818.181818,Speed,-1740.000000,1818.181818,Speed,Off,On,0.000000,FALSE,0,,,,,0.000000,0.000000,-0.050000
03:58:25.269 PM 04/28/2016,Teleop Enabled,10,FALSE,0,NO ERROR,-0.000000,0.019250,-0.000000,0.000000,TRUE,FALSE,FALSE,FALSE,FALSE,FALSE,Disabled,0.000000,0.000000,0.000000,TRUE,0.009583,0.001938,0.000000,-0.008530,0.000000,0.000000,-0.019000,0.057000,0.003000,2.020000,-0.300000,0.250000,0.599067,Hold,-0.003662,0.000000,Hold,-160.000000,2.000000,Suck,-1762.500000,1818.181818,Speed,-1740.000000,1818.181818,Speed,Off,On,0.000000,FALSE,0,,,,,0.000000,0.000000,-0.050000
03:58:25.370 PM 04/28/2016,Teleop Enabled,10,FALSE,0,NO ERROR,-0.000000,0.019250,-0.000000,0.000000,TRUE,FALSE,FALSE,FALSE,FALSE,FALSE,Disabled,0.000000,0.000000,0.000000,TRUE,0.009766,0.001709,0.000000,0.009003,-0.013947,0.000000,0.025000,0.064000,0.055000,1.970000,-0.300000,0.280000,0.589242,Hold,-0.003662,0.000000,Hold,-160.000000,2.000000,Suck,-1762.500000,1818.181818,Speed,-1747.500000,1818.181818,Speed,Off,On,0.000000,FALSE,0,,,,,0.000000,0.000000,-0.050000
03:58:25.473 PM 04/28/2016,Teleop Enabled,9,FALSE,0,NO ERROR,-0.000000,0.019250,-0.000000,0.000000,TRUE,FALSE,FALSE,FALSE,FALSE,FALSE,Disabled,0.000000,0.000000,0.000000,TRUE,0.010025,0.001144,0.000000,-0.000122,-0.018036,0.000000,0.008000,-0.002000,0.053000,1.950000,-0.300000,0.240000,0.607133,Hold,-0.003662,0.000000,Hold,-160.000000,2.000000,Suck,-1770.000000,1818.181818,Speed,-1747.500000,1818.181818,Speed,Off,On,0.000000,FALSE,0,,,,,0.000000,0.000000,-0.050000
03:58:25.574 PM 04/28/2016,Teleop Enabled,10,FALSE,0,NO ERROR,-0.000000,0.019250,-0.000000,0.000000,TRUE,FALSE,FALSE,FALSE,FALSE,FALSE,Disabled,0.000000,0.000000,0.000000,TRUE,0.010086,0.000549,0.000000,0.000000,-0.010269,0.000000,0.042000,-0.017000,0.037000,1.970000,-0.300000,0.260000,0.612655,Hold,-0.003662,0.000000,Hold,-160.000000,2.000000,Suck,-1770.000000,1818.181818,Speed,-1747.500000,1818.181818,Speed,Off,On,0.000000,FALSE,0,,,,,0.000000,0.000000,-0.050000
03:58:25.675 PM 04/28/2016,Teleop Enabled,9,FALSE,0,NO ERROR,-0.000000,0.019250,-0.000000,0.000000,TRUE,FALSE,FALSE,FALSE,FALSE,FALSE,Disabled,0.000000,0.000000,0.000000,TRUE,0.010529,-0.000290,0.000000,0.012085,-0.016235,0.000000,-0.008000,0.018000,0.046000,1.940000,-0.310000,0.310000,0.619113,Hold,-0.003662,0.000000,Hold,-160.000000,2.000000,Suck,-1770.000000,1818.181818,Speed,-1755.000000,1818.181818,Speed,Off,On,0.000000,FALSE,0,,,,,0.000000,0.000000,-0.050000
03:58:25.776 PM 04/28/2016,Teleop Enabled,9,FALSE,0,NO ERROR,-0.000000,0.019250,-0.000000,0.000000,TRUE,FALSE,FALSE,FALSE,FALSE,FALSE,Disabled,0.000000,0.000000,0.000000,TRUE,0.010635,-0.000854,0.000000,-0.004654,-0.009705,0.000000,-0.045000,-0.035000,0.009000,1.930000,-0.310000,0.300000,0.628993,Hold,-0.003662,0.000000,Hold,-160.000000,2.000000,Suck,-1770.000000,1818.181818,Speed,-1747.500000,1818.181818,Speed,Off,On,0.000000,FALSE,0,,,,,0.000000,0.000000,-0.050000
03:58:25.876 PM 04/28/2016,Teleop Enabled,10,FALSE,0,NO ERROR,-0.000000,0.019250,-0.000000,0.000000,TRUE,FALSE,FALSE,FALSE,FALSE,FALSE,Disabled,0.000000,0.000000,0.000000,TRUE,0.009445,-0.001389,0.000000,-0.029022,-0.010910,0.000000,0.007000,0.029000,-0.003000,1.970000,-0.310000,0.270000,0.625120,Hold,-0.003662,0.000000,Hold,-160.000000,2.000000,Suck,-1770.000000,1818.181818,Speed,-1747.500000,1818.181818,Speed,Off,On,0.000000,FALSE,0,,,,,0.000000,0.000000,-0.050000
03:58:25.976 PM 04/28/2016,Teleop Enabled,10,FALSE,0,NO ERROR,-0.000000,0.019250,-0.000000,0.000000,TRUE,FALSE,FALSE,FALSE,FALSE,FALSE,Disabled,0.000000,0.000000,0.000000,TRUE,0.007950,-0.001709,0.000000,-0.027725,-0.011169,0.000000,-0.012000,-0.060000,-0.081000,2.000000,-0.310000,0.270000,0.629313,Hold,-0.003662,0.000000,Hold,-160.000000,2.000000,Suck,-1770.000000,1818.181818,Speed,-1747.500000,1818.181818,Speed,Off,On,0.000000,FALSE,0,,,,,0.000000,0.000000,-0.050000
03:58:26.076 PM 04/28/2016,Teleop Enabled,9,FALSE,0,NO ERROR,-0.000000,0.019250,-0.000000,0.000000,TRUE,FALSE,FALSE,FALSE,FALSE,FALSE,Disabled,0.000000,0.000000,0.000000,TRUE,0.006836,-0.002747,0.000000,-0.023102,-0.026749,0.000000,-0.002000,-0.021000,-0.033000,1.970000,-0.310000,0.270000,0.635283,Hold,-0.003662,0.000000,Hold,-160.000000,2.000000,Suck,-1762.500000,1818.181818,Speed,-1755.000000,1818.181818,Speed,Off,On,0.000000,FALSE,0,,,,,0.000000,0.000000,-0.050000
03:58:26.176 PM 04/28/2016,Teleop Enabled,10,FALSE,0,NO ERROR,-0.000000,0.019250,-0.000000,0.000000,TRUE,FALSE,FALSE,FALSE,FALSE,FALSE,Disabled,0.000000,0.000000,0.000000,TRUE,0.005875,-0.004578,0.000000,-0.012405,-0.023956,0.000000,-0.012000,-0.058000,-0.022000,1.970000,-0.310000,0.280000,0.648309,Hold,-0.003662,0.000000,Hold,-160.000000,2.000000,Suck,-1770.000000,1818.181818,Speed,-1747.500000,1818.181818,Speed,Off,On,0.000000,FALSE,0,,,,,0.000000,0.000000,-0.050000
03:58:26.276 PM 04/28/2016,Teleop Enabled,9,FALSE,0,NO ERROR,-0.000000,0.019250,-0.000000,0.000000,TRUE,FALSE,FALSE,FALSE,FALSE,FALSE,Disabled,0.000000,0.000000,0.000000,TRUE,0.005539,-0.005981,0.000000,-0.003601,-0.024902,0.000000,0.020000,0.067000,-0.001000,1.990000,-0.310000,0.270000,0.645518,Hold,-0.003662,0.000000,Hold,-160.000000,2.000000,Suck,-1770.000000,1818.181818,Speed,-1747.500000,1818.181818,Speed,Off,On,0.000000,FALSE,0,,,,,0.000000,0.000000,-0.050000
03:58:26.376 PM 04/28/2016,Teleop Enabled,9,FALSE,0,NO ERROR,-0.000000,0.019250,-0.000000,0.000000,TRUE,FALSE,FALSE,FALSE,FALSE,FALSE,Disabled,0.000000,0.000000,0.000000,TRUE,0.005127,-0.006714,0.000000,-0.012619,-0.016968,0.000000,-0.045000,-0.010000,-0.020000,1.960000,-0.310000,0.270000,0.640973,Hold,-0.003662,0.000000,Hold,-160.000000,2.000000,Suck,-1770.000000,1818.181818,Speed,-1740.000000,1818.181818,Speed,Off,On,0.000000,FALSE,0,,,,,0.000000,0.000000,-0.050000
03:58:26.476 PM 04/28/2016,Teleop Enabled,11,FALSE,0,NO ERROR,-0.000000,0.019250,-0.000000,0.000000,TRUE,FALSE,FALSE,FALSE,FALSE,FALSE,Disabled,0.000000,0.000000,0.000000,TRUE,0.004852,-0.007599,0.000000,0.000000,-0.025848,0.000000,0.016000,0.036000,-0.012000,1.960000,-0.310000,0.290000,0.642991,Hold,-0.003662,0.000000,Hold,-160.000000,2.000000,Suck,-1770.000000,1818.181818,Speed,-1740.000000,1818.181818,Speed,Off,On,0.000000,FALSE,0,,,,,0.000000,0.000000,-0.050000
03:58:26.576 PM 04/28/2016,Teleop Enabled,9,FALSE,0,NO ERROR,-0.000000,0.019250,-0.000000,0.000000,TRUE,FALSE,FALSE,FALSE,FALSE,FALSE,Disabled,0.000000,0.000000,0.000000,TRUE,0.005005,-0.008728,0.000000,0.007919,-0.019836,0.000000,-0.009000,0.057000,-0.011000,1.960000,-0.310000,0.290000,0.637118,Hold,-0.003662,0.000000,Hold,-160.000000,2.000000,Suck,-1770.000000,1818.181818,Speed,-1747.500000,1818.181818,Speed,Off,On,0.000000,FALSE,0,,,,,0.000000,0.000000,-0.050000
03:58:26.676 PM 04/28/2016,Teleop Enabled,9,FALSE,0,NO ERROR,-0.000000,0.019250,-0.000000,0.000000,TRUE,FALSE,FALSE,FALSE,FALSE,FALSE,Disabled,0.000000,0.000000,0.000000,TRUE,0.005295,-0.010147,0.000000,-0.000198,-0.025925,0.000000,0.036000,0.043000,0.055000,1.920000,-0.300000,0.260000,0.650437,Hold,-0.003662,0.000000,Hold,-160.000000,2.000000,Suck,-1770.000000,1818.181818,Speed,-1747.500000,1818.181818,Speed,Off,On,0.000000,FALSE,0,,,,,0.000000,0.000000,-0.050000
03:58:26.776 PM 04/28/2016,Teleop Enabled,9,FALSE,0,NO ERROR,-0.000000,0.019250,-0.000000,0.000000,TRUE,FALSE,FALSE,FALSE,FALSE,FALSE,Disabled,0.000000,0.000000,0.000000,TRUE,0.005371,-0.011490,0.000000,0.002563,-0.029861,0.000000,0.009000,-0.008000,0.030000,1.950000,-0.300000,0.240000,0.644020,Hold,-0.003662,0.000000,Hold,-160.000000,2.000000,Suck,-1770.000000,1818.181818,Speed,-1755.000000,1818.181818,Speed,Off,On,0.000000,FALSE,0,,,,,0.000000,0.000000,-0.050000
03:58:26.877 PM 04/28/2016,Teleop Enabled,9,FALSE,0,NO ERROR,-0.000000,0.019250,-0.000000,0.000000,TRUE,FALSE,FALSE,FALSE,FALSE,FALSE,Disabled,0.000000,0.000000,0.000000,TRUE,0.006088,-0.012985,0.000000,0.023041,-0.034348,0.000000,0.003000,-0.120000,-0.062000,1.930000,-0.310000,0.340000,0.641125,Hold,-0.003662,0.000000,Hold,-160.000000,2.000000,Suck,-1770.000000,1818.181818,Speed,-1747.500000,1818.181818,Speed,Off,On,0.000000,FALSE,0,,,,,0.000000,0.000000,-0.050000
03:58:26.977 PM 04/28/2016,Teleop Enabled,9,FALSE,0,NO ERROR,-0.000000,0.019250,-0.000000,0.000000,TRUE,FALSE,FALSE,FALSE,FALSE,FALSE,Disabled,0.000000,0.000000,0.000000,TRUE,0.006104,-0.014832,0.000000,-0.007309,-0.033142,0.000000,-0.022000,-0.053000,-0.087000,1.910000,-0.300000,0.270000,0.638020,Hold,-0.003662,0.000000,Hold,-160.000000,2.000000,Suck,-1777.500000,1818.181818,Speed,-1747.500000,1818.181818,Speed,Off,On,0.000000,FALSE,0,,,,,0.000000,0.000000,-0.050000
03:58:27.077 PM 04/28/2016,Teleop Enabled,9,FALSE,0,NO ERROR,-0.000000,0.019250,-0.000000,0.000000,TRUE,FALSE,FALSE,FALSE,FALSE,FALSE,Disabled,0.000000,0.000000,0.000000,TRUE,0.005341,-0.016922,0.000000,-0.019989,-0.037796,0.000000,0.007000,-0.082000,0.066000,1.910000,-0.300000,0.270000,0.640843,Hold,-0.003662,0.000000,Hold,-160.000000,2.000000,Suck,-1770.000000,1818.181818,Speed,-1755.000000,1818.181818,Speed,Off,On,0.000000,FALSE,0,,,,,0.000000,0.000000,-0.050000
03:58:27.178 PM 04/28/2016,Teleop Enabled,10,FALSE,0,NO ERROR,-0.000000,0.019250,-0.000000,0.000000,TRUE,FALSE,FALSE,FALSE,FALSE,FALSE,Disabled,0.000000,0.000000,0.000000,TRUE,0.004959,-0.019394,0.000000,0.002197,-0.057739,0.000000,-0.036000,0.065000,0.041000,1.880000,-0.300000,0.310000,0.639789,Hold,-0.003662,0.000000,Hold,-160.000000,2.000000,Suck,-1770.000000,1818.181818,Speed,-1762.500000,1818.181818,Speed,Off,On,0.000000,FALSE,0,,,,,0.000000,0.000000,-0.050000
03:58:27.278 PM 04/28/2016,Teleop Enabled,9,FALSE,0,NO ERROR,-0.000000,0.019250,-0.000000,0.000000,TRUE,FALSE,FALSE,FALSE,FALSE,FALSE,Disabled,0.000000,0.000000,0.000000,TRUE,0.004562,-0.022095,0.000000,-0.009628,0.000000,0.000000,0.015000,0.064000,-0.064000,1.850000,-0.300000,0.260000,0.639314,Hold,-0.003662,0.000000,Hold,-160.000000,2.000000,Suck,-1777.500000,1818.181818,Speed,-1747.500000,1818.181818,Speed,Off,On,0.000000,FALSE,0,,,,,0.000000,0.000000,-0.050000
03:58:27.378 PM 04/28/2016,Teleop Enabled,9,FALSE,0,NO ERROR,-0.000000,0.019250,-0.000000,0.000000,TRUE,FALSE,FALSE,FALSE,FALSE,FALSE,Disabled,0.000000,0.000000,0.000000,TRUE,0.004425,-0.021622,0.000000,0.000961,0.002701,0.000000,0.048000,0.028000,-0.009000,1.850000,-0.300000,0.260000,0.639782,Hold,-0.003662,0.000000,Hold,-160.000000,2.000000,Suck,-1777.500000,1818.181818,Speed,-1755.000000,1818.181818,Speed,Off,On,0.000000,FALSE,0,,,,,0.000000,0.000000,-0.050000
03:58:27.478 PM 04/28/2016,Teleop Enabled,9,FALSE,0,NO ERROR,-0.000000,0.019250,-0.000000,0.000000,TRUE,FALSE,FALSE,FALSE,FALSE,FALSE,Disabled,0.000000,0.000000,0.000000,TRUE,0.004852,-0.021133,0.000000,0.008377,0.014694,0.000000,-0.028000,-0.035000,0.021000,1.860000,-0.300000,0.260000,0.638805,Hold,-0.003662,0.000000,Hold,-160.000000,2.000000,Suck,-1770.000000,1818.181818,Speed,-1762.500000,1818.181818,Speed,Off,On,0.000000,FALSE,0,,,,,0.000000,0.000000,-0.050000
03:58:27.578 PM 04/28/2016,Teleop Enabled,9,FALSE,0,NO ERROR,-0.000000,0.019250,-0.000000,0.000000,TRUE,FALSE,FALSE,FALSE,FALSE,FALSE,Disabled,0.000000,0.000000,0.000000,TRUE,0.004898,-0.020630,0.000000,0.000000,0.014191,0.000000,0.063000,-0.033000,0.086000,1.880000,-0.300000,0.260000,0.641207,Hold,-0.003662,0.000000,Hold,-160.000000,2.000000,Suck,-1777.500000,1818.181818,Speed,-1755.000000,1818.181818,Speed,Off,On,0.000000,FALSE,0,,,,,0.000000,0.000000,-0.050000
03:58:27.678 PM 04/28/2016,Teleop Enabled,10,FALSE,0,NO ERROR,-0.000000,0.019250,-0.000000,0.000000,TRUE,FALSE,FALSE,FALSE,FALSE,FALSE,Disabled,0.000000,0.000000,0.000000,TRUE,0.005997,-0.020325,0.000000,0.024048,0.001236,0.000000,-0.013000,0.038000,0.053000,1.840000,-0.300000,0.310000,0.646285,Hold,-0.003662,0.000000,Hold,-160.000000,2.000000,Suck,-1770.000000,1818.181818,Speed,-1755.000000,1818.181818,Speed,Off,On,0.000000,FALSE,0,,,,,0.000000,0.000000,-0.050000
03:58:27.778 PM 04/28/2016,Teleop Enabled,3,FALSE,0,NO ERROR,-0.000000,0.019250,-0.000000,0.000000,TRUE,FALSE,FALSE,FALSE,FALSE,FALSE,Disabled,0.000000,0.000000,0.000000,TRUE,0.006607,-0.020020,0.000000,0.006851,-0.001053,0.000000,-0.025000,0.035000,-0.006000,1.830000,-0.300000,0.270000,0.644729,Hold,-0.003662,0.000000,Hold,-160.000000,2.000000,Suck,-1777.500000,1818.181818,Speed,-1755.000000,1818.181818,Speed,Off,On,0.000000,FALSE,0,,,,,0.000000,0.000000,-0.050000
03:58:27.878 PM 04/28/2016,Teleop Enabled,9,FALSE,0,NO ERROR,-0.000000,0.019250,-0.000000,0.000000,TRUE,FALSE,FALSE,FALSE,FALSE,FALSE,Disabled,0.000000,0.000000,0.000000,TRUE,0.006805,-0.019821,0.000000,0.004517,0.009125,0.000000,0.028000,-0.076000,-0.056000,1.850000,-0.300000,0.310000,0.635579,Hold,-0.003662,0.000000,Hold,-160.000000,2.000000,Suck,-1770.000000,1818.181818,Speed,-1762.500000,1818.181818,Speed,Off,On,0.000000,FALSE,0,,,,,0.000000,0.000000,-0.050000
03:58:27.978 PM 04/28/2016,Teleop Enabled,10,FALSE,0,NO ERROR,-0.000000,0.019250,-0.000000,0.000000,TRUE,FALSE,FALSE,FALSE,FALSE,FALSE,Disabled,0.000000,0.000000,0.000000,TRUE,0.007202,-0.019516,0.000000,0.006454,0.011093,0.000000,0.018000,-0.066000,-0.006000,1.840000,-0.300000,0.310000,0.626952,Hold,-0.003662,0.000000,Hold,-160.000000,2.000000,Suck,-1770.000000,1818.181818,Speed,-1770.000000,1818.181818,Speed,Off,On,0.000000,FALSE,0,,,,,0.000000,0.000000,-0.050000
03:58:28.078 PM 04/28/2016,Teleop Enabled,17,FALSE,0,NO ERROR,-0.000000,0.019250,-0.000000,0.000000,TRUE,FALSE,FALSE,FALSE,FALSE,FALSE,Disabled,0.000000,0.000000,0.000000,TRUE,0.007019,-0.019257,0.000000,0.001923,0.001648,0.000000,-0.014000,-0.044000,-0.057000,1.840000,-0.310000,0.320000,0.630257,Hold,-0.003662,0.000000,Hold,-160.000000,2.000000,Suck,-1777.500000,1818.181818,Speed,-1770.000000,1818.181818,Speed,Off,On,0.000000,FALSE,0,,,,,0.000000,0.000000,-0.050000
03:58:28.178 PM 04/28/2016,Teleop Enabled,1,FALSE,0,NO ERROR,-0.000000,0.019250,-0.000000,0.000000,TRUE,FALSE,FALSE,FALSE,FALSE,FALSE,Disabled,0.000000,0.000000,0.000000,TRUE,0.007202,-0.019348,0.000000,-0.001907,-0.008499,0.000000,-0.012000,-0.028000,-0.044000,1.840000,-0.310000,0.350000,0.640123,Hold,-0.003662,0.000000,Hold,-160.000000,2.000000,Suck,-1777.500000,1818.181818,Speed,-1777.500000,1818.181818,Speed,Off,On,0.000000,FALSE,0,,,,,0.000000,0.000000,-0.050000
03:58:28.278 PM 04/28/2016,Teleop Enabled,7,FALSE,0,NO ERROR,-0.000000,0.019250,-0.000000,0.000000,TRUE,FALSE,FALSE,FALSE,FALSE,FALSE,Disabled,0.000000,0.000000,0.000000,TRUE,0.007233,-0.019424,0.000000,0.002609,-0.006073,0.000000,0.012000,-0.010000,-0.049000,1.860000,-0.310000,0.330000,0.651366,Hold,-0.003662,0.000000,Hold,-160.000000,2.000000,Suck,-1770.000000,1818.181818,Speed,-1777.500000,1818.181818,Speed,Off,On,0.000000,FALSE,0,,,,,0.000000,0.000000,-0.050000
03:58:28.380 PM 04/28/2016,Teleop Enabled,9,FALSE,0,NO ERROR,-0.000000,0.019250,-0.000000,0.000000,TRUE,FALSE,FALSE,FALSE,FALSE,FALSE,Disabled,0.000000,0.000000,0.000000,TRUE,0.007385,-0.019135,0.000000,-0.001221,0.016220,0.000000,0.018000,0.000000,0.001000,1.880000,-0.310000,0.340000,0.645153,Hold,-0.003662,0.000000,Hold,-160.000000,2.000000,Suck,-1777.500000,1818.181818,Speed,-1770.000000,1818.181818,Speed,Off,On,0.000000,FALSE,0,,,,,0.000000,0.000000,-0.050000
03:58:28.478 PM 04/28/2016,Teleop Enabled,9,FALSE,0,NO ERROR,-0.000000,0.019250,-0.000000,0.000000,TRUE,FALSE,FALSE,FALSE,FALSE,FALSE,Disabled,0.000000,0.000000,0.000000,TRUE,0.007248,-0.018417,0.000000,0.000000,0.021408,0.000000,-0.044000,0.023000,0.045000,1.870000,-0.310000,0.310000,0.642061,Hold,-0.003662,0.000000,Hold,-160.000000,2.000000,Suck,-1777.500000,1818.181818,Speed,-1770.000000,1818.181818,Speed,Off,On,0.000000,FALSE,0,,,,,0.000000,0.000000,-0.050000
03:58:28.578 PM 04/28/2016,Teleop Enabled,10,FALSE,0,NO ERROR,-0.000000,0.019250,-0.000000,0.000000,TRUE,FALSE,FALSE,FALSE,FALSE,FALSE,Disabled,0.000000,0.000000,0.000000,TRUE,0.006821,-0.017578,0.000000,-0.004547,0.015594,0.000000,-0.034000,0.057000,0.045000,1.850000,-0.300000,0.290000,0.648409,Hold,-0.003662,0.000000,Hold,-160.000000,2.000000,Suck,-1777.500000,1818.181818,Speed,-1770.000000,1818.181818,Speed,Off,On,0.000000,FALSE,0,,,,,0.000000,0.000000,-0.050000
03:58:28.678 PM 04/28/2016,Teleop Enabled,6,FALSE,0,NO ERROR,-0.000000,0.019250,-0.000000,0.000000,TRUE,FALSE,FALSE,FALSE,FALSE,FALSE,Disabled,0.000000,0.000000,0.000000,TRUE,0.006973,-0.016861,0.000000,0.005341,0.009659,0.000000,-0.010000,-0.070000,0.068000,1.870000,-0.300000,0.310000,0.652709,Hold,-0.003662,0.000000,Hold,-160.000000,2.000000,Suck,-1777.500000,1818.181818,Speed,-1770.000000,1818.181818,Speed,Off,On,0.000000,FALSE,0,,,,,0.000000,0.000000,-0.050000
03:58:28.778 PM 04/28/2016,Teleop Enabled,12,FALSE,0,NO ERROR,-0.000000,0.019250,-0.000000,0.000000,TRUE,FALSE,FALSE,FALSE,FALSE,FALSE,Disabled,0.000000,0.000000,0.000000,TRUE,0.006744,-0.016586,0.000000,-0.011917,0.002777,0.000000,-0.017000,-0.079000,0.007000,1.880000,-0.300000,0.240000,0.665037,Hold,-0.003662,0.000000,Hold,-160.000000,2.000000,Suck,-1777.500000,1818.181818,Speed,-1770.000000,1818.181818,Speed,Off,On,0.000000,FALSE,0,,,,,0.000000,0.000000,-0.050000
03:58:28.878 PM 04/28/2016,Teleop Enabled,8,FALSE,0,NO ERROR,-0.000000,0.019250,-0.000000,0.000000,TRUE,FALSE,FALSE,FALSE,FALSE,FALSE,Disabled,0.000000,0.000000,0.000000,TRUE,0.005859,-0.016739,0.000000,-0.015167,0.001846,0.000000,0.020000,0.038000,-0.010000,1.870000,-0.300000,0.300000,0.666469,Hold,-0.003662,0.000000,Hold,-160.000000,2.000000,Suck,-1777.500000,1818.181818,Speed,-1762.500000,1818.181818,Speed,Off,On,0.000000,FALSE,0,,,,,0.000000,0.000000,-0.050000
03:58:28.981 PM 04/28/2016,Teleop Enabled,11,FALSE,0,NO ERROR,-0.000000,0.019250,-0.000000,0.000000,TRUE,FALSE,FALSE,FALSE,FALSE,FALSE,Disabled,0.000000,0.000000,0.000000,TRUE,0.004837,-0.016800,0.000000,-0.029022,-0.003510,0.000000,0.020000,0.038000,-0.010000,1.890000,-0.310000,0.310000,0.665481,Hold,-0.003662,0.000000,Hold,-160.000000,2.000000,Suck,-1777.500000,1818.181818,Speed,-1755.000000,1818.181818,Speed,Off,On,0.000000,FALSE,0,,,,,0.000000,0.000000,-0.050000
03:58:29.080 PM 04/28/2016,Teleop Enabled,8,FALSE,0,NO ERROR,-0.000000,0.019250,-0.000000,0.000000,TRUE,FALSE,FALSE,FALSE,FALSE,FALSE,Disabled,0.000000,0.000000,0.000000,TRUE,0.003586,-0.017258,0.000000,-0.027145,-0.016907,0.000000,0.069000,0.065000,-0.003000,1.860000,-0.310000,0.260000,0.662648,Hold,-0.003662,0.000000,Hold,-160.000000,2.000000,Suck,-1777.500000,1818.181818,Speed,-1762.500000,1818.181818,Speed,Off,On,0.000000,FALSE,0,,,,,0.000000,0.000000,-0.050000
03:58:29.181 PM 04/28/2016,Teleop Enabled,12,FALSE,0,NO ERROR,-0.000000,0.019250,-0.000000,0.000000,TRUE,FALSE,FALSE,FALSE,FALSE,FALSE,Disabled,0.000000,0.000000,0.000000,TRUE,0.003235,-0.017776,0.000000,0.004974,-0.015762,0.000000,0.069000,0.065000,-0.003000,1.860000,-0.310000,0.320000,0.679864,Hold,-0.003662,0.000000,Hold,-160.000000,2.000000,Suck,-1777.500000,1818.181818,Speed,-1777.500000,1818.181818,Speed,Off,On,0.000000,FALSE,0,,,,,0.000000,0.000000,-0.050000
03:58:29.280 PM 04/28/2016,Teleop Enabled,10,FALSE,0,NO ERROR,-0.000000,0.019250,-0.000000,0.000000,TRUE,FALSE,FALSE,FALSE,FALSE,FALSE,Disabled,0.000000,0.000000,0.000000,TRUE,0.003418,-0.018066,0.000000,-0.000900,-0.004074,0.000000,-0.012000,0.094000,-0.108000,1.870000,-0.310000,0.300000,0.677568,Hold,-0.003662,0.000000,Hold,-160.000000,2.000000,Suck,-1777.500000,1818.181818,Speed,-1777.500000,1818.181818,Speed,Off,On,0.000000,FALSE,0,,,,,0.000000,0.000000,-0.050000
03:58:29.384 PM 04/28/2016,Teleop Enabled,12,FALSE,0,NO ERROR,-0.000000,0.019250,-0.000000,0.000000,TRUE,FALSE,FALSE,FALSE,FALSE,FALSE,Disabled,0.000000,0.000000,0.000000,TRUE,0.003021,-0.018417,0.000000,-0.005981,-0.003647,0.000000,-0.024000,-0.021000,-0.040000,1.900000,-0.310000,0.280000,0.671616,Hold,-0.003662,0.000000,Hold,-160.000000,2.000000,Suck,-1777.500000,1818.181818,Speed,-1770.000000,1818.181818,Speed,Off,On,0.000000,FALSE,0,,,,,0.000000,0.000000,-0.050000
03:58:29.483 PM 04/28/2016,Teleop Enabled,10,FALSE,0,NO ERROR,-0.000000,0.019250,-0.000000,0.000000,TRUE,FALSE,FALSE,FALSE,FALSE,FALSE,Disabled,0.000000,0.000000,0.000000,TRUE,0.003586,-0.018677,0.000000,0.019287,-0.010193,0.000000,0.025000,0.004000,0.045000,1.870000,-0.310000,0.380000,0.672239,Hold,-0.003662,0.000000,Hold,-160.000000,2.000000,Suck,-1777.500000,1818.181818,Speed,-1770.000000,1818.181818,Speed,Off,On,0.000000,FALSE,0,,,,,0.000000,0.000000,-0.050000
03:58:29.584 PM 04/28/2016,Teleop Enabled,13,FALSE,0,NO ERROR,-0.000000,0.019250,-0.000000,0.000000,TRUE,FALSE,FALSE,FALSE,FALSE,FALSE,Disabled,0.000000,0.000000,0.000000,TRUE,0.003494,-0.018875,0.000000,-0.013504,-0.005508,0.000000,-0.004000,0.054000,-0.004000,1.870000,-0.310000,0.380000,0.690271,Hold,-0.003662,0.000000,Hold,-160.000000,2.000000,Suck,-1777.500000,1818.181818,Speed,-1770.000000,1818.181818,Speed,Off,On,0.000000,FALSE,0,,,,,0.000000,0.000000,-0.050000
03:58:29.684 PM 04/28/2016,Teleop Enabled,10,FALSE,0,NO ERROR,-0.000000,0.019250,-0.000000,0.000000,TRUE,FALSE,FALSE,FALSE,FALSE,FALSE,Disabled,0.000000,0.000000,0.000000,TRUE,0.003830,-0.019272,0.000000,0.011688,-0.008530,0.000000,0.045000,-0.031000,-0.004000,1.880000,-0.310000,0.340000,0.707036,Hold,-0.003662,0.000000,Hold,-160.000000,2.000000,Suck,-1777.500000,1818.181818,Speed,-1777.500000,1818.181818,Speed,Off,On,0.000000,FALSE,0,,,,,0.000000,0.000000,-0.050000
03:58:29.788 PM 04/28/2016,Teleop Enabled,14,FALSE,0,NO ERROR,-0.000000,0.019250,-0.000000,0.000000,TRUE,FALSE,FALSE,FALSE,FALSE,FALSE,Disabled,0.000000,0.000000,0.000000,TRUE,0.004013,-0.019882,0.000000,0.003433,-0.011734,0.000000,-0.007000,-0.043000,0.000000,1.880000,-0.310000,0.380000,0.709043,Hold,-0.003662,0.000000,Hold,-160.000000,2.000000,Suck,-1777.500000,1818.181818,Speed,-1770.000000,1818.181818,Speed,Off,On,0.000000,FALSE,0,,,,,0.000000,0.000000,-0.050000
03:58:29.889 PM 04/28/2016,Teleop Enabled,12,FALSE,0,NO ERROR,-0.000000,0.019250,-0.000000,0.000000,TRUE,FALSE,FALSE,FALSE,FALSE,FALSE,Disabled,0.000000,0.000000,0.000000,TRUE,0.004120,-0.020706,0.000000,0.003571,-0.018753,0.000000,0.013000,-0.007000,0.074000,1.860000,-0.310000,0.340000,0.701535,Hold,-0.003662,0.000000,Hold,-160.000000,2.000000,Suck,-1785.000000,1818.181818,Speed,-1770.000000,1818.181818,Speed,Off,On,0.000000,FALSE,0,,,,,0.000000,0.000000,-0.050000
