Time,Robot Mode,Loop Time,Error Status,Error Code,Error Source,Left Motor Output,Left Motor Encoder,Right Motor Output,Right Motor Encoder,Is Level,Is Stalled,Ball Detector Photoeye,Vision Enabled,Vision Teleop Control,Vision Auto Control,Vision Current State,Vision X Output,Vision NavX Error,Vision NavX Target,NavX Connection Status,NavX Displacement X,NavX Displacement Y,NavX Displacement Z,NavX Velocity X,NavX Velocity Y,NavX Velocity Z,NavX Acceleration X,NavX Acceleration Y,NavX Acceleration Z,NavX Pitch,NavX Yaw,NavX Roll,Gyro Angle,Roller Arm State,Roller Arm Actual,Roller Arm Desired,Shooter Arm State,Shooter Arm Actual,Shooter Arm Desired,Shooter State,Actual RPM Left,Desired RPM Left,Control Mode Left,Actual RPM Right,Desired RPM Right,Control Mode Right,Ball Shooter Cylinder,Ball Halo Cylinder,Scaler Motor Output,Scaler Solenoid Fire,Auto To Run,Auto Current File,Auto File Status,Auto Current Command,Auto Trimmed Command,Shooter Amps Left,Shooter Amps Right, Vision After Offset
09:35:43.144 AM 04/28/2016,Autonomous Enabled,9,TRUE,-44003,<LOCATION>WPI_CameraIssue HTTP Request with Authentication.vi<CALLSTACK>WPI_CameraIssue HTTP Request with Authentication.vi< <WPI_CameraIssue Get.vi< <WPI_CameraSet Image Appearance Property.vi< <WPI_CameraSet Image Size.vi< <Vision Processing.vi< <Robot Main.vi,0.000000,0.000000,-0.000000,0.000000,TRUE,FALSE,TRUE,TRUE,FALSE,FALSE,Disabled,0.000000,0.000000,0.000000,TRUE,-0.000031,-0.000244,0.000000,-0.001236,-0.012177,0.000000,0.004000,0.000000,0.020000,1.800000,-1.010000,-0.350000,3.629382,ResetBack,-0.469482,-0.000049,ResetBack,2507.000000,-0.250000,LowGoal,52.500000,-2181.818182,Speed,0.000000,-2181.818182,Speed,Off,Off,0.000000,FALSE,45,Read: /home/lvuser/scripts/auto_45.bee,File good!,WAIT 1500,WAIT,0.000000,0.000000,-0.050000
09:35:43.244 AM 04/28/2016,Autonomous Enabled,10,TRUE,7,Read from Text File in DoesScriptNumberContainNull.vi->Disabled.vi->Robot Main.vi<APPEND> /home/lvuser/scripts/auto_42.bee,0.000000,0.000000,-0.000000,0.000000,TRUE,FALSE,TRUE,TRUE,FALSE,FALSE,Disabled,0.000000,0.000000,0.000000,TRUE,-0.000320,-0.000977,0.000000,-0.013565,-0.014862,0.000000,0.012000,-0.034000,-0.025000,1.790000,-1.010000,-0.310000,3.633496,ResetBack,-0.469482,-0.000049,ResetBack,2507.000000,-0.250000,LowGoal,532.500000,-2181.818182,Speed,30.000000,-2181.818182,Speed,Off,Off,0.000000,FALSE,45,Read: /home/lvuser/scripts/auto_45.bee,File good!,WAIT 1500,WAIT,0.000000,0.000000,-0.050000
09:35:43.344 AM 04/28/2016,Autonomous Enabled,9,TRUE,7,Read from Text File in DoesScriptNumberContainNull.vi->Disabled.vi->Robot Main.vi<APPEND> /home/lvuser/scripts/auto_42.bee,0.000000,0.000000,-0.000000,0.000000,TRUE,FALSE,TRUE,TRUE,FALSE,FALSE,Disabled,0.000000,0.000000,0.000000,TRUE,-0.000107,-0.000610,0.000000,0.016785,0.003937,0.000000,0.023000,0.090000,0.032000,1.770000,-1.000000,-0.260000,3.638033,ResetBack,-1.083984,-0.000049,ResetBack,9386.000000,-0.250000,LowGoal,960.000000,-2181.818182,Speed,90.000000,-2181.818182,Speed,Off,Off,0.000000,FALSE,45,Read: /home/lvuser/scripts/auto_45.bee,File good!,WAIT 1500,WAIT,0.000000,0.000000,-0.050000
09:35:43.445 AM 04/28/2016,Autonomous Enabled,9,TRUE,7,Read from Text File in DoesScriptNumberContainNull.vi->Disabled.vi->Robot Main.vi<APPEND> /home/lvuser/scripts/auto_42.bee,0.000000,0.000000,-0.000000,0.000000,TRUE,FALSE,TRUE,TRUE,FALSE,FALSE,Disabled,0.000000,0.000000,0.000000,TRUE,-0.000198,-0.000748,0.000000,-0.018250,-0.020676,0.000000,-0.051000,0.019000,-0.022000,1.770000,-1.000000,-0.260000,3.659739,Reset,-1.085205,-0.000049,ResetBack,10673.000000,-0.250000,LowGoal,1417.500000,-2181.818182,Speed,600.000000,-2181.818182,Speed,Off,Off,0.000000,FALSE,45,Read: /home/lvuser/scripts/auto_45.bee,File good!,WAIT 1500,WAIT,0.000000,0.000000,-0.050000
09:35:43.545 AM 04/28/2016,Autonomous Enabled,11,TRUE,7,Read from Text File in DoesScriptNumberContainNull.vi->Disabled.vi->Robot Main.vi<APPEND> /home/lvuser/scripts/auto_42.bee,0.000000,0.000000,-0.000000,0.000000,TRUE,FALSE,TRUE,TRUE,FALSE,FALSE,Disabled,0.000000,0.000000,0.000000,TRUE,-0.000198,-0.000748,0.000000,-0.018250,-0.020676,0.000000,-0.051000,0.019000,-0.022000,1.790000,-1.000000,-0.300000,3.657525,Hold,-1.085693,0.000000,ResetBack,10673.000000,-0.250000,LowGoal,1800.000000,-2181.818182,Speed,1815.000000,-2181.818182,Speed,Off,Off,0.000000,FALSE,45,Read: /home/lvuser/scripts/auto_45.bee,File good!,WAIT 1500,WAIT,0.000000,0.000000,-0.050000
09:35:43.645 AM 04/28/2016,Autonomous Enabled,11,TRUE,7,Read from Text File in DoesScriptNumberContainNull.vi->Disabled.vi->Robot Main.vi<APPEND> /home/lvuser/scripts/auto_42.bee,0.000000,0.000000,-0.000000,0.000000,TRUE,FALSE,TRUE,TRUE,FALSE,FALSE,Disabled,0.000000,0.000000,0.000000,TRUE,-0.000854,-0.000565,0.000000,-0.008865,0.013504,0.000000,0.032000,0.007000,0.084000,1.820000,-1.000000,-0.310000,3.655267,Hold,0.000244,0.000000,ResetBack,10704.000000,-0.250000,LowGoal,2070.000000,-2181.818182,Speed,1815.000000,-2181.818182,Speed,Off,Off,0.000000,FALSE,45,Read: /home/lvuser/scripts/auto_45.bee,File good!,WAIT 1500,WAIT,0.000000,0.000000,-0.050000
09:35:43.747 AM 04/28/2016,Autonomous Enabled,10,TRUE,7,Read from Text File in DoesScriptNumberContainNull.vi->Disabled.vi->Robot Main.vi<APPEND> /home/lvuser/scripts/auto_42.bee,0.000000,0.000000,-0.000000,0.000000,TRUE,FALSE,TRUE,TRUE,FALSE,FALSE,Disabled,0.000000,0.000000,0.000000,TRUE,-0.002808,0.003708,0.000000,-0.062149,0.074326,0.000000,-0.112000,0.089000,-0.159000,1.840000,-1.010000,-0.280000,3.648802,Hold,0.000244,0.000000,ResetBack,10946.000000,-0.250000,LowGoal,2137.500000,-2181.818182,Speed,2100.000000,-2181.818182,Speed,Off,Off,0.000000,FALSE,45,Read: /home/lvuser/scripts/auto_45.bee,File good!,WAIT 1500,WAIT,0.000000,0.000000,-0.050000
09:35:43.850 AM 04/28/2016,Autonomous Enabled,9,TRUE,7,Read from Text File in DoesScriptNumberContainNull.vi->Disabled.vi->Robot Main.vi<APPEND> /home/lvuser/scripts/auto_42.bee,0.000000,0.000000,-0.000000,0.000000,TRUE,FALSE,TRUE,TRUE,FALSE,FALSE,Disabled,0.000000,0.000000,0.000000,TRUE,-0.008087,0.008896,0.000000,-0.117172,0.092087,0.000000,-0.118000,0.098000,-0.161000,1.800000,-1.000000,-0.310000,3.644974,Hold,0.000244,0.000000,ResetBack,11481.000000,-0.250000,LowGoal,2032.500000,-2181.818182,Speed,2437.500000,-2181.818182,Speed,Off,Off,0.000000,FALSE,45,Read: /home/lvuser/scripts/auto_45.bee,File good!,WAIT 1500,WAIT,0.000000,0.000000,-0.050000
09:35:43.951 AM 04/28/2016,Autonomous Enabled,11,TRUE,7,Read from Text File in DoesScriptNumberContainNull.vi->Disabled.vi->Robot Main.vi<APPEND> /home/lvuser/scripts/auto_42.bee,0.000000,0.000000,-0.000000,0.000000,TRUE,FALSE,TRUE,TRUE,FALSE,FALSE,Disabled,0.000000,0.000000,0.000000,TRUE,-0.008087,0.008896,0.000000,-0.117172,0.092087,0.000000,0.056000,-0.091000,0.097000,1.810000,-1.010000,-0.340000,3.650275,Hold,0.000244,0.000000,ResetBack,11608.000000,-0.250000,LowGoal,2032.500000,-2181.818182,Speed,2340.000000,-2181.818182,Speed,Off,Off,0.000000,FALSE,45,Read: /home/lvuser/scripts/auto_45.bee,File good!,WAIT 1500,WAIT,0.000000,0.000000,-0.050000
09:35:44.052 AM 04/28/2016,Autonomous Enabled,12,TRUE,7,Read from Text File in DoesScriptNumberContainNull.vi->Disabled.vi->Robot Main.vi<APPEND> /home/lvuser/scripts/auto_42.bee,0.000000,0.000000,-0.000000,0.000000,TRUE,FALSE,TRUE,TRUE,FALSE,FALSE,Disabled,0.000000,0.000000,0.000000,TRUE,-0.012939,0.011642,0.000000,-0.095337,0.041153,0.000000,-0.055000,0.004000,0.037000,1.830000,-1.010000,-0.310000,3.655656,Hold,0.000244,0.000000,ResetBack,11608.000000,-0.250000,LowGoal,2047.500000,-2181.818182,Speed,2130.000000,-2181.818182,Speed,Off,Off,0.000000,FALSE,45,Read: /home/lvuser/scripts/auto_45.bee,File good!,WAIT 1500,WAIT,0.000000,0.000000,-0.050000
09:35:44.153 AM 04/28/2016,Autonomous Enabled,10,TRUE,7,Read from Text File in DoesScriptNumberContainNull.vi->Disabled.vi->Robot Main.vi<APPEND> /home/lvuser/scripts/auto_42.bee,0.000000,0.000000,-0.000000,0.000000,TRUE,FALSE,TRUE,TRUE,FALSE,FALSE,Disabled,0.000000,0.000000,0.000000,TRUE,-0.019684,0.014893,0.000000,-0.105988,0.068558,0.000000,-0.015000,0.033000,0.050000,1.830000,-1.010000,-0.310000,3.647318,Hold,0.000244,0.000000,ResetBack,11622.000000,-0.250000,LowGoal,2047.500000,-2181.818182,Speed,1980.000000,-2181.818182,Speed,Off,Off,0.000000,FALSE,45,Read: /home/lvuser/scripts/auto_45.bee,File good!,WAIT 1500,WAIT,0.000000,0.000000,-0.050000
09:35:44.257 AM 04/28/2016,Autonomous Enabled,10,TRUE,7,Read from Text File in DoesScriptNumberContainNull.vi->Disabled.vi->Robot Main.vi<APPEND> /home/lvuser/scripts/auto_42.bee,0.000000,0.000000,-0.000000,0.000000,TRUE,FALSE,TRUE,TRUE,FALSE,FALSE,Disabled,0.000000,0.000000,0.000000,TRUE,-0.025467,0.019409,0.000000,-0.119888,0.097595,0.000000,0.004000,-0.103000,0.119000,1.920000,-1.010000,-0.290000,3.661997,Hold,0.000244,0.000000,ResetBack,11624.000000,-0.250000,LowGoal,2137.500000,-2181.818182,Speed,1980.000000,-2181.818182,Speed,Off,Off,0.000000,FALSE,45,Read: /home/lvuser/scripts/auto_45.bee,File good!,WAIT 1500,WAIT,0.000000,0.000000,-0.050000
09:35:44.358 AM 04/28/2016,Autonomous Enabled,11,TRUE,7,Read from Text File in DoesScriptNumberContainNull.vi->Disabled.vi->Robot Main.vi<APPEND> /home/lvuser/scripts/auto_42.bee,0.000000,0.000000,-0.000000,0.000000,TRUE,FALSE,TRUE,TRUE,FALSE,FALSE,Disabled,0.000000,0.000000,0.000000,TRUE,-0.030823,0.020325,0.000000,-0.088959,-0.055130,0.000000,0.058000,-0.155000,0.190000,1.860000,-1.010000,-0.330000,3.658393,Hold,0.000244,0.000000,Reset,11628.000000,2.000000,LowGoal,2107.500000,-2181.818182,Speed,2220.000000,-2181.818182,Speed,Off,Off,0.000000,FALSE,45,Read: /home/lvuser/scripts/auto_45.bee,File good!,WAIT 1500,WAIT,0.000000,0.000000,-0.050000
09:35:44.458 AM 04/28/2016,Autonomous Enabled,11,TRUE,7,Read from Text File in DoesScriptNumberContainNull.vi->Disabled.vi->Robot Main.vi<APPEND> /home/lvuser/scripts/auto_42.bee,0.000000,0.000000,-0.000000,0.000000,TRUE,FALSE,TRUE,TRUE,FALSE,FALSE,Disabled,0.000000,0.000000,0.000000,TRUE,-0.033249,0.014236,0.000000,-0.033066,-0.131180,0.000000,-0.027000,0.001000,-0.074000,1.830000,-1.010000,-0.310000,3.652175,Hold,0.000244,0.000000,Hold,11634.000000,2.000000,LowGoal,2085.000000,-2181.818182,Speed,2220.000000,-2181.818182,Speed,Off,Off,0.000000,FALSE,45,Read: /home/lvuser/scripts/auto_45.bee,File good!,WAIT 1500,WAIT,0.000000,0.000000,-0.050000
09:35:44.560 AM 04/28/2016,Autonomous Enabled,11,TRUE,7,Read from Text File in DoesScriptNumberContainNull.vi->Disabled.vi->Robot Main.vi<APPEND> /home/lvuser/scripts/auto_42.bee,0.000000,0.000000,-0.000000,0.000000,TRUE,FALSE,TRUE,TRUE,FALSE,FALSE,Disabled,0.000000,0.000000,0.000000,TRUE,-0.036041,0.008835,0.000000,-0.056961,-0.086411,0.000000,-0.001000,0.044000,0.039000,1.840000,-1.010000,-0.310000,3.649470,Hold,0.000244,0.000000,Hold,-173.000000,2.000000,LowGoal,2085.000000,-2181.818182,Speed,2220.000000,-2181.818182,Speed,Off,Off,0.000000,FALSE,45,Read: /home/lvuser/scripts/auto_45.bee,File good!,WAIT 1500,WAIT,0.000000,0.000000,-0.050000
09:35:44.660 AM 04/28/2016,Autonomous Enabled,11,TRUE,7,Read from Text File in DoesScriptNumberContainNull.vi->Disabled.vi->Robot Main.vi<APPEND> /home/lvuser/scripts/auto_42.bee,0.000000,0.000000,-0.000000,0.000000,TRUE,FALSE,TRUE,TRUE,FALSE,FALSE,Disabled,0.000000,0.000000,0.000000,TRUE,-0.039001,0.006104,0.000000,-0.082626,-0.053970,0.000000,-0.070000,-0.028000,-0.012000,1.860000,-1.010000,-0.260000,3.665732,Hold,0.000244,0.000000,Hold,-173.000000,2.000000,LowGoal,2085.000000,-2181.818182,Speed,2100.000000,-2181.818182,Speed,Off,Off,0.000000,FALSE,45,Read: /home/lvuser/scripts/auto_45.bee,File good!,NAVX_ZERO_YAW,NAVX_ZERO_YAW,0.000000,0.000000,-0.050000
09:35:44.758 AM 04/28/2016,Autonomous Enabled,11,TRUE,7,Read from Text File in DoesScriptNumberContainNull.vi->Disabled.vi->Robot Main.vi<APPEND> /home/lvuser/scripts/auto_42.bee,-0.562500,-0.224583,0.562500,0.307999,TRUE,FALSE,TRUE,TRUE,FALSE,FALSE,Disabled,0.000000,0.000000,0.000000,TRUE,-0.044907,0.002930,0.000000,-0.096725,-0.056290,0.000000,0.045000,0.003000,0.146000,1.860000,-1.010000,-0.250000,0.013787,Hold,0.000244,0.000000,Hold,-173.000000,2.000000,LowGoal,2047.500000,-2181.818182,Speed,2100.000000,-2181.818182,Speed,Off,Off,0.000000,FALSE,45,Read: /home/lvuser/scripts/auto_45.bee,File good!,DRIVE_STRAIGHT_TARGET 42 0 10000 75,DRIVE_STRAIGHT_TARGET,0.000000,0.000000,-0.050000
09:35:44.860 AM 04/28/2016,Autonomous Enabled,10,TRUE,7,Read from Text File in DoesScriptNumberContainNull.vi->Disabled.vi->Robot Main.vi<APPEND> /home/lvuser/scripts/auto_42.bee,-0.562500,-2.034079,0.562500,2.226578,TRUE,FALSE,TRUE,TRUE,FALSE,FALSE,Disabled,0.000000,0.000000,0.000000,TRUE,-0.049042,-0.000122,0.000000,-0.080643,-0.055191,0.000000,1.165000,-0.111000,-0.281000,1.900000,-0.010000,0.330000,-0.170895,Hold,0.000244,0.000000,Hold,-173.000000,2.000000,LowGoal,2040.000000,-1818.181818,Speed,2100.000000,-1818.181818,Speed,Off,Off,0.000000,FALSE,45,Read: /home/lvuser/scripts/auto_45.bee,File good!,DRIVE_STRAIGHT_TARGET 42 0 10000 75,DRIVE_STRAIGHT_TARGET,0.000000,0.000000,-0.050000
09:35:44.962 AM 04/28/2016,Autonomous Enabled,10,TRUE,7,Read from Text File in DoesScriptNumberContainNull.vi->Disabled.vi->Robot Main.vi<APPEND> /home/lvuser/scripts/auto_42.bee,-0.562500,-4.934405,0.562500,5.094821,FALSE,FALSE,TRUE,TRUE,FALSE,FALSE,Disabled,0.000000,0.000000,0.000000,TRUE,-0.038940,-0.006119,0.000000,0.304871,-0.157227,0.000000,0.301000,-0.084000,-0.135000,1.720000,-0.210000,4.080000,-0.285126,Hold,0.000488,0.000000,Hold,-173.000000,2.000000,LowGoal,2002.500000,-1818.181818,Speed,2130.000000,-1818.181818,Speed,Off,Off,0.000000,FALSE,45,Read: /home/lvuser/scripts/auto_45.bee,File good!,DRIVE_STRAIGHT_TARGET 42 0 10000 75,DRIVE_STRAIGHT_TARGET,0.000000,0.000000,-0.050000
09:35:45.062 AM 04/28/2016,Autonomous Enabled,9,TRUE,7,Read from Text File in DoesScriptNumberContainNull.vi->Disabled.vi->Robot Main.vi<APPEND> /home/lvuser/scripts/auto_42.bee,-0.562500,-8.675313,0.562500,5.094821,FALSE,FALSE,TRUE,TRUE,FALSE,FALSE,Disabled,0.000000,0.000000,0.000000,TRUE,-0.022263,-0.012543,0.000000,0.471924,-0.174164,0.000000,0.179000,0.033000,0.159000,1.760000,-0.370000,3.180000,-0.285126,Hold,0.000488,0.000000,Hold,-173.000000,2.000000,LowGoal,1747.500000,-1818.181818,Speed,1860.000000,-1818.181818,Speed,Off,Off,0.000000,FALSE,45,Read: /home/lvuser/scripts/auto_45.bee,File good!,DRIVE_STRAIGHT_TARGET 42 0 10000 75,DRIVE_STRAIGHT_TARGET,0.000000,0.000000,-0.050000
09:35:45.163 AM 04/28/2016,Autonomous Enabled,9,TRUE,7,Read from Text File in DoesScriptNumberContainNull.vi->Disabled.vi->Robot Main.vi<APPEND> /home/lvuser/scripts/auto_44.bee,-0.562500,-8.675313,0.562500,9.021812,FALSE,FALSE,TRUE,TRUE,FALSE,FALSE,Disabled,0.000000,0.000000,0.000000,TRUE,0.019394,-0.023804,0.000000,0.640900,-0.164902,0.000000,-0.093000,0.012000,0.038000,1.730000,-0.380000,4.200000,-0.265979,Hold,0.000488,0.000000,Hold,-173.000000,2.000000,LowGoal,1590.000000,-1818.181818,Speed,1665.000000,-1818.181818,Speed,Off,Off,0.000000,FALSE,45,Read: /home/lvuser/scripts/auto_45.bee,File good!,DRIVE_STRAIGHT_TARGET 42 0 10000 75,DRIVE_STRAIGHT_TARGET,0.000000,0.000000,-0.050000
09:35:45.263 AM 04/28/2016,Autonomous Enabled,9,TRUE,7,Read from Text File in DoesScriptNumberContainNull.vi->Disabled.vi->Robot Main.vi<APPEND> /home/lvuser/scripts/auto_44.bee,-0.573079,-13.301719,0.552019,13.609718,FALSE,FALSE,TRUE,TRUE,FALSE,FALSE,Disabled,0.000000,0.000000,0.000000,TRUE,0.049026,-0.023285,0.000000,0.570984,0.019104,0.000000,-0.020000,0.002000,-0.128000,1.810000,-0.450000,3.610000,-0.371762,Hold,0.000488,0.000000,Hold,-173.000000,2.000000,LowGoal,1650.000000,-1818.181818,Speed,1612.500000,-1818.181818,Speed,Off,Off,0.000000,FALSE,45,Read: /home/lvuser/scripts/auto_45.bee,File good!,DRIVE_STRAIGHT_TARGET 42 0 10000 75,DRIVE_STRAIGHT_TARGET,0.000000,0.000000,-0.050000
09:35:45.364 AM 04/28/2016,Autonomous Enabled,9,TRUE,7,Read from Text File in DoesScriptNumberContainNull.vi->Disabled.vi->Robot Main.vi<APPEND> /home/lvuser/scripts/auto_44.bee,-0.575838,-17.530292,0.549318,17.806208,FALSE,FALSE,TRUE,TRUE,FALSE,FALSE,Disabled,0.000000,0.000000,0.000000,TRUE,0.083694,-0.023132,0.000000,0.544769,0.005249,0.000000,-0.209000,0.007000,0.053000,1.850000,-0.670000,3.500000,-0.513093,Hold,0.000488,0.000000,Hold,-173.000000,2.000000,LowGoal,1717.500000,-1818.181818,Speed,1702.500000,-1818.181818,Speed,Off,Off,0.000000,FALSE,45,Read: /home/lvuser/scripts/auto_45.bee,File good!,DRIVE_STRAIGHT_TARGET 42 0 10000 75,DRIVE_STRAIGHT_TARGET,0.000000,0.000000,-0.050000
09:35:45.464 AM 04/28/2016,Autonomous Enabled,9,TRUE,7,Read from Text File in DoesScriptNumberContainNull.vi->Disabled.vi->Robot Main.vi<APPEND> /home/lvuser/scripts/auto_44.bee,-0.571113,-21.681866,0.553953,22.015532,FALSE,FALSE,TRUE,TRUE,FALSE,FALSE,Disabled,0.000000,0.000000,0.000000,TRUE,0.109985,-0.022980,0.000000,0.525589,0.015152,0.000000,-0.005000,0.000000,0.051000,1.870000,-0.540000,3.000000,-0.514590,Hold,0.000488,0.000000,Hold,-173.000000,2.000000,LowGoal,1710.000000,-1818.181818,Speed,1770.000000,-1818.181818,Speed,Off,Off,0.000000,FALSE,45,Read: /home/lvuser/scripts/auto_45.bee,File good!,DRIVE_STRAIGHT_TARGET 42 0 10000 75,DRIVE_STRAIGHT_TARGET,0.000000,0.000000,-0.050000
09:35:45.565 AM 04/28/2016,Autonomous Enabled,9,TRUE,7,Read from Text File in DoesScriptNumberContainNull.vi->Disabled.vi->Robot Main.vi<APPEND> /home/lvuser/scripts/auto_44.bee,-0.568169,-26.154272,0.556859,26.321105,FALSE,FALSE,TRUE,TRUE,FALSE,FALSE,Disabled,0.000000,0.000000,0.000000,TRUE,0.134659,-0.022598,0.000000,0.456131,0.008530,0.000000,-0.043000,-0.019000,-0.036000,1.920000,-0.360000,3.140000,-0.271807,Hold,0.000488,0.000000,Hold,-173.000000,2.000000,LowGoal,1702.500000,-1818.181818,Speed,1807.500000,-1818.181818,Speed,Off,Off,0.000000,FALSE,45,Read: /home/lvuser/scripts/auto_45.bee,File good!,DRIVE_STRAIGHT_TARGET 42 0 10000 75,DRIVE_STRAIGHT_TARGET,0.000000,0.000000,-0.050000
09:35:45.665 AM 04/28/2016,Autonomous Enabled,9,TRUE,7,Read from Text File in DoesScriptNumberContainNull.vi->Disabled.vi->Robot Main.vi<APPEND> /home/lvuser/scripts/auto_44.bee,-0.563866,-30.427762,0.561136,30.511179,TRUE,FALSE,TRUE,TRUE,FALSE,FALSE,Disabled,0.000000,0.000000,0.000000,TRUE,0.152435,-0.022614,0.000000,0.424438,-0.005157,0.000000,0.018000,-0.079000,-0.006000,1.860000,-0.110000,2.880000,-0.065298,Hold,0.000488,0.000000,Hold,-173.000000,2.000000,LowGoal,1717.500000,-1818.181818,Speed,1807.500000,-1818.181818,Speed,Off,Off,0.000000,FALSE,45,Read: /home/lvuser/scripts/auto_45.bee,File good!,DRIVE_STRAIGHT_TARGET 42 0 10000 75,DRIVE_STRAIGHT_TARGET,0.000000,0.000000,-0.050000
09:35:45.765 AM 04/28/2016,Autonomous Enabled,9,TRUE,7,Read from Text File in DoesScriptNumberContainNull.vi->Disabled.vi->Robot Main.vi<APPEND> /home/lvuser/scripts/auto_44.bee,-0.566211,-34.880918,0.558801,34.887335,TRUE,FALSE,TRUE,TRUE,FALSE,FALSE,Disabled,0.000000,0.000000,0.000000,TRUE,0.172195,-0.023956,0.000000,0.364456,-0.029465,0.000000,-0.018000,-0.054000,0.054000,1.800000,-0.150000,2.830000,0.013030,Hold,0.000488,0.000000,Hold,-173.000000,2.000000,LowGoal,1732.500000,-1818.181818,Speed,1792.500000,-1818.181818,Speed,Off,Off,0.000000,FALSE,45,Read: /home/lvuser/scripts/auto_45.bee,File good!,DRIVE_STRAIGHT_TARGET 42 0 10000 75,DRIVE_STRAIGHT_TARGET,0.000000,0.000000,-0.050000
09:35:45.865 AM 04/28/2016,Autonomous Enabled,10,TRUE,7,Read from Text File in DoesScriptNumberContainNull.vi->Disabled.vi->Robot Main.vi<APPEND> /home/lvuser/scripts/auto_44.bee,-0.568757,-39.167242,0.556277,39.282741,TRUE,FALSE,TRUE,TRUE,FALSE,FALSE,Disabled,0.000000,0.000000,0.000000,TRUE,0.192444,-0.025833,0.000000,0.330414,-0.024414,0.000000,-0.029000,-0.059000,0.041000,1.870000,-0.260000,2.680000,-0.148836,Hold,0.000488,0.000000,Hold,-173.000000,2.000000,LowGoal,1725.000000,-1818.181818,Speed,1755.000000,-1818.181818,Speed,Off,Off,0.000000,FALSE,45,Read: /home/lvuser/scripts/auto_45.bee,File good!,DRIVE_STRAIGHT_TARGET 42 0 10000 75,DRIVE_STRAIGHT_TARGET,0.000000,0.000000,-0.050000
09:35:45.965 AM 04/28/2016,Autonomous Enabled,9,TRUE,7,Read from Text File in DoesScriptNumberContainNull.vi->Disabled.vi->Robot Main.vi<APPEND> /home/lvuser/scripts/auto_44.bee,0.000000,-43.530565,-0.000000,43.658898,TRUE,FALSE,TRUE,TRUE,FALSE,FALSE,Disabled,0.000000,0.000000,0.000000,TRUE,0.207947,-0.027008,0.000000,0.301498,-0.010162,0.000000,-0.048000,0.018000,-0.069000,1.840000,-0.350000,2.490000,-0.248546,Hold,0.000488,58.000000,Hold,-173.000000,2.000000,LowGoal,1725.000000,-1818.181818,Speed,1740.000000,-1818.181818,Speed,Off,Off,0.000000,FALSE,45,Read: /home/lvuser/scripts/auto_45.bee,File good!,WAIT 1000,WAIT,0.000000,0.000000,-0.050000
09:35:46.064 AM 04/28/2016,Autonomous Enabled,10,TRUE,7,Read from Text File in DoesScriptNumberContainNull.vi->Disabled.vi->Robot Main.vi<APPEND> /home/lvuser/scripts/auto_44.bee,0.000000,-45.538977,-0.000000,45.750726,TRUE,FALSE,TRUE,TRUE,FALSE,FALSE,Disabled,0.000000,0.000000,0.000000,TRUE,0.207382,-0.026093,0.000000,-0.347168,0.033829,0.000000,-0.570000,0.029000,-0.681000,1.840000,-0.190000,-2.860000,-0.142429,Hold,1.936523,58.000000,Hold,-173.000000,2.000000,LowGoal,1740.000000,-1818.181818,Speed,1717.500000,-1818.181818,Speed,Off,Off,0.000000,FALSE,45,Read: /home/lvuser/scripts/auto_45.bee,File good!,WAIT 1000,WAIT,0.000000,0.000000,-0.050000
09:35:46.165 AM 04/28/2016,Autonomous Enabled,9,TRUE,7,Read from Text File in DoesScriptNumberContainNull.vi->Disabled.vi->Robot Main.vi<APPEND> /home/lvuser/scripts/auto_44.bee,0.000000,-46.584891,-0.000000,46.655474,TRUE,FALSE,TRUE,TRUE,FALSE,FALSE,Disabled,0.000000,0.000000,0.000000,TRUE,0.159256,-0.023026,0.000000,-0.880249,0.058975,0.000000,-0.426000,0.068000,1.015000,2.010000,-0.090000,-1.530000,-0.180270,Hold,5.443359,58.000000,Hold,-173.000000,2.000000,LowGoal,1717.500000,-1818.181818,Speed,1455.000000,-1818.181818,Speed,Off,Off,0.000000,FALSE,45,Read: /home/lvuser/scripts/auto_45.bee,File good!,WAIT 1000,WAIT,0.000000,0.000000,-0.050000
09:35:46.266 AM 04/28/2016,Autonomous Enabled,10,TRUE,7,Read from Text File in DoesScriptNumberContainNull.vi->Disabled.vi->Robot Main.vi<APPEND> /home/lvuser/scripts/auto_44.bee,0.000000,-46.700391,-0.000000,46.815891,TRUE,FALSE,TRUE,TRUE,FALSE,FALSE,Disabled,0.000000,0.000000,0.000000,TRUE,0.120499,-0.019104,0.000000,-0.981888,0.117020,0.000000,-0.067000,-0.011000,-0.141000,2.080000,-0.180000,-1.970000,-0.172723,Hold,8.998535,58.000000,Hold,-173.000000,2.000000,LowGoal,1687.500000,-1818.181818,Speed,1687.500000,-1818.181818,Speed,Off,Off,0.000000,FALSE,45,Read: /home/lvuser/scripts/auto_45.bee,File good!,WAIT 1000,WAIT,0.000000,0.000000,-0.050000
09:35:46.367 AM 04/28/2016,Autonomous Enabled,9,TRUE,7,Read from Text File in DoesScriptNumberContainNull.vi->Disabled.vi->Robot Main.vi<APPEND> /home/lvuser/scripts/auto_44.bee,0.000000,-46.616974,-0.000000,46.706807,TRUE,FALSE,TRUE,TRUE,FALSE,FALSE,Disabled,0.000000,0.000000,0.000000,TRUE,0.072739,-0.013321,0.000000,-0.919601,0.118073,0.000000,-0.018000,0.037000,-0.504000,1.970000,-0.260000,-1.470000,-0.281188,Hold,13.875000,58.000000,Hold,-173.000000,2.000000,LowGoal,1710.000000,-1818.181818,Speed,1987.500000,-1818.181818,Speed,Off,Off,0.000000,FALSE,45,Read: /home/lvuser/scripts/auto_45.bee,File good!,WAIT 1000,WAIT,0.000000,0.000000,-0.050000
09:35:46.467 AM 04/28/2016,Autonomous Enabled,9,TRUE,7,Read from Text File in DoesScriptNumberContainNull.vi->Disabled.vi->Robot Main.vi<APPEND> /home/lvuser/scripts/auto_44.bee,0.000000,-46.507891,-0.000000,46.604141,TRUE,FALSE,TRUE,TRUE,FALSE,FALSE,Disabled,0.000000,0.000000,0.000000,TRUE,0.027512,-0.006516,0.000000,-0.864990,0.132812,0.000000,0.069000,-0.120000,-0.090000,2.020000,-0.300000,-1.470000,-0.295031,Hold,18.436035,58.000000,Hold,-173.000000,2.000000,LowGoal,1740.000000,-1818.181818,Speed,1950.000000,-1818.181818,Speed,Off,Off,0.000000,FALSE,45,Read: /home/lvuser/scripts/auto_45.bee,File good!,WAIT 1000,WAIT,0.000000,0.000000,-0.050000
09:35:46.567 AM 04/28/2016,Autonomous Enabled,9,TRUE,7,Read from Text File in DoesScriptNumberContainNull.vi->Disabled.vi->Robot Main.vi<APPEND> /home/lvuser/scripts/auto_44.bee,0.000000,-46.501475,-0.000000,46.597724,TRUE,FALSE,TRUE,TRUE,FALSE,FALSE,Disabled,0.000000,0.000000,0.000000,TRUE,-0.016037,-0.000595,0.000000,-0.894363,0.118347,0.000000,-0.019000,0.075000,-0.007000,1.930000,-0.240000,-1.420000,-0.228947,Hold,24.476807,58.000000,Hold,-173.000000,2.000000,LowGoal,1725.000000,-1818.181818,Speed,1800.000000,-1818.181818,Speed,Off,Off,0.000000,FALSE,45,Read: /home/lvuser/scripts/auto_45.bee,File good!,WAIT 1000,WAIT,0.000000,0.000000,-0.050000
09:35:46.669 AM 04/28/2016,Autonomous Enabled,11,TRUE,7,Read from Text File in DoesScriptNumberContainNull.vi->Disabled.vi->Robot Main.vi<APPEND> /home/lvuser/scripts/auto_44.bee,0.000000,-46.501475,-0.000000,46.597724,TRUE,FALSE,TRUE,TRUE,FALSE,FALSE,Disabled,0.000000,0.000000,0.000000,TRUE,-0.058578,0.006119,0.000000,-0.836075,0.130661,0.000000,0.005000,0.052000,-0.020000,1.950000,-0.290000,-1.180000,-0.298318,Hold,29.905273,58.000000,Hold,-173.000000,2.000000,LowGoal,1725.000000,-1818.181818,Speed,1702.500000,-1818.181818,Speed,Off,Off,0.000000,FALSE,45,Read: /home/lvuser/scripts/auto_45.bee,File good!,WAIT 1000,WAIT,0.000000,0.000000,-0.050000
09:35:46.769 AM 04/28/2016,Autonomous Enabled,9,TRUE,7,Read from Text File in DoesScriptNumberContainNull.vi->Disabled.vi->Robot Main.vi<APPEND> /home/lvuser/scripts/auto_44.bee,0.000000,-46.501475,-0.000000,46.597724,TRUE,FALSE,TRUE,TRUE,FALSE,FALSE,Disabled,0.000000,0.000000,0.000000,TRUE,-0.099976,0.007584,0.000000,-0.823181,0.002579,0.000000,0.033000,0.001000,-0.004000,1.960000,-0.300000,-1.130000,-0.314788,Hold,37.909912,58.000000,Hold,-173.000000,2.000000,LowGoal,1717.500000,-1818.181818,Speed,1687.500000,-1818.181818,Speed,Off,Off,0.000000,FALSE,45,Read: /home/lvuser/scripts/auto_45.bee,File good!,WAIT 1000,WAIT,0.000000,0.000000,-0.050000
09:35:46.869 AM 04/28/2016,Autonomous Enabled,9,TRUE,7,Read from Text File in DoesScriptNumberContainNull.vi->Disabled.vi->Robot Main.vi<APPEND> /home/lvuser/scripts/auto_44.bee,0.000000,-46.501475,-0.000000,46.597724,TRUE,FALSE,TRUE,TRUE,FALSE,FALSE,Disabled,0.000000,0.000000,0.000000,TRUE,-0.130051,0.008209,0.000000,-0.663910,0.051422,0.000000,-0.104000,0.031000,-0.165000,1.970000,-0.280000,-0.810000,-0.256109,Hold,47.316895,58.000000,Hold,-173.000000,2.000000,LowGoal,1710.000000,-1818.181818,Speed,1702.500000,-1818.181818,Speed,Off,Off,0.000000,FALSE,45,Read: /home/lvuser/scripts/auto_45.bee,File good!,WAIT 1000,WAIT,0.000000,0.000000,-0.050000
09:35:46.970 AM 04/28/2016,Autonomous Enabled,10,FALSE,0,NO ERROR,-0.562500,-46.501475,0.562500,46.597724,TRUE,FALSE,TRUE,TRUE,FALSE,FALSE,Disabled,0.000000,0.000000,0.000000,TRUE,-0.172226,0.014099,0.000000,-0.707779,0.103546,0.000000,0.060000,0.049000,0.159000,1.970000,-0.240000,-0.980000,-0.219033,Hold,51.643311,58.000000,Hold,-173.000000,2.000000,LowGoal,1687.500000,-1818.181818,Speed,1740.000000,-1818.181818,Speed,Off,Off,0.000000,FALSE,45,Read: /home/lvuser/scripts/auto_45.bee,File good!,DRIVE_STRAIGHT_TARGET 78 0 10000 75,DRIVE_STRAIGHT_TARGET,0.000000,0.000000,-0.050000
09:35:47.072 AM 04/28/2016,Autonomous Enabled,10,FALSE,0,NO ERROR,-0.562500,-0.564665,0.562500,0.545415,TRUE,FALSE,TRUE,TRUE,FALSE,FALSE,Disabled,0.000000,0.000000,0.000000,TRUE,-0.205368,0.018188,0.000000,-0.593811,0.000000,0.000000,0.863000,-0.011000,-0.304000,1.810000,-0.400000,0.610000,-0.335188,Hold,56.202148,58.000000,Hold,-173.000000,2.000000,LowGoal,1680.000000,-1818.181818,Speed,1762.500000,-1818.181818,Speed,Off,Off,0.000000,FALSE,45,Read: /home/lvuser/scripts/auto_45.bee,File good!,DRIVE_STRAIGHT_TARGET 78 0 10000 75,DRIVE_STRAIGHT_TARGET,0.000000,0.000000,-0.050000
09:35:47.174 AM 04/28/2016,Autonomous Enabled,9,FALSE,0,NO ERROR,-0.562500,-2.547411,0.562500,2.540994,FALSE,FALSE,TRUE,TRUE,FALSE,FALSE,Disabled,0.000000,0.000000,0.000000,TRUE,-0.216995,0.017456,0.000000,-0.122925,0.010986,0.000000,0.175000,0.074000,-0.071000,1.780000,-0.220000,4.210000,-0.115284,Hold,60.757812,58.000000,Hold,-173.000000,2.000000,LowGoal,1687.500000,-1818.181818,Speed,1845.000000,-1818.181818,Speed,Off,Off,0.000000,FALSE,45,Read: /home/lvuser/scripts/auto_45.bee,File good!,DRIVE_STRAIGHT_TARGET 78 0 10000 75,DRIVE_STRAIGHT_TARGET,0.000000,0.000000,-0.050000
09:35:47.274 AM 04/28/2016,Autonomous Enabled,9,FALSE,0,NO ERROR,-0.562500,-5.370737,0.562500,5.422071,FALSE,FALSE,TRUE,TRUE,FALSE,FALSE,Disabled,0.000000,0.000000,0.000000,TRUE,-0.216690,0.016464,0.000000,0.097672,-0.030121,0.000000,0.125000,-0.006000,0.047000,1.740000,-0.260000,5.210000,-0.121736,Hold,59.990967,58.000000,Hold,-173.000000,2.000000,LowGoal,1702.500000,-1818.181818,Speed,1807.500000,-1818.181818,Speed,Off,Off,0.000000,FALSE,45,Read: /home/lvuser/scripts/auto_45.bee,File good!,DRIVE_STRAIGHT_TARGET 78 0 10000 75,DRIVE_STRAIGHT_TARGET,0.000000,0.000000,-0.050000
09:35:47.374 AM 04/28/2016,Autonomous Enabled,10,FALSE,0,NO ERROR,-0.562500,-9.079562,0.562500,9.002562,FALSE,FALSE,TRUE,TRUE,FALSE,FALSE,Disabled,0.000000,0.000000,0.000000,TRUE,-0.209686,0.015274,0.000000,0.143753,-0.015961,0.000000,0.037000,0.066000,0.176000,1.600000,-0.340000,7.980000,-0.235220,Hold,59.610107,58.000000,Hold,-173.000000,2.000000,LowGoal,1695.000000,-1818.181818,Speed,1717.500000,-1818.181818,Speed,Off,Off,0.000000,FALSE,45,Read: /home/lvuser/scripts/auto_45.bee,File good!,DRIVE_STRAIGHT_TARGET 78 0 10000 75,DRIVE_STRAIGHT_TARGET,0.000000,0.000000,-0.050000
09:35:47.475 AM 04/28/2016,Autonomous Enabled,9,FALSE,0,NO ERROR,-0.573276,-12.518887,0.551826,12.666470,FALSE,FALSE,TRUE,TRUE,FALSE,FALSE,Disabled,0.000000,0.000000,0.000000,TRUE,-0.201950,0.014404,0.000000,0.123474,-0.024582,0.000000,0.044000,0.000000,-0.040000,1.600000,-0.520000,9.680000,-0.408391,Hold,59.291992,58.000000,Hold,-173.000000,2.000000,LowGoal,1687.500000,-1818.181818,Speed,1717.500000,-1818.181818,Speed,Off,Off,0.000000,FALSE,45,Read: /home/lvuser/scripts/auto_45.bee,File good!,DRIVE_STRAIGHT_TARGET 78 0 10000 75,DRIVE_STRAIGHT_TARGET,0.000000,0.000000,-0.050000
09:35:47.575 AM 04/28/2016,Autonomous Enabled,10,FALSE,0,NO ERROR,-0.574852,-16.131462,0.550282,16.381712,FALSE,FALSE,TRUE,TRUE,FALSE,FALSE,Disabled,0.000000,0.000000,0.000000,TRUE,-0.198639,0.014587,0.000000,0.065735,0.006607,0.000000,0.021000,-0.095000,-0.169000,1.380000,-0.600000,13.610000,-0.574281,Hold,59.268311,58.000000,Hold,-173.000000,2.000000,LowGoal,1725.000000,-1818.181818,Speed,1740.000000,-1818.181818,Speed,Off,Off,0.000000,FALSE,45,Read: /home/lvuser/scripts/auto_45.bee,File good!,DRIVE_STRAIGHT_TARGET 78 0 10000 75,DRIVE_STRAIGHT_TARGET,0.000000,0.000000,-0.050000
09:35:47.676 AM 04/28/2016,Autonomous Enabled,11,FALSE,0,NO ERROR,-0.573276,-19.801787,0.551826,19.994287,FALSE,FALSE,TRUE,TRUE,FALSE,FALSE,Disabled,0.000000,0.000000,0.000000,TRUE,-0.194229,0.014099,0.000000,0.070038,0.000000,0.000000,-0.066000,0.062000,-0.090000,1.210000,-0.590000,16.830000,-0.655177,Hold,60.497314,58.000000,Hold,-173.000000,2.000000,LowGoal,1732.500000,-1818.181818,Speed,1815.000000,-1818.181818,Speed,Off,Off,0.000000,FALSE,45,Read: /home/lvuser/scripts/auto_45.bee,File good!,DRIVE_STRAIGHT_TARGET 78 0 10000 75,DRIVE_STRAIGHT_TARGET,0.000000,0.000000,-0.050000
09:35:47.776 AM 04/28/2016,Autonomous Enabled,10,FALSE,0,NO ERROR,-0.574064,-23.414362,0.551054,23.626111,FALSE,FALSE,TRUE,TRUE,FALSE,FALSE,Disabled,0.000000,0.000000,0.000000,TRUE,-0.191284,0.013687,0.000000,0.062271,-0.025528,0.000000,-0.272000,0.021000,0.370000,1.160000,-0.590000,20.060000,-0.634312,Hold,60.671387,58.000000,Hold,-173.000000,2.000000,LowGoal,1740.000000,-1818.181818,Speed,1807.500000,-1818.181818,Speed,Off,Off,0.000000,FALSE,45,Read: /home/lvuser/scripts/auto_45.bee,File good!,DRIVE_STRAIGHT_TARGET 78 0 10000 75,DRIVE_STRAIGHT_TARGET,0.000000,0.000000,-0.050000
09:35:47.876 AM 04/28/2016,Autonomous Enabled,10,FALSE,0,NO ERROR,-0.574064,-26.674021,0.551054,26.840854,FALSE,FALSE,TRUE,TRUE,FALSE,FALSE,Disabled,0.000000,0.000000,0.000000,TRUE,-0.193253,0.012924,0.000000,-0.051132,0.000000,0.000000,0.224000,0.060000,-0.255000,1.210000,-0.610000,21.130000,-0.701394,Hold,60.746826,58.000000,Hold,-173.000000,2.000000,LowGoal,1747.500000,-1818.181818,Speed,1762.500000,-1818.181818,Speed,Off,Off,0.000000,FALSE,45,Read: /home/lvuser/scripts/auto_45.bee,File good!,DRIVE_STRAIGHT_TARGET 78 0 10000 75,DRIVE_STRAIGHT_TARGET,0.000000,0.000000,-0.050000
09:35:47.976 AM 04/28/2016,Autonomous Enabled,9,FALSE,0,NO ERROR,-0.572096,-29.882347,0.552986,29.985013,FALSE,FALSE,TRUE,TRUE,FALSE,FALSE,Disabled,0.000000,0.000000,0.000000,TRUE,-0.196060,0.012650,0.000000,-0.101517,-0.011719,0.000000,0.005000,0.010000,-0.155000,1.120000,-0.490000,22.780000,-0.649762,Hold,60.747070,58.000000,Hold,-173.000000,2.000000,LowGoal,1747.500000,-1818.181818,Speed,1732.500000,-1818.181818,Speed,Off,Off,0.000000,FALSE,45,Read: /home/lvuser/scripts/auto_45.bee,File good!,DRIVE_STRAIGHT_TARGET 78 0 10000 75,DRIVE_STRAIGHT_TARGET,0.000000,0.000000,-0.050000
09:35:48.076 AM 04/28/2016,Autonomous Enabled,10,FALSE,0,NO ERROR,-0.574655,-32.962340,0.550475,33.097089,FALSE,FALSE,TRUE,TRUE,FALSE,FALSE,Disabled,0.000000,0.000000,0.000000,TRUE,-0.199112,0.012314,0.000000,-0.093277,-0.005356,0.000000,-0.190000,-0.016000,0.275000,1.130000,-0.620000,23.870000,-0.760716,Hold,60.752686,58.000000,Hold,-173.000000,2.000000,LowGoal,1740.000000,-1818.181818,Speed,1725.000000,-1818.181818,Speed,Off,Off,0.000000,FALSE,45,Read: /home/lvuser/scripts/auto_45.bee,File good!,DRIVE_STRAIGHT_TARGET 78 0 10000 75,DRIVE_STRAIGHT_TARGET,0.000000,0.000000,-0.050000
09:35:48.176 AM 04/28/2016,Autonomous Enabled,10,FALSE,0,NO ERROR,-0.578010,-35.971749,0.547200,36.196332,FALSE,FALSE,TRUE,TRUE,FALSE,FALSE,Disabled,0.000000,0.000000,0.000000,TRUE,-0.208389,0.010788,0.000000,-0.196793,-0.028900,0.000000,-0.330000,0.079000,0.395000,0.920000,-0.810000,24.950000,-1.024898,Hold,60.752686,58.000000,Hold,-173.000000,2.000000,LowGoal,1732.500000,-1818.181818,Speed,1732.500000,-1818.181818,Speed,Off,Off,0.000000,FALSE,45,Read: /home/lvuser/scripts/auto_45.bee,File good!,DRIVE_STRAIGHT_TARGET 78 0 10000 75,DRIVE_STRAIGHT_TARGET,0.000000,0.000000,-0.050000
09:35:48.276 AM 04/28/2016,Autonomous Enabled,10,FALSE,0,NO ERROR,-0.583558,-38.589743,0.541828,38.949076,FALSE,FALSE,TRUE,TRUE,FALSE,FALSE,Disabled,0.000000,0.000000,0.000000,TRUE,-0.219315,0.009628,0.000000,-0.159424,-0.035782,0.000000,0.139000,0.030000,-0.010000,0.830000,-1.070000,24.740000,-1.247483,Hold,60.752686,58.000000,Hold,-173.000000,2.000000,LowGoal,1732.500000,-1818.181818,Speed,1740.000000,-1818.181818,Speed,Off,Off,0.000000,FALSE,45,Read: /home/lvuser/scripts/auto_45.bee,File good!,DRIVE_STRAIGHT_TARGET 78 0 10000 75,DRIVE_STRAIGHT_TARGET,0.000000,0.000000,-0.050000
09:35:48.376 AM 04/28/2016,Autonomous Enabled,10,FALSE,0,NO ERROR,-0.584950,-41.310403,0.540490,41.688986,FALSE,FALSE,TRUE,TRUE,FALSE,FALSE,Disabled,0.000000,0.000000,0.000000,TRUE,-0.231613,0.008392,0.000000,-0.192444,-0.018707,0.000000,0.128000,0.008000,-0.202000,0.870000,-1.140000,23.000000,-1.358581,Hold,60.752930,58.000000,Hold,-173.000000,2.000000,LowGoal,1740.000000,-1818.181818,Speed,1740.000000,-1818.181818,Speed,Off,Off,0.000000,FALSE,45,Read: /home/lvuser/scripts/auto_45.bee,File good!,DRIVE_STRAIGHT_TARGET 78 0 10000 75,DRIVE_STRAIGHT_TARGET,0.000000,0.000000,-0.050000
09:35:48.476 AM 04/28/2016,Autonomous Enabled,11,FALSE,0,NO ERROR,-0.583558,-44.435313,0.541828,44.595729,FALSE,FALSE,TRUE,TRUE,FALSE,FALSE,Disabled,0.000000,0.000000,0.000000,TRUE,-0.238602,0.008423,0.000000,-0.163498,0.013336,0.000000,0.093000,-0.001000,-0.068000,0.980000,-1.020000,21.110000,-1.250843,Hold,60.752930,58.000000,Hold,-173.000000,2.000000,LowGoal,1732.500000,-1818.181818,Speed,1732.500000,-1818.181818,Speed,Off,Off,0.000000,FALSE,45,Read: /home/lvuser/scripts/auto_45.bee,File good!,DRIVE_STRAIGHT_TARGET 78 0 10000 75,DRIVE_STRAIGHT_TARGET,0.000000,0.000000,-0.050000
09:35:48.576 AM 04/28/2016,Autonomous Enabled,10,FALSE,0,NO ERROR,-0.580781,-47.130306,0.544511,47.335639,FALSE,FALSE,TRUE,TRUE,FALSE,FALSE,Disabled,0.000000,0.000000,0.000000,TRUE,-0.243317,0.008331,0.000000,-0.037674,-0.014038,0.000000,0.053000,-0.040000,-0.060000,1.060000,-0.930000,18.460000,-1.061392,Hold,60.752930,58.000000,Hold,-173.000000,2.000000,LowGoal,1725.000000,-1818.181818,Speed,1740.000000,-1818.181818,Speed,Off,Off,0.000000,FALSE,45,Read: /home/lvuser/scripts/auto_45.bee,File good!,DRIVE_STRAIGHT_TARGET 78 0 10000 75,DRIVE_STRAIGHT_TARGET,0.000000,0.000000,-0.050000
09:35:48.677 AM 04/28/2016,Autonomous Enabled,9,FALSE,0,NO ERROR,-0.579395,-50.139716,0.545855,50.287299,FALSE,FALSE,TRUE,TRUE,FALSE,FALSE,Disabled,0.000000,0.000000,0.000000,TRUE,-0.240601,0.007172,0.000000,0.154770,-0.012527,0.000000,0.302000,-0.042000,-0.828000,1.320000,-0.860000,11.570000,-0.891829,Hold,60.706543,58.000000,Hold,-173.000000,2.000000,LowGoal,1710.000000,-1818.181818,Speed,1762.500000,-1818.181818,Speed,Off,Off,0.000000,FALSE,45,Read: /home/lvuser/scripts/auto_45.bee,File good!,DRIVE_STRAIGHT_TARGET 78 0 10000 75,DRIVE_STRAIGHT_TARGET,0.000000,0.000000,-0.050000
09:35:48.778 AM 04/28/2016,Autonomous Enabled,11,FALSE,0,NO ERROR,-0.579395,-53.559791,0.545855,53.688124,TRUE,FALSE,TRUE,TRUE,FALSE,FALSE,Disabled,0.000000,0.000000,0.000000,TRUE,-0.225708,0.005981,0.000000,0.381241,-0.025757,0.000000,0.124000,-0.032000,-0.784000,1.720000,-0.790000,-0.660000,-0.716830,Hold,60.421143,58.000000,Hold,-173.000000,2.000000,LowGoal,1695.000000,-1818.181818,Speed,1770.000000,-1818.181818,Speed,Off,Off,0.000000,FALSE,45,Read: /home/lvuser/scripts/auto_45.bee,File good!,DRIVE_STRAIGHT_TARGET 78 0 10000 75,DRIVE_STRAIGHT_TARGET,0.000000,0.000000,-0.050000
09:35:48.879 AM 04/28/2016,Autonomous Enabled,10,FALSE,0,NO ERROR,-0.575049,-58.231114,0.550089,58.192614,FALSE,FALSE,TRUE,TRUE,FALSE,FALSE,Disabled,0.000000,0.000000,0.000000,TRUE,-0.206757,0.007324,0.000000,0.493057,0.048279,0.000000,-0.502000,0.132000,-2.743000,2.510000,-0.240000,-11.290000,-0.320822,Hold,60.152588,58.000000,Hold,-173.000000,2.000000,LowGoal,1695.000000,-1818.181818,Speed,1762.500000,-1818.181818,Speed,Off,Off,0.000000,FALSE,45,Read: /home/lvuser/scripts/auto_45.bee,File good!,DRIVE_STRAIGHT_TARGET 78 0 10000 75,DRIVE_STRAIGHT_TARGET,0.000000,0.000000,-0.050000
09:35:48.979 AM 04/28/2016,Autonomous Enabled,7,FALSE,0,NO ERROR,-0.565038,-63.845684,0.559968,63.909851,FALSE,FALSE,TRUE,TRUE,FALSE,FALSE,Disabled,0.000000,0.000000,0.000000,TRUE,-0.195084,0.011200,0.000000,0.092407,-0.030243,0.000000,0.654000,0.893000,-0.407000,2.510000,-0.240000,-11.290000,0.034928,Hold,58.686768,58.000000,Hold,-406.000000,2.000000,LowGoal,1687.500000,-1818.181818,Speed,1597.500000,-1818.181818,Speed,Off,Off,0.000000,FALSE,45,Read: /home/lvuser/scripts/auto_45.bee,File good!,DRIVE_STRAIGHT_TARGET 78 0 10000 75,DRIVE_STRAIGHT_TARGET,0.000000,0.000000,-0.050000
09:35:49.079 AM 04/28/2016,Autonomous Enabled,11,FALSE,0,NO ERROR,-0.557053,-68.709506,0.567973,68.927672,FALSE,FALSE,TRUE,TRUE,FALSE,FALSE,Disabled,0.000000,0.000000,0.000000,TRUE,-0.178223,0.018616,0.000000,0.397217,0.198853,0.000000,-0.103000,-0.045000,-0.910000,2.840000,0.340000,3.310000,0.419644,Hold,58.652100,58.000000,Hold,-95.000000,2.000000,LowGoal,1627.500000,-1818.181818,Speed,1650.000000,-1818.181818,Speed,Off,Off,0.000000,FALSE,45,Read: /home/lvuser/scripts/auto_45.bee,File good!,DRIVE_STRAIGHT_TARGET 78 0 10000 75,DRIVE_STRAIGHT_TARGET,0.000000,0.000000,-0.050000
09:35:49.180 AM 04/28/2016,Autonomous Enabled,9,FALSE,0,NO ERROR,-0.548548,-73.682411,0.576628,73.778661,FALSE,FALSE,TRUE,TRUE,FALSE,FALSE,Disabled,0.000000,0.000000,0.000000,TRUE,-0.165436,0.019226,0.000000,0.240555,-0.111237,0.000000,0.165000,-0.229000,-0.055000,2.840000,0.340000,3.310000,0.876589,Hold,58.361572,58.000000,Hold,-145.000000,2.000000,LowGoal,1650.000000,-1818.181818,Speed,1755.000000,-1818.181818,Speed,Off,Off,0.000000,FALSE,45,Read: /home/lvuser/scripts/auto_45.bee,File good!,DRIVE_STRAIGHT_TARGET 78 0 10000 75,DRIVE_STRAIGHT_TARGET,0.000000,0.000000,-0.050000
09:35:49.281 AM 04/28/2016,Autonomous Enabled,10,FALSE,0,NO ERROR,0.000000,-78.546233,-0.000000,78.610400,FALSE,FALSE,TRUE,TRUE,FALSE,TRUE,Disabled,0.000000,0.000000,0.000000,TRUE,-0.150452,0.009384,0.000000,0.244827,-0.226044,0.000000,0.272000,0.167000,-1.659000,1.750000,1.090000,-3.730000,1.305528,Hold,61.246582,50.000000,Hold,-156.000000,2.000000,LowGoal,1687.500000,-1818.181818,Speed,1732.500000,-1818.181818,Speed,Off,Off,0.000000,FALSE,45,Read: /home/lvuser/scripts/auto_45.bee,File good!,SEARCH_FOR_GOAL,SEARCH_FOR_GOAL,0.000000,0.000000,-0.050000
09:35:49.380 AM 04/28/2016,Autonomous Enabled,10,FALSE,0,NO ERROR,0.000000,-82.088225,-0.000000,82.210141,TRUE,FALSE,TRUE,TRUE,FALSE,TRUE,Disabled,0.000000,0.000000,0.000000,TRUE,-0.150467,-0.001053,0.000000,-0.525421,-0.181931,0.000000,-0.493000,-0.104000,0.475000,1.870000,1.240000,-2.810000,1.188684,Hold,59.120605,50.000000,Hold,-156.000000,71680.000000,LowGoal,1725.000000,-3272.727273,Speed,1665.000000,-3272.727273,Speed,Off,Off,0.000000,FALSE,45,Read: /home/lvuser/scripts/auto_45.bee,File good!,SEARCH_FOR_GOAL,SEARCH_FOR_GOAL,0.000000,0.000000,-0.050000
09:35:49.482 AM 04/28/2016,Autonomous Enabled,10,FALSE,0,NO ERROR,0.000000,-83.050722,-0.000000,83.268889,FALSE,FALSE,TRUE,TRUE,FALSE,TRUE,Disabled,0.000000,0.000000,0.000000,TRUE,-0.192703,-0.011383,0.000000,-0.977539,-0.185196,0.000000,-0.493000,-0.104000,0.475000,1.910000,1.060000,-4.000000,1.017269,Hold,55.628174,50.000000,Hold,-1241.000000,71680.000000,LowGoal,1725.000000,-3272.727273,Speed,1470.000000,-3272.727273,Speed,Off,Off,0.000000,FALSE,45,Read: /home/lvuser/scripts/auto_45.bee,File good!,SEARCH_FOR_GOAL,SEARCH_FOR_GOAL,0.000000,0.000000,-0.050000
09:35:49.582 AM 04/28/2016,Autonomous Enabled,8,FALSE,0,NO ERROR,0.000000,-83.333055,-0.000000,83.583305,FALSE,FALSE,TRUE,TRUE,FALSE,TRUE,Disabled,0.000000,0.000000,0.000000,TRUE,-0.244675,-0.021362,0.000000,-1.066025,-0.211655,0.000000,0.008000,-0.098000,-0.064000,1.850000,1.020000,-4.200000,0.969269,Hold,55.160889,50.000000,Hold,-19206.000000,71680.000000,LowGoal,1852.500000,-3272.727273,Speed,1890.000000,-3272.727273,Speed,Off,Off,0.000000,FALSE,45,Read: /home/lvuser/scripts/auto_45.bee,File good!,SEARCH_FOR_GOAL,SEARCH_FOR_GOAL,0.000000,0.000000,-0.050000
09:35:49.682 AM 04/28/2016,Autonomous Enabled,10,FALSE,0,NO ERROR,0.000000,-83.333055,-0.000000,83.583305,FALSE,FALSE,TRUE,TRUE,FALSE,TRUE,Disabled,0.000000,0.000000,0.000000,TRUE,-0.255020,-0.033279,0.000000,0.011765,-0.238327,0.000000,-0.070000,0.069000,-0.119000,1.850000,1.040000,-4.200000,0.979308,Hold,55.160889,50.000000,Hold,-39143.000000,71680.000000,LowGoal,2227.500000,-3272.727273,Speed,2047.500000,-3272.727273,Speed,Off,Off,0.000000,FALSE,45,Read: /home/lvuser/scripts/auto_45.bee,File good!,SEARCH_FOR_GOAL,SEARCH_FOR_GOAL,0.000000,0.000000,-0.050000
09:35:49.783 AM 04/28/2016,Autonomous Enabled,10,FALSE,0,NO ERROR,0.000000,-83.320222,-0.000000,83.583305,FALSE,FALSE,TRUE,TRUE,FALSE,TRUE,Disabled,0.000000,0.000000,0.000000,TRUE,-0.255157,-0.043198,0.000000,0.018326,-0.194901,0.000000,-0.070000,0.069000,-0.119000,1.750000,1.010000,-3.840000,0.973900,Hold,55.160889,50.000000,Hold,-57810.000000,71680.000000,LowGoal,2437.500000,-3272.727273,Speed,2400.000000,-3272.727273,Speed,Off,Off,0.000000,FALSE,45,Read: /home/lvuser/scripts/auto_45.bee,File good!,SEARCH_FOR_GOAL,SEARCH_FOR_GOAL,0.000000,0.000000,-0.050000
09:35:49.884 AM 04/28/2016,Autonomous Enabled,9,FALSE,0,NO ERROR,0.000000,-83.256055,-0.000000,83.461388,FALSE,FALSE,TRUE,TRUE,FALSE,TRUE,Disabled,0.000000,0.000000,0.000000,TRUE,-0.251862,-0.053925,0.000000,0.106934,-0.230743,0.000000,0.018000,-0.065000,-0.011000,1.680000,1.030000,-3.390000,0.991760,Hold,55.160889,50.000000,Hold,-73000.000000,71680.000000,LowGoal,2677.500000,-3272.727273,Speed,2812.500000,-3272.727273,Speed,Off,Off,0.000000,FALSE,45,Read: /home/lvuser/scripts/auto_45.bee,File good!,SEARCH_FOR_GOAL,SEARCH_FOR_GOAL,0.000000,0.000000,-0.050000
09:35:49.984 AM 04/28/2016,Autonomous Enabled,6,FALSE,0,NO ERROR,0.000000,-83.262472,-0.000000,83.454972,FALSE,FALSE,TRUE,TRUE,FALSE,TRUE,Disabled,0.000000,0.000000,0.000000,TRUE,-0.243469,-0.065750,0.000000,0.247360,-0.235214,0.000000,0.262000,-0.379000,0.108000,1.760000,0.970000,-3.530000,0.949757,Hold,55.161865,50.000000,Hold,-73000.000000,71680.000000,LowGoal,2932.500000,-3272.727273,Speed,3075.000000,-3272.727273,Speed,Off,Off,0.000000,FALSE,45,Read: /home/lvuser/scripts/auto_45.bee,File good!,SEARCH_FOR_GOAL,SEARCH_FOR_GOAL,0.000000,0.000000,-0.050000
09:35:50.083 AM 04/28/2016,Autonomous Enabled,7,FALSE,0,NO ERROR,0.000000,-83.442138,-0.000000,83.685971,TRUE,FALSE,TRUE,TRUE,FALSE,TRUE,Disabled,0.000000,0.000000,0.000000,TRUE,-0.227905,-0.079102,0.000000,0.304199,-0.279877,0.000000,-0.242000,-0.085000,0.418000,1.780000,0.970000,-2.900000,0.969500,Hold,55.419678,50.000000,Hold,-71371.000000,71680.000000,LowGoal,3060.000000,-3272.727273,Speed,3187.500000,-3272.727273,Speed,Off,Off,0.000000,FALSE,45,Read: /home/lvuser/scripts/auto_45.bee,File good!,SEARCH_FOR_GOAL,SEARCH_FOR_GOAL,0.000000,0.000000,-0.050000
09:35:50.185 AM 04/28/2016,Autonomous Enabled,23,FALSE,0,NO ERROR,0.000000,-83.454972,-0.000000,83.685971,TRUE,FALSE,TRUE,TRUE,FALSE,TRUE,Disabled,0.000000,0.000000,0.000000,TRUE,-0.214798,-0.094238,0.000000,0.281921,-0.327469,0.000000,-0.242000,-0.085000,0.418000,1.700000,0.920000,-2.970000,0.877780,Hold,55.419678,50.000000,Hold,-71470.000000,71680.000000,LowGoal,3180.000000,-3272.727273,Speed,3240.000000,-3272.727273,Speed,Off,Off,0.000000,FALSE,45,Read: /home/lvuser/scripts/auto_45.bee,File good!,SEARCH_FOR_GOAL,SEARCH_FOR_GOAL,0.000000,0.000000,-0.050000
09:35:50.286 AM 04/28/2016,Autonomous Enabled,9,FALSE,0,NO ERROR,0.350612,-83.365138,0.350612,83.641054,TRUE,FALSE,TRUE,TRUE,FALSE,TRUE,PID,-0.200000,9.750000,-8.860000,TRUE,-0.195526,-0.114120,0.000000,0.349152,-0.311584,0.000000,-0.050000,0.062000,0.034000,1.690000,0.910000,-2.930000,0.901131,Hold,55.269531,50.000000,Hold,-71566.000000,71680.000000,LowGoal,3247.500000,-3272.727273,Speed,3232.500000,-3272.727273,Speed,Off,Off,0.000000,FALSE,45,Read: /home/lvuser/scripts/auto_45.bee,File good!,SEARCH_FOR_GOAL,SEARCH_FOR_GOAL,0.000000,0.000000,-0.250000
09:35:50.387 AM 04/28/2016,Autonomous Enabled,8,FALSE,0,NO ERROR,0.337852,-82.466807,0.337852,84.565052,TRUE,FALSE,TRUE,TRUE,FALSE,TRUE,PID,-0.200000,9.750000,-8.860000,TRUE,-0.174988,-0.133408,0.000000,0.398987,-0.479324,0.000000,0.159000,0.031000,0.062000,1.270000,0.040000,-2.850000,-0.954587,Hold,55.269531,50.000000,Hold,-71808.000000,71680.000000,LowGoal,3210.000000,-3272.727273,Speed,3255.000000,-3272.727273,Speed,Off,Off,0.000000,FALSE,45,Read: /home/lvuser/scripts/auto_45.bee,File good!,SEARCH_FOR_GOAL,SEARCH_FOR_GOAL,0.000000,0.000000,-0.250000
09:35:50.487 AM 04/28/2016,Autonomous Enabled,11,FALSE,0,NO ERROR,0.278256,-81.472226,0.278256,85.713633,TRUE,FALSE,TRUE,TRUE,FALSE,TRUE,PID,-0.200000,9.750000,-8.860000,TRUE,-0.158936,-0.153198,0.000000,0.399933,-0.468445,0.000000,0.023000,0.387000,0.063000,1.510000,-4.260000,-2.650000,-5.506950,Hold,55.266357,50.000000,Hold,-71720.000000,71680.000000,LowGoal,3180.000000,-3272.727273,Speed,3195.000000,-3272.727273,Speed,Off,Off,0.000000,FALSE,45,Read: /home/lvuser/scripts/auto_45.bee,File good!,SEARCH_FOR_GOAL,SEARCH_FOR_GOAL,0.000000,0.000000,-0.250000
09:35:50.587 AM 04/28/2016,Autonomous Enabled,7,FALSE,0,NO ERROR,0.232445,-80.670145,0.232445,86.490048,TRUE,FALSE,TRUE,TRUE,FALSE,TRUE,PID,-0.200000,9.750000,-8.860000,TRUE,-0.130676,-0.176254,0.000000,0.529694,-0.419159,0.000000,0.023000,0.387000,0.063000,1.500000,-7.890000,-2.350000,-8.990657,Hold,55.265381,50.000000,Hold,-71742.000000,71680.000000,LowGoal,3172.500000,-3272.727273,Speed,3210.000000,-3272.727273,Speed,Off,Off,0.000000,FALSE,45,Read: /home/lvuser/scripts/auto_45.bee,File good!,SEARCH_FOR_GOAL,SEARCH_FOR_GOAL,0.000000,0.000000,-0.250000
09:35:50.687 AM 04/28/2016,Autonomous Enabled,8,FALSE,0,NO ERROR,0.000000,-80.445562,-0.000000,86.817297,TRUE,FALSE,TRUE,TRUE,FALSE,TRUE,Suspended,-0.200000,9.750000,-8.860000,TRUE,-0.119644,-0.196884,0.000000,0.014297,-0.326614,0.000000,-0.024000,-0.210000,0.148000,2.020000,-10.620000,-1.930000,-11.115734,Hold,55.266113,50.000000,Hold,-71742.000000,71680.000000,LowGoal,3180.000000,-3272.727273,Speed,3202.500000,-3272.727273,Speed,Off,Off,0.000000,FALSE,45,Read: /home/lvuser/scripts/auto_45.bee,File good!,SEARCH_FOR_GOAL,SEARCH_FOR_GOAL,0.000000,0.000000,-0.250000
09:35:50.787 AM 04/28/2016,Autonomous Enabled,9,FALSE,0,NO ERROR,0.000000,-80.451979,-0.000000,86.631214,TRUE,FALSE,TRUE,TRUE,FALSE,TRUE,Suspended,-0.200000,9.750000,-8.860000,TRUE,-0.116302,-0.209473,0.000000,0.090393,-0.298203,0.000000,0.050000,0.505000,0.013000,2.030000,-10.040000,-1.590000,-10.425973,Hold,55.266113,50.000000,Hold,-71742.000000,71680.000000,LowGoal,3195.000000,-3272.727273,Speed,3217.500000,-3272.727273,Speed,Off,Off,0.000000,FALSE,45,Read: /home/lvuser/scripts/auto_45.bee,File good!,SEARCH_FOR_GOAL,SEARCH_FOR_GOAL,0.000000,0.000000,-0.250000
09:35:50.887 AM 04/28/2016,Autonomous Enabled,11,FALSE,0,NO ERROR,0.000000,-80.458395,-0.000000,86.611964,TRUE,FALSE,TRUE,TRUE,FALSE,TRUE,Suspended,-0.200000,9.750000,-8.860000,TRUE,-0.111023,-0.223892,0.000000,0.106796,-0.264511,0.000000,0.114000,0.030000,-0.031000,2.030000,-10.040000,-1.590000,-10.270662,Hold,55.266113,50.000000,Hold,-71742.000000,71680.000000,LowGoal,3210.000000,-3272.727273,Speed,3277.500000,-3272.727273,Speed,Off,Off,0.000000,FALSE,45,Read: /home/lvuser/scripts/auto_45.bee,File good!,SEARCH_FOR_GOAL,SEARCH_FOR_GOAL,0.000000,0.000000,-0.250000
09:35:50.987 AM 04/28/2016,Autonomous Enabled,10,FALSE,0,NO ERROR,0.000000,-80.458395,-0.000000,86.611964,TRUE,FALSE,TRUE,TRUE,FALSE,TRUE,Suspended,-0.200000,9.750000,-8.860000,TRUE,-0.111023,-0.223892,0.000000,0.106796,-0.264511,0.000000,-0.043000,-0.047000,-0.121000,2.070000,-9.890000,-1.490000,-10.280139,Hold,55.266113,50.000000,Hold,-71742.000000,71680.000000,LowGoal,3217.500000,-3272.727273,Speed,3270.000000,-3272.727273,Speed,Off,Off,0.000000,FALSE,45,Read: /home/lvuser/scripts/auto_45.bee,File good!,SEARCH_FOR_GOAL,SEARCH_FOR_GOAL,0.000000,0.000000,-0.250000
09:35:51.087 AM 04/28/2016,Autonomous Enabled,11,FALSE,0,NO ERROR,0.000000,-80.458395,-0.000000,86.611964,TRUE,FALSE,TRUE,TRUE,FALSE,TRUE,Suspended,-0.200000,9.750000,-8.860000,TRUE,-0.097717,-0.252731,0.000000,0.155716,-0.292847,0.000000,-0.029000,0.062000,-0.013000,2.000000,-9.860000,-1.420000,-10.329378,Hold,55.266113,50.000000,Hold,-71742.000000,71680.000000,LowGoal,3225.000000,-3272.727273,Speed,3300.000000,-3272.727273,Speed,Off,Off,0.000000,FALSE,45,Read: /home/lvuser/scripts/auto_45.bee,File good!,SEARCH_FOR_GOAL,SEARCH_FOR_GOAL,0.000000,0.000000,-0.250000
09:35:51.187 AM 04/28/2016,Autonomous Enabled,9,FALSE,0,NO ERROR,0.000000,-80.458395,-0.000000,86.611964,TRUE,FALSE,TRUE,TRUE,FALSE,TRUE,Suspended,-0.200000,9.750000,-8.860000,TRUE,-0.091324,-0.267090,0.000000,0.120911,-0.286804,0.000000,-0.113000,-0.068000,0.055000,1.900000,-9.950000,-1.260000,-10.283751,Hold,55.266113,50.000000,Hold,-71742.000000,71680.000000,LowGoal,3217.500000,-3272.727273,Speed,3300.000000,-3272.727273,Speed,Off,Off,0.000000,FALSE,45,Read: /home/lvuser/scripts/auto_45.bee,File good!,SEARCH_FOR_GOAL,SEARCH_FOR_GOAL,0.000000,0.000000,-0.250000
09:35:51.287 AM 04/28/2016,Autonomous Enabled,11,FALSE,0,NO ERROR,-0.238175,-80.490478,-0.238175,86.605547,TRUE,FALSE,TRUE,TRUE,FALSE,TRUE,PID,0.087500,-1.462500,-8.467500,TRUE,-0.083176,-0.282959,0.000000,0.175018,-0.338333,0.000000,0.082000,-0.044000,-0.076000,1.900000,-9.890000,-1.270000,-10.284298,Hold,55.266113,50.000000,Hold,-71742.000000,71680.000000,LowGoal,3210.000000,-3272.727273,Speed,3255.000000,-3272.727273,Speed,Off,Off,0.000000,FALSE,45,Read: /home/lvuser/scripts/auto_45.bee,File good!,SEARCH_FOR_GOAL,SEARCH_FOR_GOAL,0.000000,0.000000,0.037500
09:35:51.387 AM 04/28/2016,Autonomous Enabled,10,FALSE,0,NO ERROR,-0.235741,-81.196310,-0.235741,85.854799,TRUE,FALSE,TRUE,TRUE,FALSE,TRUE,PID,0.087500,-1.462500,-8.467500,TRUE,-0.083176,-0.282959,0.000000,0.175018,-0.338333,0.000000,0.095000,-0.071000,0.008000,1.890000,-9.710000,-1.060000,-9.471823,Hold,55.266113,50.000000,Hold,-71742.000000,71680.000000,LowGoal,3202.500000,-3272.727273,Speed,3262.500000,-3272.727273,Speed,Off,Off,0.000000,FALSE,45,Read: /home/lvuser/scripts/auto_45.bee,File good!,SEARCH_FOR_GOAL,SEARCH_FOR_GOAL,0.000000,0.000000,0.037500
09:35:51.489 AM 04/28/2016,Autonomous Enabled,9,FALSE,0,NO ERROR,0.000000,-81.690392,-0.000000,85.373550,TRUE,FALSE,TRUE,TRUE,FALSE,TRUE,Suspended,0.087500,-1.462500,-8.467500,TRUE,-0.071732,-0.302963,0.000000,0.202316,-0.251877,0.000000,0.030000,0.173000,-0.037000,2.070000,-7.320000,-0.980000,-7.019359,Hold,55.266113,50.000000,Hold,-71742.000000,71680.000000,LowGoal,3195.000000,-3272.727273,Speed,3225.000000,-3272.727273,Speed,Off,Off,0.000000,FALSE,45,Read: /home/lvuser/scripts/auto_45.bee,File good!,SEARCH_FOR_GOAL,SEARCH_FOR_GOAL,0.000000,0.000000,0.037500
09:35:51.591 AM 04/28/2016,Autonomous Enabled,11,FALSE,0,NO ERROR,0.000000,-81.619809,-0.000000,85.514717,TRUE,FALSE,TRUE,TRUE,FALSE,TRUE,Suspended,0.087500,-1.462500,-8.467500,TRUE,-0.056763,-0.332733,0.000000,0.135284,-0.478485,0.000000,0.010000,-0.326000,0.003000,2.070000,-7.320000,-0.980000,-7.559224,Hold,55.266113,50.000000,Hold,-71742.000000,71680.000000,LowGoal,3202.500000,-3272.727273,Speed,3247.500000,-3272.727273,Speed,Off,Off,0.000000,FALSE,45,Read: /home/lvuser/scripts/auto_45.bee,File good!,SEARCH_FOR_GOAL,SEARCH_FOR_GOAL,0.000000,0.000000,0.037500
09:35:51.691 AM 04/28/2016,Autonomous Enabled,10,FALSE,0,NO ERROR,0.000000,-81.549226,-0.000000,85.598133,TRUE,FALSE,TRUE,TRUE,FALSE,TRUE,Suspended,0.087500,-1.462500,-8.467500,TRUE,-0.046600,-0.359451,0.000000,0.177994,-0.428604,0.000000,0.110000,0.043000,0.053000,1.480000,-7.210000,-1.160000,-7.669014,Hold,55.266113,50.000000,Hold,-71742.000000,71680.000000,LowGoal,3202.500000,-3272.727273,Speed,3240.000000,-3272.727273,Speed,Off,Off,0.000000,FALSE,45,Read: /home/lvuser/scripts/auto_45.bee,File good!,SEARCH_FOR_GOAL,SEARCH_FOR_GOAL,0.000000,0.000000,0.037500
09:35:51.792 AM 04/28/2016,Autonomous Enabled,11,FALSE,0,NO ERROR,0.000000,-81.549226,-0.000000,85.598133,TRUE,FALSE,TRUE,TRUE,FALSE,TRUE,Suspended,0.087500,-1.462500,-8.467500,TRUE,-0.046600,-0.359451,0.000000,0.177994,-0.428604,0.000000,0.005000,-0.057000,-0.120000,1.680000,-7.430000,-0.980000,-7.670653,Hold,55.266113,50.000000,Hold,-71742.000000,71680.000000,LowGoal,3195.000000,-3272.727273,Speed,3217.500000,-3272.727273,Speed,Off,Off,0.000000,FALSE,45,Read: /home/lvuser/scripts/auto_45.bee,File good!,SEARCH_FOR_GOAL,SEARCH_FOR_GOAL,0.000000,0.000000,0.037500
09:35:51.896 AM 04/28/2016,Autonomous Enabled,10,FALSE,0,NO ERROR,0.000000,-81.549226,-0.000000,85.598133,TRUE,FALSE,TRUE,TRUE,FALSE,TRUE,Suspended,0.087500,-1.462500,-8.467500,TRUE,-0.038513,-0.381470,0.000000,0.147079,-0.455231,0.000000,0.074000,-0.183000,0.103000,1.700000,-7.430000,-1.030000,-7.650961,Hold,55.266113,50.000000,Hold,-71742.000000,71680.000000,LowGoal,3195.000000,-3272.727273,Speed,3232.500000,-3272.727273,Speed,Off,Off,0.000000,FALSE,45,Read: /home/lvuser/scripts/auto_45.bee,File good!,SEARCH_FOR_GOAL,SEARCH_FOR_GOAL,0.000000,0.000000,0.037500
09:35:51.995 AM 04/28/2016,Autonomous Enabled,11,FALSE,0,NO ERROR,0.000000,-81.549226,-0.000000,85.598133,TRUE,FALSE,TRUE,TRUE,FALSE,TRUE,Suspended,0.087500,-1.462500,-8.467500,TRUE,-0.030563,-0.406128,0.000000,0.162888,-0.510101,0.000000,-0.006000,0.125000,-0.120000,1.710000,-7.410000,-1.000000,-7.650961,Hold,55.266113,50.000000,Hold,-71742.000000,71680.000000,LowGoal,3202.500000,-3272.727273,Speed,3232.500000,-3272.727273,Speed,Off,Off,0.000000,FALSE,45,Read: /home/lvuser/scripts/auto_45.bee,File good!,SEARCH_FOR_GOAL,SEARCH_FOR_GOAL,0.000000,0.000000,0.037500
09:35:52.095 AM 04/28/2016,Autonomous Enabled,10,FALSE,0,NO ERROR,0.000000,-81.549226,-0.000000,85.598133,TRUE,FALSE,TRUE,TRUE,FALSE,TRUE,Suspended,0.087500,-1.462500,-8.467500,TRUE,-0.021698,-0.430389,0.000000,0.184326,-0.470413,0.000000,0.018000,0.121000,-0.074000,1.700000,-7.430000,-0.930000,-7.672212,Hold,55.266113,50.000000,Hold,-71742.000000,71680.000000,LowGoal,3210.000000,-3272.727273,Speed,3255.000000,-3272.727273,Speed,Off,Off,0.000000,FALSE,45,Read: /home/lvuser/scripts/auto_45.bee,File good!,SEARCH_FOR_GOAL,SEARCH_FOR_GOAL,0.000000,0.000000,0.037500
09:35:52.195 AM 04/28/2016,Autonomous Enabled,10,FALSE,0,NO ERROR,0.000000,-81.549226,-0.000000,85.598133,TRUE,FALSE,TRUE,TRUE,FALSE,TRUE,Suspended,0.087500,-1.462500,-8.467500,TRUE,-0.011017,-0.457855,0.000000,0.189789,-0.463348,0.000000,0.067000,-0.233000,0.279000,1.740000,-7.420000,-0.960000,-7.662866,Hold,55.266113,50.000000,Hold,-71742.000000,71680.000000,LowGoal,3217.500000,-3272.727273,Speed,3255.000000,-3272.727273,Speed,Off,Off,0.000000,FALSE,45,Read: /home/lvuser/scripts/auto_45.bee,File good!,SEARCH_FOR_GOAL,SEARCH_FOR_GOAL,0.000000,0.000000,0.037500
09:35:52.296 AM 04/28/2016,Autonomous Enabled,10,FALSE,0,NO ERROR,0.235452,-81.549226,0.235452,85.598133,TRUE,FALSE,TRUE,TRUE,FALSE,TRUE,PID,0.018750,1.218750,-8.648750,TRUE,-0.003494,-0.476303,0.000000,0.183792,-0.460861,0.000000,-0.096000,0.091000,-0.185000,1.710000,-7.430000,-0.900000,-7.657819,Hold,55.266113,50.000000,Hold,-71742.000000,71680.000000,LowGoal,3225.000000,-3272.727273,Speed,3232.500000,-3272.727273,Speed,Off,Off,0.000000,FALSE,45,Read: /home/lvuser/scripts/auto_45.bee,File good!,SEARCH_FOR_GOAL,SEARCH_FOR_GOAL,0.000000,0.000000,-0.031250
09:35:52.396 AM 04/28/2016,Autonomous Enabled,11,FALSE,0,NO ERROR,0.233757,-81.452976,0.233757,85.707216,TRUE,FALSE,TRUE,TRUE,FALSE,TRUE,PID,0.018750,1.218750,-8.648750,TRUE,0.004822,-0.498383,0.000000,0.161835,-0.429474,0.000000,0.175000,0.060000,-0.150000,1.740000,-7.420000,-0.920000,-7.659451,Hold,55.266113,50.000000,Hold,-71742.000000,71680.000000,LowGoal,3210.000000,-3272.727273,Speed,3255.000000,-3272.727273,Speed,Off,Off,0.000000,FALSE,45,Read: /home/lvuser/scripts/auto_45.bee,File good!,SEARCH_FOR_GOAL,SEARCH_FOR_GOAL,0.000000,0.000000,-0.031250
09:35:52.496 AM 04/28/2016,Autonomous Enabled,11,FALSE,0,NO ERROR,0.000000,-80.727895,-0.000000,86.432298,TRUE,FALSE,TRUE,TRUE,FALSE,TRUE,Suspended,0.018750,1.218750,-8.648750,TRUE,0.017059,-0.526611,0.000000,0.212738,-0.528900,0.000000,0.046000,0.109000,-0.010000,1.440000,-7.970000,-1.150000,-9.055274,Hold,55.266113,50.000000,Hold,-71742.000000,71680.000000,LowGoal,3210.000000,-3272.727273,Speed,3232.500000,-3272.727273,Speed,Off,Off,0.000000,FALSE,45,Read: /home/lvuser/scripts/auto_45.bee,File good!,SEARCH_FOR_GOAL,SEARCH_FOR_GOAL,0.000000,0.000000,-0.031250
09:35:52.595 AM 04/28/2016,Autonomous Enabled,11,FALSE,0,NO ERROR,0.000000,-80.445562,-0.000000,86.740297,TRUE,FALSE,TRUE,TRUE,FALSE,TRUE,Suspended,0.018750,1.218750,-8.648750,TRUE,0.027420,-0.552185,0.000000,0.207336,-0.498520,0.000000,0.112000,0.135000,-0.029000,1.510000,-10.510000,-0.800000,-10.895858,Hold,55.266113,50.000000,Hold,-71742.000000,71680.000000,LowGoal,3195.000000,-3272.727273,Speed,3225.000000,-3272.727273,Speed,Off,Off,0.000000,FALSE,45,Read: /home/lvuser/scripts/auto_45.bee,File good!,SEARCH_FOR_GOAL,SEARCH_FOR_GOAL,0.000000,0.000000,-0.031250
09:35:52.696 AM 04/28/2016,Autonomous Enabled,11,FALSE,0,NO ERROR,0.000000,-80.541812,-0.000000,86.567048,TRUE,FALSE,TRUE,TRUE,FALSE,TRUE,Suspended,0.018750,1.218750,-8.648750,TRUE,0.038879,-0.573730,0.000000,0.228470,-0.423965,0.000000,0.042000,-0.052000,-0.048000,1.840000,-9.800000,-0.670000,-10.035422,Hold,55.266113,50.000000,Hold,-71742.000000,71680.000000,LowGoal,3187.500000,-3272.727273,Speed,3262.500000,-3272.727273,Speed,Off,Off,0.000000,FALSE,45,Read: /home/lvuser/scripts/auto_45.bee,File good!,SEARCH_FOR_GOAL,SEARCH_FOR_GOAL,0.000000,0.000000,-0.031250
