Time,RobotMode,AutoToRun,ErrorStatus, ErrorCode,ErrorSource,ActualRPM1,ActualRPM2,DesiredRPM1,DesiredRPM2,ControlMode1,ControlMode2,NavXYaw,NavXRoll,NavXPitch,ShooterState,LoopTime,IsLevel,IsAutoTargeting,LeftMotorOutput,RightMotorOutput,IsHaloDrive,NavXVelocityX,NavXVelocityY,NavXVelocityZ,NavXDisplacementX,NavXDisplacementY,NavXDisplacementZ,NavXAccelerationX,NavXAccelerationY,NavXAccelerationZ,AngeMotorState,Photoeye,VisionXOutput,gyro180,RollerArmDesired,RollerArmActual,ShooterArmDesired,ShooterArmActual, DefenseDetectorController,DefenseDetectorRaw,Shooter10Amps,Shooter11Amps,IsStalled
08:38:45.298 PM 03/02/2016,Autonomous Enabled,23,TRUE,-44087,NetComm_CAN_Receive.vi:5470026<APPEND>  <b>Complete call chain:</b>      NetComm_CAN_Receive.vi:5470026      WPI_CAN_PDPReceive.vi      WPI_Power Get PDP Currents.vi      Periodic Tasks.vi      Robot Main.vi,0.000000,0.000000,4000.000000,4000.000000,Speed,Speed,-0.200000,-0.530000,2.130000,1.000000,101.000000,1,0,0.000000,0.000000,0,0.000000,0.000000,0.000000,0.000000,0.000000,0.000000,0.001000,-0.001000,0.020000,FlatInitial,ResetBack,0,0.000000,-0.200000,-0.200000,0.000000,-0.300000,0.000000,0,0,0.000000,0.000000,1
08:38:45.400 PM 03/02/2016,Autonomous Enabled,23,TRUE,-44087,NetComm_CAN_Receive.vi:5470026<APPEND>  <b>Complete call chain:</b>      NetComm_CAN_Receive.vi:5470026      WPI_CAN_PDPReceive.vi      WPI_Power Get PDP Currents.vi      Periodic Tasks.vi      Robot Main.vi,355.371094,-273.779297,4000.000000,4000.000000,Speed,Speed,-0.200000,-0.530000,2.130000,1.000000,101.000000,1,0,0.000000,0.000000,0,0.000000,0.000000,0.000000,0.000000,0.000000,0.000000,0.001000,-0.001000,0.020000,FlatInitial,ResetBack,0,0.000000,-0.200000,-0.200000,0.000000,-0.300000,0.000000,0,0,0.000000,0.000000,0
08:38:45.500 PM 03/02/2016,Autonomous Enabled,23,TRUE,-44087,NetComm_CAN_Receive.vi:5470026<APPEND>  <b>Complete call chain:</b>      NetComm_CAN_Receive.vi:5470026      WPI_CAN_PDPReceive.vi      WPI_Power Get PDP Currents.vi      Periodic Tasks.vi      Robot Main.vi,2078.613281,-2166.357422,0.000000,0.000000,Speed,Speed,-0.200000,-0.530000,2.130000,2.000000,101.000000,1,0,0.000000,0.000000,0,0.000000,0.000000,0.000000,0.000000,0.000000,0.000000,0.001000,-0.001000,0.020000,FlatInitial,ResetBack,0,0.000000,-0.200000,-0.200000,-2440.000000,-0.300000,4876.000000,0,0,0.000000,0.000000,0
08:38:45.600 PM 03/02/2016,Autonomous Enabled,23,TRUE,-44087,NetComm_CAN_Receive.vi:5470026<APPEND>  <b>Complete call chain:</b>      NetComm_CAN_Receive.vi:5470026      WPI_CAN_PDPReceive.vi      WPI_Power Get PDP Currents.vi      Periodic Tasks.vi      Robot Main.vi,3105.029297,-3491.601562,0.000000,0.000000,Speed,Speed,-0.200000,-0.530000,2.130000,2.000000,100.000000,1,0,0.000000,0.000000,0,0.000000,0.000000,0.000000,0.000000,0.000000,0.000000,0.001000,-0.001000,0.020000,FlatInitial,ResetBack,0,0.000000,-0.200000,-0.200000,-8389.000000,-0.300000,12714.000000,0,0,0.000000,0.000000,0
08:38:45.700 PM 03/02/2016,Autonomous Enabled,23,TRUE,-44087,NetComm_CAN_Receive.vi:5470026<APPEND>  <b>Complete call chain:</b>      NetComm_CAN_Receive.vi:5470026      WPI_CAN_PDPReceive.vi      WPI_Power Get PDP Currents.vi      Periodic Tasks.vi      Robot Main.vi,3006.298828,-3382.177734,0.000000,0.000000,Speed,Speed,-0.200000,-0.530000,2.130000,2.000000,101.000000,1,0,0.000000,0.000000,0,0.000000,0.000000,0.000000,0.000000,0.000000,0.000000,0.001000,-0.001000,0.020000,FlatInitial,ResetBack,0,0.000000,-0.200000,0.000000,-8871.000000,-0.300000,22612.000000,0,0,0.000000,0.000000,0
08:38:45.800 PM 03/02/2016,Autonomous Enabled,23,TRUE,-44087,NetComm_CAN_Receive.vi:5470026<APPEND>  <b>Complete call chain:</b>      NetComm_CAN_Receive.vi:5470026      WPI_CAN_PDPReceive.vi      WPI_Power Get PDP Currents.vi      Periodic Tasks.vi      Robot Main.vi,2469.287109,-2999.560547,0.000000,0.000000,Speed,Speed,-0.200000,-0.530000,2.130000,2.000000,101.000000,1,0,0.000000,0.000000,0,0.000000,0.000000,0.000000,0.000000,0.000000,0.000000,0.001000,-0.001000,0.020000,FlatInitial,ResetBack,0,0.000000,-0.200000,0.000000,57.000000,-0.300000,28901.000000,0,0,0.000000,0.000000,0
08:38:45.903 PM 03/02/2016,Autonomous Enabled,23,TRUE,-44087,NetComm_CAN_Receive.vi:5470026<APPEND>  <b>Complete call chain:</b>      NetComm_CAN_Receive.vi:5470026      WPI_CAN_PDPReceive.vi      WPI_Power Get PDP Currents.vi      Periodic Tasks.vi      Robot Main.vi,1970.800781,-2627.490234,0.000000,0.000000,Speed,Speed,-0.200000,-0.530000,2.130000,2.000000,103.000000,1,0,0.000000,0.000000,0,0.000000,0.000000,0.000000,0.000000,0.000000,0.000000,0.001000,-0.001000,0.020000,FlatInitial,ResetBack,0,0.000000,-0.200000,0.000000,57.000000,-0.300000,28901.000000,0,0,0.000000,0.000000,0
08:38:46.003 PM 03/02/2016,Autonomous Enabled,23,TRUE,-44087,NetComm_CAN_Receive.vi:5470026<APPEND>  <b>Complete call chain:</b>      NetComm_CAN_Receive.vi:5470026      WPI_CAN_PDPReceive.vi      WPI_Power Get PDP Currents.vi      Periodic Tasks.vi      Robot Main.vi,1525.927734,-2269.042969,0.000000,0.000000,Speed,Speed,-0.200000,-0.530000,2.130000,2.000000,102.000000,1,0,0.000000,0.000000,0,0.000000,0.000000,0.000000,0.000000,0.000000,0.000000,0.001000,-0.001000,0.020000,FlatInitial,ResetBack,0,0.000000,-0.200000,0.000000,61.000000,-0.300000,31552.000000,0,0,0.000000,0.000000,0
08:38:46.104 PM 03/02/2016,Autonomous Enabled,23,TRUE,-44087,NetComm_CAN_Receive.vi:5470026<APPEND>  <b>Complete call chain:</b>      NetComm_CAN_Receive.vi:5470026      WPI_CAN_PDPReceive.vi      WPI_Power Get PDP Currents.vi      Periodic Tasks.vi      Robot Main.vi,1120.751953,-1927.441406,0.000000,0.000000,Speed,Speed,-0.200000,-0.530000,2.130000,2.000000,102.000000,1,0,0.000000,0.000000,0,0.000000,0.000000,0.000000,0.000000,0.000000,0.000000,0.001000,-0.001000,0.020000,FlatInitial,ResetBack,0,0.000000,-0.200000,0.000000,62.000000,-0.300000,33465.000000,0,0,0.000000,0.000000,0
08:38:46.205 PM 03/02/2016,Autonomous Enabled,23,TRUE,-44087,NetComm_CAN_Receive.vi:5470026<APPEND>  <b>Complete call chain:</b>      NetComm_CAN_Receive.vi:5470026      WPI_CAN_PDPReceive.vi      WPI_Power Get PDP Currents.vi      Periodic Tasks.vi      Robot Main.vi,773.144531,-1602.392578,0.000000,0.000000,Speed,Speed,-0.200000,-0.530000,2.130000,2.000000,101.000000,1,0,0.000000,0.000000,0,0.000000,0.000000,0.000000,0.000000,0.000000,0.000000,0.001000,-0.001000,0.020000,FlatInitial,ResetBack,0,0.000000,-0.200000,0.000000,62.000000,-0.300000,33887.000000,0,0,0.000000,0.000000,0
08:38:46.304 PM 03/02/2016,Autonomous Enabled,23,TRUE,-44087,NetComm_CAN_Receive.vi:5470026<APPEND>  <b>Complete call chain:</b>      NetComm_CAN_Receive.vi:5470026      WPI_CAN_PDPReceive.vi      WPI_Power Get PDP Currents.vi      Periodic Tasks.vi      Robot Main.vi,514.306641,-1302.539062,0.000000,0.000000,Speed,Speed,-0.200000,-0.530000,2.130000,2.000000,102.000000,1,0,0.000000,0.000000,0,0.000000,0.000000,0.000000,0.000000,0.000000,0.000000,0.001000,-0.001000,0.020000,FlatInitial,ResetBack,0,0.000000,-0.200000,0.000000,63.000000,-0.300000,33954.000000,0,0,0.000000,0.000000,0
08:38:46.405 PM 03/02/2016,Autonomous Enabled,23,TRUE,-44087,NetComm_CAN_Receive.vi:5470026<APPEND>  <b>Complete call chain:</b>      NetComm_CAN_Receive.vi:5470026      WPI_CAN_PDPReceive.vi      WPI_Power Get PDP Currents.vi      Periodic Tasks.vi      Robot Main.vi,255.175781,-1081.494141,0.000000,0.000000,Speed,Speed,-0.200000,-0.530000,2.130000,2.000000,101.000000,1,0,0.000000,0.000000,0,0.000000,0.000000,0.000000,0.000000,0.000000,0.000000,0.001000,-0.001000,0.020000,FlatInitial,ResetBack,0,0.000000,-0.200000,0.000000,63.000000,-0.300000,33954.000000,0,0,0.000000,0.000000,0
08:38:46.504 PM 03/02/2016,Autonomous Enabled,23,TRUE,-44087,NetComm_CAN_Receive.vi:5470026<APPEND>  <b>Complete call chain:</b>      NetComm_CAN_Receive.vi:5470026      WPI_CAN_PDPReceive.vi      WPI_Power Get PDP Currents.vi      Periodic Tasks.vi      Robot Main.vi,55.664062,-829.541016,0.000000,0.000000,Speed,Speed,-0.200000,-0.530000,2.130000,2.000000,101.000000,1,0,0.000000,0.000000,0,0.000000,0.000000,0.000000,0.000000,0.000000,0.000000,0.001000,-0.001000,0.020000,FlatInitial,ResetBack,0,0.000000,-0.200000,0.000000,63.000000,-0.300000,33954.000000,0,0,0.000000,0.000000,0
08:38:46.604 PM 03/02/2016,Autonomous Enabled,23,TRUE,-44087,NetComm_CAN_Receive.vi:5470026<APPEND>  <b>Complete call chain:</b>      NetComm_CAN_Receive.vi:5470026      WPI_CAN_PDPReceive.vi      WPI_Power Get PDP Currents.vi      Periodic Tasks.vi      Robot Main.vi,-0.146484,-594.873047,0.000000,0.000000,Speed,Speed,-0.200000,-0.530000,2.130000,2.000000,104.000000,1,0,0.000000,0.000000,0,0.000000,0.000000,0.000000,0.000000,0.000000,0.000000,0.001000,-0.001000,0.020000,FlatInitial,Reset,0,0.000000,-0.200000,0.000000,64.000000,0.000000,33954.000000,0,0,0.000000,0.000000,0
08:38:46.705 PM 03/02/2016,Autonomous Enabled,23,TRUE,-44087,NetComm_CAN_Receive.vi:5470026<APPEND>  <b>Complete call chain:</b>      NetComm_CAN_Receive.vi:5470026      WPI_CAN_PDPReceive.vi      WPI_Power Get PDP Currents.vi      Periodic Tasks.vi      Robot Main.vi,0.000000,-393.750000,4000.000000,4000.000000,Speed,Speed,-0.200000,-0.530000,2.130000,3.000000,102.000000,1,0,0.000000,0.000000,0,0.000000,0.000000,0.000000,0.000000,0.000000,0.000000,0.001000,-0.001000,0.020000,FlatInitial,Hold,0,0.000000,-0.200000,0.000000,64.000000,0.000000,-143.000000,0,0,0.000000,0.000000,0
08:38:46.806 PM 03/02/2016,Autonomous Enabled,23,TRUE,-44087,NetComm_CAN_Receive.vi:5470026<APPEND>  <b>Complete call chain:</b>      NetComm_CAN_Receive.vi:5470026      WPI_CAN_PDPReceive.vi      WPI_Power Get PDP Currents.vi      Periodic Tasks.vi      Robot Main.vi,142.968750,-478.710937,4000.000000,4000.000000,Speed,Speed,-0.200000,-0.530000,2.130000,3.000000,102.000000,1,0,0.000000,0.000000,0,0.000000,0.000000,0.000000,0.000000,0.000000,0.000000,0.001000,-0.001000,0.020000,FlatInitial,Hold,0,0.000000,-0.200000,0.000000,64.000000,0.000000,-220.000000,0,0,0.000000,0.000000,0
08:38:46.907 PM 03/02/2016,Autonomous Enabled,23,TRUE,-44087,NetComm_CAN_Receive.vi:5470026<APPEND>  <b>Complete call chain:</b>      NetComm_CAN_Receive.vi:5470026      WPI_CAN_PDPReceive.vi      WPI_Power Get PDP Currents.vi      Periodic Tasks.vi      Robot Main.vi,1657.324219,-1846.582031,4000.000000,4000.000000,Speed,Speed,-0.200000,-0.530000,2.130000,3.000000,100.000000,1,0,0.000000,0.000000,0,0.000000,0.000000,0.000000,0.000000,0.000000,0.000000,0.001000,-0.001000,0.020000,FlatInitial,Hold,0,0.000000,-0.200000,0.000000,64.000000,0.000000,-220.000000,0,0,0.000000,0.000000,0
08:38:47.006 PM 03/02/2016,Autonomous Enabled,23,TRUE,-44087,NetComm_CAN_Receive.vi:5470026<APPEND>  <b>Complete call chain:</b>      NetComm_CAN_Receive.vi:5470026      WPI_CAN_PDPReceive.vi      WPI_Power Get PDP Currents.vi      Periodic Tasks.vi      Robot Main.vi,2908.740234,-3431.396484,-4000.000000,-4000.000000,Speed,Speed,-0.200000,-0.530000,2.130000,3.000000,102.000000,1,0,0.000000,0.000000,0,0.000000,0.000000,0.000000,0.000000,0.000000,0.000000,0.001000,-0.001000,0.020000,FlatInitial,Hold,0,0.000000,-0.200000,0.000000,64.000000,0.000000,-220.000000,0,0,0.000000,0.000000,0
08:38:47.107 PM 03/02/2016,Autonomous Enabled,23,TRUE,-44087,NetComm_CAN_Receive.vi:5470026<APPEND>  <b>Complete call chain:</b>      NetComm_CAN_Receive.vi:5470026      WPI_CAN_PDPReceive.vi      WPI_Power Get PDP Currents.vi      Periodic Tasks.vi      Robot Main.vi,3395.068359,-3303.955078,-4000.000000,-4000.000000,Speed,Speed,-0.200000,-0.530000,2.130000,3.000000,102.000000,1,0,0.000000,0.000000,0,0.000000,0.000000,0.000000,0.000000,0.000000,0.000000,0.001000,-0.001000,0.020000,FlatInitial,Hold,0,0.000000,-0.200000,0.000000,65.000000,0.000000,-220.000000,0,0,0.000000,0.000000,0
08:38:47.207 PM 03/02/2016,Autonomous Enabled,23,TRUE,-44087,NetComm_CAN_Receive.vi:5470026<APPEND>  <b>Complete call chain:</b>      NetComm_CAN_Receive.vi:5470026      WPI_CAN_PDPReceive.vi      WPI_Power Get PDP Currents.vi      Periodic Tasks.vi      Robot Main.vi,1179.785156,-1012.939453,-4000.000000,-4000.000000,Speed,Speed,-0.200000,-0.530000,2.130000,3.000000,101.000000,1,0,0.000000,0.000000,0,0.000000,0.000000,0.000000,0.000000,0.000000,0.000000,0.001000,-0.001000,0.020000,FlatInitial,Hold,0,0.000000,-0.200000,0.000000,65.000000,0.000000,-220.000000,0,0,0.000000,0.000000,0
08:38:47.307 PM 03/02/2016,Autonomous Enabled,23,TRUE,-44087,NetComm_CAN_Receive.vi:5470026<APPEND>  <b>Complete call chain:</b>      NetComm_CAN_Receive.vi:5470026      WPI_CAN_PDPReceive.vi      WPI_Power Get PDP Currents.vi      Periodic Tasks.vi      Robot Main.vi,-1270.605469,1655.566406,-4000.000000,-4000.000000,Speed,Speed,-0.200000,-0.530000,2.130000,3.000000,101.000000,1,0,0.000000,0.000000,0,0.000000,0.000000,0.000000,0.000000,0.000000,0.000000,0.001000,-0.001000,0.020000,FlatInitial,Hold,0,0.000000,-0.200000,0.000000,65.000000,0.000000,-220.000000,0,0,0.000000,0.000000,0
08:38:47.407 PM 03/02/2016,Autonomous Enabled,23,TRUE,-44087,NetComm_CAN_Receive.vi:5470026<APPEND>  <b>Complete call chain:</b>      NetComm_CAN_Receive.vi:5470026      WPI_CAN_PDPReceive.vi      WPI_Power Get PDP Currents.vi      Periodic Tasks.vi      Robot Main.vi,-2853.515625,3367.382812,-4000.000000,-4000.000000,Speed,Speed,-0.200000,-0.530000,2.130000,3.000000,102.000000,1,0,0.000000,0.000000,0,0.000000,0.000000,0.000000,0.000000,0.000000,0.000000,0.001000,-0.001000,0.020000,FlatInitial,Hold,0,0.000000,-0.200000,0.000000,65.000000,0.000000,-220.000000,0,0,0.000000,0.000000,0
08:38:47.508 PM 03/02/2016,Autonomous Enabled,23,TRUE,-44087,NetComm_CAN_Receive.vi:5470026<APPEND>  <b>Complete call chain:</b>      NetComm_CAN_Receive.vi:5470026      WPI_CAN_PDPReceive.vi      WPI_Power Get PDP Currents.vi      Periodic Tasks.vi      Robot Main.vi,-3492.626953,3943.945312,-4000.000000,-4000.000000,Speed,Speed,-0.200000,-0.530000,2.130000,3.000000,102.000000,1,0,0.000000,0.000000,0,0.000000,0.000000,0.000000,0.000000,0.000000,0.000000,0.001000,-0.001000,0.020000,FlatInitial,Hold,0,0.000000,-0.200000,0.000000,65.000000,0.000000,-220.000000,0,0,0.000000,0.000000,0
08:38:47.609 PM 03/02/2016,Autonomous Enabled,23,TRUE,-44087,NetComm_CAN_Receive.vi:5470026<APPEND>  <b>Complete call chain:</b>      NetComm_CAN_Receive.vi:5470026      WPI_CAN_PDPReceive.vi      WPI_Power Get PDP Currents.vi      Periodic Tasks.vi      Robot Main.vi,-3653.466797,3947.753906,-4000.000000,-4000.000000,Speed,Speed,-0.200000,-0.530000,2.130000,3.000000,100.000000,1,0,0.000000,0.000000,0,0.000000,0.000000,0.000000,0.000000,0.000000,0.000000,0.001000,-0.001000,0.020000,FlatInitial,Hold,0,0.000000,-0.200000,0.000000,65.000000,0.000000,-220.000000,0,0,0.000000,0.000000,0
08:38:47.708 PM 03/02/2016,Autonomous Enabled,23,TRUE,-44087,NetComm_CAN_Receive.vi:5470026<APPEND>  <b>Complete call chain:</b>      NetComm_CAN_Receive.vi:5470026      WPI_CAN_PDPReceive.vi      WPI_Power Get PDP Currents.vi      Periodic Tasks.vi      Robot Main.vi,-3610.107422,3872.167969,-4000.000000,-4000.000000,Speed,Speed,-0.200000,-0.530000,2.130000,3.000000,101.000000,1,0,0.000000,0.000000,0,0.000000,0.000000,0.000000,0.000000,0.000000,0.000000,0.001000,-0.001000,0.020000,FlatInitial,Hold,0,0.000000,-0.200000,0.000000,66.000000,0.000000,-220.000000,0,0,0.000000,0.000000,0
08:38:47.809 PM 03/02/2016,Autonomous Enabled,23,TRUE,-44087,NetComm_CAN_Receive.vi:5470026<APPEND>  <b>Complete call chain:</b>      NetComm_CAN_Receive.vi:5470026      WPI_CAN_PDPReceive.vi      WPI_Power Get PDP Currents.vi      Periodic Tasks.vi      Robot Main.vi,-3634.130859,3861.767578,-4000.000000,-4000.000000,Speed,Speed,-0.200000,-0.530000,2.130000,3.000000,102.000000,1,0,0.000000,0.000000,0,0.000000,0.000000,0.000000,0.000000,0.000000,0.000000,0.001000,-0.001000,0.020000,FlatInitial,Hold,0,0.000000,-0.200000,0.000000,66.000000,0.000000,-220.000000,0,0,0.000000,0.000000,0
08:38:47.909 PM 03/02/2016,Autonomous Enabled,23,TRUE,-44087,NetComm_CAN_Receive.vi:5470026<APPEND>  <b>Complete call chain:</b>      NetComm_CAN_Receive.vi:5470026      WPI_CAN_PDPReceive.vi      WPI_Power Get PDP Currents.vi      Periodic Tasks.vi      Robot Main.vi,-3708.105469,3900.732422,-4000.000000,-4000.000000,Speed,Speed,-0.200000,-0.530000,2.130000,3.000000,102.000000,1,0,0.000000,0.000000,0,0.000000,0.000000,0.000000,0.000000,0.000000,0.000000,0.001000,-0.001000,0.020000,FlatInitial,Hold,0,0.000000,-0.200000,0.000000,66.000000,0.000000,-220.000000,0,0,0.000000,0.000000,0
08:38:48.010 PM 03/02/2016,Autonomous Enabled,23,TRUE,-44087,NetComm_CAN_Receive.vi:5470026<APPEND>  <b>Complete call chain:</b>      NetComm_CAN_Receive.vi:5470026      WPI_CAN_PDPReceive.vi      WPI_Power Get PDP Currents.vi      Periodic Tasks.vi      Robot Main.vi,-3796.435547,3943.945312,-4000.000000,-4000.000000,Speed,Speed,-0.200000,-0.530000,2.130000,3.000000,101.000000,1,0,0.000000,0.000000,0,0.000000,0.000000,0.000000,0.000000,0.000000,0.000000,0.001000,-0.001000,0.020000,FlatInitial,Hold,0,0.000000,-0.200000,0.000000,66.000000,0.000000,-220.000000,0,0,0.000000,0.000000,0
08:38:48.109 PM 03/02/2016,Autonomous Enabled,23,TRUE,-44087,NetComm_CAN_Receive.vi:5470026<APPEND>  <b>Complete call chain:</b>      NetComm_CAN_Receive.vi:5470026      WPI_CAN_PDPReceive.vi      WPI_Power Get PDP Currents.vi      Periodic Tasks.vi      Robot Main.vi,-3864.843750,3973.388672,-4000.000000,-4000.000000,Speed,Speed,-0.200000,-0.530000,2.130000,3.000000,105.000000,1,0,0.000000,0.000000,0,0.000000,0.000000,0.000000,0.000000,0.000000,0.000000,0.001000,-0.001000,0.020000,FlatInitial,Hold,0,0.000000,-0.200000,0.000000,66.000000,0.000000,-220.000000,0,0,0.000000,0.000000,0
08:38:48.210 PM 03/02/2016,Autonomous Enabled,23,TRUE,-44087,NetComm_CAN_Receive.vi:5470026<APPEND>  <b>Complete call chain:</b>      NetComm_CAN_Receive.vi:5470026      WPI_CAN_PDPReceive.vi      WPI_Power Get PDP Currents.vi      Periodic Tasks.vi      Robot Main.vi,-3904.687500,3989.208984,-4000.000000,-4000.000000,Speed,Speed,-0.200000,-0.530000,2.130000,3.000000,101.000000,1,0,0.000000,0.000000,0,0.000000,0.000000,0.000000,0.000000,0.000000,0.000000,0.001000,-0.001000,0.020000,FlatInitial,Hold,0,0.000000,-0.200000,0.000000,66.000000,0.000000,-220.000000,0,0,0.000000,0.000000,0
08:38:48.310 PM 03/02/2016,Autonomous Enabled,23,TRUE,-44087,NetComm_CAN_Receive.vi:5470026<APPEND>  <b>Complete call chain:</b>      NetComm_CAN_Receive.vi:5470026      WPI_CAN_PDPReceive.vi      WPI_Power Get PDP Currents.vi      Periodic Tasks.vi      Robot Main.vi,-3939.257812,3991.992187,-4000.000000,-4000.000000,Speed,Speed,-0.200000,-0.530000,2.130000,3.000000,101.000000,1,0,0.000000,0.000000,0,0.000000,0.000000,0.000000,0.000000,0.000000,0.000000,0.001000,-0.001000,0.020000,FlatInitial,Hold,0,0.000000,-0.200000,0.000000,66.000000,0.000000,-219.000000,0,0,0.000000,0.000000,0
08:38:48.411 PM 03/02/2016,Autonomous Enabled,23,TRUE,-44087,NetComm_CAN_Receive.vi:5470026<APPEND>  <b>Complete call chain:</b>      NetComm_CAN_Receive.vi:5470026      WPI_CAN_PDPReceive.vi      WPI_Power Get PDP Currents.vi      Periodic Tasks.vi      Robot Main.vi,-3956.689453,3992.578125,-4000.000000,-4000.000000,Speed,Speed,-0.200000,-0.530000,2.130000,3.000000,103.000000,1,0,0.000000,0.000000,0,0.000000,0.000000,0.000000,0.000000,0.000000,0.000000,0.001000,-0.001000,0.020000,FlatInitial,Hold,0,0.000000,-0.200000,0.000000,66.000000,0.000000,-219.000000,0,0,0.000000,0.000000,0
08:38:48.512 PM 03/02/2016,Autonomous Enabled,23,TRUE,-44087,NetComm_CAN_Receive.vi:5470026<APPEND>  <b>Complete call chain:</b>      NetComm_CAN_Receive.vi:5470026      WPI_CAN_PDPReceive.vi      WPI_Power Get PDP Currents.vi      Periodic Tasks.vi      Robot Main.vi,-3970.605469,3996.679687,-4000.000000,-4000.000000,Speed,Speed,-0.200000,-0.530000,2.130000,3.000000,101.000000,1,0,0.000000,0.000000,0,0.000000,0.000000,0.000000,0.000000,0.000000,0.000000,0.001000,-0.001000,0.020000,FlatInitial,Hold,0,0.000000,-0.200000,0.000000,66.000000,0.000000,-219.000000,0,0,0.000000,0.000000,0
08:38:48.612 PM 03/02/2016,Autonomous Enabled,23,TRUE,-44087,NetComm_CAN_Receive.vi:5470026<APPEND>  <b>Complete call chain:</b>      NetComm_CAN_Receive.vi:5470026      WPI_CAN_PDPReceive.vi      WPI_Power Get PDP Currents.vi      Periodic Tasks.vi      Robot Main.vi,-3977.197266,3998.876953,-4000.000000,-4000.000000,Speed,Speed,-0.200000,-0.530000,2.130000,3.000000,100.000000,1,0,0.000000,0.000000,0,0.000000,0.000000,0.000000,0.000000,0.000000,0.000000,0.001000,-0.001000,0.020000,FlatInitial,Hold,0,0.000000,-0.200000,0.000000,66.000000,0.000000,-219.000000,0,0,0.000000,0.000000,0
08:38:48.714 PM 03/02/2016,Autonomous Enabled,23,TRUE,-44087,NetComm_CAN_Receive.vi:5470026<APPEND>  <b>Complete call chain:</b>      NetComm_CAN_Receive.vi:5470026      WPI_CAN_PDPReceive.vi      WPI_Power Get PDP Currents.vi      Periodic Tasks.vi      Robot Main.vi,-3979.541016,3997.265625,-4000.000000,-4000.000000,Speed,Speed,-0.200000,-0.530000,2.130000,3.000000,103.000000,1,0,0.000000,0.000000,0,0.000000,0.000000,0.000000,0.000000,0.000000,0.000000,0.001000,-0.001000,0.020000,FlatInitial,Hold,0,0.000000,-0.200000,0.000000,66.000000,0.000000,-219.000000,0,0,0.000000,0.000000,0
08:38:48.813 PM 03/02/2016,Autonomous Enabled,23,TRUE,-44087,NetComm_CAN_Receive.vi:5470026<APPEND>  <b>Complete call chain:</b>      NetComm_CAN_Receive.vi:5470026      WPI_CAN_PDPReceive.vi      WPI_Power Get PDP Currents.vi      Periodic Tasks.vi      Robot Main.vi,-3982.470703,3990.527344,-4000.000000,-4000.000000,Speed,Speed,-0.200000,-0.530000,2.130000,3.000000,104.000000,1,0,0.000000,0.000000,0,0.000000,0.000000,0.000000,0.000000,0.000000,0.000000,0.001000,-0.001000,0.020000,FlatInitial,Hold,0,0.000000,-0.200000,0.000000,66.000000,0.000000,-219.000000,0,0,0.000000,0.000000,0
08:38:48.914 PM 03/02/2016,Autonomous Enabled,23,TRUE,-44087,NetComm_CAN_Receive.vi:5470026<APPEND>  <b>Complete call chain:</b>      NetComm_CAN_Receive.vi:5470026      WPI_CAN_PDPReceive.vi      WPI_Power Get PDP Currents.vi      Periodic Tasks.vi      Robot Main.vi,-3981.884766,3987.597656,-4000.000000,-4000.000000,Speed,Speed,-0.200000,-0.530000,2.130000,3.000000,100.000000,1,0,0.000000,0.000000,0,0.000000,0.000000,0.000000,0.000000,0.000000,0.000000,0.001000,-0.001000,0.020000,FlatInitial,Hold,0,0.000000,-0.200000,0.000000,66.000000,0.000000,-219.000000,0,0,0.000000,0.000000,0
08:38:49.015 PM 03/02/2016,Autonomous Enabled,23,TRUE,-44087,NetComm_CAN_Receive.vi:5470026<APPEND>  <b>Complete call chain:</b>      NetComm_CAN_Receive.vi:5470026      WPI_CAN_PDPReceive.vi      WPI_Power Get PDP Currents.vi      Periodic Tasks.vi      Robot Main.vi,-3951.123047,3978.369141,-4000.000000,-4000.000000,Speed,Speed,-0.200000,-0.530000,2.130000,3.000000,104.000000,1,0,0.000000,0.000000,0,0.000000,0.000000,0.000000,0.000000,0.000000,0.000000,0.001000,-0.001000,0.020000,FlatInitial,Hold,0,0.000000,-0.200000,0.000000,66.000000,0.000000,-219.000000,0,1,0.000000,0.000000,0
08:38:49.116 PM 03/02/2016,Autonomous Enabled,23,TRUE,-44087,NetComm_CAN_Receive.vi:5470026<APPEND>  <b>Complete call chain:</b>      NetComm_CAN_Receive.vi:5470026      WPI_CAN_PDPReceive.vi      WPI_Power Get PDP Currents.vi      Periodic Tasks.vi      Robot Main.vi,-3958.007812,3980.126953,-4000.000000,-4000.000000,Speed,Speed,-0.200000,-0.530000,2.130000,3.000000,106.000000,1,0,0.000000,0.000000,0,0.000000,0.000000,0.000000,0.000000,0.000000,0.000000,0.001000,-0.001000,0.020000,FlatInitial,Hold,0,0.000000,-0.200000,0.000000,66.000000,0.000000,-219.000000,1,0,0.000000,0.000000,0
08:38:49.216 PM 03/02/2016,Autonomous Enabled,23,TRUE,-44087,NetComm_CAN_Receive.vi:5470026<APPEND>  <b>Complete call chain:</b>      NetComm_CAN_Receive.vi:5470026      WPI_CAN_PDPReceive.vi      WPI_Power Get PDP Currents.vi      Periodic Tasks.vi      Robot Main.vi,-3987.011719,4000.927734,-4000.000000,-4000.000000,Speed,Speed,-0.200000,-0.530000,2.130000,3.000000,100.000000,1,0,0.000000,0.000000,0,0.000000,0.000000,0.000000,0.000000,0.000000,0.000000,0.001000,-0.001000,0.020000,FlatInitial,Hold,0,0.000000,-0.200000,0.000000,66.000000,0.000000,-219.000000,1,0,0.000000,0.000000,0
08:38:49.317 PM 03/02/2016,Autonomous Enabled,23,TRUE,-44087,NetComm_CAN_Receive.vi:5470026<APPEND>  <b>Complete call chain:</b>      NetComm_CAN_Receive.vi:5470026      WPI_CAN_PDPReceive.vi      WPI_Power Get PDP Currents.vi      Periodic Tasks.vi      Robot Main.vi,-4012.646484,4012.500000,-4000.000000,-4000.000000,Speed,Speed,-0.200000,-0.530000,2.130000,3.000000,102.000000,1,0,0.000000,0.000000,0,0.000000,0.000000,0.000000,0.000000,0.000000,0.000000,0.001000,-0.001000,0.020000,FlatInitial,Hold,0,0.000000,-0.200000,0.000000,66.000000,0.000000,-219.000000,1,0,0.000000,0.000000,0
08:38:49.418 PM 03/02/2016,Autonomous Enabled,23,TRUE,-44087,NetComm_CAN_Receive.vi:5470026<APPEND>  <b>Complete call chain:</b>      NetComm_CAN_Receive.vi:5470026      WPI_CAN_PDPReceive.vi      WPI_Power Get PDP Currents.vi      Periodic Tasks.vi      Robot Main.vi,-3991.113281,4007.958984,-4000.000000,-4000.000000,Speed,Speed,-0.200000,-0.530000,2.130000,3.000000,103.000000,1,0,0.000000,0.000000,0,0.000000,0.000000,0.000000,0.000000,0.000000,0.000000,0.001000,-0.001000,0.020000,FlatInitial,Hold,0,0.000000,-0.200000,0.000000,124.000000,0.000000,-219.000000,1,0,0.000000,0.000000,0
08:38:49.518 PM 03/02/2016,Autonomous Enabled,23,TRUE,-44087,NetComm_CAN_Receive.vi:5470026<APPEND>  <b>Complete call chain:</b>      NetComm_CAN_Receive.vi:5470026      WPI_CAN_PDPReceive.vi      WPI_Power Get PDP Currents.vi      Periodic Tasks.vi      Robot Main.vi,-4022.753906,3995.800781,-4000.000000,-4000.000000,Speed,Speed,-0.200000,-0.530000,2.130000,3.000000,102.000000,1,0,0.000000,0.000000,0,0.000000,0.000000,0.000000,0.000000,0.000000,0.000000,0.001000,-0.001000,0.020000,FlatInitial,Hold,0,0.000000,-0.200000,0.000000,453.000000,0.000000,-219.000000,1,0,0.000000,0.000000,0
08:38:49.618 PM 03/02/2016,Autonomous Enabled,23,TRUE,-44087,NetComm_CAN_Receive.vi:5470026<APPEND>  <b>Complete call chain:</b>      NetComm_CAN_Receive.vi:5470026      WPI_CAN_PDPReceive.vi      WPI_Power Get PDP Currents.vi      Periodic Tasks.vi      Robot Main.vi,-4004.882812,4020.556641,-4000.000000,-4000.000000,Speed,Speed,-0.200000,-0.530000,2.130000,3.000000,104.000000,1,0,0.000000,0.000000,0,0.000000,0.000000,0.000000,0.000000,0.000000,0.000000,0.001000,-0.001000,0.020000,FlatInitial,Hold,0,0.000000,-0.200000,0.000000,602.000000,0.000000,-219.000000,1,1,0.000000,0.000000,0
08:38:49.719 PM 03/02/2016,Autonomous Enabled,23,TRUE,-44087,NetComm_CAN_Receive.vi:5470026<APPEND>  <b>Complete call chain:</b>      NetComm_CAN_Receive.vi:5470026      WPI_CAN_PDPReceive.vi      WPI_Power Get PDP Currents.vi      Periodic Tasks.vi      Robot Main.vi,-4010.888672,4013.378906,-4000.000000,-4000.000000,Speed,Speed,-0.200000,-0.530000,2.130000,3.000000,100.000000,1,0,0.000000,0.000000,0,0.000000,0.000000,0.000000,0.000000,0.000000,0.000000,0.001000,-0.001000,0.020000,FlatInitial,Hold,0,0.000000,-0.200000,0.000000,932.000000,0.000000,-219.000000,1,0,0.000000,0.000000,0
08:38:49.819 PM 03/02/2016,Autonomous Enabled,23,TRUE,-44087,NetComm_CAN_Receive.vi:5470026<APPEND>  <b>Complete call chain:</b>      NetComm_CAN_Receive.vi:5470026      WPI_CAN_PDPReceive.vi      WPI_Power Get PDP Currents.vi      Periodic Tasks.vi      Robot Main.vi,-4013.671875,4012.500000,-4000.000000,-4000.000000,Speed,Speed,-0.200000,-0.530000,2.130000,3.000000,101.000000,1,0,0.000000,0.000000,0,0.000000,0.000000,0.000000,0.000000,0.000000,0.000000,0.001000,-0.001000,0.020000,FlatInitial,Hold,0,0.000000,-0.200000,0.000000,3976.000000,0.000000,-218.000000,1,0,0.000000,0.000000,0
08:38:49.919 PM 03/02/2016,Autonomous Enabled,23,TRUE,-44087,NetComm_CAN_Receive.vi:5470026<APPEND>  <b>Complete call chain:</b>      NetComm_CAN_Receive.vi:5470026      WPI_CAN_PDPReceive.vi      WPI_Power Get PDP Currents.vi      Periodic Tasks.vi      Robot Main.vi,-4035.937500,4038.574219,-4000.000000,-4000.000000,Speed,Speed,-0.200000,-0.530000,2.130000,3.000000,103.000000,1,0,0.000000,0.000000,0,0.000000,0.000000,0.000000,0.000000,0.000000,0.000000,0.001000,-0.001000,0.020000,FlatInitial,Hold,0,0.000000,-0.200000,0.000000,3976.000000,0.000000,-218.000000,1,0,0.000000,0.000000,0
08:38:50.020 PM 03/02/2016,Autonomous Enabled,23,TRUE,-44087,NetComm_CAN_Receive.vi:5470026<APPEND>  <b>Complete call chain:</b>      NetComm_CAN_Receive.vi:5470026      WPI_CAN_PDPReceive.vi      WPI_Power Get PDP Currents.vi      Periodic Tasks.vi      Robot Main.vi,-4060.400391,4052.197266,-4000.000000,-4000.000000,Speed,Speed,-0.200000,-0.530000,2.130000,3.000000,103.000000,1,0,0.000000,0.000000,0,0.000000,0.000000,0.000000,0.000000,0.000000,0.000000,0.001000,-0.001000,0.020000,FlatInitial,Hold,0,0.000000,-0.200000,0.000000,3976.000000,0.000000,-218.000000,1,0,0.000000,0.000000,0
08:38:50.120 PM 03/02/2016,Autonomous Enabled,23,TRUE,-44087,NetComm_CAN_Receive.vi:5470026<APPEND>  <b>Complete call chain:</b>      NetComm_CAN_Receive.vi:5470026      WPI_CAN_PDPReceive.vi      WPI_Power Get PDP Currents.vi      Periodic Tasks.vi      Robot Main.vi,-4052.929687,4036.083984,-4000.000000,-4000.000000,Speed,Speed,-0.200000,-0.530000,2.130000,3.000000,103.000000,1,0,0.000000,0.000000,0,0.000000,0.000000,0.000000,0.000000,0.000000,0.000000,0.001000,-0.001000,0.020000,FlatInitial,Hold,0,0.000000,-0.200000,0.000000,3976.000000,0.000000,-217.000000,1,0,0.000000,0.000000,0
08:38:50.222 PM 03/02/2016,Autonomous Enabled,23,TRUE,-44087,NetComm_CAN_Receive.vi:5470026<APPEND>  <b>Complete call chain:</b>      NetComm_CAN_Receive.vi:5470026      WPI_CAN_PDPReceive.vi      WPI_Power Get PDP Currents.vi      Periodic Tasks.vi      Robot Main.vi,-4041.357422,4019.091797,-4000.000000,-4000.000000,Speed,Speed,-0.200000,-0.530000,2.130000,3.000000,103.000000,1,0,0.000000,0.000000,0,0.000000,0.000000,0.000000,0.000000,0.000000,0.000000,0.001000,-0.001000,0.020000,FlatInitial,Hold,0,0.000000,-0.200000,0.000000,4776.000000,0.000000,-217.000000,1,0,0.000000,0.000000,0
08:38:50.324 PM 03/02/2016,Autonomous Enabled,23,TRUE,-44087,NetComm_CAN_Receive.vi:5470026<APPEND>  <b>Complete call chain:</b>      NetComm_CAN_Receive.vi:5470026      WPI_CAN_PDPReceive.vi      WPI_Power Get PDP Currents.vi      Periodic Tasks.vi      Robot Main.vi,-4024.804687,4012.060547,-4000.000000,-4000.000000,Speed,Speed,-0.200000,-0.530000,2.130000,3.000000,102.000000,1,0,0.000000,0.000000,0,0.000000,0.000000,0.000000,0.000000,0.000000,0.000000,0.001000,-0.001000,0.020000,FlatInitial,Hold,0,0.000000,-0.200000,0.000000,4982.000000,0.000000,-216.000000,0,0,0.000000,0.000000,0
08:38:50.424 PM 03/02/2016,Autonomous Enabled,23,TRUE,-44087,NetComm_CAN_Receive.vi:5470026<APPEND>  <b>Complete call chain:</b>      NetComm_CAN_Receive.vi:5470026      WPI_CAN_PDPReceive.vi      WPI_Power Get PDP Currents.vi      Periodic Tasks.vi      Robot Main.vi,-4007.666016,4002.539062,-4000.000000,-4000.000000,Speed,Speed,-0.200000,-0.530000,2.130000,3.000000,103.000000,1,0,0.000000,0.000000,0,0.000000,0.000000,0.000000,0.000000,0.000000,0.000000,0.001000,-0.001000,0.020000,FlatInitial,Hold,0,0.000000,-0.200000,0.000000,4981.000000,0.000000,-216.000000,0,0,0.000000,0.000000,0
08:38:50.525 PM 03/02/2016,Autonomous Enabled,23,TRUE,-44087,NetComm_CAN_Receive.vi:5470026<APPEND>  <b>Complete call chain:</b>      NetComm_CAN_Receive.vi:5470026      WPI_CAN_PDPReceive.vi      WPI_Power Get PDP Currents.vi      Periodic Tasks.vi      Robot Main.vi,-3999.902344,3996.533203,-4000.000000,-4000.000000,Speed,Speed,-0.200000,-0.530000,2.130000,3.000000,101.000000,1,0,0.000000,0.000000,0,0.000000,0.000000,0.000000,0.000000,0.000000,0.000000,0.001000,-0.001000,0.020000,FlatInitial,Hold,0,0.000000,-0.200000,0.000000,4981.000000,0.000000,-216.000000,0,0,0.000000,0.000000,0
08:38:50.624 PM 03/02/2016,Autonomous Enabled,23,TRUE,-44087,NetComm_CAN_Receive.vi:5470026<APPEND>  <b>Complete call chain:</b>      NetComm_CAN_Receive.vi:5470026      WPI_CAN_PDPReceive.vi      WPI_Power Get PDP Currents.vi      Periodic Tasks.vi      Robot Main.vi,-4001.513672,3992.871094,-4000.000000,-4000.000000,Speed,Speed,-0.200000,-0.530000,2.130000,3.000000,101.000000,1,0,0.000000,0.000000,0,0.000000,0.000000,0.000000,0.000000,0.000000,0.000000,0.001000,-0.001000,0.020000,FlatInitial,Hold,0,0.000000,-0.200000,0.000000,4981.000000,0.000000,-216.000000,0,0,0.000000,0.000000,0
08:38:50.726 PM 03/02/2016,Autonomous Enabled,23,TRUE,-44087,NetComm_CAN_Receive.vi:5470026<APPEND>  <b>Complete call chain:</b>      NetComm_CAN_Receive.vi:5470026      WPI_CAN_PDPReceive.vi      WPI_Power Get PDP Currents.vi      Periodic Tasks.vi      Robot Main.vi,-4007.373047,3993.017578,-4000.000000,-4000.000000,Speed,Speed,-0.200000,-0.530000,2.130000,3.000000,100.000000,1,0,0.000000,0.000000,0,0.000000,0.000000,0.000000,0.000000,0.000000,0.000000,0.001000,-0.001000,0.020000,FlatInitial,Hold,0,0.000000,-0.200000,0.000000,4981.000000,0.000000,-216.000000,0,0,0.000000,0.000000,0
08:38:50.826 PM 03/02/2016,Autonomous Enabled,23,TRUE,-44087,NetComm_CAN_Receive.vi:5470026<APPEND>  <b>Complete call chain:</b>      NetComm_CAN_Receive.vi:5470026      WPI_CAN_PDPReceive.vi      WPI_Power Get PDP Currents.vi      Periodic Tasks.vi      Robot Main.vi,-4009.863281,3993.310547,-4000.000000,-4000.000000,Speed,Speed,-0.200000,-0.530000,2.130000,3.000000,102.000000,1,0,0.000000,0.000000,0,0.000000,0.000000,0.000000,0.000000,0.000000,0.000000,0.001000,-0.001000,0.020000,FlatInitial,Hold,0,0.000000,-0.200000,0.000000,4981.000000,0.000000,-216.000000,0,0,0.000000,0.000000,0
08:38:50.928 PM 03/02/2016,Autonomous Enabled,23,TRUE,-44087,NetComm_CAN_Receive.vi:5470026<APPEND>  <b>Complete call chain:</b>      NetComm_CAN_Receive.vi:5470026      WPI_CAN_PDPReceive.vi      WPI_Power Get PDP Currents.vi      Periodic Tasks.vi      Robot Main.vi,-4011.181641,3992.724609,-4000.000000,-4000.000000,Speed,Speed,-0.200000,-0.530000,2.130000,3.000000,101.000000,1,0,0.000000,0.000000,0,0.000000,0.000000,0.000000,0.000000,0.000000,0.000000,0.001000,-0.001000,0.020000,FlatInitial,Hold,0,0.000000,-0.200000,0.000000,4980.000000,0.000000,-216.000000,0,0,0.000000,0.000000,0
08:38:51.029 PM 03/02/2016,Autonomous Enabled,23,TRUE,-44087,NetComm_CAN_Receive.vi:5470026<APPEND>  <b>Complete call chain:</b>      NetComm_CAN_Receive.vi:5470026      WPI_CAN_PDPReceive.vi      WPI_Power Get PDP Currents.vi      Periodic Tasks.vi      Robot Main.vi,-4011.181641,3995.068359,-4000.000000,-4000.000000,Speed,Speed,-0.200000,-0.530000,2.130000,3.000000,103.000000,1,0,0.000000,0.000000,0,0.000000,0.000000,0.000000,0.000000,0.000000,0.000000,0.001000,-0.001000,0.020000,FlatInitial,Hold,0,0.000000,-0.200000,0.000000,4980.000000,0.000000,-216.000000,0,0,0.000000,0.000000,0
08:38:51.128 PM 03/02/2016,Autonomous Enabled,23,TRUE,-44087,NetComm_CAN_Receive.vi:5470026<APPEND>  <b>Complete call chain:</b>      NetComm_CAN_Receive.vi:5470026      WPI_CAN_PDPReceive.vi      WPI_Power Get PDP Currents.vi      Periodic Tasks.vi      Robot Main.vi,-4008.544922,3995.068359,-4000.000000,-4000.000000,Speed,Speed,-0.200000,-0.530000,2.130000,3.000000,101.000000,1,0,0.000000,0.000000,0,0.000000,0.000000,0.000000,0.000000,0.000000,0.000000,0.001000,-0.001000,0.020000,FlatInitial,Hold,0,0.000000,-0.200000,0.000000,4980.000000,0.000000,-216.000000,0,0,0.000000,0.000000,0
08:38:51.228 PM 03/02/2016,Autonomous Enabled,23,TRUE,-44087,NetComm_CAN_Receive.vi:5470026<APPEND>  <b>Complete call chain:</b>      NetComm_CAN_Receive.vi:5470026      WPI_CAN_PDPReceive.vi      WPI_Power Get PDP Currents.vi      Periodic Tasks.vi      Robot Main.vi,-4008.544922,3996.826172,-4000.000000,-4000.000000,Speed,Speed,-0.200000,-0.530000,2.130000,3.000000,102.000000,1,0,0.000000,0.000000,0,0.000000,0.000000,0.000000,0.000000,0.000000,0.000000,0.001000,-0.001000,0.020000,FlatInitial,Hold,0,0.000000,-0.200000,0.000000,4979.000000,0.000000,-216.000000,0,0,0.000000,0.000000,0
08:38:51.329 PM 03/02/2016,Autonomous Enabled,23,TRUE,-44087,NetComm_CAN_Receive.vi:5470026<APPEND>  <b>Complete call chain:</b>      NetComm_CAN_Receive.vi:5470026      WPI_CAN_PDPReceive.vi      WPI_Power Get PDP Currents.vi      Periodic Tasks.vi      Robot Main.vi,-4010.156250,3999.902344,-4000.000000,-4000.000000,Speed,Speed,-0.200000,-0.530000,2.130000,3.000000,101.000000,1,0,0.000000,0.000000,0,0.000000,0.000000,0.000000,0.000000,0.000000,0.000000,0.001000,-0.001000,0.020000,FlatInitial,Hold,0,0.000000,-0.200000,0.000000,4979.000000,0.000000,-216.000000,0,0,0.000000,0.000000,0
08:38:51.429 PM 03/02/2016,Autonomous Enabled,23,TRUE,-44087,NetComm_CAN_Receive.vi:5470026<APPEND>  <b>Complete call chain:</b>      NetComm_CAN_Receive.vi:5470026      WPI_CAN_PDPReceive.vi      WPI_Power Get PDP Currents.vi      Periodic Tasks.vi      Robot Main.vi,-4006.347656,4005.175781,-4000.000000,-4000.000000,Speed,Speed,-0.200000,-0.530000,2.130000,3.000000,102.000000,1,0,0.000000,0.000000,0,0.000000,0.000000,0.000000,0.000000,0.000000,0.000000,0.001000,-0.001000,0.020000,FlatInitial,Hold,0,0.000000,-0.200000,0.000000,4978.000000,0.000000,-216.000000,0,0,0.000000,0.000000,0
08:38:51.530 PM 03/02/2016,Autonomous Enabled,23,TRUE,-44087,NetComm_CAN_Receive.vi:5470026<APPEND>  <b>Complete call chain:</b>      NetComm_CAN_Receive.vi:5470026      WPI_CAN_PDPReceive.vi      WPI_Power Get PDP Currents.vi      Periodic Tasks.vi      Robot Main.vi,-4000.781250,4010.449219,-4000.000000,-4000.000000,Speed,Speed,-0.200000,-0.530000,2.130000,3.000000,102.000000,1,0,0.000000,0.000000,0,0.000000,0.000000,0.000000,0.000000,0.000000,0.000000,0.001000,-0.001000,0.020000,FlatInitial,Hold,0,0.000000,-0.200000,0.000000,4978.000000,0.000000,-215.000000,0,0,0.000000,0.000000,0
08:38:51.630 PM 03/02/2016,Autonomous Enabled,23,TRUE,-44087,NetComm_CAN_Receive.vi:5470026<APPEND>  <b>Complete call chain:</b>      NetComm_CAN_Receive.vi:5470026      WPI_CAN_PDPReceive.vi      WPI_Power Get PDP Currents.vi      Periodic Tasks.vi      Robot Main.vi,-3999.902344,4012.353516,-4000.000000,-4000.000000,Speed,Speed,-0.200000,-0.530000,2.130000,3.000000,105.000000,1,0,0.000000,0.000000,0,0.000000,0.000000,0.000000,0.000000,0.000000,0.000000,0.001000,-0.001000,0.020000,FlatInitial,Hold,0,0.000000,-0.200000,0.000000,4978.000000,0.000000,-215.000000,0,0,0.000000,0.000000,0
08:38:51.730 PM 03/02/2016,Autonomous Enabled,23,TRUE,-44087,NetComm_CAN_Receive.vi:5470026<APPEND>  <b>Complete call chain:</b>      NetComm_CAN_Receive.vi:5470026      WPI_CAN_PDPReceive.vi      WPI_Power Get PDP Currents.vi      Periodic Tasks.vi      Robot Main.vi,-4001.513672,4008.837891,-4000.000000,-4000.000000,Speed,Speed,-0.200000,-0.530000,2.130000,3.000000,100.000000,1,0,0.000000,0.000000,0,0.000000,0.000000,0.000000,0.000000,0.000000,0.000000,0.001000,-0.001000,0.020000,FlatInitial,Hold,0,0.000000,-0.200000,0.000000,4977.000000,0.000000,-215.000000,0,0,0.000000,0.000000,0
08:38:51.830 PM 03/02/2016,Autonomous Enabled,23,TRUE,-44087,NetComm_CAN_Receive.vi:5470026<APPEND>  <b>Complete call chain:</b>      NetComm_CAN_Receive.vi:5470026      WPI_CAN_PDPReceive.vi      WPI_Power Get PDP Currents.vi      Periodic Tasks.vi      Robot Main.vi,-4006.933594,4006.640625,-4000.000000,-4000.000000,Speed,Speed,-0.200000,-0.530000,2.130000,3.000000,101.000000,1,0,0.000000,0.000000,0,0.000000,0.000000,0.000000,0.000000,0.000000,0.000000,0.001000,-0.001000,0.020000,FlatInitial,Hold,0,0.000000,-0.200000,0.000000,4977.000000,0.000000,-215.000000,0,0,0.000000,0.000000,0
08:38:51.930 PM 03/02/2016,Autonomous Enabled,23,TRUE,-44087,NetComm_CAN_Receive.vi:5470026<APPEND>  <b>Complete call chain:</b>      NetComm_CAN_Receive.vi:5470026      WPI_CAN_PDPReceive.vi      WPI_Power Get PDP Currents.vi      Periodic Tasks.vi      Robot Main.vi,-4013.085937,4002.246094,-4000.000000,-4000.000000,Speed,Speed,-0.200000,-0.530000,2.130000,3.000000,104.000000,1,0,0.000000,0.000000,0,0.000000,0.000000,0.000000,0.000000,0.000000,0.000000,0.001000,-0.001000,0.020000,FlatInitial,Hold,0,0.000000,-0.200000,0.000000,4977.000000,0.000000,-215.000000,0,0,0.000000,0.000000,0
08:38:52.030 PM 03/02/2016,Autonomous Enabled,23,TRUE,-44087,NetComm_CAN_Receive.vi:5470026<APPEND>  <b>Complete call chain:</b>      NetComm_CAN_Receive.vi:5470026      WPI_CAN_PDPReceive.vi      WPI_Power Get PDP Currents.vi      Periodic Tasks.vi      Robot Main.vi,-4010.302734,3999.609375,-4000.000000,-4000.000000,Speed,Speed,-0.200000,-0.530000,2.130000,3.000000,102.000000,1,0,0.000000,0.000000,0,0.000000,0.000000,0.000000,0.000000,0.000000,0.000000,0.001000,-0.001000,0.020000,FlatInitial,Hold,0,0.000000,-0.200000,0.000000,4977.000000,0.000000,-215.000000,0,0,0.000000,0.000000,0
08:38:52.130 PM 03/02/2016,Autonomous Enabled,23,TRUE,-44087,NetComm_CAN_Receive.vi:5470026<APPEND>  <b>Complete call chain:</b>      NetComm_CAN_Receive.vi:5470026      WPI_CAN_PDPReceive.vi      WPI_Power Get PDP Currents.vi      Periodic Tasks.vi      Robot Main.vi,-3997.558594,3996.679687,-4000.000000,-4000.000000,Speed,Speed,-0.200000,-0.530000,2.130000,3.000000,104.000000,1,0,0.000000,0.000000,0,0.000000,0.000000,0.000000,0.000000,0.000000,0.000000,0.001000,-0.001000,0.020000,FlatInitial,Hold,0,0.000000,-0.200000,0.000000,4977.000000,0.000000,-215.000000,0,0,0.000000,0.000000,0
08:38:52.232 PM 03/02/2016,Autonomous Enabled,23,TRUE,-44087,NetComm_CAN_Receive.vi:5470026<APPEND>  <b>Complete call chain:</b>      NetComm_CAN_Receive.vi:5470026      WPI_CAN_PDPReceive.vi      WPI_Power Get PDP Currents.vi      Periodic Tasks.vi      Robot Main.vi,-3988.037109,3993.310547,-4000.000000,-4000.000000,Speed,Speed,-0.200000,-0.530000,2.130000,3.000000,101.000000,1,0,0.000000,0.000000,0,0.000000,0.000000,0.000000,0.000000,0.000000,0.000000,0.001000,-0.001000,0.020000,FlatInitial,Hold,0,0.000000,-0.200000,0.000000,4977.000000,0.000000,-215.000000,0,0,0.000000,0.000000,0
08:38:52.333 PM 03/02/2016,Autonomous Enabled,23,TRUE,-44087,NetComm_CAN_Receive.vi:5470026<APPEND>  <b>Complete call chain:</b>      NetComm_CAN_Receive.vi:5470026      WPI_CAN_PDPReceive.vi      WPI_Power Get PDP Currents.vi      Periodic Tasks.vi      Robot Main.vi,-3988.769531,3992.285156,-4000.000000,-4000.000000,Speed,Speed,-0.200000,-0.530000,2.130000,3.000000,102.000000,1,0,0.000000,0.000000,0,0.000000,0.000000,0.000000,0.000000,0.000000,0.000000,0.001000,-0.001000,0.020000,FlatInitial,Hold,0,0.000000,-0.200000,0.000000,4976.000000,0.000000,-215.000000,0,0,0.000000,0.000000,0
08:38:52.434 PM 03/02/2016,Autonomous Enabled,23,TRUE,-44087,NetComm_CAN_Receive.vi:5470026<APPEND>  <b>Complete call chain:</b>      NetComm_CAN_Receive.vi:5470026      WPI_CAN_PDPReceive.vi      WPI_Power Get PDP Currents.vi      Periodic Tasks.vi      Robot Main.vi,-3996.826172,3994.189453,-4000.000000,-4000.000000,Speed,Speed,-0.200000,-0.530000,2.130000,3.000000,101.000000,1,0,0.000000,0.000000,0,0.000000,0.000000,0.000000,0.000000,0.000000,0.000000,0.001000,-0.001000,0.020000,FlatInitial,Hold,0,0.000000,-0.200000,0.000000,4975.000000,0.000000,-215.000000,0,0,0.000000,0.000000,0
08:38:52.534 PM 03/02/2016,Autonomous Enabled,23,TRUE,-44087,NetComm_CAN_Receive.vi:5470026<APPEND>  <b>Complete call chain:</b>      NetComm_CAN_Receive.vi:5470026      WPI_CAN_PDPReceive.vi      WPI_Power Get PDP Currents.vi      Periodic Tasks.vi      Robot Main.vi,-4001.513672,3997.412109,-4000.000000,-4000.000000,Speed,Speed,-0.200000,-0.530000,2.130000,3.000000,102.000000,1,0,0.000000,0.000000,0,0.000000,0.000000,0.000000,0.000000,0.000000,0.000000,0.001000,-0.001000,0.020000,FlatInitial,Hold,0,0.000000,-0.200000,0.000000,4975.000000,0.000000,-215.000000,0,0,0.000000,0.000000,0
08:38:52.634 PM 03/02/2016,Autonomous Enabled,23,TRUE,-44087,NetComm_CAN_Receive.vi:5470026<APPEND>  <b>Complete call chain:</b>      NetComm_CAN_Receive.vi:5470026      WPI_CAN_PDPReceive.vi      WPI_Power Get PDP Currents.vi      Periodic Tasks.vi      Robot Main.vi,-4005.761719,4000.634766,-4000.000000,-4000.000000,Speed,Speed,-0.200000,-0.530000,2.130000,3.000000,101.000000,1,0,0.000000,0.000000,0,0.000000,0.000000,0.000000,0.000000,0.000000,0.000000,0.001000,-0.001000,0.020000,FlatInitial,Hold,0,0.000000,-0.200000,0.000000,4975.000000,0.000000,-215.000000,0,0,0.000000,0.000000,0
08:38:52.734 PM 03/02/2016,Autonomous Enabled,23,TRUE,-44087,NetComm_CAN_Receive.vi:5470026<APPEND>  <b>Complete call chain:</b>      NetComm_CAN_Receive.vi:5470026      WPI_CAN_PDPReceive.vi      WPI_Power Get PDP Currents.vi      Periodic Tasks.vi      Robot Main.vi,-4009.423828,4002.392578,-4000.000000,-4000.000000,Speed,Speed,-0.200000,-0.530000,2.130000,3.000000,103.000000,1,0,0.000000,0.000000,0,0.000000,0.000000,0.000000,0.000000,0.000000,0.000000,0.001000,-0.001000,0.020000,FlatInitial,Hold,0,0.000000,-0.200000,0.000000,4975.000000,0.000000,-214.000000,0,0,0.000000,0.000000,0
08:38:52.835 PM 03/02/2016,Autonomous Enabled,23,TRUE,-44087,NetComm_CAN_Receive.vi:5470026<APPEND>  <b>Complete call chain:</b>      NetComm_CAN_Receive.vi:5470026      WPI_CAN_PDPReceive.vi      WPI_Power Get PDP Currents.vi      Periodic Tasks.vi      Robot Main.vi,-4010.449219,4008.691406,-4000.000000,-4000.000000,Speed,Speed,-0.200000,-0.530000,2.130000,3.000000,102.000000,1,0,0.000000,0.000000,0,0.000000,0.000000,0.000000,0.000000,0.000000,0.000000,0.001000,-0.001000,0.020000,FlatInitial,Hold,0,0.000000,-0.200000,0.000000,4974.000000,0.000000,-214.000000,0,0,0.000000,0.000000,0
08:38:52.936 PM 03/02/2016,Autonomous Enabled,23,TRUE,-44087,NetComm_CAN_Receive.vi:5470026<APPEND>  <b>Complete call chain:</b>      NetComm_CAN_Receive.vi:5470026      WPI_CAN_PDPReceive.vi      WPI_Power Get PDP Currents.vi      Periodic Tasks.vi      Robot Main.vi,-4008.398437,4012.060547,-4000.000000,-4000.000000,Speed,Speed,-0.200000,-0.530000,2.130000,3.000000,105.000000,1,0,0.000000,0.000000,0,0.000000,0.000000,0.000000,0.000000,0.000000,0.000000,0.001000,-0.001000,0.020000,FlatInitial,Hold,0,0.000000,-0.200000,0.000000,4970.000000,0.000000,-214.000000,0,0,0.000000,0.000000,0
08:38:53.037 PM 03/02/2016,Autonomous Enabled,23,TRUE,-44087,NetComm_CAN_Receive.vi:5470026<APPEND>  <b>Complete call chain:</b>      NetComm_CAN_Receive.vi:5470026      WPI_CAN_PDPReceive.vi      WPI_Power Get PDP Currents.vi      Periodic Tasks.vi      Robot Main.vi,-4003.857422,4008.398437,-4000.000000,-4000.000000,Speed,Speed,-0.200000,-0.530000,2.130000,3.000000,102.000000,1,0,0.000000,0.000000,0,0.000000,0.000000,0.000000,0.000000,0.000000,0.000000,0.001000,-0.001000,0.020000,FlatInitial,Hold,0,0.000000,-0.200000,0.000000,4969.000000,0.000000,-214.000000,0,0,0.000000,0.000000,0
08:38:53.139 PM 03/02/2016,Autonomous Enabled,23,TRUE,-44087,NetComm_CAN_Receive.vi:5470026<APPEND>  <b>Complete call chain:</b>      NetComm_CAN_Receive.vi:5470026      WPI_CAN_PDPReceive.vi      WPI_Power Get PDP Currents.vi      Periodic Tasks.vi      Robot Main.vi,-3999.023437,4003.710937,-4000.000000,-4000.000000,Speed,Speed,-0.200000,-0.530000,2.130000,3.000000,103.000000,1,0,0.000000,0.000000,0,0.000000,0.000000,0.000000,0.000000,0.000000,0.000000,0.001000,-0.001000,0.020000,FlatInitial,Hold,0,0.000000,-0.200000,0.000000,4968.000000,0.000000,-214.000000,0,0,0.000000,0.000000,0
08:38:53.238 PM 03/02/2016,Autonomous Enabled,23,TRUE,-44087,NetComm_CAN_Receive.vi:5470026<APPEND>  <b>Complete call chain:</b>      NetComm_CAN_Receive.vi:5470026      WPI_CAN_PDPReceive.vi      WPI_Power Get PDP Currents.vi      Periodic Tasks.vi      Robot Main.vi,-4000.634766,4002.539062,-4000.000000,-4000.000000,Speed,Speed,-0.200000,-0.530000,2.130000,3.000000,101.000000,1,0,0.000000,0.000000,0,0.000000,0.000000,0.000000,0.000000,0.000000,0.000000,0.001000,-0.001000,0.020000,FlatInitial,Hold,0,0.000000,-0.200000,0.000000,4967.000000,0.000000,-214.000000,0,0,0.000000,0.000000,0
08:38:53.339 PM 03/02/2016,Autonomous Enabled,23,TRUE,-44087,NetComm_CAN_Receive.vi:5470026<APPEND>  <b>Complete call chain:</b>      NetComm_CAN_Receive.vi:5470026      WPI_CAN_PDPReceive.vi      WPI_Power Get PDP Currents.vi      Periodic Tasks.vi      Robot Main.vi,-4007.666016,4001.660156,-4000.000000,-4000.000000,Speed,Speed,-0.200000,-0.530000,2.130000,3.000000,102.000000,1,0,0.000000,0.000000,0,0.000000,0.000000,0.000000,0.000000,0.000000,0.000000,0.001000,-0.001000,0.020000,FlatInitial,Hold,0,0.000000,-0.200000,0.000000,4967.000000,0.000000,-214.000000,0,0,0.000000,0.000000,0
08:38:53.441 PM 03/02/2016,Autonomous Enabled,23,TRUE,-44087,NetComm_CAN_Receive.vi:5470026<APPEND>  <b>Complete call chain:</b>      NetComm_CAN_Receive.vi:5470026      WPI_CAN_PDPReceive.vi      WPI_Power Get PDP Currents.vi      Periodic Tasks.vi      Robot Main.vi,-4014.404297,3998.144531,-4000.000000,-4000.000000,Speed,Speed,-0.200000,-0.530000,2.130000,3.000000,104.000000,1,0,0.000000,0.000000,0,0.000000,0.000000,0.000000,0.000000,0.000000,0.000000,0.001000,-0.001000,0.020000,FlatInitial,Hold,0,0.000000,-0.200000,0.000000,4967.000000,0.000000,-214.000000,0,0,0.000000,0.000000,0
08:38:53.541 PM 03/02/2016,Autonomous Enabled,23,TRUE,-44087,NetComm_CAN_Receive.vi:5470026<APPEND>  <b>Complete call chain:</b>      NetComm_CAN_Receive.vi:5470026      WPI_CAN_PDPReceive.vi      WPI_Power Get PDP Currents.vi      Periodic Tasks.vi      Robot Main.vi,-4016.015625,3996.240234,-4000.000000,-4000.000000,Speed,Speed,-0.200000,-0.530000,2.130000,3.000000,103.000000,1,0,0.000000,0.000000,0,0.000000,0.000000,0.000000,0.000000,0.000000,0.000000,0.001000,-0.001000,0.020000,FlatInitial,Hold,0,0.000000,-0.200000,0.000000,4966.000000,0.000000,-214.000000,0,0,0.000000,0.000000,0
08:38:53.641 PM 03/02/2016,Autonomous Enabled,23,TRUE,-44087,NetComm_CAN_Receive.vi:5470026<APPEND>  <b>Complete call chain:</b>      NetComm_CAN_Receive.vi:5470026      WPI_CAN_PDPReceive.vi      WPI_Power Get PDP Currents.vi      Periodic Tasks.vi      Robot Main.vi,-4009.570312,3994.042969,-4000.000000,-4000.000000,Speed,Speed,-0.200000,-0.530000,2.130000,3.000000,102.000000,1,0,0.000000,0.000000,0,0.000000,0.000000,0.000000,0.000000,0.000000,0.000000,0.001000,-0.001000,0.020000,FlatInitial,Hold,0,0.000000,-0.200000,0.000000,4966.000000,0.000000,-214.000000,0,0,0.000000,0.000000,0
08:38:53.741 PM 03/02/2016,Autonomous Enabled,23,TRUE,-44087,NetComm_CAN_Receive.vi:5470026<APPEND>  <b>Complete call chain:</b>      NetComm_CAN_Receive.vi:5470026      WPI_CAN_PDPReceive.vi      WPI_Power Get PDP Currents.vi      Periodic Tasks.vi      Robot Main.vi,-4001.513672,3991.699219,-4000.000000,-4000.000000,Speed,Speed,-0.200000,-0.530000,2.130000,3.000000,102.000000,1,0,0.000000,0.000000,0,0.000000,0.000000,0.000000,0.000000,0.000000,0.000000,0.001000,-0.001000,0.020000,FlatInitial,Hold,0,0.000000,-0.200000,0.000000,4966.000000,0.000000,-214.000000,0,0,0.000000,0.000000,0
08:38:53.841 PM 03/02/2016,Autonomous Enabled,23,TRUE,-44087,NetComm_CAN_Receive.vi:5470026<APPEND>  <b>Complete call chain:</b>      NetComm_CAN_Receive.vi:5470026      WPI_CAN_PDPReceive.vi      WPI_Power Get PDP Currents.vi      Periodic Tasks.vi      Robot Main.vi,-3998.144531,3994.042969,-4000.000000,-4000.000000,Speed,Speed,-0.200000,-0.530000,2.130000,3.000000,101.000000,1,0,0.000000,0.000000,0,0.000000,0.000000,0.000000,0.000000,0.000000,0.000000,0.001000,-0.001000,0.020000,FlatInitial,Hold,0,0.000000,-0.200000,0.000000,4965.000000,0.000000,-214.000000,0,0,0.000000,0.000000,0
08:38:53.942 PM 03/02/2016,Autonomous Enabled,23,TRUE,-44087,NetComm_CAN_Receive.vi:5470026<APPEND>  <b>Complete call chain:</b>      NetComm_CAN_Receive.vi:5470026      WPI_CAN_PDPReceive.vi      WPI_Power Get PDP Currents.vi      Periodic Tasks.vi      Robot Main.vi,-3999.023437,3996.972656,-4000.000000,-4000.000000,Speed,Speed,-0.200000,-0.530000,2.130000,3.000000,101.000000,1,0,0.000000,0.000000,0,0.000000,0.000000,0.000000,0.000000,0.000000,0.000000,0.001000,-0.001000,0.020000,FlatInitial,Hold,0,0.000000,-0.200000,0.000000,4964.000000,0.000000,-214.000000,0,0,0.000000,0.000000,0
08:38:54.042 PM 03/02/2016,Autonomous Enabled,23,TRUE,-44087,NetComm_CAN_Receive.vi:5470026<APPEND>  <b>Complete call chain:</b>      NetComm_CAN_Receive.vi:5470026      WPI_CAN_PDPReceive.vi      WPI_Power Get PDP Currents.vi      Periodic Tasks.vi      Robot Main.vi,-3995.361328,3998.437500,-4000.000000,-4000.000000,Speed,Speed,-0.200000,-0.530000,2.130000,3.000000,101.000000,1,0,0.000000,0.000000,0,0.000000,0.000000,0.000000,0.000000,0.000000,0.000000,0.001000,-0.001000,0.020000,FlatInitial,Hold,0,0.000000,-0.200000,0.000000,4964.000000,0.000000,-214.000000,0,0,0.000000,0.000000,0
08:38:54.142 PM 03/02/2016,Autonomous Enabled,23,TRUE,-44087,NetComm_CAN_Receive.vi:5470026<APPEND>  <b>Complete call chain:</b>      NetComm_CAN_Receive.vi:5470026      WPI_CAN_PDPReceive.vi      WPI_Power Get PDP Currents.vi      Periodic Tasks.vi      Robot Main.vi,-3943.652344,3930.761719,-4000.000000,-4000.000000,Speed,Speed,-0.200000,-0.530000,2.130000,3.000000,101.000000,1,0,0.000000,0.000000,0,0.000000,0.000000,0.000000,0.000000,0.000000,0.000000,0.001000,-0.001000,0.020000,FlatInitial,Hold,0,0.000000,-0.200000,0.000000,4963.000000,0.000000,-214.000000,0,0,0.000000,0.000000,0
08:38:54.242 PM 03/02/2016,Autonomous Enabled,23,TRUE,-44087,NetComm_CAN_Receive.vi:5470026<APPEND>  <b>Complete call chain:</b>      NetComm_CAN_Receive.vi:5470026      WPI_CAN_PDPReceive.vi      WPI_Power Get PDP Currents.vi      Periodic Tasks.vi      Robot Main.vi,-3812.695312,3834.228516,-4000.000000,-4000.000000,Speed,Speed,-0.200000,-0.530000,2.130000,3.000000,103.000000,1,0,0.000000,0.000000,0,0.000000,0.000000,0.000000,0.000000,0.000000,0.000000,0.001000,-0.001000,0.020000,FlatInitial,Hold,0,0.000000,-0.200000,0.000000,4962.000000,0.000000,-214.000000,0,0,0.000000,0.000000,0
08:38:54.342 PM 03/02/2016,Autonomous Enabled,23,TRUE,-44087,NetComm_CAN_Receive.vi:5470026<APPEND>  <b>Complete call chain:</b>      NetComm_CAN_Receive.vi:5470026      WPI_CAN_PDPReceive.vi      WPI_Power Get PDP Currents.vi      Periodic Tasks.vi      Robot Main.vi,-3732.275391,3768.750000,-4000.000000,-4000.000000,Speed,Speed,-0.200000,-0.530000,2.130000,3.000000,101.000000,1,0,0.000000,0.000000,0,0.000000,0.000000,0.000000,0.000000,0.000000,0.000000,0.001000,-0.001000,0.020000,FlatInitial,Hold,0,0.000000,-0.200000,0.000000,4962.000000,0.000000,-214.000000,0,0,0.000000,0.000000,0
08:38:54.442 PM 03/02/2016,Autonomous Enabled,23,TRUE,-44087,NetComm_CAN_Receive.vi:5470026<APPEND>  <b>Complete call chain:</b>      NetComm_CAN_Receive.vi:5470026      WPI_CAN_PDPReceive.vi      WPI_Power Get PDP Currents.vi      Periodic Tasks.vi      Robot Main.vi,-3722.460937,3775.048828,-4000.000000,-4000.000000,Speed,Speed,-0.200000,-0.530000,2.130000,3.000000,102.000000,1,0,0.000000,0.000000,0,0.000000,0.000000,0.000000,0.000000,0.000000,0.000000,0.001000,-0.001000,0.020000,FlatInitial,Hold,0,0.000000,-0.200000,0.000000,4962.000000,0.000000,-214.000000,0,0,0.000000,0.000000,0
08:38:54.542 PM 03/02/2016,Autonomous Enabled,23,TRUE,-44087,NetComm_CAN_Receive.vi:5470026<APPEND>  <b>Complete call chain:</b>      NetComm_CAN_Receive.vi:5470026      WPI_CAN_PDPReceive.vi      WPI_Power Get PDP Currents.vi      Periodic Tasks.vi      Robot Main.vi,-3765.380859,3829.394531,-4000.000000,-4000.000000,Speed,Speed,-0.200000,-0.530000,2.130000,3.000000,101.000000,1,0,0.000000,0.000000,0,0.000000,0.000000,0.000000,0.000000,0.000000,0.000000,0.001000,-0.001000,0.020000,FlatInitial,Hold,0,0.000000,-0.200000,0.000000,4962.000000,0.000000,-214.000000,0,0,0.000000,0.000000,0
08:38:54.644 PM 03/02/2016,Autonomous Enabled,23,TRUE,-44087,NetComm_CAN_Receive.vi:5470026<APPEND>  <b>Complete call chain:</b>      NetComm_CAN_Receive.vi:5470026      WPI_CAN_PDPReceive.vi      WPI_Power Get PDP Currents.vi      Periodic Tasks.vi      Robot Main.vi,-3825.292969,3889.746094,-4000.000000,-4000.000000,Speed,Speed,-0.200000,-0.530000,2.130000,3.000000,102.000000,1,0,0.000000,0.000000,0,0.000000,0.000000,0.000000,0.000000,0.000000,0.000000,0.001000,-0.001000,0.020000,FlatInitial,Hold,0,0.000000,-0.200000,0.000000,4962.000000,0.000000,-214.000000,0,0,0.000000,0.000000,0
08:38:54.745 PM 03/02/2016,Autonomous Enabled,23,TRUE,-44087,NetComm_CAN_Receive.vi:5470026<APPEND>  <b>Complete call chain:</b>      NetComm_CAN_Receive.vi:5470026      WPI_CAN_PDPReceive.vi      WPI_Power Get PDP Currents.vi      Periodic Tasks.vi      Robot Main.vi,-3866.455078,3936.181641,-4000.000000,-4000.000000,Speed,Speed,-0.200000,-0.530000,2.130000,3.000000,102.000000,1,0,0.000000,0.000000,0,0.000000,0.000000,0.000000,0.000000,0.000000,0.000000,0.001000,-0.001000,0.020000,FlatInitial,Hold,0,0.000000,-0.200000,0.000000,4961.000000,0.000000,-214.000000,0,0,0.000000,0.000000,0
08:38:54.847 PM 03/02/2016,Autonomous Enabled,23,TRUE,-44087,NetComm_CAN_Receive.vi:5470026<APPEND>  <b>Complete call chain:</b>      NetComm_CAN_Receive.vi:5470026      WPI_CAN_PDPReceive.vi      WPI_Power Get PDP Currents.vi      Periodic Tasks.vi      Robot Main.vi,-3906.738281,3960.205078,-4000.000000,-4000.000000,Speed,Speed,-0.200000,-0.530000,2.130000,3.000000,102.000000,1,0,0.000000,0.000000,0,0.000000,0.000000,0.000000,0.000000,0.000000,0.000000,0.001000,-0.001000,0.020000,FlatInitial,Hold,0,0.000000,-0.200000,0.000000,4961.000000,0.000000,-214.000000,0,0,0.000000,0.000000,0
08:38:54.947 PM 03/02/2016,Autonomous Enabled,23,TRUE,-44087,NetComm_CAN_Receive.vi:5470026<APPEND>  <b>Complete call chain:</b>      NetComm_CAN_Receive.vi:5470026      WPI_CAN_PDPReceive.vi      WPI_Power Get PDP Currents.vi      Periodic Tasks.vi      Robot Main.vi,-3942.333984,3980.859375,-4000.000000,-4000.000000,Speed,Speed,-0.200000,-0.530000,2.130000,3.000000,102.000000,1,0,0.000000,0.000000,0,0.000000,0.000000,0.000000,0.000000,0.000000,0.000000,0.001000,-0.001000,0.020000,FlatInitial,Hold,0,0.000000,-0.200000,0.000000,4961.000000,0.000000,-214.000000,0,0,0.000000,0.000000,0
08:38:55.048 PM 03/02/2016,Autonomous Enabled,23,TRUE,-44087,NetComm_CAN_Receive.vi:5470026<APPEND>  <b>Complete call chain:</b>      NetComm_CAN_Receive.vi:5470026      WPI_CAN_PDPReceive.vi      WPI_Power Get PDP Currents.vi      Periodic Tasks.vi      Robot Main.vi,-3972.509766,3992.578125,-4000.000000,-4000.000000,Speed,Speed,-0.200000,-0.530000,2.130000,3.000000,100.000000,1,0,0.000000,0.000000,0,0.000000,0.000000,0.000000,0.000000,0.000000,0.000000,0.001000,-0.001000,0.020000,FlatInitial,Hold,0,0.000000,-0.200000,0.000000,4961.000000,0.000000,-214.000000,0,0,0.000000,0.000000,0
08:38:55.148 PM 03/02/2016,Autonomous Enabled,23,TRUE,-44087,NetComm_CAN_Receive.vi:5470026<APPEND>  <b>Complete call chain:</b>      NetComm_CAN_Receive.vi:5470026      WPI_CAN_PDPReceive.vi      WPI_Power Get PDP Currents.vi      Periodic Tasks.vi      Robot Main.vi,-3987.744141,3998.437500,-4000.000000,-4000.000000,Speed,Speed,-0.200000,-0.530000,2.130000,3.000000,100.000000,1,0,0.000000,0.000000,0,0.000000,0.000000,0.000000,0.000000,0.000000,0.000000,0.001000,-0.001000,0.020000,FlatInitial,Hold,0,0.000000,-0.200000,0.000000,4961.000000,0.000000,-214.000000,0,0,0.000000,0.000000,0
08:38:55.249 PM 03/02/2016,Autonomous Enabled,23,TRUE,-44087,NetComm_CAN_Receive.vi:5470026<APPEND>  <b>Complete call chain:</b>      NetComm_CAN_Receive.vi:5470026      WPI_CAN_PDPReceive.vi      WPI_Power Get PDP Currents.vi      Periodic Tasks.vi      Robot Main.vi,-3995.507812,4000.195312,-4000.000000,-4000.000000,Speed,Speed,-0.200000,-0.530000,2.130000,3.000000,101.000000,1,0,0.000000,0.000000,0,0.000000,0.000000,0.000000,0.000000,0.000000,0.000000,0.001000,-0.001000,0.020000,FlatInitial,Hold,0,0.000000,-0.200000,0.000000,4961.000000,0.000000,-214.000000,0,0,0.000000,0.000000,0
